~V
VERS. 2.00: Ver 2.00
~W
STRT.M 59.0000:
STOP.M 270.0000:
STEP.M 0.1250:
NULL. -999.2500:
UWI. F10667:
~C
DEPT.M :
GR.API :
RML.OHMM :
RI. :
RXO.OHMM :
CALI.CM :
DEN.GM/CC :
SP.MV :
~A
# ...
  194.0000    83.7010     5.7670     5.8150     6.2710    23.6540     2.3280   -15.6250 
  194.1250    85.8310     5.8320     5.8300     6.6530    23.6570     2.3330   -15.7650 
  194.2500    86.8370     6.0660     5.9300     6.8560    23.6650     2.3340   -15.9270 
  194.3750    87.0090     6.4660     6.1360     6.6600    23.6740     2.3320   -16.0750 
  194.5000    84.7160     6.9870     6.4490     6.5800    23.6790     2.3270   -16.1800 
  194.6250    77.6490     7.5490     6.8610     7.6590    23.6840     2.3210   -16.3040 
  194.7500    70.7020     8.0620     7.3300    10.0820    23.6990     2.3200   -16.3910 
  194.8750    68.7290     8.4970     7.8420    12.1610    23.7270     2.3240   -16.4780 
  195.0000    70.1190     8.8980     8.4000    11.7960    23.7490     2.3330   -16.5470 
  195.1250    70.8850     9.4170     9.0650    10.9350    23.7560     2.3360   -16.5940 
  195.2500    70.7400    10.1930     9.8990    12.7810    23.7630     2.3250   -16.6840 
  195.3750    70.4260    11.3210    10.9740    14.7350    23.7940     2.2990   -16.7740 
  195.5000    68.5400    12.8180    12.3300    15.9950    23.8680     2.2720   -16.8580 
  195.6250    66.1760    14.7080    13.9430    17.0700    23.9290     2.2690   -16.9510 
  195.7500    66.4240    16.7630    15.6120    19.0150    23.9630     2.2920   -17.0470 
  195.8750    68.8510    18.6510    17.1660    21.4540    23.9930     2.3280   -17.1290 
  196.0000    70.7550    20.0820    18.4740    23.7270    24.0320     2.3540   -17.2180 
  196.1250    71.7750    20.9030    19.4260    23.4220    24.0520     2.3500   -17.2930 
  196.2500    73.1930    21.2830    20.0810    23.4430    24.0620     2.3240   -17.3250 
  196.3750    75.0610    21.3410    20.4910    24.3150    24.0640     2.2940   -17.3520 
  196.5000    76.6390    21.2720    20.7430    25.0200    24.0650     2.2720   -17.3770 
  196.6250    77.6720    21.3410    20.9760    24.7460    24.0650     2.2630   -17.3710 
  196.7500    77.1530    21.7040    21.3340    24.5300    24.0650     2.2640   -17.3400 
  196.8750    74.2460    22.3810    21.8750    24.8200    24.0650     2.2710   -17.3050 
  197.0000    71.1590    23.2400    22.5540    25.5880    24.0760     2.2810   -17.2360 
  197.1250    70.7110    23.9550    23.1730    27.0680    24.0950     2.2890   -17.1750 
  197.2500    73.3910    24.2120    23.4990    29.4000    24.1240     2.2880   -17.1420 
  197.3750    77.2400    23.8600    23.3980    28.8010    24.1480     2.2770   -17.0900 
  197.5000    79.2110    22.9640    22.8840    25.5830    24.1570     2.2580   -17.0350 
  197.6250    77.6600    21.7600    22.0910    22.7460    24.0970     2.2400   -16.9890 
  197.7500    75.5810    20.5750    21.2470    21.8590    24.0700     2.2280   -16.9430 
  197.8750    75.8540    19.5240    20.4200    21.8710    24.0430     2.2250   -16.9020 
  198.0000    76.8110    18.5900    19.5730    21.4480    23.9770     2.2280   -16.8760 
  198.1250    75.1490    17.6920    18.6120    20.0100    23.9440     2.2370   -16.8320 
  198.2500    72.7500    16.7840    17.5410    18.1880    23.9410     2.2520   -16.7660 
  198.3750    70.9510    15.9180    16.4550    16.7450    23.9550     2.2750   -16.7140 
  198.5000    70.7960    15.2170    15.5180    15.0360    23.9700     2.3010   -16.6500 
  198.6250    71.9690    14.8860    14.9770    13.7820    23.9710     2.3210   -16.5790 
  198.7500    73.5510    14.9310    14.8650    13.7850    23.9740     2.3270   -16.5220 
  198.8750    74.9740    15.2410    15.1020    14.1610    23.9780     2.3160   -16.4610 
  199.0000    74.7880    15.5330    15.4330    14.9560    23.9820     2.2960   -16.4120 
  199.1250    73.1730    15.3100    15.3830    17.5160    24.0230     2.2840   -16.3650 
  199.2500    73.5650    14.4290    14.7110    18.9970    24.1040     2.2910   -16.3150 
  199.3750    78.9390    13.0790    13.4890    15.7420    24.1090     2.3160   -16.2830 
  199.5000    86.5600    11.7170    12.0800    10.7430    23.6850     2.3450   -16.2780 
  199.6250    88.6190    10.9520    11.0510     8.3520    23.4340     2.3570   -16.2920 
  199.7500    85.4630    11.0120    10.7300     8.6020    23.3310     2.3480   -16.3020 
  199.8750    80.5470    11.9890    11.2880    10.6020    23.3310     2.3220   -16.3310 
  200.0000    75.4880    13.8440    12.7660    13.0080    23.3300     2.2920   -16.3760 
  200.1250    71.6570    16.4120    15.1220    15.7870    23.3150     2.2660   -16.4260 
  200.2500    70.6180    19.0260    17.7610    19.4460    23.2730     2.2490   -16.4920 
  200.3750    70.2330    21.0300    20.0490    21.6610    23.2060     2.2430   -16.5300 
  200.5000    68.2810    21.9300    21.4080    21.7930    23.1370     2.2510   -16.5590 
  200.6250    66.2570    21.5440    21.4240    20.5470    23.0290     2.2740   -16.5470 
  200.7500    66.2740    20.5290    20.5900    18.8810    22.9100     2.2950   -16.5370 
  200.8750    66.1830    19.3880    19.3980    16.3460    22.8730     2.3000   -16.5470 
  201.0000    66.3790    18.4740    18.2890    14.2940    22.9970     2.2840   -16.5040 
  201.1250    68.8040    17.9930    17.6000    14.9340    23.2700     2.2520   -16.4600 
  201.2500    70.3000    17.8250    17.3070    17.1220    23.5700     2.2260   -16.4120 
  201.3750    69.4870    17.8050    17.2880    18.3520    23.7130     2.2180   -16.3470 
  201.5000    68.4490    17.7230    17.3500    18.2290    23.7430     2.2290   -16.2720 
  201.6250    69.7860    17.3420    17.2510    17.9110    23.7340     2.2520   -16.1970 
  201.7500    70.1940    16.6780    16.9110    18.2410    23.7150     2.2740   -16.1160 
  201.8750    69.2590    15.9120    16.4090    18.0740    23.6990     2.2910   -16.0170 
  202.0000    69.6740    15.3250    15.9440    16.3260    23.7030     2.3010   -15.9300 
  202.1250    70.4170    15.2300    15.7730    14.6710    23.7260     2.3040   -15.8400 
  202.2500    69.9910    15.5410    15.9060    14.3840    23.7390     2.3060   -15.7650 
  202.3750    68.9400    15.9700    16.1670    16.2100    23.7420     2.3070   -15.7180 
  202.5000    69.7560    16.0670    16.2200    19.6900    23.7420     2.3110   -15.6860 
  202.6250    74.2420    15.3040    15.6060    21.7110    23.7420     2.3200   -15.6400 
  202.7500    79.5680    13.8340    14.3690    18.6030    23.7420     2.3350   -15.6070 
  202.8750    82.2270    12.0570    12.7930    12.9790    23.7420     2.3530   -15.5870 
  203.0000    79.2500    10.5830    11.2740     9.7590    23.7420     2.3720   -15.5580 
  203.1250    73.8080     9.8370    10.1770     9.0080    23.7420     2.3910   -15.5650 
  203.2500    71.7180     9.5790     9.5070     9.2050    23.7420     2.4090   -15.5610 
  203.3750    73.5100     9.3080     9.1630     9.4190    23.7420     2.4220   -15.5470 
  203.5000    77.1330     9.0770     8.9950     9.2500    23.7420     2.4290   -15.5640 
  203.6250    80.5790     8.9430     8.8730     8.8680    23.7420     2.4260   -15.6020 
  203.7500    82.6810     8.8530     8.7370     8.2700    23.7420     2.4200   -15.6370 
  203.8750    83.3500     8.7550     8.6060     7.9440    23.7420     2.4140   -15.6770 
  204.0000    83.0300     8.6480     8.5200     7.8360    23.7420     2.4140   -15.7290 
  204.1250    82.9810     8.5440     8.5200     8.0630    23.7420     2.4220   -15.7610 
  204.2500    83.7390     8.5640     8.5820     8.4500    23.7420     2.4330   -15.8110 
  204.3750    85.4570     8.6100     8.6660     8.7360    23.7420     2.4430   -15.8660 
  204.5000    86.6110     8.6860     8.7340     8.6230    23.7420     2.4440   -15.8870 
  204.6250    84.3540     8.8550     8.7910     8.6850    23.7420     2.4340   -15.9260 
  204.7500    79.7760     9.1570     8.9250     8.9040    23.7420     2.4200   -15.9480 
  204.8750    76.4850     9.7250     9.2580     9.3140    23.7430     2.4080   -15.9530 
  205.0000    75.2420    10.5350     9.9280    10.0670    23.7460     2.3980   -15.9850 
  205.1250    73.7970    11.9040    11.1570    11.7860    23.7680     2.3830   -16.0110 
