~V
VERS. 2.00: Ver 2.00
~W
STRT.M 55.0000:
STOP.M 226.0000:
STEP.M 0.1250:
NULL. -999.2500:
UWI. F10689:
~C
DEPT.M :
DEN.GM/CC :
GR.API :
RML.OHMM :
RI. :
RXO.OHMM :
CALI.CM :
SP.MV :
~A
# ...
  133.7500     2.4260    43.8710    52.5100    44.2960    31.0740    24.3900   -10.6470 
  133.8750     2.5150    42.7490    51.2320    43.4790    33.8420    24.5250   -10.6870 
  134.0000     2.5790    43.2570    48.7830    41.7950    34.4880    24.1750   -10.6960 
  134.1250     2.6110    42.4830    45.0850    39.1540    32.3350    24.0850   -10.7540 
  134.2500     2.6260    40.9260    40.8690    36.0390    29.3260    24.0330   -10.7970 
  134.3750     2.6320    40.0030    36.7520    32.8560    28.5940    24.0190   -10.8390 
  134.5000     2.6280    39.3630    33.2160    29.9660    25.4800    24.0020   -10.8970 
  134.6250     2.6100    39.0320    30.5400    27.6560    23.9850    23.9680   -10.9340 
  134.7500     2.5840    40.0730    28.3590    25.7350    23.3420    23.9570   -10.9740 
  134.8750     2.5520    41.4830    26.3770    23.9900    22.2200    23.9210   -11.0040 
  135.0000     2.5210    42.7560    24.4290    22.2870    20.9170    23.8820   -11.0130 
  135.1250     2.4950    45.1200    22.5440    20.6380    18.9780    23.8700   -11.0250 
  135.2500     2.4770    47.8630    20.8600    19.1370    16.4700    23.8740   -11.0280 
  135.3750     2.4680    47.1150    19.5390    17.9040    15.6030    23.8750   -11.0310 
  135.5000     2.4690    42.1370    18.7250    17.0550    16.6600    23.8750   -11.0130 
  135.6250     2.4850    38.1770    18.6670    16.7920    17.1250    23.8750   -11.0190 
  135.7500     2.5150    38.3880    19.3790    17.1490    16.8260    23.8750   -11.0070 
  135.8750     2.5550    40.6800    20.9180    18.1950    17.5460    23.8750   -11.0130 
  136.0000     2.5980    41.1690    23.2230    19.9170    17.8490    23.8750   -11.0500 
  136.1250     2.6310    38.8490    26.0170    22.1790    20.3200    23.8750   -11.0890 
  136.2500     2.6430    37.3020    28.5450    24.4070    25.4520    23.8760   -11.1690 
  136.3750     2.6310    39.1080    30.0740    25.9770    29.1810    23.8860   -11.2340 
  136.5000     2.5960    42.8420    30.1460    26.3890    27.7590    23.9370   -11.3000 
  136.6250     2.5470    44.1000    28.8230    25.5100    24.7210    24.0140   -11.3600 
  136.7500     2.5010    43.3120    27.1180    24.1120    23.1990    24.0320   -11.4310 
  136.8750     2.4700    42.8440    25.6930    22.7620    21.0600    24.0680   -11.5030 
  137.0000     2.4580    43.6070    24.8760    21.8130    19.5460    24.0990   -11.5440 
  137.1250     2.4630    44.5080    24.7480    21.4320    20.7470    24.1040   -11.5750 
  137.2500     2.4740    44.8580    25.0080    21.4260    24.3750    24.1050   -11.5410 
  137.3750     2.4870    45.2940    25.4670    21.6520    24.8430    24.1050   -11.5120 
  137.5000     2.5020    45.6810    26.0080    22.0140    23.3160    24.1050   -11.4530 
  137.6250     2.5200    45.9700    26.5900    22.4840    22.8340    24.1050   -11.3980 
  137.7500     2.5420    47.5330    27.2140    23.0310    23.4120    24.1050   -11.3180 
  137.8750     2.5630    49.7550    27.8780    23.6420    23.4310    24.1060   -11.2300 
  138.0000     2.5830    49.6500    28.5110    24.2650    25.5980    24.1140   -11.1600 
  138.1250     2.5960    44.9900    28.8960    24.7380    28.8020    24.1150   -11.1000 
  138.2500     2.6000    41.1930    28.9270    24.9440    29.6000    24.1170   -11.0860 
  138.3750     2.5960    41.2900    28.6470    24.8750    28.0250    24.1180   -11.0860 
  138.5000     2.5840    41.9360    28.2500    24.6420    26.2970    24.1320   -11.1050 
  138.6250     2.5740    41.8520    27.9860    24.4140    24.9460    24.0780   -11.1230 
  138.7500     2.5730    43.7590    27.9380    24.3000    24.6820    24.0360   -11.1320 
  138.8750     2.5830    46.7460    28.0610    24.3100    24.3500    24.0290   -11.1550 
  139.0000     2.5970    48.3140    28.2490    24.3970    24.3620    24.0280   -11.1660 
  139.1250     2.6030    47.4990    28.4330    24.5140    23.9500    24.0270   -11.1980 
  139.2500     2.5940    45.8470    28.6150    24.6460    23.4470    24.0130   -11.2210 
  139.3750     2.5760    44.4160    28.7880    24.7850    22.2880    23.9300   -11.2300 
  139.5000     2.5600    44.3640    28.8840    24.8860    22.6810    23.7370   -11.2630 
  139.6250     2.5620    45.7510    28.7450    24.8360    24.2890    23.6520   -11.2800 
  139.7500     2.5790    46.6770    28.3310    24.5790    25.7150    23.6910   -11.3400 
  139.8750     2.6030    46.6390    27.6850    24.1090    24.5780    23.8680   -11.3900 
  140.0000     2.6230    44.6640    26.9480    23.4910    20.7050    23.9330   -11.4530 
  140.1250     2.6300    41.8290    26.3460    22.8790    19.6850    23.9450   -11.5180 
  140.2500     2.6290    41.7440    26.0350    22.4450    20.0990    23.9110   -11.5900 
  140.3750     2.6250    43.7990    26.0920    22.2970    20.7580    23.8610   -11.6890 
  140.5000     2.6210    42.9890    26.5400    22.4830    20.5620    23.7650   -11.7760 
  140.6250     2.6210    40.2490    27.4170    23.0530    20.8420    23.5870   -11.8720 
  140.7500     2.6240    40.8170    28.6050    23.9110    22.2190    23.5460   -11.9560 
  140.8750     2.6290    42.7990    30.0010    24.9830    24.0530    23.5930   -12.0400 
  141.0000     2.6370    43.2720    31.4270    26.1380    25.1880    23.7720   -12.1180 
  141.1250     2.6450    42.2260    32.5840    27.1510    26.5350    23.8510   -12.1870 
  141.2500     2.6530    41.5940    33.2850    27.8500    27.6630    23.8720   -12.2430 
  141.3750     2.6580    40.9170    33.4400    28.1440    27.6990    23.8750   -12.2630 
  141.5000     2.6560    40.3240    33.0900    28.0320    27.2180    23.8730   -12.2770 
  141.6250     2.6440    41.3400    32.4200    27.6090    26.7500    23.8660   -12.3350 
  141.7500     2.6270    42.3440    31.7820    27.1600    26.1690    23.8640   -12.4050 
  141.8750     2.6120    42.8780    31.2790    26.8240    25.0490    23.8640   -12.4800 
  142.0000     2.6090    43.5360    30.7090    26.4980    22.5570    23.8640   -12.5630 
  142.1250     2.6180    43.4050    29.5240    25.7250    22.5520    23.8640   -12.6470 
  142.2500     2.6310    43.9910    27.5600    24.2490    26.0080    23.8650   -12.7280 
  142.3750     2.6350    45.1130    25.0690    22.1880    30.3150    23.8710   -12.8230 
  142.5000     2.6250    45.3540    22.6550    20.0170    29.1850    23.8730   -12.9170 
  142.6250     2.6020    43.7890    21.2290    18.4880    22.7980    23.8690   -12.9830 
  142.7500     2.5790    42.4720    21.1370    17.9590    18.6580    23.8740   -13.0360 
  142.8750     2.5620    43.4340    22.4590    18.5760    19.4780    23.8750   -13.0940 
  143.0000     2.5540    45.9380    25.0180    20.3220    21.8260    23.8750   -13.1620 
  143.1250     2.5530    48.0700    28.3450    23.0220    24.5000    23.8670   -13.2240 
  143.2500     2.5500    49.0400    31.3460    25.7930    28.1420    23.8320   -13.3050 
  143.3750     2.5430    49.5780    33.1180    27.7510    31.2870    23.7560   -13.4040 
  143.5000     2.5320    51.4340    33.2570    28.3310    29.3350    23.6380   -13.5160 
  143.6250     2.5200    51.9680    31.9540    27.4980    23.7270    23.5740   -13.6300 
  143.7500     2.5110    50.2150    30.1830    26.0650    20.7420    23.4900   -13.7440 
  143.8750     2.5080    48.0620    28.5660    24.5910    18.9810    23.4720   -13.8500 
  144.0000     2.5120    46.6860    27.5620    23.5250    18.2110    23.4570   -13.9430 
  144.1250     2.5190    45.3370    27.4950    23.2260    18.4650    23.3850   -14.0740 
  144.2500     2.5240    45.0070    28.0860    23.5390    18.8640    23.2530   -14.2080 
  144.3750     2.5200    46.9670    29.0050    24.2200    19.8430    23.2280   -14.3330 
  144.5000     2.5070    49.0230    29.7980    24.9060    22.4930    23.2040   -14.4490 
  144.6250     2.4860    49.2370    29.8270    25.0780    25.4270    23.1190   -14.5530 
  144.7500     2.4620    50.6190    28.9400    24.5480    25.0020    23.0330   -14.6570 
  144.8750     2.4390    52.9100    27.3600    23.4450    21.4900    23.0010   -14.7840 
