~V
VERS. 2.00: Ver 2.00
~W
STRT.M 58.0000:
STOP.M 221.0000:
STEP.M 0.1250:
NULL. -999.2500:
UWI. F10613:
~C
DEPT.M :
SP.MV :
GR.API :
RML.OHMM :
RI. :
RXO.OHMM :
CALI.CM :
DEN.GM/CC :
~A
# ...
  114.2500     1.0790    61.0380    21.8720    20.2480    23.9770    24.4940     2.1540 
  114.3750     1.3310    63.1270    21.7120    20.1430    21.0400    24.5650     2.1750 
  114.5000     1.5670    64.3540    21.5620    20.0290    20.7420    24.5620     2.1810 
  114.6250     1.7730    62.3090    21.4570    19.9210    20.8890    24.5400     2.1830 
  114.7500     1.9840    59.3950    21.4290    19.8450    21.3030    24.5480     2.1810 
  114.8750     2.1730    60.7900    21.4810    19.8120    21.9320    24.6230     2.1790 
  115.0000     2.2830    66.3460    21.5960    19.8140    22.2680    24.6450     2.1760 
  115.1250     2.3190    68.5690    21.7560    19.8400    22.5590    24.6060     2.1740 
  115.2500     2.2640    66.0930    21.9560    19.8920    22.9070    24.6060     2.1800 
  115.3750     2.0940    62.1660    22.1500    19.9370    22.6890    24.6730     2.2000 
  115.5000     1.8600    60.7650    22.2830    19.9310    22.6940    24.7360     2.2380 
  115.6250     1.5840    62.3130    22.4480    19.9330    21.7060    24.7710     2.2780 
  115.7500     1.2250    65.2680    22.8440    20.1010    19.7280    24.7190     2.3070 
  115.8750     0.8060    67.0140    23.6730    20.6130    18.2070    24.4680     2.3240 
  116.0000     0.3310    66.3840    25.1230    21.6660    19.2420    24.1490     2.3360 
  116.1250    -0.1710    63.9710    27.0530    23.2070    23.1890    24.0780     2.3510 
  116.2500    -0.6410    60.7420    29.3210    25.1760    29.3860    24.1250     2.3660 
  116.3750    -1.1110    57.4470    31.7680    27.4420    42.2000    24.1050     2.3660 
  116.5000    -1.5900    56.1080    34.4040    29.9260    43.5170    24.0010     2.3350 
  116.6250    -1.9990    56.0050    37.2640    32.6110    31.6090    23.9620     2.2920 
  116.7500    -2.3300    55.5210    39.9100    35.2770    29.4430    24.0640     2.2670 
  116.8750    -2.6670    55.1240    41.0350    36.9680    35.6850    24.2130     2.2870 
  117.0000    -3.0430    54.6080    38.1310    35.3800    40.3100    24.3230     2.3560 
  117.1250    -3.3840    54.5840    31.4200    30.2320    44.2980    24.3630     2.4220 
  117.2500    -3.7080    57.5890    22.9970    23.1060    44.9900    24.3600     2.4470 
  117.3750    -4.0040    64.3120    15.5850    16.3880    29.4060    24.3450     2.4270 
  117.5000    -4.3040    72.2020    10.9740    11.7910    12.9670    24.2840     2.3890 
  117.6250    -4.6600    75.9970     8.4280     8.9730     8.2620    24.1210     2.3630 
  117.7500    -5.0060    77.1680     7.2410     7.4580     7.1850    23.8790     2.3510 
  117.8750    -5.2430    80.2140     6.8830     6.8430     7.1460    23.6970     2.3400 
  118.0000    -5.3180    85.6220     7.0140     6.8780     7.4560    23.6760     2.3280 
  118.1250    -5.3620    88.7130     7.2310     7.1490     7.9120    23.6800     2.3180 
  118.2500    -5.4110    87.4440     7.3150     7.3880     8.1870    23.6610     2.3150 
  118.3750    -5.4200    86.1230     7.1630     7.4190     7.9790    23.6420     2.3210 
  118.5000    -5.3620    89.1580     6.7880     7.1690     7.1930    23.6140     2.3300 
  118.6250    -5.2830    93.0780     6.3500     6.7750     6.4760    23.5810     2.3410 
  118.7500    -5.1850    95.1900     5.9640     6.3600     6.3170    23.5630     2.3620 
  118.8750    -5.0900    93.7770     5.7210     6.0380     6.1850    23.5740     2.3990 
  119.0000    -5.0480    90.3570     5.7410     5.9530     5.8620    23.6010     2.4450 
  119.1250    -4.9500    87.9120     6.0690     6.1670     6.0900    23.6070     2.4620 
  119.2500    -4.7740    87.0370     6.7580     6.7410     6.6900    23.5930     2.4260 
  119.3750    -4.5840    86.2640     7.8090     7.6890     7.8050    23.5860     2.3500 
  119.5000    -4.3410    83.0050     9.1020     8.9360     9.7630    23.6700     2.2590 
  119.6250    -4.0340    77.7340    10.2250    10.1080    12.6850    23.8930     2.1820 
  119.7500    -3.7550    73.2950    10.7540    10.7640    14.5860    24.1740     2.1390 
  119.8750    -3.5460    72.7770    10.4810    10.6230    14.6360    24.3180     2.1470 
  120.0000    -3.3280    78.8140     9.5720     9.7550    11.4640    24.3460     2.2040 
  120.1250    -3.1560    86.0640     8.6000     8.7150     9.8510    24.3490     2.2740 
  120.2500    -3.0560    88.9130     7.8590     7.8070     8.5680    24.3500     2.3260 
  120.3750    -2.9600    87.9120     7.4580     7.1730     7.9770    24.3530     2.3480 
  120.5000    -2.8850    85.7670     7.4540     6.9020     8.3580    24.3480     2.3380 
  120.6250    -2.8560    83.6020     7.8020     6.9620     8.8410    24.3480     2.3230 
  120.7500    -2.8270    81.0810     8.6040     7.4110     9.3640    24.3530     2.3260 
  120.8750    -2.7650    76.4730    10.0650     8.3760    10.2720    24.3570     2.3660 
  121.0000    -2.6990    68.5750    12.7530    10.2500    12.3080    24.3490     2.4470 
  121.1250    -2.6430    61.5510    17.9200    13.3230    17.2440    24.3420     2.5400 
  121.2500    -2.5680    58.4880    25.2750    17.9970    27.8900    24.3330     2.6240 
  121.3750    -2.4780    57.3700    33.5890    24.3820    42.2670    24.2650     2.6850 
  121.5000    -2.4050    54.2620    42.1810    31.7370    51.1840    24.2420     2.7010 
  121.6250    -2.3320    51.6470    48.7890    38.0390    58.5800    24.2320     2.6710 
  121.7500    -2.2130    49.6360    52.3180    41.9720    61.4130    24.2480     2.6120 
  121.8750    -2.0870    47.4350    53.3540    43.5890    56.0900    24.2770     2.5460 
  122.0000    -1.9870    47.8560    53.4150    43.8740    50.5650    24.3390     2.4920 
  122.1250    -1.8400    50.4920    53.6660    43.9640    53.3240    24.3790     2.4580 
  122.2500    -1.6980    52.9120    54.1590    44.0960    65.5140    24.3690     2.4400 
  122.3750    -1.5750    54.5370    54.6610    44.2450    68.4050    24.3440     2.4340 
  122.5000    -1.4340    55.5100    54.9880    44.3560    60.3900    24.3200     2.4400 
  122.6250    -1.2940    55.6450    55.2670    44.4870    51.1480    24.3140     2.4550 
  122.7500    -1.1990    54.6610    55.7750    44.7980    51.6450    24.2950     2.4680 
  122.8750    -1.1170    52.8740    56.6970    45.4500    55.8390    24.2710     2.4730 
  123.0000    -1.0310    50.1030    57.8410    46.3980    59.4310    24.2290     2.4730 
  123.1250    -1.0250    47.9070    58.5940    47.2040    53.9690    24.2180     2.4750 
  123.2500    -1.0650    48.4420    58.5450    47.4960    51.0190    24.2720     2.4750 
  123.3750    -1.1470    49.9830    57.7570    47.1890    52.1020    24.2800     2.4680 
  123.5000    -1.3120    49.4040    56.9170    46.6450    53.8580    24.2220     2.4530 
  123.6250    -1.5410    47.3920    56.9120    46.5560    50.1700    24.2760     2.4510 
  123.7500    -1.7880    46.2180    58.2020    47.3720    50.6470    24.3130     2.4750 
  123.8750    -2.0390    48.0360    60.7390    49.2050    56.3110    24.3040     2.5240 
  124.0000    -2.3450    50.3770    63.8870    51.7730    62.8900    24.2630     2.5660 
  124.1250    -2.6340    50.5240    66.2980    54.1010    68.3050    24.2560     2.5780 
  124.2500    -2.8580    48.6150    66.8230    55.2260    67.7240    24.2570     2.5600 
  124.3750    -3.0760    46.2100    64.9470    54.5080    63.2210    24.2490     2.5320 
  124.5000    -3.2900    45.7560    61.1490    51.9480    54.9540    24.2900     2.5110 
  124.6250    -3.4090    48.7660    57.2700    48.9110    48.6290    24.3220     2.5050 
  124.7500    -3.4870    54.2000    54.4500    46.4000    46.0220    24.3400     2.5120 
  124.8750    -3.5890    57.9680    53.1400    44.9590    45.3200    24.3480     2.5230 
  125.0000    -3.6190    57.1090    53.3390    44.7720    48.1370    24.3440     2.5220 
  125.1250    -3.6350    54.3650    54.2570    45.3040    52.4010    24.3500     2.5090 
  125.2500    -3.6820    50.8190    55.3760    46.1660    56.2840    24.3620     2.4910 
  125.3750    -3.6930    46.9480    56.3830    47.0660    58.3620    24.3500     2.4810 
