~V
VERS. 2.00: Ver 2.00
~W
STRT.M 49.0000:
STOP.M 217.0000:
STEP.M 0.1250:
NULL. -999.2500:
UWI. F10685:
~C
DEPT.M :
SP.MV :
DEN.GM/CC :
GR.API :
RML.OHMM :
RI. :
RXO.OHMM :
CALI.CM :
~A
# ...
   82.7500   -14.2240     2.0930    60.0340    18.3270    15.2730    17.5200    23.9540 
   82.8750   -14.5600     2.0820    56.9490    22.1060    18.4220    20.8940    24.0930 
   83.0000   -14.8070     2.0910    55.6790    24.7390    20.6160    21.1810    24.2670 
   83.1250   -14.9440     2.1320    54.9460    25.6250    21.3550    19.8030    24.3070 
   83.2500   -14.8960     2.2010    54.3490    25.2850    21.0710    18.8610    24.3090 
   83.3750   -14.6820     2.2870    53.5870    23.9460    19.9550    18.9650    24.4000 
   83.5000   -14.3370     2.3690    53.0740    21.6880    18.0740    19.4190    24.5740 
   83.6250   -13.8920     2.4180    56.7710    18.6100    15.5080    19.7820    24.7340 
   83.7500   -13.4220     2.4270    64.9780    15.3410    12.7840    17.1910    24.9180 
   83.8750   -12.9150     2.4040    72.9660    12.4200    10.3500    11.7490    25.1590 
   84.0000   -12.4020     2.3670    75.4000    10.2140     8.5110     7.8630    25.2380 
   84.1250   -11.8770     2.3300    73.0310     8.9460     7.4550     6.6420    25.2740 
   84.2500   -11.4290     2.3040    72.7090     8.3700     6.9750     6.8700    25.2490 
   84.3750   -11.0950     2.2870    73.3370     8.3290     6.9410     7.1550    25.1910 
   84.5000   -10.8580     2.2810    73.5800     8.6340     7.1950     7.4090    25.1620 
   84.6250   -10.6990     2.2820    76.6240     9.0330     7.5270     7.5040    25.0610 
   84.7500   -10.5560     2.2850    80.3100     9.2740     7.7280     7.2550    25.0520 
   84.8750   -10.4720     2.2850    79.6170     9.2660     7.7210     6.9520    25.1100 
   85.0000   -10.4190     2.2830    76.0580     9.0640     7.5530     7.1320    25.0880 
   85.1250   -10.4160     2.2910    76.8330     8.8730     7.3940     7.4020    25.1060 
   85.2500   -10.4550     2.3150    78.8330     8.9090     7.4240     7.0950    25.1350 
   85.3750   -10.4950     2.3590    77.0920     9.2460     7.7050     6.9660    25.1140 
   85.5000   -10.5470     2.4100    74.7330     9.8050     8.1710     7.7960    25.0660 
   85.6250   -10.6250     2.4440    76.1930    10.3730     8.6440    10.3890    24.9380 
   85.7500   -10.7420     2.4470    78.2650    10.7210     8.9340    11.6900    24.8600 
   85.8750   -10.8550     2.4200    76.8180    10.7530     8.9610     9.4200    24.9370 
   86.0000   -10.9440     2.3770    73.4650    10.5400     8.7830     7.6520    25.0590 
   86.1250   -11.0210     2.3370    70.9260    10.2300     8.5250     8.3870    25.0210 
   86.2500   -11.0660     2.3090    70.5040     9.9150     8.2620     9.9060    24.9240 
   86.3750   -11.0780     2.2900    71.6930     9.5690     7.9740     9.8540    24.8920 
   86.5000   -11.0660     2.2740    72.4550     9.1920     7.6600     8.3370    24.9470 
   86.6250   -11.0200     2.2510    72.9610     8.8950     7.4130     7.6670    24.8030 
   86.7500   -10.9620     2.2170    75.1180     8.8660     7.3890     7.7610    24.6320 
   86.8750   -10.9730     2.1770    77.9230     9.3150     7.7630     7.8540    24.6320 
   87.0000   -11.0660     2.1410    77.2370    10.4390     8.6990     8.6260    24.5940 
   87.1250   -11.2210     2.1180    70.2560    12.5160    10.4300    10.8150    24.2090 
   87.2500   -11.3830     2.1090    64.9370    15.3200    12.7670    13.3260    23.9710 
   87.3750   -11.5220     2.1110    63.9430    18.3290    15.2740    14.6850    23.8120 
   87.5000   -11.6150     2.1240    64.0650    20.4920    17.0770    15.6290    23.7180 
   87.6250   -11.6650     2.1510    62.4500    20.2040    16.8370    16.4940    23.6620 
   87.7500   -11.6730     2.1940    61.4850    17.8100    14.8420    16.3010    23.8540 
   87.8750   -11.5940     2.2450    64.7030    14.5170    12.0980    13.3300    24.1550 
   88.0000   -11.4680     2.2910    70.0940    11.5150     9.5960     8.8380    24.4520 
   88.1250   -11.3160     2.3100    73.0370     9.5350     7.9460     6.8740    24.6250 
   88.2500   -11.2180     2.2990    74.9410     8.4750     7.0630     6.5690    24.6360 
   88.3750   -11.2080     2.2670    77.5760     8.2470     6.8720     7.0740    24.5060 
   88.5000   -11.3220     2.2260    78.1800     8.7460     7.2880     7.8880    24.2140 
   88.6250   -11.5190     2.1940    73.7700     9.8950     8.2460     8.9570    23.8400 
   88.7500   -11.7770     2.1760    70.4040    11.3230     9.4360     9.4840    23.3830 
   88.8750   -12.0030     2.1720    70.2100    12.6920    10.5760     9.7930    23.0820 
   89.0000   -12.1760     2.1770    69.6970    13.6510    11.3750    10.2600    23.0070 
   89.1250   -12.2850     2.1880    67.4650    13.8810    11.5670    10.3890    22.9660 
   89.2500   -12.3230     2.2010    67.1170    13.6230    11.3520    10.4070    22.9630 
   89.3750   -12.3110     2.2150    70.7200    13.2480    11.0400    10.3250    22.9430 
   89.5000   -12.2250     2.2270    76.4170    13.1810    10.9840    10.1640    22.9260 
   89.6250   -12.0730     2.2310    80.1310    13.9400    11.6170    10.3300    22.9180 
   89.7500   -11.8840     2.2220    79.5970    15.5710    12.9760    11.4070    22.8860 
   89.8750   -11.7130     2.2010    75.5750    17.7740    14.8120    13.8720    22.8560 
   90.0000   -11.5660     2.1780    70.3450    19.6180    16.3480    16.7370    22.8070 
   90.1250   -11.4180     2.1750    66.1850    19.4120    16.1770    18.7150    22.7030 
   90.2500   -11.2880     2.2010    66.2580    17.2120    14.3440    17.7920    22.7150 
   90.3750   -11.1400     2.2530    69.7480    14.2130    11.8440    13.2670    22.8650 
   90.5000   -10.9920     2.3060    72.3100    11.6600     9.7160     8.3300    23.2100 
   90.6250   -10.8410     2.3300    72.0400    10.2610     8.5510     7.8220    23.3860 
   90.7500   -10.6780     2.3180    71.4060     9.8060     8.1720     9.4300    23.3850 
   90.8750   -10.5330     2.2870    73.2820    10.0880     8.4060    10.3930    23.1380 
   91.0000   -10.3940     2.2570    77.5690    10.7880     8.9900    10.4740    22.9620 
   91.1250   -10.2720     2.2480    80.6530    11.3080     9.4240    10.0910    22.9370 
   91.2500   -10.1100     2.2600    79.6400    11.2590     9.3830     9.3500    23.1000 
   91.3750    -9.9210     2.2900    77.1120    10.8440     9.0370     8.4630    23.3310 
   91.5000    -9.7230     2.3300    78.0920    10.6030     8.8360     7.6160    23.5390 
   91.6250    -9.5610     2.3580    81.5250    11.2110     9.3430     7.5960    23.7270 
   91.7500    -9.4330     2.3560    82.0860    12.8500    10.7080     9.0280    23.6740 
   91.8750    -9.3230     2.3220    78.2280    15.4500    12.8750    12.6640    23.5220 
   92.0000    -9.2350     2.2720    72.4780    18.3660    15.3050    18.2650    23.3570 
   92.1250    -9.1840     2.2310    68.8880    19.8180    16.5150    22.7930    23.4080 
   92.2500    -9.1860     2.2110    67.8860    18.9350    15.7790    19.7270    23.4880 
   92.3750    -9.2190     2.2090    67.6080    16.4520    13.7100    13.0440    23.5130 
   92.5000    -9.2830     2.2160    68.3180    13.7910    11.4930     9.2670    23.5210 
   92.6250    -9.3520     2.2210    72.0700    11.9770     9.9810     8.3490    23.5180 
   92.7500    -9.4150     2.2250    76.3630    10.9910     9.1590     8.5550    23.5310 
   92.8750    -9.4590     2.2300    77.6310    10.6520     8.8770     8.5860    23.5560 
   93.0000    -9.4910     2.2360    75.9300    10.6990     8.9160     8.4020    23.6700 
   93.1250    -9.5340     2.2420    75.1120    10.7830     8.9860     7.7120    23.9180 
   93.2500    -9.5860     2.2480    77.1830    10.6250     8.8540     7.7380    24.0020 
   93.3750    -9.7060     2.2510    80.1910    10.1990     8.4990     7.9620    23.8500 
   93.5000    -9.8450     2.2450    81.1380     9.6810     8.0680     7.6890    23.5730 
   93.6250   -10.0480     2.2210    79.0030     9.4520     7.8770     7.4130    23.1390 
   93.7500   -10.3210     2.1800    76.2610     9.8360     8.1970     7.4140    22.7050 
   93.8750   -10.6900     2.1350    74.5000    11.1510     9.2920     8.6890    22.6330 
