~V
VERS. 2.00: Ver 2.00
~W
STRT.M 51.0000:
STOP.M 206.0000:
STEP.M 0.1250:
NULL. -999.2500:
UWI. F10683:
~C
DEPT.M :
GR.API :
RML.OHMM :
RI. :
RXO.OHMM :
CALI.CM :
SP.MV :
DEN.GM/CC :
~A
# ...
   96.0000    52.9410    33.5100    32.9580    28.2570    23.9710    -9.6130     2.1910 
   96.1250    58.5970    34.2720    33.7240    26.7450    23.9730    -9.7180     2.1540 
   96.2500    59.3960    36.5140    36.0500    27.7820    24.0060    -9.7660     2.1300 
   96.3750    53.3010    40.1760    39.9490    32.7520    24.0800    -9.7440     2.1250 
   96.5000    47.6590    44.9090    45.1100    40.8350    24.1740    -9.6800     2.1090 
   96.6250    49.3070    49.9790    50.7840    46.6110    24.2820    -9.6180     2.0640 
   96.7500    50.6170    54.2100    55.7380    50.1970    24.4010    -9.5430     2.0380 
   96.8750    49.5320    56.0720    58.5210    51.2010    24.4840    -9.4310     2.0740 
   97.0000    49.1080    53.5170    57.1220    50.1450    24.4710    -9.2220     2.1720 
   97.1250    51.1750    44.6960    49.0580    47.4770    24.3420    -8.8960     2.2850 
   97.2500    53.7630    33.1280    37.2330    43.6780    24.2080    -8.5480     2.3630 
   97.3750    55.2380    22.5420    25.6920    36.5430    24.1500    -8.2180     2.3890 
   97.5000    57.5620    15.0200    17.1690    24.7890    24.1960    -7.9220     2.3670 
   97.6250    63.0950    11.1590    12.5190    14.1140    24.3230    -7.7390     2.3180 
   97.7500    69.1250     9.7270    10.3490     8.2670    24.3690    -7.7640     2.2690 
   97.8750    71.3950    10.2390    10.0640     7.5060    24.2400    -8.0630     2.2240 
   98.0000    66.9520    12.4450    11.4440    10.6020    23.9870    -8.6730     2.1750 
   98.1250    59.4840    16.2650    14.6610    18.9070    23.7500    -9.6040     2.1160 
   98.2500    56.1680    20.6190    18.8910    24.9040    23.6520   -10.7060     2.0610 
   98.3750    57.1440    24.3080    22.9720    24.2010    23.6760   -11.9350     2.0170 
   98.5000    57.4950    26.7130    25.9970    21.4640    23.7620   -13.2200     1.9930 
   98.6250    54.0020    28.6020    28.2990    22.1110    23.8510   -14.4550     2.0040 
   98.7500    49.7570    31.4310    31.2330    26.0350    23.8850   -15.5670     2.0460 
   98.8750    47.4130    35.9480    35.6190    34.6680    23.8920   -16.4960     2.0940 
   99.0000    46.9940    42.2390    41.6050    46.3500    23.8920   -17.2360     2.1180 
   99.1250    47.5420    49.6360    48.4730    58.8100    23.8920   -17.8210     2.1100 
   99.2500    47.3510    56.4010    54.5380    65.2070    23.8920   -18.2860     2.0980 
   99.3750    46.2780    61.1480    58.5710    66.4430    23.8920   -18.6230     2.1000 
   99.5000    46.1900    63.1570    60.0430    66.5440    23.8920   -18.8900     2.1190 
   99.6250    47.3490    62.0850    58.7720    67.2990    23.8920   -19.1130     2.1470 
   99.7500    46.7570    58.8680    55.6730    66.7910    23.8920   -19.2440     2.1740 
   99.8750    44.0940    53.9370    51.1380    64.1900    23.8920   -19.2660     2.2020 
  100.0000    43.7370    47.7660    45.5170    56.5060    23.8920   -19.1710     2.2320 
  100.1250    48.2620    40.9990    39.2670    46.1900    23.8920   -18.9190     2.2610 
  100.2500    51.8160    34.5600    33.2020    38.2720    23.8920   -18.5420     2.2820 
  100.3750    51.6620    29.1490    27.9750    32.7180    23.8960   -18.0560     2.2800 
  100.5000    51.3290    25.2560    24.0590    27.6300    23.9090   -17.4010     2.2560 
  100.6250    54.3360    23.2280    21.8100    21.8760    23.9350   -16.4780     2.2540 
  100.7500    56.9680    22.4010    20.7010    17.6950    23.9470   -15.3440     2.3070 
  100.8750    56.7680    22.1150    20.2290    16.6790    23.9650   -14.0500     2.3980 
  101.0000    55.3700    21.5410    19.7220    19.2250    24.0540   -12.6280     2.4820 
  101.1250    57.0770    19.7780    18.3600    24.5280    24.2300   -11.1220     2.5270 
  101.2500    62.4170    17.0910    16.1970    24.0350    24.4340    -9.6130     2.5530 
  101.3750    66.6680    14.2620    13.8030    18.1980    24.6240    -8.1590     2.5670 
  101.5000    67.0580    12.0180    11.7760    12.4570    24.7360    -6.8240     2.5580 
  101.6250    66.2880    10.7710    10.4990     9.9040    24.7670    -5.6900     2.5240 
  101.7500    67.7590    10.2200     9.8120     8.4130    24.7700    -4.7610     2.4920 
  101.8750    68.3610    10.0470     9.5190     8.5390    24.7700    -4.0510     2.4750 
  102.0000    67.0480     9.9180     9.3660     9.4220    24.7700    -3.5640     2.4590 
  102.1250    67.5870     9.6090     9.1330     9.1660    24.7700    -3.2910     2.4260 
  102.2500    70.3860     9.1870     8.8000     7.3100    24.7660    -3.1490     2.3970 
  102.3750    72.5720     8.7650     8.4330     6.2650    24.7440    -3.0850     2.3960 
  102.5000    74.7140     8.4000     8.0810     6.3650    24.6910    -3.0760     2.4150 
  102.6250    78.6360     8.0990     7.7680     6.7190    24.6390    -3.1390     2.4190 
  102.7500    81.1980     7.8250     7.4870     6.6490    24.6190    -3.2470     2.3960 
  102.8750    80.5620     7.5720     7.2300     6.3550    24.6220    -3.3600     2.3650 
  103.0000    79.3970     7.3820     7.0170     6.0140    24.6420    -3.4300     2.3440 
  103.1250    79.3550     7.3980     6.9530     5.9090    24.6720    -3.4500     2.3380 
  103.2500    77.6110     7.6480     7.0820     6.2090    24.6850    -3.4580     2.3380 
  103.3750    74.6320     8.0830     7.3920     6.7080    24.6820    -3.4740     2.3370 
  103.5000    73.2440     8.6000     7.8130     6.9330    24.6690    -3.4910     2.3290 
  103.6250    74.4850     9.0860     8.2560     8.1400    24.6690    -3.4710     2.3190 
  103.7500    76.6700     9.4760     8.6420     9.9580    24.7240    -3.4360     2.3200 
  103.8750    76.8460     9.7760     8.9420    10.5380    24.8000    -3.4290     2.3350 
  104.0000    72.9420    10.0240     9.1680     9.2520    24.8390    -3.4850     2.3570 
  104.1250    69.1580    10.1770     9.2820    10.3500    24.8450    -3.6130     2.3720 
  104.2500    71.0360    10.1970     9.2610    11.9530    24.8550    -3.7750     2.3750 
  104.3750    75.1540    10.1890     9.1810    10.7380    24.8810    -3.9550     2.3710 
  104.5000    74.6570    10.3830     9.2240     8.8110    24.8930    -4.1320     2.3750 
  104.6250    70.7060    10.9830     9.5740     7.9730    24.8500    -4.3030     2.3830 
  104.7500    69.4240    11.8030    10.1410     8.8380    24.7720    -4.4890     2.3700 
  104.8750    69.2810    12.5310    10.7330    11.7630    24.7480    -4.6660     2.3330 
  105.0000    68.5190    12.8210    11.2380    17.5990    24.8150    -4.8100     2.2980 
  105.1250    69.0900    12.5460    12.0480    17.8000    24.8710    -4.9220     2.2960 
  105.2500    71.3050    12.2270    13.3230    12.3790    24.8760    -5.0260     2.3050 
  105.3750    71.3800    12.2500    14.8420     9.3610    24.8710    -5.1160     2.2960 
  105.5000    66.9470    12.7760    16.1450    11.6490    24.8950    -5.2060     2.2620 
  105.6250    63.2900    14.0760    16.8490    18.5330    24.9140    -5.3600     2.2290 
  105.7500    63.3860    16.3740    17.4950    20.8550    24.9220    -5.5540     2.2130 
  105.8750    64.5220    19.9700    18.9380    21.2160    24.9190    -5.7530     2.2050 
  106.0000    63.8000    24.7570    21.9070    22.2040    24.9150    -5.9510     2.1900 
  106.1250    60.3770    30.1480    26.7310    29.3600    24.9130    -6.1780     2.1620 
  106.2500    56.2160    35.6530    32.1920    41.3210    24.9160    -6.4390     2.1330 
  106.3750    52.6510    40.7450    37.4200    45.9360    24.9300    -6.7280     2.1120 
  106.5000    50.9980    44.6180    41.6140    43.7360    24.9690    -7.0250     2.0980 
  106.6250    51.5280    46.4970    43.8960    40.2230    25.0050    -7.2750     2.0870 
  106.7500    53.4630    46.9230    44.6250    42.2810    25.0260    -7.4860     2.0760 
  106.8750    56.6290    46.5760    44.3690    44.9180    24.9940    -7.7060     2.0700 
  107.0000    58.2710    46.2550    43.9000    45.1820    24.9210    -7.9530     2.0750 
  107.1250    55.2700    46.7600    44.0470    41.2270    24.8500    -8.2020     2.0940 
