~V
VERS. 2.00: Ver 2.00
~W
STRT.M 49.0000:
STOP.M 254.0000:
STEP.M 0.1250:
NULL. -999.2500:
UWI. F10669:
~C
DEPT.M :
DEN.GM/CC :
GR.API :
RML.OHMM :
RI. :
RXO.OHMM :
CALI.CM :
SP.MV :
~A
# ...
  240.2500     2.4050    38.3830     6.3290     5.0930     8.8680    23.3310   -10.2780 
  240.3750     2.4360    37.8950     6.7030     5.4680     9.9000    23.2860   -10.0710 
  240.5000     2.4510    36.9940     7.0060     5.8020     8.2060    23.1700    -9.8970 
  240.6250     2.4500    37.1690     7.0920     5.9860     7.0560    23.1200    -9.7780 
  240.7500     2.4410    36.2630     6.8880     5.9370     6.8190    23.1480    -9.7290 
  240.8750     2.4300    32.3370     6.4160     5.6290     6.1320    23.2330    -9.7270 
  241.0000     2.4180    28.9250     5.8760     5.2120     5.7450    23.2880    -9.8140 
  241.1250     2.4060    28.4140     5.3980     4.8050     5.4160    23.3120    -9.9700 
  241.2500     2.3970    28.9290     5.0640     4.4910     5.0080    23.3150   -10.1380 
  241.3750     2.3980    27.9620     4.9170     4.3110     4.8040    23.3080   -10.3440 
  241.5000     2.4050    26.7280     4.8930     4.2190     4.9240    23.3130   -10.5930 
  241.6250     2.4190    26.5170     4.9240     4.1750     5.2460    23.3410   -10.8780 
  241.7500     2.4340    26.4270     4.9400     4.1410     5.1220    23.3790   -11.1690 
  241.8750     2.4450    25.3310     4.8950     4.0980     4.9940    23.3800   -11.4350 
  242.0000     2.4440    24.6250     4.8160     4.0460     4.7500    23.3410   -11.6880 
  242.1250     2.4330    24.9030     4.7410     3.9990     4.6930    23.3200   -11.9140 
  242.2500     2.4160    26.2200     4.6970     3.9640     4.6910    23.3190   -12.1090 
  242.3750     2.4030    27.3460     4.6830     3.9400     4.8840    23.2970   -12.2830 
  242.5000     2.3970    26.9450     4.6640     3.9080     5.2160    23.2240   -12.4390 
  242.6250     2.3990    25.4050     4.6260     3.8700     5.5220    23.1350   -12.5530 
  242.7500     2.4010    24.9230     4.6000     3.8490     5.3350    23.1320   -12.6590 
  242.8750     2.3930    26.0300     4.6820     3.9090     5.1850    23.1830   -12.8080 
  243.0000     2.3730    26.8940     4.9280     4.0820     5.2010    23.1690   -12.9820 
  243.1250     2.3450    27.2610     5.3580     4.3840     5.6320    23.0830   -13.1610 
  243.2500     2.3170    27.9380     5.9310     4.8010     6.8570    22.9800   -13.3180 
  243.3750     2.3000    28.7530     6.5000     5.2610     7.9500    22.9510   -13.4140 
  243.5000     2.2940    28.8360     6.8630     5.6230     7.9700    23.0030   -13.4610 
  243.6250     2.2990    27.9160     6.8970     5.7750     7.3450    23.1350   -13.4720 
  243.7500     2.3080    26.5240     6.6280     5.6850     7.0100    23.2330   -13.4150 
  243.8750     2.3150    25.9930     6.2040     5.4140     6.8850    23.2630   -13.3240 
  244.0000     2.3190    25.6360     5.8310     5.1330     6.5770    23.2360   -13.2230 
  244.1250     2.3220    25.4200     5.6150     4.9430     6.2200    23.2120   -13.1180 
  244.2500     2.3250    25.4200     5.5900     4.8950     6.2860    23.2160   -13.0370 
  244.3750     2.3260    25.4200     5.7510     5.0000     6.3930    23.2200   -13.0040 
  244.5000     2.3220    25.4200     5.9840     5.1830     6.2910    23.1790   -12.9850 
  244.6250     2.3130    25.4200     6.1830     5.3640     6.3840    23.0640   -12.9670 
  244.7500     2.3010    25.4200     6.2600     5.4630     6.6220    22.9610   -12.9580 
  244.8750     2.2920    25.4200     6.1370     5.4150     6.5410    22.9770   -12.9030 
  245.0000     2.2900    25.4200     5.8800     5.2690     6.1540    23.1020   -12.7810 
  245.1250     2.2950    25.4200     5.5690     5.0780     5.8290    23.2410   -12.6500 
  245.2500     2.3030    25.4200     5.2790     4.8950     5.7040    23.3310   -12.5180 
  245.3750     2.3080    25.4200     5.0690     4.7600     5.7400    23.3960   -12.3930 
  245.5000     2.3060    25.4200     4.9350     4.6660     5.7480    23.4620   -12.2680 
  245.6250     2.3000    25.4200     4.8540     4.5840     5.6530    23.5110   -12.1840 
  245.7500     2.2920    25.4200     4.7930     4.4970     5.4930    23.5260   -12.1460 
  245.8750     2.2900    25.4200     4.7290     4.4150     5.3400    23.5120   -12.1260 
  246.0000     2.2940    25.4200     4.6760     4.3540     5.2390    23.4910   -12.1180 
  246.1250     2.3010    25.4200     4.6590     4.3230     5.2320    23.4830   -12.0970 
  246.2500     2.3090    25.4200     4.7020     4.3230     5.3260    23.4740   -12.0360 
  246.3750     2.3140    25.4200     4.8240     4.3420     5.5160    23.4480   -11.9700 
  246.5000     2.3170    25.4200     4.9690     4.3640     5.7260    23.4400   -11.9110 
  246.6250     2.3210    25.4200     5.0750     4.3950     5.8440    23.4120   -11.8470 
  246.7500     2.3270    25.4200     5.1070     4.4470     5.7340    23.3460   -11.8040 
  246.8750     2.3360    25.4200     5.0540     4.5070     5.7190    23.3100   -11.8500 
  247.0000     2.3430    25.4200     4.9580     4.5390     5.8970    23.2880   -11.9630 
  247.1250     2.3470    25.4200     4.8520     4.5360     6.0330    23.2680   -12.1080 
  247.2500     2.3500    25.4200     4.7540     4.5020     6.1140    23.2540   -12.3230 
  247.3750     2.3540    25.4200     4.6640     4.4530     5.9340    23.2540   -12.5960 
  247.5000     2.3580    25.4200     4.5830     4.4040     5.8600    23.2660   -12.9090 
  247.6250     2.3570    25.4200     4.5370     4.3480     5.9510    23.2720   -13.2670 
  247.7500     2.3440    25.4200     4.5410     4.2710     6.0780    23.2670   -13.6960 
  247.8750     2.3170    25.4200     4.5960     4.1750     6.1620    23.2410   -14.2210 
  248.0000     2.2870    25.4200     4.6710     4.0910     6.4730    23.1380   -14.8250 
  248.1250     2.2630    25.4200     4.7140     4.0510     7.0840    22.9850   -15.4940 
  248.2500     2.2490    25.4200     4.6840     4.0720     7.6290    22.9150   -16.1740 
  248.3750     2.2480    25.4200     4.5790     4.1430     7.8300    22.9960   -16.8120 
  248.5000     2.2560    25.4200     4.4910     4.2090     7.7620    23.1320   -17.1870 
  248.6250     2.2570    25.4200     4.4700     4.2390     7.8360    23.1980   -18.0660 
  248.7500     2.2230    25.4200     4.5030     4.2330     7.9420    23.1760   -18.4660 
  248.8750     2.1570    25.4200     4.5730     4.2150     7.9970    23.1530   -18.7320 
  249.0000     2.0690    25.4200     4.6600     4.2210     8.2300    23.1900   -18.8640 
  249.1250     1.9600    25.4200     4.7570     4.2620     8.7140    23.2150   -18.9090 
  249.2500     1.8770    25.4200     4.8630     4.3200     8.8450    23.1390   -18.8860 
  249.3750     1.8380    25.4200     4.9430     4.3490     8.0040    23.0030   -18.8510 
  249.5000     1.8410    25.4200     4.9660     4.3310     7.6110    22.9220   -18.8020 
  249.6250     1.8680    25.4200     4.9230     4.2870     8.2370    22.8470   -18.8110 
  249.7500     1.8920    25.4200     4.8420     4.2430     8.8730    22.7930   -18.8510 
  249.8750     1.9050    25.4200     4.7620     4.2250     8.9520    22.7160   -18.8660 
  250.0000     1.9090    25.4200     4.7170     4.2240     8.6720    22.5750   -18.8770 
  250.1250     1.9070    25.4200     4.7170     4.2240     8.3350    22.3800   -18.8960 
  250.2500     1.8990    25.4200     4.7170     4.2240     7.9410    21.9850   -18.9390 
  250.3750     1.8870    25.4200     4.7170     4.2240     7.2610    21.2320   -18.9730 
  250.5000     1.8760    25.4200     4.7170     4.2240     6.6850    20.3800   -19.0060 
  250.6250     1.8690    25.4200     4.7170     4.2240     6.4910    19.5910   -19.0000 
  250.7500     1.8670    25.4200     4.7170     4.2240     6.5270    18.9230   -18.9560 
  250.8750     1.8680    25.4200     4.7170     4.2240     6.9120    18.3630   -18.9300 
  251.0000     1.8690    25.4200     4.7170     4.2240     7.4140    17.7310   -18.9360 
  251.1250     1.8680    25.4200     4.7170     4.2240     7.9490    16.8850   -18.9150 
  251.2500     1.8660    25.4200     4.7170     4.2240     8.8480    16.0800   -18.8550 
  251.3750     1.8670    25.4200     4.7170     4.2240     9.3040    15.5270   -18.8170 
