~V
VERS. 2.00: Ver 2.00
~W
STRT.M 54.0000:
STOP.M 246.0000:
STEP.M 0.1250:
NULL. -999.2500:
UWI. F10643:
~C
DEPT.M :
SP.MV :
GR.API :
RML.OHMM :
RI. :
RXO.OHMM :
CALI.CM :
DEN.GM/CC :
~A
# ...
   76.5000   -20.9460    69.9690     8.6540     6.1130     6.4470    23.5560     2.2290 
   76.6250   -20.9750    68.4110     9.4140     6.6060     6.9420    23.6320     2.2130 
   76.7500   -21.0550    64.2980    10.1360     7.1440     7.8420    23.7920     2.1920 
   76.8750   -21.1990    59.0200    10.6250     7.5950     8.4820    24.1340     2.1730 
   77.0000   -21.3550    56.9530    10.6880     7.7900     8.4440    24.2940     2.1680 
   77.1250   -21.5630    59.2120    10.4180     7.7280     7.9610    24.0080     2.1750 
   77.2500   -21.7760    64.4810     9.9520     7.4660     7.2650    23.3870     2.1870 
   77.3750   -22.0130    68.5250     9.4490     7.1100     6.5940    23.0160     2.1950 
   77.5000   -22.2090    70.0490     9.0520     6.7690     6.2650    23.1860     2.1950 
   77.6250   -22.3980    70.5650     8.7740     6.4940     6.3610    23.6150     2.1920 
   77.7500   -22.5610    69.7890     8.5750     6.2820     6.2320    23.9670     2.1910 
   77.8750   -22.6740    68.1440     8.3970     6.1100     5.9210    24.1470     2.1960 
   78.0000   -22.7450    67.8540     8.1700     5.9400     5.7810    24.2000     2.2080 
   78.1250   -22.7450    70.8210     7.8620     5.7390     5.8050    24.2100     2.2290 
   78.2500   -22.7040    76.2960     7.4940     5.5050     5.8530    24.2120     2.2610 
   78.3750   -22.6270    80.1130     7.1290     5.2710     5.9260    24.2110     2.2930 
   78.5000   -22.4990    79.5400     6.8760     5.0970     5.8570    24.2140     2.3060 
   78.6250   -22.3440    77.9820     6.8180     5.0350     5.2440    24.2150     2.2940 
   78.7500   -22.1520    77.2650     7.0240     5.1290     5.1890    24.2150     2.2660 
   78.8750   -21.9520    75.0810     7.5160     5.4040     5.8170    24.2120     2.2370 
   79.0000   -21.7290    70.7080     8.2330     5.8480     6.5370    24.2070     2.2190 
   79.1250   -21.5160    67.2860     8.8930     6.3060     6.8800    24.1700     2.2100 
   79.2500   -21.2980    66.6790     9.1840     6.5830     7.0450    24.0800     2.2090 
   79.3750   -21.0990    67.8350     8.8860     6.5110     7.2610    23.9750     2.2150 
   79.5000   -20.9610    69.9800     8.0210     6.0320     7.0350    24.0820     2.2340 
   79.6250   -20.8440    72.2050     7.0680     5.4110     6.1430    24.1850     2.2630 
   79.7500   -20.7810    74.0960     6.3640     4.8740     4.9990    24.2170     2.2880 
   79.8750   -20.7350    76.2750     6.0850     4.5710     4.5730    24.1960     2.2940 
   80.0000   -20.7500    77.8110     6.3250     4.6120     4.7710    24.0730     2.2730 
   80.1250   -20.7870    76.4000     6.9170     4.9300     5.4360    23.7850     2.2410 
   80.2500   -20.8800    70.5900     7.7150     5.4540     6.0990    23.4020     2.2130 
   80.3750   -20.9620    63.3280     8.5300     6.0700     6.5750    23.1030     2.2000 
   80.5000   -21.0540    60.6360     9.1130     6.6070     6.8390    23.0040     2.2030 
   80.6250   -21.1370    62.3410     9.3840     6.9470     6.7620    22.9980     2.2140 
   80.7500   -21.2020    64.5020     9.3750     7.0630     6.5350    23.0660     2.2300 
   80.8750   -21.2760    65.2600     9.1850     6.9980     6.3630    23.2220     2.2460 
   81.0000   -21.3280    65.8260     8.9000     6.8090     6.3430    23.5220     2.2620 
   81.1250   -21.3710    66.1600     8.5690     6.5640     6.2300    23.8290     2.2700 
   81.2500   -21.3780    67.0590     8.1840     6.2690     6.1030    24.0770     2.2670 
   81.3750   -21.3810    68.2570     7.7390     5.9280     6.1280    24.1950     2.2540 
   81.5000   -21.3420    68.6870     7.2860     5.5660     6.0300    24.2180     2.2460 
   81.6250   -21.2780    69.1730     6.9290     5.2580     5.7010    24.2080     2.2550 
   81.7500   -21.2150    70.3280     6.7500     5.0680     5.1790    24.1820     2.2880 
   81.8750   -21.1270    72.1940     6.8000     5.0400     5.0800    24.1290     2.3430 
   82.0000   -21.0690    72.2060     7.1300     5.2240     5.4860    24.0090     2.4100 
   82.1250   -21.0330    70.3360     7.6530     5.5680     6.2280    23.7850     2.4700 
   82.2500   -21.0290    68.4200     8.2790     6.0210     7.0790    23.5900     2.5030 
   82.3750   -21.0490    67.9480     8.8900     6.5010     7.5880    23.5740     2.4900 
   82.5000   -21.1430    67.8010     9.3390     6.9000     7.9540    23.7260     2.4350 
   82.6250   -21.3070    66.1540     9.5920     7.1650     8.0910    23.8770     2.3650 
   82.7500   -21.4750    63.3310     9.6740     7.2960     7.7670    24.0080     2.3010 
   82.8750   -21.6860    60.6730     9.6640     7.3400     7.4990    24.0960     2.2580 
   83.0000   -21.8510    59.2180     9.6660     7.3670     7.4750    24.1710     2.2400 
   83.1250   -22.0140    58.4630     9.7620     7.4400     7.5180    24.1960     2.2360 
   83.2500   -22.1620    58.2500     9.9940     7.5910     7.5980    24.1840     2.2390 
   83.3750   -22.2980    57.1510    10.3500     7.8200     7.8280    24.1570     2.2450 
   83.5000   -22.3720    54.1890    10.7620     8.0930     8.3580    24.1530     2.2450 
   83.6250   -22.4030    52.7960    11.1160     8.3420     8.7720    24.1500     2.2360 
   83.7500   -22.4160    54.3530    11.3500     8.5220     8.6740    24.1460     2.2180 
   83.8750   -22.4040    56.2440    11.4600     8.6210     8.3310    24.1630     2.1970 
   84.0000   -22.3770    55.1270    11.4840     8.6530     8.0780    24.2080     2.1800 
   84.1250   -22.3160    53.8090    11.4960     8.6690     7.9220    24.2530     2.1690 
   84.2500   -22.2100    54.7010    11.5320     8.6980     7.8530    24.3090     2.1610 
   84.3750   -22.0760    54.8300    11.6120     8.7620     7.9430    24.3620     2.1530 
   84.5000   -21.9040    53.4910    11.7850     8.8900     7.9230    24.3630     2.1460 
   84.6250   -21.7170    55.2440    12.0650     9.0910     7.8770    24.3550     2.1410 
   84.7500   -21.5160    59.4200    12.4410     9.3680     7.9320    24.3580     2.1350 
   84.8750   -21.3340    60.9410    12.8510     9.6900     8.3450    24.4350     2.1270 
   85.0000   -21.1890    56.4910    13.1420     9.9690     9.1070    24.6480     2.1200 
   85.1250   -21.0810    52.6030    13.1960    10.1090     9.8050    24.7610     2.1190 
   85.2500   -21.0280    51.8930    12.9670    10.0470     9.5270    24.5890     2.1230 
   85.3750   -20.9940    52.2290    12.5050     9.7890     8.5290    24.1260     2.1320 
   85.5000   -21.0370    53.0000    11.9560     9.4080     7.8820    23.7030     2.1390 
   85.6250   -21.0740    55.6140    11.5070     9.0490     7.5580    23.6360     2.1430 
   85.7500   -21.1390    59.4300    11.2530     8.7950     7.3260    23.9240     2.1450 
   85.8750   -21.2030    61.0540    11.2020     8.6730     7.3110    24.2210     2.1470 
   86.0000   -21.2340    58.5860    11.2820     8.6570     7.5850    24.2310     2.1500 
   86.1250   -21.2650    56.9040    11.3440     8.6560     7.8930    24.1060     2.1540 
   86.2500   -21.2780    58.7260    11.2980     8.6120     8.0430    24.0640     2.1590 
   86.3750   -21.2720    60.9080    11.1250     8.4970     7.9230    23.9480     2.1610 
   86.5000   -21.2040    57.8110    10.9480     8.3580     7.5460    23.6680     2.1500 
   86.6250   -21.1150    54.4880    11.0020     8.3410     7.4590    23.5730     2.1300 
   86.7500   -20.9840    54.0000    11.4900     8.5920     7.6850    23.8450     2.1210 
   86.8750   -20.7800    53.2870    12.5460     9.2240     8.0740    24.3020     2.1490 
   87.0000   -20.5530    49.6510    14.2660    10.3510     9.6290    24.4110     2.2260 
   87.1250   -20.2620    49.6660    16.3240    11.7910    13.6130    23.9180     2.3050 
   87.2500   -19.9440    54.5880    18.2740    13.2600    18.0110    23.2560     2.3370 
   87.3750   -19.6100    58.2700    19.6010    14.3890    15.6570    22.7740     2.3110 
   87.5000   -19.3200    56.8940    19.9000    14.8220    12.2700    22.6760     2.2550 
   87.6250   -19.0650    54.6180    19.5390    14.7390    11.1560    22.8470     2.2080 
