~V
VERS. 2.00: Ver 2.00
~W
STRT.M 58.0000:
STOP.M 272.0000:
STEP.M 0.1250:
NULL. -999.2500:
UWI. F10670:
~C
DEPT.M :
DEN.GM/CC :
GR.API :
RML.OHMM :
RI. :
RXO.OHMM :
CALI.CM :
SP.MV :
~A
# ...
  249.2500     2.3310    41.0600     4.8560     4.3600     4.3350    23.7310   -11.5390 
  249.3750     2.3420    44.2830     5.0130     4.5450     4.6630    23.6860   -11.5910 
  249.5000     2.3500    48.4840     5.1680     4.7330     5.2300    23.5990   -11.5980 
  249.6250     2.3540    51.8560     5.2600     4.8660     5.5930    23.5070   -11.5810 
  249.7500     2.3530    51.2520     5.2330     4.8980     5.3650    23.4450   -11.5650 
  249.8750     2.3480    46.4430     5.0800     4.8100     4.9460    23.3880   -11.5170 
  250.0000     2.3430    41.1010     4.8520     4.6150     4.5680    23.3490   -11.4640 
  250.1250     2.3410    37.3340     4.6510     4.3950     4.3510    23.3680   -11.4290 
  250.2500     2.3420    35.0560     4.5410     4.2190     4.2200    23.4840   -11.3850 
  250.3750     2.3470    34.7230     4.5560     4.1330     4.1670    23.6950   -11.3650 
  250.5000     2.3510    37.2000     4.7120     4.1710     4.2520    23.8100   -11.3140 
  250.6250     2.3510    41.6080     4.9340     4.2870     4.6230    23.8470   -11.2820 
  250.7500     2.3460    45.9450     5.1430     4.4330     5.2680    23.8490   -11.2550 
  250.8750     2.3390    46.2450     5.2540     4.5530     5.5740    23.8490   -11.2060 
  251.0000     2.3320    40.1980     5.1790     4.5870     5.0000    23.8490   -11.2550 
  251.1250     2.3260    32.7640     4.9620     4.5370     4.3660    23.8500   -11.2300 
  251.2500     2.3220    27.8280     4.6810     4.4270     4.1920    23.8530   -11.1650 
  251.3750     2.3210    26.2560     4.4260     4.2970     4.2300    23.8550   -11.1270 
  251.5000     2.3270    26.0780     4.2890     4.1950     4.2540    23.8550   -11.0640 
  251.6250     2.3370    25.2210     4.2820     4.1420     4.3490    23.8510   -11.0720 
  251.7500     2.3440    24.4310     4.3770     4.1420     4.4270    23.8360   -11.0430 
  251.8750     2.3410    24.5840     4.5030     4.1870     4.4620    23.8020   -11.0110 
  252.0000     2.3230    27.0590     4.5740     4.2700     4.4490    23.7470   -10.9800 
  252.1250     2.3000    31.6380     4.6650     4.3760     4.4680    23.6960   -10.9070 
  252.2500     2.2880    36.7610     4.7810     4.4890     4.6210    23.6240   -10.9160 
  252.3750     2.2970    40.4330     4.8720     4.5880     4.9910    23.5420   -10.8400 
  252.5000     2.3250    39.9790     4.9260     4.6330     5.3280    23.5450   -10.8230 
  252.6250     2.3550    36.3260     4.9570     4.6100     5.2510    23.6140   -10.7910 
  252.7500     2.3740    31.6680     4.9790     4.5260     4.8470    23.6740   -10.7410 
  252.8750     2.3790    27.5050     4.9620     4.4080     4.5230    23.6950   -10.6930 
  253.0000     2.3740    25.0140     4.8630     4.2940     4.4090    23.6950   -10.6160 
  253.1250     2.3740    24.9270     4.7030     4.2150     4.4090    23.6950   -10.5770 
  253.2500     2.3780    27.8140     4.5420     4.1740     4.4430    23.6910   -10.4520 
  253.3750     2.3850    30.5980     4.4580     4.1610     4.4500    23.6750   -10.4060 
  253.5000     2.3870    29.0900     4.4550     4.1620     4.3660    23.6350   -10.3610 
  253.6250     2.3820    26.7630     4.4500     4.1560     4.2720    23.5900   -10.3450 
  253.7500     2.3740    26.7610     4.4360     4.1360     4.1190    23.5280   -10.2980 
  253.8750     2.3660    28.1690     4.4030     4.0960     4.0290    23.4410   -10.3090 
  254.0000     2.3610    28.2910     4.3370     4.0350     4.0060    23.4000   -10.2680 
  254.1250     2.3580    27.3450     4.2770     3.9610     3.9830    23.3890   -10.2200 
  254.2500     2.3550    27.1440     4.2550     3.8870     3.9210    23.3940   -10.2370 
  254.3750     2.3510    28.4520     4.2420     3.8230     3.8720    23.4040   -10.2480 
  254.5000     2.3430    30.7790     4.2340     3.7810     3.7830    23.4140   -10.2390 
  254.6250     2.3320    32.1370     4.2090     3.7590     3.7340    23.4180   -10.2110 
  254.7500     2.3230    31.4160     4.1710     3.7510     3.7610    23.4250   -10.2070 
  254.8750     2.3170    29.5450     4.1620     3.7510     3.7950    23.4450   -10.1320 
  255.0000     2.3200    28.2130     4.1720     3.7550     3.7810    23.4690   -10.1440 
  255.1250     2.3250    27.4710     4.1920     3.7610     3.8150    23.4790   -10.2050 
  255.2500     2.3290    27.2280     4.2160     3.7710     3.8240    23.4810   -10.2430 
  255.3750     2.3260    26.9950     4.2380     3.7860     3.7990    23.4790   -10.2840 
  255.5000     2.3150    26.8340     4.2660     3.8050     3.8340    23.4770   -10.3730 
  255.6250     2.2980    27.4530     4.3020     3.8200     3.9110    23.4800   -10.3970 
  255.7500     2.2830    29.4180     4.3220     3.8280     3.9220    23.4930   -10.4170 
  255.8750     2.2740    32.4160     4.3080     3.8340     3.8290    23.5150   -10.5220 
  256.0000     2.2770    34.2460     4.3020     3.8480     3.7140    23.5330   -10.6030 
  256.1250     2.2910    34.9740     4.3060     3.8760     3.7830    23.5500   -10.6440 
  256.2500     2.3130    35.0140     4.3120     3.9210     4.1100    23.5590   -10.7090 
  256.3750     2.3360    34.1450     4.3320     3.9770     4.7380    23.5830   -10.7480 
  256.5000     2.3510    32.5800     4.3990     4.0420     5.1760    23.6330   -10.7600 
  256.6250     2.3570    31.4490     4.5080     4.1170     4.9740    23.6770   -10.8370 
  256.7500     2.3600    31.4020     4.6040     4.2100     4.6100    23.6930   -10.9220 
  256.8750     2.3660    32.4060     4.6820     4.3160     4.7510    23.6950   -10.9130 
  257.0000     2.3810    34.1620     4.7350     4.4200     5.4180    23.6950   -10.9020 
  257.1250     2.3960    36.7310     4.8060     4.4990     5.7160    23.6920   -10.8890 
  257.2500     2.3960    39.8660     4.8850     4.5460     5.5510    23.6860   -10.8520 
  257.3750     2.3760    41.6720     4.9730     4.5740     5.2800    23.6790   -10.8280 
  257.5000     2.3400    41.3260     5.1070     4.6340     4.7720    23.6760   -10.8030 
  257.6250     2.3140    40.2980     5.2810     4.7690     4.8560    23.6770   -10.7540 
  257.7500     2.3140    39.3490     5.4600     4.9940     5.7940    23.6820   -10.6960 
  257.8750     2.3430    37.8920     5.6920     5.2770     7.4520    23.6760   -10.7300 
  258.0000     2.3870    35.7150     6.0030     5.5100     7.5060    23.6260   -10.7510 
  258.1250     2.4200    33.5540     6.1070     5.5830     7.1280    23.5230   -10.7850 
  258.2500     2.4270    31.4340     5.8780     5.4430     6.5180    23.4160   -10.8230 
  258.3750     2.4110    30.1950     5.3870     5.1180     5.6630    23.3860   -10.8340 
  258.5000     2.3800    29.4370     4.8840     4.7060     4.6900    23.4670   -10.7770 
  258.6250     2.3490    27.0960     4.5460     4.3320     3.9550    23.5680   -10.7790 
  258.7500     2.3240    23.7660     4.3020     4.0520     3.6220    23.6340   -10.8260 
  258.8750     2.3090    21.7590     4.1410     3.8800     3.5430    23.6670   -10.8580 
  259.0000     2.3020    21.8250     4.0540     3.8050     3.5600    23.6540   -10.9160 
  259.1250     2.3000    22.0170     4.0360     3.7790     3.5380    23.6110   -10.9740 
  259.2500     2.3010    22.2280     4.0280     3.7760     3.4760    23.5290   -11.0370 
  259.3750     2.3050    22.7380     4.0100     3.7840     3.4260    23.4460   -11.1080 
  259.5000     2.3090    23.1210     3.9980     3.8000     3.4790    23.4460   -11.2950 
  259.6250     2.3130    22.7330     3.9980     3.8240     3.5690    23.4620   -11.4230 
  259.7500     2.3130    21.4430     4.0220     3.8540     3.6870    23.4250   -11.5420 
  259.8750     2.3100    20.5160     4.0740     3.8860     3.7500    23.3540   -11.6450 
  260.0000     2.3070    20.8570     4.1360     3.9130     3.7420    23.2970   -11.7630 
  260.1250     2.3110    21.7540     4.1730     3.9380     3.7570    23.2470   -11.8870 
  260.2500     2.3240    22.5450     4.1960     3.9610     3.8610    23.2410   -12.0330 
  260.3750     2.3410    23.2920     4.2210     3.9890     4.0290    23.3090   -12.2500 
