~V
VERS. 2.00: Ver 2.00
~W
STRT.M 58.0000:
STOP.M 240.0000:
STEP.M 0.1250:
NULL. -999.2500:
UWI. F10642:
~C
DEPT.M :
SP.MV :
GR.API :
RML.OHMM :
RI. :
RXO.OHMM :
CALI.CM :
DEN.GM/CC :
~A
# ...
  215.5000   -34.5090    79.8240     9.3900     7.5730     9.2590    24.1360     2.3160 
  215.6250   -34.2450    79.1710     9.4490     7.6210     8.2940    24.1140     2.3080 
  215.7500   -34.0360    80.3510     9.5000     7.6620     8.3840    24.1250     2.2960 
  215.8750   -33.8730    80.1490     9.5540     7.7050     9.1540    24.1250     2.2850 
  216.0000   -33.7460    78.6660     9.6120     7.7510     9.8440    24.1060     2.2780 
  216.1250   -33.6850    80.1600     9.6550     7.7860    10.0860    24.0810     2.2760 
  216.2500   -33.6790    83.7680     9.6660     7.7950     9.8450    24.0200     2.2800 
  216.3750   -33.7460    86.0960     9.6590     7.7900     9.6340    23.9000     2.2930 
  216.5000   -33.8560    85.0360     9.6980     7.8210     9.7070    23.7650     2.3160 
  216.6250   -34.0010    80.1880     9.9160     7.9970    10.1350    23.6410     2.3400 
  216.7500   -34.1430    76.9740    10.3980     8.3850    10.5430    23.7260     2.3590 
  216.8750   -34.2620    77.9740    11.2020     9.0340    11.0870    23.9280     2.3670 
  217.0000   -34.3320    79.9220    12.3300     9.9440    11.5420    24.0280     2.3620 
  217.1250   -34.3260    79.1850    13.6810    11.0330    11.1250    23.8900     2.3420 
  217.2500   -34.2410    78.6630    14.8930    12.0110    10.8150    23.6600     2.3170 
  217.3750   -34.0640    79.5800    15.5340    12.5270    10.7330    23.6120     2.2950 
  217.5000   -33.8130    80.6130    15.2450    12.2940    11.2620    23.7610     2.2850 
  217.6250   -33.4720    82.6570    13.9070    11.2160    11.7800    23.8550     2.2890 
  217.7500   -33.0570    86.2840    12.1250     9.7780    11.7710    23.6550     2.3000 
  217.8750   -32.5910    88.2900    10.3630     8.3570    10.6170    23.0650     2.3070 
  218.0000   -32.1230    86.4920     8.9350     7.2060     8.3290    22.2020     2.3040 
  218.1250   -31.6820    81.7420     8.0590     6.4990     7.0940    22.0040     2.2950 
  218.2500   -31.2930    80.1700     7.6510     6.1700     6.8990    22.9080     2.2870 
  218.3750   -30.9540    82.7240     7.6270     6.1510     7.1400    23.8790     2.2830 
  218.5000   -30.6580    85.4140     7.8500     6.3310     7.3820    24.2920     2.2790 
  218.6250   -30.4340    83.9620     8.1160     6.5450     7.7900    24.3510     2.2780 
  218.7500   -30.2430    81.4880     8.2270     6.6350     8.2930    24.4320     2.2830 
  218.8750   -30.0930    80.9050     8.1160     6.5460     8.6120    24.4670     2.2940 
  219.0000   -29.9740    83.0270     7.8380     6.3210     8.3940    24.3910     2.3070 
  219.1250   -29.8930    84.5140     7.5270     6.0700     7.6140    24.3210     2.3090 
  219.2500   -29.8370    84.4210     7.3180     5.9020     6.8670    24.3040     2.3010 
  219.3750   -29.8170    83.7550     7.2720     5.8650     6.7060    24.3050     2.2900 
  219.5000   -29.8520    82.4920     7.3940     5.9630     6.9340    24.2500     2.2880 
  219.6250   -29.8930    79.0640     7.6430     6.1640     7.2130    24.1360     2.3030 
  219.7500   -29.9410    75.3600     7.9140     6.3820     7.3760    24.0310     2.3290 
  219.8750   -29.9740    74.0790     8.1460     6.5690     7.5030    23.9560     2.3510 
  220.0000   -29.9800    74.7790     8.3040     6.6970     7.5600    23.9630     2.3570 
  220.1250   -29.9250    71.4880     8.3490     6.7330     7.9240    24.0580     2.3430 
  220.2500   -29.7910    66.5900     8.2670     6.6670     7.9820    24.1650     2.3220 
  220.3750   -29.5420    64.1510     8.0330     6.4780     7.9280    24.2120     2.3090 
  220.5000   -29.1930    65.8600     7.6440     6.1650     8.0420    24.2510     2.3150 
  220.6250   -28.7540    66.7650     7.1580     5.7730     7.5710    24.2440     2.3420 
  220.7500   -28.2870    64.2090     6.7180     5.4180     6.6270    24.1550     2.3710 
  220.8750   -27.7830    61.0070     6.4420     5.1950     5.9260    24.0050     2.3880 
  221.0000   -27.2830    58.6200     6.4080     5.1680     5.7290    23.8860     2.3870 
  221.1250   -26.8080    57.7750     6.6650     5.3750     6.2410    23.8280     2.3780 
  221.2500   -26.3490    59.9490     7.0790     5.7090     7.0890    23.8250     2.3720 
  221.3750   -25.9400    62.5370     7.4910     6.0410     7.5390    23.8590     2.3720 
  221.5000   -25.5680    60.8970     7.7320     6.2350     7.7600    23.8860     2.3750 
  221.6250   -25.2530    55.8100     7.6840     6.1970     7.3730    23.8880     2.3760 
  221.7500   -24.9450    53.0850     7.4720     6.0260     6.6890    23.8790     2.3740 
  221.8750   -24.6870    53.3110     7.2310     5.8320     6.2280    23.8760     2.3700 
  222.0000   -24.4450    53.6340     7.0570     5.6910     6.1140    23.8470     2.3680 
  222.1250   -24.2000    51.4460     6.9690     5.6200     6.4890    23.7710     2.3720 
  222.2500   -23.9960    47.3060     6.8780     5.5470     6.8710    23.6670     2.3790 
  222.3750   -23.7960    43.4450     6.7120     5.4130     6.7090    23.6530     2.3850 
  222.5000   -23.5720    41.5190     6.4400     5.1930     6.2870    23.6560     2.3860 
  222.6250   -23.3380    39.2700     6.0900     4.9110     5.7300    23.6220     2.3850 
  222.7500   -23.1170    36.0680     5.7370     4.6270     5.3390    23.5250     2.3900 
  222.8750   -22.8960    34.5040     5.4260     4.3760     5.0320    23.4240     2.4070 
  223.0000   -22.6870    36.1880     5.1950     4.1900     4.9220    23.4210     2.4340 
  223.1250   -22.4810    39.0450     5.1160     4.1260     5.0200    23.5180     2.4650 
  223.2500   -22.2230    39.6980     5.2210     4.2110     5.2080    23.6180     2.4920 
  223.3750   -21.9280    37.2520     5.5520     4.4770     5.6010    23.6690     2.5140 
  223.5000   -21.6430    32.4650     6.1150     4.9310     6.9440    23.6200     2.5320 
  223.6250   -21.3710    28.2140     6.8630     5.5350     9.4900    23.4950     2.5440 
  223.7500   -21.1180    25.6390     7.5960     6.1260    10.9740    23.3620     2.5510 
  223.8750   -20.8600    24.7870     8.1080     6.5390    10.2260    23.2700     2.5550 
  224.0000   -20.5750    25.3670     8.2310     6.6380     9.0040    23.1780     2.5560 
  224.1250   -20.2680    25.5010     7.8720     6.3490     7.6620    23.1420     2.5450 
  224.2500   -20.0130    25.2190     7.2570     5.8520     6.6480    22.9090     2.5190 
  224.3750   -19.8130    26.5800     6.5740     5.3020     6.0900    22.3250     2.4830 
  224.5000   -19.6410    30.0900     5.9550     4.8030     5.3470    21.8440     2.4480 
  224.6250   -19.5240    32.1010     5.4770     4.4170     4.7410    22.0910     2.4260 
  224.7500   -19.4210    31.2520     5.1150     4.1250     4.6750    22.8000     2.4180 
  224.8750   -19.3330    29.3680     4.8450     3.9070     4.9220    23.4040     2.4140 
  225.0000   -19.3050    28.3860     4.6400     3.7420     4.9480    23.6400     2.4020 
  225.1250   -19.3450    27.9890     4.4850     3.6170     4.5720    23.6720     2.3710 
  225.2500   -19.4030    27.7550     4.3760     3.5290     4.0890    23.7390     2.3350 
  225.3750   -19.5300    27.9220     4.3220     3.4860     3.7980    23.8130     2.3060 
  225.5000   -19.7330    28.2370     4.3320     3.4940     3.7840    23.8060     2.2950 
  225.6250   -19.9400    28.7360     4.3930     3.5430     3.9210    23.7320     2.3120 
  225.7500   -20.1690    28.7190     4.4390     3.5800     4.1150    23.6490     2.3400 
  225.8750   -20.4250    28.4450     4.4120     3.5580     4.2130    23.6100     2.3580 
  226.0000   -20.6600    27.9300     4.2820     3.4530     4.1100    23.6330     2.3570 
  226.1250   -20.8660    26.4190     4.0640     3.2770     3.7950    23.7210     2.3390 
  226.2500   -21.0510    25.1580     3.8340     3.0920     3.4270    23.8010     2.3220 
  226.3750   -21.1580    24.8100     3.6410     2.9360     3.2560    23.8490     2.3150 
  226.5000   -21.1970    25.2160     3.5070     2.8280     3.2350    23.8750     2.3200 
  226.6250   -21.1700    25.3250     3.4560     2.7870     3.2720    23.8850     2.3350 
