~V
VERS. 2.00: Ver 2.00
~W
STRT.M 52.0000:
STOP.M 260.0000:
STEP.M 0.1250:
NULL. -999.2500:
UWI. F10654:
~C
DEPT.M :
SP.MV :
GR.API :
RML.OHMM :
RI. :
RXO.OHMM :
CALI.CM :
DEN.GM/CC :
~A
# ...
  108.2500    -9.0330    59.7980     9.8970     9.1270     9.5570    24.3650     2.2100 
  108.3750    -8.9400    59.3150     9.6600     9.1530     9.6630    24.4990     2.1940 
  108.5000    -8.9250    59.2740     8.8150     8.5790     9.3510    24.4780     2.2010 
  108.6250    -8.9270    62.0850     7.8170     7.7550     8.5510    24.3610     2.2270 
  108.7500    -8.9470    66.9090     6.9650     6.9510     7.4280    24.2480     2.2530 
  108.8750    -8.9770    71.0650     6.4330     6.3630     6.3560    24.1800     2.2630 
  109.0000    -8.9500    73.0390     6.3410     6.1560     5.9030    24.1060     2.2480 
  109.1250    -8.8970    72.4990     6.6050     6.3030     6.1780    23.9830     2.2230 
  109.2500    -8.8200    69.6190     7.1740     6.7760     6.7400    23.8250     2.2050 
  109.3750    -8.7210    66.4120     7.9530     7.4950     7.2140    23.5960     2.2080 
  109.5000    -8.5920    66.8670     8.7560     8.2960     7.6150    23.1790     2.2350 
  109.6250    -8.4800    69.3320     9.3250     8.9270     8.1540    22.7320     2.2700 
  109.7500    -8.3770    71.9120     9.4650     9.1900     8.7450    22.5080     2.2970 
  109.8750    -8.2930    74.3990     9.1000     8.9880     9.4300    22.5150     2.3050 
  110.0000    -8.2530    75.2180     8.2940     8.3290     9.3810    22.6020     2.2920 
  110.1250    -8.2470    74.5780     7.3760     7.4850     8.1950    22.5070     2.2780 
  110.2500    -8.2560    74.6480     6.5640     6.6510     6.5460    21.9540     2.2760 
  110.3750    -8.2830    76.8540     5.9590     5.9570     5.7850    20.7420     2.2920 
  110.5000    -8.3460    82.4490     5.6020     5.4930     5.6430    18.9630     2.3190 
  110.6250    -8.3960    88.7540     5.4340     5.2410     5.4750    17.2420     2.3420 
  110.7500    -8.4830    92.4330     5.4650     5.2040     5.3280    16.1070     2.3570 
  110.8750    -8.5790    91.1010     5.7120     5.3720     5.2430    15.4940     2.3620 
  111.0000    -8.7040    84.9980     6.1680     5.7280     5.7160    15.3170     2.3610 
  111.1250    -8.8590    78.7430     6.6630     6.1380     6.6180    15.4060     2.3540 
  111.2500    -8.9850    74.3930     7.0150     6.4670     7.5560    15.7340     2.3400 
  111.3750    -9.1290    73.0320     7.0680     6.5830     8.2910    16.3320     2.3200 
  111.5000    -9.2500    75.5230     6.7400     6.3840     8.0670    17.1590     2.2960 
  111.6250    -9.3450    80.2280     6.2530     6.0070     6.5490    17.7820     2.2710 
  111.7500    -9.4210    85.5180     5.8570     5.6400     5.1790    18.0590     2.2540 
  111.8750    -9.4820    88.1200     5.7870     5.4830     4.6070    18.1290     2.2510 
  112.0000    -9.5600    83.7180     6.2980     5.7760     4.7350    18.1780     2.2690 
  112.1250    -9.6410    76.2900     7.3430     6.5360     5.3950    18.3080     2.2980 
  112.2500    -9.7460    71.2290     8.8060     7.7160     6.7100    18.6060     2.3200 
  112.3750    -9.8780    69.0490    10.4200     9.1340     8.7230    19.1730     2.3150 
  112.5000   -10.0090    67.9420    11.7020    10.4180    11.2980    20.1220     2.2700 
  112.6250   -10.1620    66.0530    12.3100    11.2150    13.5110    21.2590     2.2050 
  112.7500   -10.3470    63.8670    12.1340    11.3520    14.6780    22.4970     2.1410 
  112.8750   -10.5330    61.7940    11.3610    10.8960    14.0620    23.7270     2.0950 
  113.0000   -10.6980    60.3920    10.3820    10.1140    11.4770    24.5710     2.0830 
  113.1250   -10.8410    60.1810     9.5710     9.3680     9.9440    24.9530     2.0940 
  113.2500   -10.9590    61.2950     9.0310     8.8000     9.2650    25.0770     2.1150 
  113.3750   -11.0580    62.5840     8.7310     8.4390     8.9730    25.1090     2.1350 
  113.5000   -11.1540    62.8730     8.5990     8.2690     8.7680    25.1180     2.1450 
  113.6250   -11.2260    63.4570     8.5230     8.2050     8.6090    25.1180     2.1520 
  113.7500   -11.2670    65.0620     8.4670     8.2010     8.4920    25.1200     2.1620 
  113.8750   -11.2860    65.4630     8.4190     8.2240     8.3640    25.1320     2.1760 
  114.0000   -11.2890    62.0190     8.3790     8.2390     8.3480    25.1680     2.1850 
  114.1250   -11.2840    58.4720     8.3280     8.2180     8.2710    25.2510     2.1820 
  114.2500   -11.2830    57.8630     8.2420     8.1410     8.1220    25.4070     2.1660 
  114.3750   -11.2720    59.5020     8.1080     8.0090     8.0170    25.6380     2.1450 
  114.5000   -11.2100    61.2980     7.9490     7.8430     7.8760    25.8130     2.1310 
  114.6250   -11.1490    63.2070     7.8230     7.6920     7.7310    25.9090     2.1270 
  114.7500   -11.0600    64.3270     7.7660     7.5850     7.5890    25.9560     2.1300 
  114.8750   -10.9410    63.8550     7.7790     7.5330     7.5760    25.9860     2.1340 
  115.0000   -10.8140    63.1550     7.8120     7.5180     7.7730    25.9760     2.1350 
  115.1250   -10.6630    63.2140     7.7830     7.4830     7.8260    25.8760     2.1320 
  115.2500   -10.5030    63.4050     7.6380     7.3800     7.7480    25.5740     2.1290 
  115.3750   -10.3320    64.1880     7.3580     7.1800     7.5270    24.8810     2.1330 
  115.5000   -10.1610    68.1220     6.9650     6.8700     7.1310    23.7170     2.1490 
  115.6250   -10.0000    74.2470     6.5550     6.5080     6.5070    21.9140     2.1750 
  115.7500    -9.8480    81.0510     6.2060     6.1510     5.7080    19.4930     2.2060 
  115.8750    -9.7040    87.6160     5.9780     5.8550     5.0180    17.0710     2.2340 
  116.0000    -9.5730    91.7730     5.9100     5.6740     4.5680    15.5410     2.2530 
  116.1250    -9.4440    92.9270     5.9470     5.5970     4.3960    14.8820     2.2630 
  116.2500    -9.3430    92.9800     6.0250     5.5960     4.5390    14.7000     2.2670 
  116.3750    -9.2680    92.8940     6.0750     5.6230     4.9020    14.7570     2.2700 
  116.5000    -9.2180    91.4920     6.0300     5.6140     5.2940    14.9960     2.2740 
  116.6250    -9.2030    89.5430     5.8960     5.5340     5.6040    15.3240     2.2800 
  116.7500    -9.2020    88.9930     5.7090     5.3870     5.7810    15.7010     2.2880 
  116.8750    -9.2300    90.3140     5.5190     5.2030     5.8050    16.0620     2.2970 
  117.0000    -9.2700    93.6010     5.3880     5.0410     5.7470    16.3820     2.2990 
  117.1250    -9.3380    96.3320     5.3430     4.9500     5.5970    16.7340     2.2940 
  117.2500    -9.4520    95.1710     5.3940     4.9530     5.2560    17.1800     2.2790 
  117.3750    -9.5500    89.8740     5.5350     5.0480     4.9020    17.7830     2.2590 
  117.5000    -9.6500    85.8680     5.7310     5.2110     5.0850    18.5660     2.2410 
  117.6250    -9.7520    85.3610     5.9020     5.3700     5.6700    19.3150     2.2310 
  117.7500    -9.8480    85.8990     5.9820     5.4730     6.4980    19.9260     2.2320 
  117.8750    -9.9540    85.6810     5.9380     5.4870     7.2480    20.4740     2.2390 
  118.0000   -10.0520    85.3500     5.7950     5.4100     7.6470    20.9440     2.2460 
  118.1250   -10.1560    85.2390     5.6510     5.3090     7.7140    21.2570     2.2500 
  118.2500   -10.2300    85.1940     5.5810     5.2490     7.6330    21.3950     2.2480 
  118.3750   -10.2920    83.4560     5.6350     5.2820     7.5650    21.4860     2.2400 
  118.5000   -10.4040    78.0580     5.8510     5.4600     7.6680    21.6050     2.2290 
  118.6250   -10.4970    72.1390     6.1840     5.7570     7.8990    21.7360     2.2160 
  118.7500   -10.5910    68.3880     6.5940     6.1390     8.1600    21.8060     2.2040 
  118.8750   -10.6990    66.9610     7.0290     6.5580     8.3900    21.8340     2.1950 
  119.0000   -10.7860    66.1970     7.4370     6.9660     8.6810    21.8500     2.1890 
  119.1250   -10.8650    65.7490     7.8010     7.3390     8.9890    21.8590     2.1870 
  119.2500   -10.9700    64.4720     8.1310     7.6800     9.2300    21.8460     2.1880 
  119.3750   -11.0870    61.3640     8.4420     8.0030     9.3520    21.8050     2.1940 
