~V
VERS. 2.00: Ver 2.00
~W
STRT.M 49.0000:
STOP.M 254.0000:
STEP.M 0.1250:
NULL. -999.2500:
UWI. F10669:
~C
DEPT.M :
DEN.GM/CC :
GR.API :
RML.OHMM :
RI. :
RXO.OHMM :
CALI.CM :
SP.MV :
~A
# ...
   82.7500     2.3430    88.2960     8.5140     6.4520    11.5570    23.6770   -18.9640 
   82.8750     2.2870    84.2870     8.7440     6.6710    14.0860    23.7090   -19.3210 
   83.0000     2.2120    78.4970     8.7640     6.7590    12.0670    23.7250   -19.5890 
   83.1250     2.1510    74.8080     8.6010     6.7070     9.3100    23.7400   -19.7750 
   83.2500     2.1200    72.6630     8.4020     6.5850     7.8030    23.7240   -19.9100 
   83.3750     2.1180    71.5720     8.4000     6.5280     7.1740    23.6100   -19.9690 
   83.5000     2.1260    71.2810     8.6380     6.6040     7.3390    23.3830   -19.9130 
   83.6250     2.1360    70.4960     8.9700     6.7630     7.4680    23.0880   -19.7050 
   83.7500     2.1490    68.5020     9.0990     6.8470     7.3640    22.7970   -19.3730 
   83.8750     2.1720    67.5130     8.6760     6.6270     7.2610    22.5780   -18.9320 
   84.0000     2.2010    70.0780     7.8370     6.1280     6.9610    22.3860   -18.4480 
   84.1250     2.2270    75.0230     6.8880     5.4970     6.2610    22.1920   -17.9550 
   84.2500     2.2390    80.4660     6.1550     4.9330     5.2670    22.2710   -17.4680 
   84.3750     2.2340    84.2250     5.8940     4.6290     5.2910    22.7920   -16.9690 
   84.5000     2.2240    83.8490     6.0290     4.5930     6.2280    23.3490   -16.5010 
   84.6250     2.2190    80.6860     6.4420     4.7900     6.8620    23.6650   -16.0920 
   84.7500     2.2210    77.4860     6.9630     5.1360     7.1460    23.7490   -15.7590 
   84.8750     2.2240    77.0270     7.3450     5.4860     7.2310    23.7180   -15.5430 
   85.0000     2.2200    76.8750     7.4690     5.7060     7.1580    23.6960   -15.3930 
   85.1250     2.2150    77.3150     7.3750     5.7710     6.9870    23.7250   -15.2890 
   85.2500     2.2150    79.5820     7.1930     5.7340     6.9830    23.7130   -15.2040 
   85.3750     2.2240    81.6460     7.0320     5.6620     7.3300    23.6470   -15.1470 
   85.5000     2.2320    82.8740     6.9040     5.5840     7.1690    23.5930   -15.1180 
   85.6250     2.2360    84.3620     6.7750     5.4880     6.8630    23.5330   -15.0940 
   85.7500     2.2340    84.6540     6.5980     5.3510     6.9020    23.4940   -15.0630 
   85.8750     2.2380    83.0810     6.3490     5.1560     6.5270    23.6040   -15.0150 
   86.0000     2.2590    84.9830     6.0900     4.9440     6.1840    23.7730   -14.9630 
   86.1250     2.2930    90.5430     5.8900     4.7620     5.7670    23.8700   -14.9200 
   86.2500     2.3220    94.9380     5.8070     4.6580     5.5980    23.8980   -14.9050 
   86.3750     2.3230    93.0030     5.8940     4.6770     5.8430    23.9260   -14.9140 
   86.5000     2.2970    87.0870     6.1040     4.7970     6.2450    23.9850   -14.9290 
   86.6250     2.2600    81.3870     6.3790     4.9860     6.4380    24.0080   -14.9540 
   86.7500     2.2280    79.0480     6.6370     5.1890     6.5610    23.8660   -14.9780 
   86.8750     2.2160    80.0310     6.7750     5.3300     7.0470    23.6380   -14.9840 
   87.0000     2.2210    81.1320     6.7700     5.3790     7.1640    23.5020   -14.9600 
   87.1250     2.2360    81.7540     6.6610     5.3450     6.9100    23.5410   -14.8850 
   87.2500     2.2510    82.6860     6.5300     5.2690     6.5330    23.6390   -14.7640 
   87.3750     2.2560    82.4640     6.4660     5.2060     6.2470    23.6630   -14.6100 
   87.5000     2.2520    80.1180     6.4820     5.1820     6.1930    23.6370   -14.4440 
   87.6250     2.2460    78.7370     6.5400     5.1880     6.3790    23.6140   -14.2590 
   87.7500     2.2440    78.2000     6.5770     5.1940     6.8750    23.6180   -14.0690 
   87.8750     2.2530    78.0960     6.5210     5.1560     7.3090    23.6730   -13.9040 
   88.0000     2.2670    79.2230     6.3810     5.0730     6.9400    23.7780   -13.7760 
   88.1250     2.2780    80.5580     6.1940     4.9610     6.3130    23.8710   -13.6980 
   88.2500     2.2740    80.8460     6.0280     4.8580     6.0980    23.8990   -13.6350 
   88.3750     2.2490    80.7920     6.0400     4.8570     6.2270    23.9050   -13.6140 
   88.5000     2.2250    82.1210     6.3680     5.0660     6.5410    23.9360   -13.6170 
   88.6250     2.2260    82.9250     7.1070     5.5810     6.9940    23.9650   -13.6750 
   88.7500     2.2750    80.9910     8.2320     6.4380     7.5450    23.9790   -13.7880 
   88.8750     2.3720    77.8210     9.4960     7.5340     9.4880    23.9550   -13.9480 
   89.0000     2.4630    74.3840    10.3430     8.4470    13.8990    23.8860   -14.1570 
   89.1250     2.5010    71.1750    10.3190     8.7430    16.5140    23.7970   -14.3980 
   89.2500     2.4750    72.6630     9.4070     8.2520    13.3810    23.7410   -14.6790 
   89.3750     2.4110    81.2590     8.0920     7.2240     9.0410    23.6000   -14.9730 
   89.5000     2.3510    88.3330     6.9660     6.2000     6.6040    23.2650   -15.2860 
   89.6250     2.3080    88.7430     6.1930     5.4000     6.1470    22.9040   -15.5990 
   89.7500     2.2820    85.2640     5.7320     4.8660     6.2990    22.8470   -15.9180 
   89.8750     2.2630    84.0480     5.5290     4.5980     6.2490    22.9570   -16.2320 
   90.0000     2.2470    83.8970     5.5790     4.5570     6.1840    23.0280   -16.5440 
   90.1250     2.2490    83.4840     6.0760     4.8410     6.2890    23.1290   -16.8690 
   90.2500     2.2960    81.4780     7.3050     5.6360     6.9670    23.3840   -17.2240 
   90.3750     2.4070    75.7510     9.7650     7.3510    10.9400    23.6530   -17.6380 
   90.5000     2.5170    67.6200    13.3930    10.0530    23.8160    23.7620   -18.0970 
   90.6250     2.5480    60.9370    17.5950    13.4670    43.2500    23.7730   -18.5840 
   90.7500     2.4800    57.5870    20.6600    16.4630    41.2960    23.7420   -19.0670 
   90.8750     2.3580    56.8450    20.2430    17.1090    24.9510    23.6490   -19.5330 
   91.0000     2.2480    56.8880    17.6510    15.8050    15.6700    23.5620   -19.9520 
   91.1250     2.1740    56.6010    14.8450    13.8420    12.7350    23.5470   -20.3260 
   91.2500     2.1400    55.6190    12.8920    12.1880    12.1730    23.5410   -20.6420 
   91.3750     2.1370    56.6460    12.0290    11.2500    12.1660    23.4300   -20.8720 
   91.5000     2.1430    59.2630    11.7630    10.8120    12.0610    23.2440   -21.0270 
   91.6250     2.1470    60.4590    11.7720    10.6690    11.8670    23.0940   -21.1260 
   91.7500     2.1440    58.3890    11.8240    10.6380    11.6050    23.0800   -21.1910 
   91.8750     2.1320    56.1380    11.7900    10.5960    11.4520    23.1640   -21.2260 
   92.0000     2.1180    56.3370    11.6750    10.5080    11.3290    23.2520   -21.2460 
   92.1250     2.1090    57.1100    11.5060    10.3810    11.1080    23.2720   -21.2390 
   92.2500     2.1100    56.5620    11.3140    10.2270    10.8590    23.1900   -21.2160 
   92.3750     2.1230    55.4000    11.1300    10.0540    10.8120    23.0210   -21.1750 
   92.5000     2.1370    55.9670    10.9710     9.8740    11.0480    22.9240   -21.1180 
   92.6250     2.1490    57.5770    10.8390     9.6940    11.2580    22.9070   -21.0430 
   92.7500     2.1560    59.7010    10.7310     9.5270    11.2830    22.9290   -20.9530 
   92.8750     2.1590    61.3270    10.6470     9.3850    10.9560    22.9300   -20.8560 
   93.0000     2.1610    60.8770    10.5890     9.2750    10.6340    22.9580   -20.7640 
   93.1250     2.1640    59.2870    10.5630     9.2000    10.4270    23.0010   -20.6820 
   93.2500     2.1700    58.3840    10.5680     9.1630    10.3570    23.0030   -20.5870 
   93.3750     2.1760    59.2420    10.5920     9.1610    10.3570    22.9700   -20.4800 
   93.5000     2.1800    60.7670    10.6120     9.1750    10.3530    22.9490   -20.3700 
   93.6250     2.1790    62.5070    10.6120     9.1860    10.4150    22.9550   -20.2700 
   93.7500     2.1720    62.9540    10.5840     9.1750    10.3840    22.9570   -20.1840 
   93.8750     2.1630    60.8520    10.5240     9.1290    10.3030    22.9670   -20.1260 
