~V
VERS. 2.00: Ver 2.00
~W
STRT.M 55.0000:
STOP.M 228.0000:
STEP.M 0.1250:
NULL. -999.2500:
UWI. F10621:
~C
DEPT.M :
GR.API :
RML.OHMM :
RI. :
RXO.OHMM :
CALI.CM :
DEN.GM/CC :
SP.MV :
~A
# ...
  122.5000    80.9640    10.1920     8.8790     9.2390    24.5250     2.2940    -3.6280 
  122.6250    85.1850     9.2370     8.1930     7.8030    24.3670     2.3010    -3.7360 
  122.7500    88.2160     8.2680     7.4340     7.1840    24.5560     2.3020    -3.8120 
  122.8750    92.2220     7.4510     6.7460     6.8330    24.7650     2.3010    -3.8810 
  123.0000    96.2180     6.8730     6.2220     6.5340    24.8390     2.3070    -3.9340 
  123.1250    99.4900     6.6170     5.9540     5.8100    24.8390     2.3230    -3.9340 
  123.2500    99.8300     6.6360     5.9300     5.4030    24.8390     2.3470    -3.9400 
  123.3750    95.5120     6.8790     6.1230     5.4610    24.8390     2.3750    -3.9420 
  123.5000    90.0150     7.2300     6.4520     6.0510    24.8410     2.3980    -3.9010 
  123.6250    88.9780     7.4840     6.7520     6.9570    24.8550     2.4060    -3.8910 
  123.7500    89.6400     7.4800     6.8600     7.8020    24.9130     2.3990    -3.9270 
  123.8750    88.7010     7.1710     6.7020     7.9880    25.0780     2.3820    -3.9330 
  124.0000    89.6880     6.6420     6.3170     6.8090    25.3620     2.3690    -3.9300 
  124.1250    96.6680     6.0860     5.8510     5.2670    25.4370     2.3690    -3.9570 
  124.2500   101.5590     5.6700     5.4720     4.7380    25.0390     2.3790    -3.9760 
  124.3750   100.0770     5.4400     5.2430     4.6650    24.5350     2.3920    -3.9610 
  124.5000    97.5890     5.3630     5.1530     4.6810    24.3800     2.4020    -3.9060 
  124.6250   100.8530     5.3720     5.1560     4.6970    24.5220     2.4070    -3.8190 
  124.7500   105.1160     5.3970     5.1750     4.6960    24.6310     2.4080    -3.7080 
  124.8750   103.7290     5.4210     5.1790     4.6710    24.6650     2.4080    -3.6040 
  125.0000    98.7280     5.4530     5.1660     4.6880    24.6650     2.4090    -3.5140 
  125.1250    96.8200     5.5000     5.1370     4.6970    24.6540     2.4120    -3.4350 
  125.2500    96.9170     5.5470     5.0930     4.7420    24.6360     2.4150    -3.3710 
  125.3750    97.3210     5.5650     5.0210     4.8000    24.6280     2.4140    -3.3130 
  125.5000    99.2350     5.5210     4.9050     4.8190    24.6260     2.4060    -3.3080 
  125.6250   106.8270     5.3920     4.7330     4.7940    24.6260     2.3920    -3.3340 
  125.7500   115.2390     5.2470     4.5460     4.7640    24.6260     2.3840    -3.3460 
  125.8750   119.9810     5.2300     4.4330     4.8080    24.6250     2.3900    -3.3770 
  126.0000   117.9880     5.5940     4.5440     5.1290    24.6170     2.4170    -3.4320 
  126.1250   106.9460     6.8430     5.2190     6.4950    24.5940     2.4520    -3.4830 
  126.2500    93.2590     9.1840     6.6760     9.7840    24.5680     2.4690    -3.5290 
  126.3750    81.1920    12.6860     9.1110    15.0670    24.5570     2.4490    -3.6040 
  126.5000    71.9630    17.0500    12.5100    21.4750    24.5590     2.3900    -3.6930 
  126.6250    66.0380    21.4950    16.5430    27.6100    24.6410     2.3090    -3.7440 
  126.7500    64.2910    25.1040    20.3670    29.0770    24.8850     2.2320    -3.8260 
  126.8750    69.1290    27.4750    23.3680    27.6050    25.3330     2.1730    -3.9300 
  127.0000    76.6500    28.8640    25.3960    27.3470    25.8390     2.1340    -3.9990 
  127.1250    78.0830    30.1010    26.8870    28.6180    26.0620     2.1170    -4.0390 
  127.2500    73.7070    31.8730    28.5460    30.3870    25.7710     2.1130    -4.0710 
  127.3750    69.7630    34.1860    30.5310    32.3460    25.3860     2.1140    -4.0690 
  127.5000    70.2860    36.6320    32.6250    34.3280    25.1750     2.1180    -4.0140 
  127.6250    71.4020    38.5780    34.3470    35.5800    25.0940     2.1230    -3.9160 
  127.7500    69.9940    39.7650    35.4420    35.5160    25.0690     2.1310    -3.7960 
  127.8750    68.0730    40.1660    35.8480    34.2660    25.0670     2.1400    -3.6410 
  128.0000    66.2870    39.8940    35.6440    32.5620    25.0810     2.1490    -3.4780 
  128.1250    64.0270    39.0410    34.9040    32.6770    25.1030     2.1570    -3.3720 
  128.2500    62.5670    37.9250    33.9070    33.8020    25.0970     2.1640    -3.2910 
  128.3750    63.5110    36.8950    32.9310    34.4670    25.0740     2.1720    -3.2210 
  128.5000    66.5370    36.4530    32.3710    32.9060    25.0570     2.1800    -3.1640 
  128.6250    69.3990    37.4190    32.9040    30.8980    25.0560     2.1870    -3.1670 
  128.7500    68.9700    39.9780    34.7750    32.2400    25.0770     2.1900    -3.1900 
  128.8750    66.0370    44.0270    38.0430    38.3550    25.1170     2.1870    -3.2140 
  129.0000    63.8320    49.0080    42.3940    48.4940    25.1410     2.1740    -3.2560 
  129.1250    64.9950    53.9400    47.1300    54.2540    25.1550     2.1500    -3.2690 
  129.2500    66.2740    57.9570    51.3600    55.7060    25.2700     2.1240    -3.2370 
  129.3750    63.9990    60.7090    54.6030    51.7500    25.5360     2.1050    -3.1990 
  129.5000    61.2880    62.1820    56.7280    44.9560    25.9640     2.0960    -3.1950 
  129.6250    60.8320    62.2240    57.5200    39.8080    26.2320     2.0980    -3.1950 
  129.7500    60.3920    60.7340    56.9000    37.9840    25.8460     2.1040    -3.1740 
  129.8750    58.2850    57.4840    54.5350    39.6590    25.2400     2.1060    -3.1870 
  130.0000    56.0550    52.5610    50.4430    42.4230    24.9620     2.1050    -3.2260 
  130.1250    57.9680    47.0370    45.2610    39.0110    24.9990     2.1050    -3.2280 
  130.2500    62.4620    42.0830    40.3150    33.0640    25.0440     2.1190    -3.2530 
  130.3750    66.6170    38.0720    36.3370    29.9780    25.0410     2.1480    -3.3030 
  130.5000    66.5280    35.1850    33.5220    30.4840    24.9570     2.1840    -3.3170 
  130.6250    63.3140    33.3890    31.7110    32.0080    24.7410     2.2100    -3.2780 
  130.7500    64.0900    31.9060    30.2610    32.7470    24.5860     2.2120    -3.2490 
  130.8750    68.8270    30.3680    28.8350    31.4460    24.7160     2.1940    -3.1790 
  131.0000    73.4960    28.7590    27.3600    27.4280    24.9730     2.1680    -3.0510 
  131.1250    73.1580    27.5870    26.1970    24.5440    25.0970     2.1490    -2.9280 
  131.2500    70.4410    27.4640    25.8610    22.3030    25.1190     2.1420    -2.8190 
  131.3750    68.8690    28.8700    26.8140    21.3250    25.0710     2.1420    -2.6830 
  131.5000    70.5280    31.9190    29.2810    22.8070    24.8810     2.1450    -2.5270 
  131.6250    71.9880    36.2690    33.1880    28.3460    24.5670     2.1480    -2.4320 
  131.7500    70.1230    40.5850    37.4350    36.2070    24.4310     2.1510    -2.3610 
  131.8750    68.2770    43.6570    40.8800    43.8150    24.5390     2.1570    -2.2950 
  132.0000    69.0230    44.6380    42.5350    46.7700    24.6650     2.1700    -2.2370 
  132.1250    71.0730    43.3270    41.8700    42.2270    24.6950     2.1880    -2.1890 
  132.2500    71.8400    41.2320    40.1240    35.9900    24.6730     2.2040    -2.1470 
  132.3750    71.7610    39.5870    38.4600    31.5160    24.5640     2.2120    -2.1260 
  132.5000    70.3610    39.1140    37.6640    29.6040    24.3750     2.2100    -2.1390 
  132.6250    68.2920    39.9740    38.0580    30.3790    24.2440     2.2080    -2.1430 
  132.7500    68.6450    41.3830    39.0730    33.3440    24.3320     2.2170    -2.1590 
  132.8750    69.6940    42.7000    40.1790    37.0720    24.5060     2.2410    -2.1880 
  133.0000    68.0710    43.4370    40.9170    40.6560    24.5900     2.2680    -2.2220 
  133.1250    62.8360    43.3420    40.9850    43.1480    24.5090     2.2750    -2.3040 
  133.2500    58.1810    42.9160    40.7350    42.2430    24.3260     2.2570    -2.3790 
  133.3750    56.9070    42.7850    40.6900    39.0780    24.1380     2.2230    -2.4500 
  133.5000    58.2560    43.5210    41.3800    38.7680    23.9280     2.1950    -2.5620 
  133.6250    60.3410    45.5360    43.2570    41.4170    23.6660     2.2040    -2.6570 
