~V
VERS. 2.00: Ver 2.00
~W
STRT.M 50.0000:
STOP.M 217.0000:
STEP.M 0.1250:
NULL. -999.2500:
UWI. F10606:
~C
DEPT.M :
DEN.GM/CC :
GR.API :
RML.OHMM :
RI. :
RXO.OHMM :
CALI.CM :
SP.MV :
~A
# ...
  117.5000     2.6080    52.6360    40.5680    34.2990    52.5720    24.2400   -13.1530 
  117.6250     2.6180    52.5690    43.1870    36.9940    49.8250    24.3410   -13.0890 
  117.7500     2.6220    54.4500    44.5310    38.5650    53.3260    24.3760   -13.0580 
  117.8750     2.6150    54.7170    44.6830    39.0510    62.6360    24.4010   -13.0600 
  118.0000     2.5960    51.6190    43.9670    38.7070    62.7810    24.4880   -13.0680 
  118.1250     2.5670    49.8890    42.9260    37.9520    52.2160    24.5220   -13.0980 
  118.2500     2.5350    51.7400    42.2030    37.3360    46.0310    24.4790   -13.1380 
  118.3750     2.5040    52.7060    42.1970    37.2140    45.6490    24.4780   -13.2190 
  118.5000     2.4820    50.1910    43.1560    37.8500    44.9680    24.5630   -13.3000 
  118.6250     2.4740    48.0970    45.1430    39.4230    49.7280    24.6040   -13.3990 
  118.7500     2.4740    47.9560    47.4290    41.4180    62.0070    24.5560   -13.5560 
  118.8750     2.4790    46.8080    49.2130    43.1710    70.8600    24.4940   -13.6990 
  119.0000     2.4820    45.7140    49.8150    44.0380    77.2470    24.4810   -13.8730 
  119.1250     2.4840    46.4380    48.8420    43.5720    62.6340    24.5410   -14.0410 
  119.2500     2.4890    47.1760    47.0390    42.2940    50.0500    24.5650   -14.2060 
  119.3750     2.4960    47.4250    45.1920    40.8150    44.2570    24.5900   -14.3520 
  119.5000     2.4980    49.5540    44.0430    39.7550    43.8800    24.6200   -14.5080 
  119.6250     2.4950    52.6860    44.2700    39.7470    45.2300    24.6530   -14.6070 
  119.7500     2.4930    53.5160    45.7230    40.7900    47.6020    24.5760   -14.6510 
  119.8750     2.4960    53.0830    48.0910    42.7130    52.5340    24.4360   -14.7000 
  120.0000     2.5090    51.7080    50.7860    45.0890    58.4570    24.3310   -14.6970 
  120.1250     2.5290    47.7930    52.8440    47.1580    65.2760    24.3810   -14.6970 
  120.2500     2.5490    45.0520    53.6470    48.2860    63.8070    24.4280   -14.7000 
  120.3750     2.5610    47.0280    53.0990    48.2590    62.7700    24.4920   -14.7220 
  120.5000     2.5620    50.6440    51.6060    47.2960    56.2970    24.5700   -14.7280 
  120.6250     2.5520    51.2120    49.7870    45.8420    50.3710    24.6360   -14.7870 
  120.7500     2.5350    50.1140    48.1360    44.3960    50.2590    24.6250   -14.8860 
  120.8750     2.5140    49.2070    46.7790    43.1430    54.9430    24.5380   -14.9440 
  121.0000     2.4930    48.1150    45.7370    42.1590    58.9700    24.4800   -15.0390 
  121.1250     2.4800    46.9640    45.1530    41.5940    53.1600    24.4400   -15.1750 
  121.2500     2.4800    48.1000    45.1140    41.5190    47.6100    24.3900   -15.3200 
  121.3750     2.4910    51.3660    45.6940    41.9980    44.7340    24.3440   -15.4970 
  121.5000     2.5080    52.8940    46.8020    42.9740    48.2390    24.3270   -15.6920 
  121.6250     2.5270    49.9560    48.1650    44.2600    54.3040    24.2890   -15.9160 
  121.7500     2.5420    47.4230    49.3250    45.4670    58.2150    24.1770   -16.1280 
  121.8750     2.5530    48.5880    49.9390    46.2740    55.4760    23.9560   -16.3770 
  122.0000     2.5580    50.7220    49.8060    46.4430    52.3100    23.6480   -16.6080 
  122.1250     2.5590    51.0340    48.8420    45.8180    54.4650    23.6190   -16.7950 
  122.2500     2.5560    50.9300    47.4010    44.6900    57.0540    23.8940   -16.9860 
  122.3750     2.5490    50.9560    45.7330    43.2930    53.7090    24.2480   -17.1450 
  122.5000     2.5390    50.1980    44.0990    41.8700    46.8630    24.4290   -17.2910 
  122.6250     2.5300    49.1880    42.8350    40.7120    43.1790    24.4760   -17.4010 
  122.7500     2.5270    49.1550    42.0950    39.9730    43.5860    24.4970   -17.5140 
  122.8750     2.5250    49.9260    41.9370    39.7290    46.8570    24.4460   -17.5900 
  123.0000     2.5170    50.5610    42.3060    39.9700    46.7160    24.3680   -17.6820 
  123.1250     2.4970    50.5780    43.0310    40.6090    46.7650    24.3490   -17.7670 
  123.2500     2.4730    50.0490    43.6870    41.2850    48.4980    24.3830   -17.7860 
  123.3750     2.4550    49.7340    43.8930    41.6520    49.5380    24.4190   -17.7670 
  123.5000     2.4520    49.6440    43.3360    41.4090    52.3550    24.3910   -17.7180 
  123.6250     2.4670    48.7560    41.7160    40.2380    53.1460    24.3900   -17.6600 
  123.7500     2.4870    48.4090    39.3460    38.3370    47.5950    24.4050   -17.5720 
  123.8750     2.4990    50.2050    36.6600    36.0320    41.5600    24.4200   -17.4560 
  124.0000     2.4970    53.1540    34.2210    33.8060    36.0660    24.3750   -17.3100 
  124.1250     2.4830    53.3200    32.6300    32.2170    33.6160    24.3530   -17.1050 
  124.2500     2.4690    51.1310    31.9130    31.3680    33.9620    24.3880   -16.9370 
  124.3750     2.4580    49.8900    31.9210    31.1980    35.0990    24.4230   -16.8380 
  124.5000     2.4510    50.7130    32.3370    31.4870    35.9880    24.3910   -16.7970 
  124.6250     2.4470    51.0960    32.7230    31.8900    39.5570    24.3500   -16.8290 
  124.7500     2.4440    49.5550    32.7500    32.0560    39.4140    24.3640   -16.9010 
  124.8750     2.4470    47.9170    32.3120    31.8160    35.9300    24.3800   -17.0550 
  125.0000     2.4580    47.1390    31.5000    31.1770    32.9360    24.3430   -17.2480 
  125.1250     2.4790    46.5330    30.5960    30.3370    32.4220    24.3460   -17.5370 
  125.2500     2.5090    45.1900    29.9300    29.6330    32.5530    24.3850   -17.8410 
  125.3750     2.5420    44.3880    29.6340    29.2340    32.9840    24.4560   -18.1260 
  125.5000     2.5650    46.2170    29.6750    29.1600    31.4470    24.5390   -18.3840 
  125.6250     2.5550    48.9580    30.0030    29.3810    33.6320    24.5390   -18.6070 
  125.7500     2.5140    48.5450    30.5540    29.8010    35.8700    24.5200   -18.8200 
  125.8750     2.4560    47.1640    31.3710    30.4300    34.3530    24.5170   -19.0060 
  126.0000     2.4070    48.9890    32.4700    31.2840    31.9030    24.5100   -19.1770 
  126.1250     2.3920    52.1290    33.6960    32.2660    32.7840    24.4640   -19.3050 
  126.2500     2.4160    50.4610    34.6030    33.0320    36.6170    24.3850   -19.4610 
  126.3750     2.4570    46.3950    34.7450    33.1950    41.5680    24.3650   -19.6030 
  126.5000     2.4890    45.6330    33.9020    32.5060    43.2790    24.3620   -19.7570 
  126.6250     2.5000    49.1910    32.2680    31.0310    36.5150    24.2080   -19.9170 
  126.7500     2.5060    52.6170    30.6700    29.4670    29.5830    23.8790   -20.0590 
  126.8750     2.5170    53.3740    29.6990    28.3440    26.3540    23.6280   -20.2290 
  127.0000     2.5340    51.5540    29.6160    27.9510    25.7870    23.6430   -20.3920 
  127.1250     2.5510    49.8250    30.3540    28.3670    28.8940    23.8530   -20.5490 
  127.2500     2.5650    49.2890    31.2700    29.1360    32.0330    24.1040   -20.6760 
  127.3750     2.5730    49.1910    31.8500    29.8160    32.5370    24.2470   -20.7470 
  127.5000     2.5740    49.0650    31.7780    30.0310    30.3920    24.2890   -20.7760 
  127.6250     2.5660    49.0280    30.9860    29.5650    30.3490    24.1970   -20.7490 
  127.7500     2.5530    48.8190    29.8610    28.6820    31.4720    24.0120   -20.6910 
  127.8750     2.5370    49.2040    28.6670    27.6140    30.8660    23.8550   -20.5780 
  128.0000     2.5220    51.2760    27.5800    26.5560    27.3420    23.9670   -20.4280 
  128.1250     2.5170    53.2960    26.7390    25.6630    25.3110    24.1660   -20.2330 
  128.2500     2.5210    53.4410    26.1790    24.9940    24.9020    24.1380   -19.9400 
  128.3750     2.5300    53.4370    25.9380    24.5980    25.0540    23.9290   -19.6060 
  128.5000     2.5390    54.4830    26.0130    24.4910    24.0390    23.7870   -19.2080 
  128.6250     2.5440    54.1860    26.3950    24.6880    24.1400    23.7850   -18.7700 
