~V
VERS. 2.00: Ver 2.00
~W
STRT.M 57.0000:
STOP.M 242.0000:
STEP.M 0.1250:
NULL. -999.2500:
UWI. F10636:
~C
DEPT.M :
GR.API :
RML.OHMM :
RI. :
RXO.OHMM :
CALI.CM :
DEN.GM/CC :
SP.MV :
~A
# ...
   79.5000    91.0930     8.0850     6.6060     6.7400    23.7500     2.3370   -15.8210 
   79.6250    92.1360     7.7420     6.3060     6.7110    23.7450     2.3250   -15.8630 
   79.7500    93.0950     7.5520     6.1350     6.7250    23.8480     2.3000   -15.9540 
   79.8750    89.9760     7.5680     6.1140     6.5260    23.9900     2.2720   -16.1080 
   80.0000    83.1140     7.7910     6.2200     6.5340    24.1110     2.2520   -16.3420 
   80.1250    77.3720     8.1750     6.4130     6.9270    24.1770     2.2390   -16.6600 
   80.2500    74.0960     8.5910     6.6350     7.7980    24.1880     2.2260   -17.0180 
   80.3750    73.2280     8.9460     6.8520     8.6270    24.1480     2.2090   -17.3570 
   80.5000    75.0530     9.1550     7.0280     8.9230    24.0880     2.1900   -17.6200 
   80.6250    78.5530     9.1160     7.0990     8.7110    24.0730     2.1790   -17.7370 
   80.7500    81.9290     8.8520     7.0340     8.2590    24.1370     2.1830   -17.7100 
   80.8750    84.8720     8.4260     6.8330     7.5760    24.2680     2.2000   -17.5460 
   81.0000    87.5490     7.9550     6.5380     6.7840    24.4180     2.2230   -17.2500 
   81.1250    87.6360     7.6110     6.2440     6.6270    24.5260     2.2420   -16.8480 
   81.2500    85.1760     7.4570     6.0480     6.5510    24.5800     2.2510   -16.4000 
   81.3750    83.6170     7.4820     5.9980     6.5070    24.5860     2.2530   -15.9290 
   81.5000    85.0980     7.6280     6.0830     6.5320    24.5620     2.2510   -15.4640 
   81.6250    87.2330     7.8270     6.2390     6.7080    24.5340     2.2460   -15.0900 
   81.7500    87.6500     7.9920     6.3640     6.8940    24.5290     2.2420   -14.8220 
   81.8750    87.9680     8.0620     6.4040     7.0860    24.5390     2.2430   -14.6410 
   82.0000    89.2200     8.0090     6.3510     6.9600    24.5490     2.2500   -14.5080 
   82.1250    89.3900     7.8550     6.2360     6.4830    24.5580     2.2630   -14.4010 
   82.2500    89.5500     7.7020     6.1270     6.3300    24.5690     2.2760   -14.3110 
   82.3750    92.2370     7.6070     6.0540     6.2220    24.5550     2.2830   -14.2400 
   82.5000    94.3370     7.5600     6.0170     6.1960    24.4810     2.2850   -14.1930 
   82.6250    93.1490     7.4790     5.9870     6.4920    24.3470     2.2860   -14.1760 
   82.7500    91.4800     7.3300     5.9330     6.6660    24.2480     2.2940   -14.1640 
   82.8750    90.3460     7.1620     5.8630     6.6210    24.2580     2.3080   -14.1710 
   83.0000    88.5430     7.0790     5.8220     6.5660    24.3690     2.3270   -14.2320 
   83.1250    84.5740     7.2140     5.9000     6.6060    24.4770     2.3400   -14.3640 
   83.2500    80.2630     7.5800     6.1350     6.5790    24.4900     2.3370   -14.5300 
   83.3750    76.3880     8.1600     6.5270     6.5750    24.3730     2.3150   -14.7270 
   83.5000    73.9010     8.8700     7.0080     7.1050    24.1090     2.2790   -14.9300 
   83.6250    73.9940     9.4920     7.4120     7.7430    23.7250     2.2520   -15.0970 
   83.7500    78.5020     9.7680     7.5780     8.1050    23.3970     2.2530   -15.2340 
   83.8750    87.1440     9.5260     7.4150     8.1340    23.2840     2.2820   -15.3240 
   84.0000    95.2700     8.7720     6.9410     7.6890    23.4430     2.3260   -15.3540 
   84.1250    99.1110     7.7120     6.2710     6.6700    23.7990     2.3580   -15.3040 
   84.2500    99.8290     6.7450     5.6250     5.7130    24.1440     2.3670   -15.2270 
   84.3750    97.8370     6.1340     5.1520     5.3730    24.3680     2.3580   -15.1730 
   84.5000    91.9640     6.0530     4.9700     5.2820    24.4630     2.3460   -15.1730 
   84.6250    84.1260     6.7150     5.2550     5.6010    24.4900     2.3530   -15.2870 
   84.7500    76.6920     8.0040     6.0090     7.0630    24.5000     2.3780   -15.5100 
   84.8750    69.4450     9.7290     7.1900    10.3170    24.4760     2.4090   -15.8520 
   85.0000    64.0380    11.4890     8.6030    14.7770    24.3970     2.4240   -16.3230 
   85.1250    62.5370    12.6460     9.8190    13.0010    24.2920     2.4010   -16.9100 
   85.2500    62.1340    13.0050    10.5170    10.8660    24.2410     2.3470   -17.5330 
   85.3750    60.0080    12.7380    10.6610     9.9960    24.2850     2.2830   -18.1150 
   85.5000    56.8430    12.2360    10.4590    10.1490    24.3970     2.2300   -18.6200 
   85.6250    55.4740    11.8920    10.2190    11.2960    24.5050     2.2020   -19.0240 
   85.7500    56.2660    11.8070    10.1330    14.5740    24.5550     2.1900   -19.3570 
   85.8750    58.8400    11.9310    10.2100    20.7180    24.5200     2.1790   -19.6210 
   86.0000    61.4700    12.1630    10.3800    23.0110    24.3520     2.1550   -19.8010 
   86.1250    62.8200    12.4050    10.5580    16.7030    24.0200     2.1160   -19.8930 
   86.2500    62.6480    12.6300    10.7230    12.8470    23.6850     2.0810   -19.9300 
   86.3750    62.0350    12.8840    10.9200    12.3420    23.5100     2.0730   -19.9490 
   86.5000    61.0780    13.2170    11.2030    14.8010    23.5180     2.1080   -19.9800 
   86.6250    58.2570    13.6030    11.5750    20.5660    23.5630     2.1940   -20.0290 
   86.7500    55.8450    13.8910    11.9170    25.2290    23.5580     2.2980   -20.0820 
   86.8750    56.6170    13.9370    12.0850    38.0060    23.5890     2.3870   -20.1480 
   87.0000    60.3620    13.6860    11.9670    38.4780    23.7570     2.4330   -20.2450 
   87.1250    63.0730    13.2130    11.5310    21.0760    24.0260     2.4180   -20.3630 
   87.2500    64.0430    12.7290    10.9670    13.8520    24.2150     2.3660   -20.4750 
   87.3750    64.1750    12.3360    10.4370    11.9360    24.2300     2.3000   -20.5590 
   87.5000    63.1460    12.0660    10.0620    11.5100    24.1060     2.2440   -20.6190 
   87.6250    62.1300    11.9190     9.9250    11.0340    23.9670     2.2090   -20.6380 
   87.7500    62.1540    11.8390     9.9480    10.8990    23.9050     2.1850   -20.6170 
   87.8750    62.1590    11.7830    10.0400    10.9830    23.9200     2.1670   -20.5690 
   88.0000    61.2630    11.7290    10.1150    10.9370    23.9660     2.1530   -20.4870 
   88.1250    62.3180    11.6910    10.1200    10.9520    24.0050     2.1470   -20.3840 
   88.2500    64.7480    11.6910    10.0780    10.9870    24.0560     2.1480   -20.2870 
   88.3750    65.0520    11.7280    10.0290    10.9740    24.1430     2.1540   -20.2130 
   88.5000    63.4140    11.7530    10.0010    10.9960    24.2500     2.1630   -20.1480 
   88.6250    63.8790    11.6940     9.9880    11.1740    24.3390     2.1710   -20.0840 
   88.7500    66.7260    11.5560     9.9520    11.2030    24.3990     2.1770   -20.0300 
   88.8750    68.6660    11.3850     9.8620    10.7540    24.4180     2.1790   -19.9760 
   89.0000    68.6420    11.2220     9.7100    10.1920    24.3730     2.1800   -19.9000 
   89.1250    67.2710    11.0690     9.5170     9.9690    24.2660     2.1810   -19.8110 
   89.2500    66.2130    10.9020     9.3350    10.2240    24.1590     2.1840   -19.7060 
   89.3750    66.0340    10.7280     9.1960    10.4080    24.0850     2.1890   -19.5780 
   89.5000    67.1950    10.5710     9.0990     9.6970    24.0450     2.1930   -19.4450 
   89.6250    69.7910    10.4470     9.0070     8.6660    24.0310     2.1910   -19.3310 
   89.7500    72.4200    10.3250     8.8760     8.6740    24.0230     2.1830   -19.2380 
   89.8750    73.0750    10.1840     8.7050     8.9560    23.9950     2.1720   -19.1600 
   90.0000    71.7890    10.0420     8.5390     8.6050    23.9240     2.1630   -19.1170 
   90.1250    71.3150     9.9770     8.4780     8.0260    23.8350     2.1620   -19.1100 
   90.2500    71.2120    10.0350     8.5660     7.8370    23.8090     2.1670   -19.1370 
   90.3750    68.8710    10.2200     8.7930     8.4630    23.8850     2.1730   -19.2000 
   90.5000    65.4150    10.5080     9.1030     9.4910    24.0190     2.1730   -19.2850 
   90.6250    64.9320    10.8580     9.3940     9.7620    24.1440     2.1670   -19.3780 
