~V
VERS. 2.00: Ver 2.00
~W
STRT.M 58.0000:
STOP.M 240.0000:
STEP.M 0.1250:
NULL. -999.2500:
UWI. F10642:
~C
DEPT.M :
SP.MV :
GR.API :
RML.OHMM :
RI. :
RXO.OHMM :
CALI.CM :
DEN.GM/CC :
~A
# ...
  114.2500   -13.2540    97.2050     6.2740     5.0960     6.0810    24.6220     2.3100 
  114.3750   -13.0490    91.6050     6.5290     5.3230     6.4910    24.6880     2.3210 
  114.5000   -12.8230    87.6770     6.7670     5.5620     6.6050    24.7610     2.3340 
  114.6250   -12.5610    86.7530     6.9580     5.7900     6.6120    24.7850     2.3430 
  114.7500   -12.2650    85.6230     7.1080     5.9920     6.8900    24.7730     2.3450 
  114.8750   -11.9140    83.8540     7.2320     6.1590     7.1210    24.7470     2.3380 
  115.0000   -11.5230    84.0260     7.3460     6.2830     7.1690    24.7910     2.3230 
  115.1250   -11.0920    84.8510     7.4420     6.3530     7.3130    24.8680     2.3060 
  115.2500   -10.6510    84.1420     7.4970     6.3780     7.4810    24.9290     2.2950 
  115.3750   -10.1680    83.0040     7.5010     6.3630     7.2400    24.9120     2.2910 
  115.5000    -9.6620    82.9670     7.4640     6.3220     7.0740    24.8670     2.2940 
  115.6250    -9.1130    82.4220     7.4140     6.2720     7.2980    24.8390     2.2990 
  115.7500    -8.5660    79.2020     7.4050     6.2440     7.5340    24.8780     2.3050 
  115.8750    -8.0380    74.9470     7.5180     6.2900     7.8160    24.8770     2.3090 
  116.0000    -7.5260    72.9310     7.8570     6.4890     7.9620    24.6190     2.3080 
  116.1250    -7.0100    74.6020     8.6160     6.9980     8.1560    24.1150     2.2960 
  116.2500    -6.4790    77.1270     9.8680     7.8840     9.1040    23.8080     2.2770 
  116.3750    -5.9520    77.2310    11.7010     9.2280    10.6540    23.8920     2.2610 
  116.5000    -5.4140    73.9550    14.1140    11.0700    14.2750    24.3080     2.2550 
  116.6250    -4.9160    69.1330    16.9530    13.3690    17.4700    24.6690     2.2560 
  116.7500    -4.4460    65.8700    19.6690    15.7270    19.4680    24.8520     2.2490 
  116.8750    -3.9950    63.7380    21.6930    17.6760    19.9450    24.9580     2.2220 
  117.0000    -3.5640    61.4540    22.5860    18.7720    20.9930    25.0120     2.1780 
  117.1250    -3.1650    60.3360    22.1760    18.7280    21.1930    25.0310     2.1380 
  117.2500    -2.7860    61.4330    21.1910    18.0690    19.4440    24.9510     2.1200 
  117.3750    -2.3990    62.8030    20.2580    17.3100    17.2790    24.8350     2.1240 
  117.5000    -2.0020    62.1150    19.8850    16.8860    15.4310    24.7910     2.1380 
  117.6250    -1.5670    59.7990    20.5420    17.2120    14.8950    24.8170     2.1440 
  117.7500    -1.0620    58.0500    22.1180    18.2860    16.9840    24.9500     2.1380 
  117.8750    -0.5160    56.9490    24.3490    19.9940    22.9650    25.2300     2.1260 
  118.0000     0.0550    55.2410    26.7120    22.0180    27.9660    25.4560     2.1150 
  118.1250     0.6390    53.9340    28.4220    23.7820    29.4850    25.4060     2.1120 
  118.2500     1.1930    53.7420    29.1960    24.8870    27.7460    25.2620     2.1140 
  118.3750     1.6880    53.1610    29.1990    25.3010    25.4450    25.1820     2.1170 
  118.5000     2.1550    51.4090    28.8760    25.2970    24.7190    25.1660     2.1190 
  118.6250     2.5790    50.0540    28.6110    25.2040    26.5270    25.2330     2.1170 
  118.7500     2.8750    50.1370    28.3890    25.1160    28.1300    25.2910     2.1120 
  118.8750     3.0790    49.4130    27.9670    24.8820    28.1470    25.2210     2.1080 
  119.0000     3.1740    47.4890    27.1520    24.3350    28.3730    25.1980     2.1120 
  119.1250     3.1830    47.8780    25.9660    23.4360    26.7790    25.2150     2.1260 
  119.2500     3.1190    52.0110    24.7690    22.4550    23.4670    25.1300     2.1390 
  119.3750     3.0180    56.8690    23.8190    21.6060    21.1290    25.0180     2.1420 
  119.5000     2.8560    57.5530    23.2280    21.0070    20.5810    25.0290     2.1330 
  119.6250     2.6580    54.8480    22.9980    20.7090    21.5210    25.1580     2.1160 
  119.7500     2.4990    53.6050    22.9320    20.5990    22.1310    25.2620     2.1000 
  119.8750     2.3860    55.2090    22.9170    20.6000    20.4740    25.2280     2.0900 
  120.0000     2.3680    57.2790    22.9250    20.6710    17.9870    25.1470     2.0880 
  120.1250     2.4440    57.6120    23.0730    20.8710    17.9730    25.0760     2.0980 
  120.2500     2.6180    58.4590    23.4830    21.2690    20.3650    25.0240     2.1170 
  120.3750     2.8750    60.1070    24.2180    21.9240    22.3970    24.9890     2.1390 
  120.5000     3.2100    61.1250    25.2400    22.8220    23.4870    25.0160     2.1530 
  120.6250     3.6190    59.3380    26.3880    23.8640    24.8150    25.0900     2.1500 
  120.7500     4.0560    56.1520    27.4500    24.8750    27.4280    25.2160     2.1330 
  120.8750     4.5100    54.0870    28.3510    25.7750    29.0070    25.2970     2.1140 
  121.0000     4.9500    54.1510    29.1420    26.5810    28.9460    25.3150     2.1000 
  121.1250     5.3990    54.8230    29.9820    27.3810    29.3190    25.3820     2.0990 
  121.2500     5.8230    53.0280    30.9880    28.2700    30.1910    25.4510     2.1050 
  121.3750     6.2100    48.7680    32.1640    29.2830    31.6940    25.6240     2.1120 
  121.5000     6.5190    45.5920    33.3990    30.3830    34.6220    25.8590     2.1160 
  121.6250     6.7200    44.5420    34.4630    31.4290    35.5000    25.8310     2.1180 
  121.7500     6.8300    43.6620    35.2330    32.2760    35.4850    25.6850     2.1190 
  121.8750     6.8250    42.6400    35.7080    32.8670    35.5300    25.6530     2.1190 
  122.0000     6.6960    43.4510    36.0030    33.2560    36.2320    25.6430     2.1180 
  122.1250     6.3770    47.3760    36.1870    33.5070    35.7140    25.7190     2.1150 
  122.2500     5.9300    50.9740    36.0930    33.5480    34.8880    25.7230     2.1090 
  122.3750     5.3590    51.7990    35.3740    33.1200    34.2120    25.6120     2.1000 
  122.5000     4.6810    50.0860    33.7980    31.9920    33.7100    25.5140     2.0890 
  122.6250     3.8880    48.2140    31.4660    30.1450    31.5770    25.5210     2.0800 
  122.7500     3.0360    48.8060    29.1490    28.1540    29.2870    25.4870     2.0770 
  122.8750     2.1070    52.2760    27.4740    26.5490    24.9740    25.3270     2.0890 
  123.0000     1.1960    56.6730    26.8170    25.7260    21.9910    25.1640     2.1270 
  123.1250     0.3360    59.6200    27.3280    25.9700    24.0250    25.0300     2.1950 
  123.2500    -0.4880    61.8990    28.4390    26.9150    25.9180    24.8210     2.2690 
  123.3750    -1.2300    64.3520    29.5550    28.0840    29.3090    24.5840     2.3160 
  123.5000    -1.8680    63.8160    30.0430    28.8530    32.5050    24.4240     2.3200 
  123.6250    -2.3830    58.3400    29.3680    28.5780    30.5170    24.4480     2.2830 
  123.7500    -2.8140    54.4730    27.9450    27.4910    27.6470    24.5800     2.2360 
  123.8750    -3.1200    55.5330    26.3360    26.0720    23.7580    24.7010     2.1970 
  124.0000    -3.3630    59.2190    25.1080    24.8580    20.2320    24.7700     2.1700 
  124.1250    -3.5630    59.9380    24.9220    24.4580    22.0940    24.8550     2.1530 
  124.2500    -3.7230    58.3040    26.0340    25.1510    24.4060    25.0210     2.1470 
  124.3750    -3.9290    57.3440    28.6650    27.1930    24.8210    25.1710     2.1720 
  124.5000    -4.1810    58.1550    32.7680    30.6310    25.0330    25.0950     2.2530 
  124.6250    -4.4860    57.8620    37.7160    35.0420    29.5390    24.5350     2.3930 
  124.7500    -4.8030    55.1530    41.7020    38.8560    43.5540    23.8590     2.5070 
  124.8750    -5.1440    52.9280    42.9260    40.4450    56.2350    23.2530     2.5260 
  125.0000    -5.4810    53.0790    40.6280    38.9350    47.5810    22.9150     2.4510 
  125.1250    -5.8070    53.9650    35.7470    34.8350    27.6940    23.4210     2.3240 
  125.2500    -6.1190    53.8710    30.8050    30.3790    18.8240    24.3150     2.2080 
  125.3750    -6.3930    53.5890    27.0230    26.7900    17.2850    24.7780     2.1370 
