~V
VERS. 2.00: Ver 2.00
~W
STRT.M 54.0000:
STOP.M 246.0000:
STEP.M 0.1250:
NULL. -999.2500:
UWI. F10643:
~C
DEPT.M :
SP.MV :
GR.API :
RML.OHMM :
RI. :
RXO.OHMM :
CALI.CM :
DEN.GM/CC :
~A
# ...
  211.5000   -16.4850    54.5890    63.2180    55.9930    60.8500    23.2110     2.5680 
  211.6250   -16.3790    53.9520    64.3830    57.2390    87.7670    23.6310     2.5480 
  211.7500   -16.3050    52.9510    63.9130    57.0040   101.9020    23.9240     2.5310 
  211.8750   -16.2240    53.6310    62.7790    55.9400    91.0190    24.0390     2.5220 
  212.0000   -16.1800    56.0180    62.2410    55.0940    65.0470    24.0750     2.5260 
  212.1250   -16.1850    58.1580    62.6050    54.9410    54.1580    24.0030     2.5370 
  212.2500   -16.2180    58.1730    63.4610    55.3020    52.7790    23.8350     2.5440 
  212.3750   -16.2990    56.9750    63.9250    55.5700    56.5610    23.6100     2.5380 
  212.5000   -16.3990    58.0360    62.8670    54.8430    51.1230    23.6700     2.5140 
  212.6250   -16.5230    60.0870    60.5970    53.1480    45.0110    23.9050     2.4870 
  212.7500   -16.6750    59.8100    58.2200    51.1940    41.3830    24.0970     2.4670 
  212.8750   -16.8320    57.0450    57.0460    50.0020    42.0520    24.1450     2.4650 
  213.0000   -17.0130    56.0150    58.3000    50.7020    47.3800    24.1250     2.4860 
  213.1250   -17.1540    57.0470    61.2830    52.9890    57.1270    24.0920     2.5200 
  213.2500   -17.3040    57.1030    63.8340    55.3710    66.4480    24.0440     2.5570 
  213.3750   -17.4200    55.3130    62.0660    54.8470    71.5890    23.9670     2.5870 
  213.5000   -17.5430    54.9510    52.0230    47.6160    69.4720    23.8940     2.5940 
  213.6250   -17.6870    58.0370    38.1500    36.2390    59.4220    23.9330     2.5710 
  213.7500   -17.8030    61.8690    25.5750    24.9500    38.0920    24.0230     2.5230 
  213.8750   -17.9350    63.7770    16.7430    16.4960    18.2940    24.0500     2.4600 
  214.0000   -18.0570    65.3190    11.2230    11.6200     9.4550    24.0900     2.3990 
  214.1250   -18.2350    67.7590     8.7360     8.8510     7.1210    24.0730     2.3550 
  214.2500   -18.4400    68.1530     7.5230     7.3920     6.8090    24.0480     2.3320 
  214.3750   -18.6870    66.4420     7.0640     6.7340     7.1370    24.0530     2.3220 
  214.5000   -18.9870    67.3830     7.0700     6.6200     7.5190    23.9860     2.3150 
  214.6250   -19.3200    71.6970     7.2960     6.7780     7.5490    23.8530     2.3110 
  214.7500   -19.7170    75.8450     7.7040     7.1310     7.5630    23.7550     2.3220 
  214.8750   -20.1420    77.1960     8.2890     7.6500     7.8680    23.8030     2.3520 
  215.0000   -20.5820    76.7270     9.0010     8.3000     8.7990    23.9440     2.3860 
  215.1250   -20.9910    77.0410     9.6360     8.9150    10.0120    24.0120     2.3960 
  215.2500   -21.3500    78.2160     9.9860     9.3050    11.3510    24.0270     2.3690 
  215.3750   -21.6820    78.4970     9.9340     9.3270    11.9090    24.0280     2.3150 
  215.5000   -21.9140    76.7100     9.5120     8.9530    11.2280    24.0210     2.2620 
  215.6250   -22.0980    75.4500     9.0190     8.4360     9.3560    24.0140     2.2350 
  215.7500   -22.2270    76.3230     8.6500     7.9620     8.2120    24.0190     2.2400 
  215.8750   -22.3000    77.1340     8.4910     7.6420     8.4750    24.0240     2.2660 
  216.0000   -22.3530    74.7410     8.5380     7.5130     9.7470    24.0430     2.2910 
  216.1250   -22.3410    72.3670     8.6500     7.4850     9.9180    24.0670     2.2980 
  216.2500   -22.3200    73.6250     8.7290     7.4850     9.2230    24.0550     2.2900 
  216.3750   -22.2410    77.4140     8.7020     7.4490     8.6810    24.0220     2.2750 
  216.5000   -22.1550    78.9360     8.5170     7.3170     8.4310    23.9870     2.2640 
  216.6250   -22.0350    79.2910     8.2300     7.1010     8.1520    23.9390     2.2600 
  216.7500   -21.8730    79.3270     7.9090     6.8420     8.0490    23.8770     2.2600 
  216.8750   -21.7000    77.7500     7.6430     6.6040     8.0500    23.8540     2.2620 
  217.0000   -21.4990    75.7570     7.5500     6.4840     7.5110    23.8160     2.2690 
  217.1250   -21.3620    75.3210     7.6510     6.5100     6.8790    23.7960     2.2830 
  217.2500   -21.2480    75.5200     7.9110     6.6690     6.9660    23.7920     2.3040 
  217.3750   -21.2130    74.5210     8.2220     6.8890     7.7710    23.8570     2.3320 
  217.5000   -21.2230    72.8220     8.3860     7.0310     8.7410    23.9990     2.3590 
  217.6250   -21.2750    71.2490     8.2920     7.0020     8.9200    24.0810     2.3770 
  217.7500   -21.4010    69.9390     7.9550     6.7840     8.1590    24.1070     2.3820 
  217.8750   -21.5750    67.4820     7.5180     6.4510     7.4050    24.1300     2.3790 
  218.0000   -21.8520    63.2390     7.2170     6.1600     6.9740    24.1400     2.3720 
  218.1250   -22.1840    59.3680     7.1780     6.0310     6.7390    24.1460     2.3640 
  218.2500   -22.5610    57.7140     7.4120     6.1040     6.8580    24.1420     2.3550 
  218.3750   -22.9750    57.3160     7.8250     6.3440     7.6750    24.1260     2.3400 
  218.5000   -23.3800    58.4160     8.2650     6.6640     8.3430    24.0530     2.3160 
  218.6250   -23.7420    62.8560     8.6030     6.9460     8.9820    23.8840     2.2880 
  218.7500   -24.0630    69.1470     8.8070     7.1470     9.3230    23.6110     2.2630 
  218.8750   -24.3560    73.2660     8.9200     7.2730     8.5470    23.3280     2.2490 
  219.0000   -24.5890    74.5730     9.0370     7.3760     8.4300    23.2200     2.2570 
  219.1250   -24.7540    75.1930     9.2010     7.4960     9.3920    23.4160     2.2850 
  219.2500   -24.8510    75.1890     9.3860     7.6300    10.5270    23.7830     2.3250 
  219.3750   -24.8890    74.2780     9.5390     7.7460    10.5580    24.0650     2.3610 
  219.5000   -24.8680    73.0190     9.6000     7.8070    10.0630    24.1280     2.3770 
  219.6250   -24.8230    73.0970     9.5740     7.8110     9.9960    24.0830     2.3690 
  219.7500   -24.7460    74.3820     9.4940     7.7720     9.7780    24.0010     2.3420 
  219.8750   -24.6100    76.5390     9.4070     7.7180     9.6550    23.9490     2.3070 
  220.0000   -24.3580    78.1280     9.3430     7.6740     9.5350    23.9360     2.2800 
  220.1250   -24.0410    78.2550     9.2900     7.6380     9.2470    23.9170     2.2650 
  220.2500   -23.6920    77.1520     9.2330     7.5950     8.6250    23.8590     2.2600 
  220.3750   -23.2570    74.4070     9.1690     7.5430     8.0020    23.7410     2.2620 
  220.5000   -22.8170    73.0950     9.1070     7.4840     8.0110    23.5540     2.2640 
  220.6250   -22.4190    75.5570     9.0380     7.4180     8.0840    23.3290     2.2610 
  220.7500   -22.0120    80.5150     8.9400     7.3300     7.7120    23.1000     2.2530 
  220.8750   -21.6600    83.8660     8.7800     7.2020     7.2880    23.0020     2.2450 
  221.0000   -21.4560    81.6200     8.5250     7.0080     7.2550    23.1250     2.2410 
  221.1250   -21.3070    77.0040     8.2060     6.7680     7.2850    23.3770     2.2450 
  221.2500   -21.2450    72.7460     7.8880     6.5210     6.9980    23.6150     2.2560 
  221.3750   -21.3450    70.6320     7.6630     6.3330     6.9540    23.7490     2.2710 
  221.5000   -21.5590    69.9210     7.6430     6.2960     7.6610    23.7980     2.2840 
  221.6250   -21.8490    69.4260     7.8410     6.4330     8.0070    23.8180     2.2940 
  221.7500   -22.2450    69.0920     8.2520     6.7520     8.4580    23.7910     2.3030 
  221.8750   -22.6530    68.5050     8.8300     7.2230     9.4510    23.7020     2.3110 
  222.0000   -23.0240    67.8450     9.4790     7.7750    10.6610    23.5400     2.3130 
  222.1250   -23.3680    68.2280    10.0580     8.2910    10.9760    23.4860     2.3060 
  222.2500   -23.6250    69.9770    10.4480     8.6700    10.8860    23.5690     2.2930 
  222.3750   -23.7780    72.4240    10.5480     8.8240    10.8600    23.6600     2.2780 
  222.5000   -23.8180    75.0060    10.2730     8.6690    10.9810    23.6920     2.2710 
  222.6250   -23.7450    76.9740     9.7670     8.3040    10.6950    23.6960     2.2760 
