~V
VERS. 2.00: Ver 2.00
~W
STRT.M 50.0000:
STOP.M 216.0000:
STEP.M 0.1250:
NULL. -999.2500:
UWI. F10607:
~C
DEPT.M :
GR.API :
RML.OHMM :
RI. :
RXO.OHMM :
CALI.CM :
DEN.GM/CC :
SP.MV :
~A
# ...
  207.5000    47.0500     8.5610     6.9710     8.1610    22.8010     2.3510    -9.4150 
  207.6250    47.0500    10.0830     8.2100     9.9600    22.8500     2.3370    -9.8740 
  207.7500    47.0500    11.4220     9.4100    14.0460    22.9270     2.3330   -10.4310 
  207.8750    47.0500    11.9690    10.0730    17.4270    22.9870     2.3340   -11.0520 
  208.0000    47.0500    11.3300     9.8040    16.4900    22.9730     2.3330   -11.6670 
  208.1250    47.0500     9.6500     8.6160    12.7330    22.8940     2.3250   -12.2770 
  208.2500    47.0500     7.8360     7.2110    10.3550    22.8640     2.3100   -12.8750 
  208.3750    47.0500     6.3880     6.0060     7.8590    22.8530     2.2900   -13.4220 
  208.5000    47.0500     5.4620     5.1720     6.2380    22.8310     2.2710   -13.9120 
  208.6250    47.0500     5.0300     4.7480     6.0890    22.7990     2.2600   -14.2570 
  208.7500    47.0500     4.8460     4.5600     6.6390    22.7060     2.2590   -14.4790 
  208.8750    47.0500     4.7820     4.5020     7.7390    22.5980     2.2630   -14.6150 
  209.0000    47.0500     4.7630     4.4940     8.6590    22.5080     2.2660   -14.7290 
  209.1250    47.0500     4.7610     4.4960     8.5870    22.4590     2.2590   -14.8300 
  209.2500    47.0500     4.7740     4.4960     7.6350    22.4380     2.2420   -14.9000 
  209.3750    47.0500     4.8000     4.4960     6.2680    22.5180     2.2250   -14.9420 
  209.5000    47.0500     4.8310     4.4980     5.5060    22.6380     2.2250   -14.9300 
  209.6250    47.0500     4.8520     4.5000     5.6000    22.7410     2.2640   -14.9100 
  209.7500    47.0500     4.8520     4.5010     5.9950    22.6540     2.3310   -14.8680 
  209.8750    47.0500     4.8320     4.5000     6.4620    22.5830     2.3980   -14.8180 
  210.0000    47.0500     4.7960     4.4980     6.6820    22.5570     2.4360   -14.7520 
  210.1250    47.0500     4.7540     4.4960     6.3080    22.5260     2.4290   -14.6820 
  210.2500    47.0500     4.7220     4.4940     5.8630    22.4630     2.3990   -14.5990 
  210.3750    47.0500     4.7060     4.4910     5.5240    22.4020     2.3630   -14.5210 
  210.5000    47.0500     4.7070     4.4870     5.3540    22.3530     2.3360   -14.4640 
  210.6250    47.0500     4.7270     4.4850     5.2130    22.3330     2.3220   -14.4050 
  210.7500    47.0500     4.7530     4.4890     5.0470    22.3460     2.3190   -14.3880 
  210.8750    47.0500     4.7780     4.4970     4.9980    22.4520     2.3230   -14.3890 
  211.0000    47.0500     4.7970     4.5070     5.1640    22.6830     2.3300   -14.4210 
  211.1250    47.0500     4.8080     4.5140     5.5630    22.8690     2.3400   -14.4670 
  211.2500    47.0500     4.8120     4.5170     5.9320    22.9020     2.3520   -14.5580 
  211.3750    47.0500     4.8120     4.5170     6.2120    22.9460     2.3640   -14.6630 
  211.5000    47.0500     4.8120     4.5170     6.4080    23.0270     2.3750   -14.7800 
  211.6250    47.0500     4.8120     4.5170     6.6050    22.9530     2.3800   -14.9250 
  211.7500    47.0500     4.8120     4.5170     6.7920    22.7470     2.3800   -15.0300 
  211.8750    47.0500     4.8120     4.5170     6.8510    22.5570     2.3750   -15.1310 
  212.0000    47.0500     4.8120     4.5170     6.5350    22.3430     2.3720   -15.2250 
  212.1250    47.0500     4.8120     4.5170     6.4030    22.1950     2.3710   -15.2980 
  212.2500    47.0500     4.8120     4.5170     6.3140    22.0610     2.3720   -15.3560 
  212.3750    47.0500     4.8120     4.5170     6.3550    21.9450     2.3710   -15.4180 
  212.5000    47.0500     4.8120     4.5170     6.5710    21.8360     2.3670   -15.4560 
  212.6250    47.0500     4.8120     4.5170     6.8800    21.7190     2.3670   -15.4620 
  212.7500    47.0500     4.8120     4.5170     6.9600    21.5330     2.3740   -15.6020 
  212.8750    47.0500     4.8120     4.5170     6.8960    21.2680     2.3550   -15.8280 
  213.0000    47.0500     4.8120     4.5170     6.7870    20.9200     2.2580   -16.0410 
  213.1250    47.0500     4.8120     4.5170     6.7640    20.3060     2.0840   -16.2590 
  213.2500    47.0500     4.8120     4.5170     6.4850    19.1370     1.9040   -16.4440 
  213.3750    47.0500     4.8120     4.5170     5.7480    17.4640     1.7550   -16.6150 
  213.5000    47.0500     4.8120     4.5170     5.1880    16.2800     1.6510   -16.7980 
  213.6250    47.0500     4.8120     4.5170     5.0150    15.9200     1.6000   -16.9760 
  213.7500    47.0500     4.8120     4.5170     5.0110    15.8890     1.5820   -16.9920 
  213.8750    47.0500     4.8120     4.5170     5.0040    15.8890     1.5810   -16.9690 
  214.0000    47.0500     4.8120     4.5170     4.9940    15.8890     1.5800  -999.2500 
  214.1250    47.0500     4.8120     4.5170     4.9840    15.8880     1.5780  -999.2500 
  214.2500    47.0500     4.8120     4.5170     4.9800    15.8780     1.5730  -999.2500 
  214.3750    47.0500     4.8120     4.5170     4.9810    15.8540     1.5680  -999.2500 
  214.5000    47.0500     4.8120     4.5170     4.9860    15.8380     1.5620  -999.2500 
  214.6250    47.0500     4.8120     4.5170     4.9920    15.8330     1.5560  -999.2500 
  214.7500    47.0500     4.8120     4.5170     4.9980    15.8240     1.5530  -999.2500 
  214.8750    47.0500     4.8120     4.5170     4.9990    15.7980     1.5530  -999.2500 
  215.0000    47.0500     4.8120     4.5170     4.9960    15.7610     1.5550  -999.2500 
  215.1250    47.0500     4.8120     4.5170     4.9910    15.7460     1.5560  -999.2500 
  215.2500    47.0500     4.8120     4.5170     4.9830    15.7400     1.5570  -999.2500 
  215.3750    47.0500     4.8120     4.5170     4.9750    15.7370     1.5570  -999.2500 
  215.5000    47.0500     4.8120     4.5170     4.9610    15.7180     1.5580  -999.2500 
  215.6250    47.0500     4.8120     4.5170     4.9420    15.6690     1.5600  -999.2500 
  215.7500    47.0500     4.8120     4.5170     4.9250    15.6020     1.5620  -999.2500 
  215.8750    47.0500     4.8120     4.5170     4.9230    15.5740     1.5640  -999.2500 
  216.0000    47.0500     4.8120     4.5170     4.9250    15.5710     1.5640  -999.2500 
