~V
VERS. 2.00: Ver 2.00
~W
STRT.M 58.0000:
STOP.M 272.0000:
STEP.M 0.1250:
NULL. -999.2500:
UWI. F10670:
~C
DEPT.M :
DEN.GM/CC :
GR.API :
RML.OHMM :
RI. :
RXO.OHMM :
CALI.CM :
SP.MV :
~A
# ...
  215.5000     2.2360    64.0720    27.9640    27.9950    24.6930    23.5880   -19.3010 
  215.6250     2.2480    64.7990    27.8810    27.8460    24.4270    23.5830   -19.3020 
  215.7500     2.2620    64.7430    27.7940    27.6310    23.9600    23.5600   -19.3130 
  215.8750     2.2760    64.3400    27.7820    27.4320    23.3070    23.5080   -19.3480 
  216.0000     2.2850    64.4640    27.9360    27.3610    23.1690    23.4810   -19.4060 
  216.1250     2.2870    64.2080    28.2460    27.4510    23.1090    23.4690   -19.4950 
  216.2500     2.2860    62.2870    28.6620    27.6980    23.6700    23.4640   -19.6240 
  216.3750     2.2820    60.6830    29.1010    28.0480    24.7080    23.4510   -19.7750 
  216.5000     2.2790    61.3400    29.4630    28.4230    25.1260    23.4240   -19.9490 
  216.6250     2.2780    63.3660    29.7420    28.7670    25.0810    23.4010   -20.1540 
  216.7500     2.2770    66.2330    30.0030    29.0930    24.9280    23.3740   -20.3540 
  216.8750     2.2750    69.6760    30.3570    29.4530    24.4700    23.3500   -20.5080 
  217.0000     2.2720    71.8500    30.9350    29.9140    24.1420    23.3170   -20.6160 
  217.1250     2.2720    70.5920    31.7130    30.4690    25.1020    23.2800   -20.7000 
  217.2500     2.2780    67.9750    32.6030    31.0790    26.9040    23.2530   -20.7980 
  217.3750     2.2900    67.7010    33.4860    31.6900    28.0680    23.2420   -20.8980 
  217.5000     2.3040    68.3320    34.2630    32.2720    27.5560    23.2410   -20.9810 
  217.6250     2.3110    67.2340    34.9990    32.8840    27.0990    23.2370   -21.0570 
  217.7500     2.3090    65.6300    35.8350    33.6240    27.7250    23.2190   -21.1290 
  217.8750     2.3010    65.8050    36.9220    34.5950    28.4270    23.1710   -21.2040 
  218.0000     2.2940    66.7270    38.3890    35.8860    28.3840    23.1110   -21.2770 
  218.1250     2.2930    64.8230    40.1280    37.3950    28.9300    23.0770   -21.3380 
  218.2500     2.2960    61.6460    42.0140    39.0100    30.2130    23.1000   -21.4080 
  218.3750     2.3000    60.5760    43.9080    40.6050    31.3210    23.1940   -21.5270 
  218.5000     2.2990    63.4660    45.6610    42.0370    32.1530    23.3050   -21.6640 
  218.6250     2.2920    66.2460    47.1900    43.2460    33.0500    23.3500   -21.7560 
  218.7500     2.2830    65.6460    48.4120    44.1850    33.7620    23.3570   -21.7790 
  218.8750     2.2760    62.7220    49.2860    44.8610    34.3150    23.3480   -21.7220 
  219.0000     2.2720    62.2990    49.8640    45.3630    34.5700    23.3310   -21.6640 
  219.1250     2.2660    64.6990    50.4490    45.9310    34.2700    23.3080   -21.6190 
  219.2500     2.2520    67.5910    51.2930    46.7530    33.4150    23.2790   -21.5590 
  219.3750     2.2370    68.5730    52.4270    47.8490    31.9480    23.1300   -21.4660 
  219.5000     2.2360    66.9240    53.2390    48.7440    29.1160    22.6670   -21.3590 
  219.6250     2.2650    64.3400    52.7450    48.6310    29.6850    21.9770   -21.2550 
  219.7500     2.3230    62.5140    50.2710    46.8750    32.0980    21.5690   -21.2200 
  219.8750     2.3920    61.5890    45.9350    43.4070    35.7210    21.7060   -21.3010 
  220.0000     2.4520    60.9380    40.6050    38.7710    31.9560    22.3610   -21.4190 
  220.1250     2.5030    60.7600    35.5190    34.1140    23.7860    22.9260   -21.5330 
  220.2500     2.5580    60.6440    31.2070    30.0470    19.7440    23.1820   -21.5880 
  220.3750     2.6240    59.3140    27.7930    26.8060    22.0440    23.2220   -21.5330 
  220.5000     2.6920    59.2350    25.2170    24.4300    26.4500    23.2180   -21.3470 
  220.6250     2.7330    63.2970    23.0150    22.5020    24.1040    23.2230   -21.0940 
  220.7500     2.7300    67.8060    20.8590    20.6840    18.7110    23.2210   -20.7760 
  220.8750     2.6850    67.5500    18.5210    18.6780    15.5760    23.1890   -20.3860 
  221.0000     2.6170    64.9280    15.9480    16.3170    18.2870    23.1090   -19.9250 
  221.1250     2.5510    64.6600    13.3790    13.8150    19.3500    23.0600   -19.4460 
  221.2500     2.5000    64.6680    11.0630    11.4470    13.8540    23.0100   -18.9710 
  221.3750     2.4650    61.1430     9.1840     9.4400     8.4090    22.9470   -18.5490 
  221.5000     2.4410    56.4840     7.8960     7.9870     6.4370    22.9120   -18.2310 
  221.6250     2.4220    54.7380     7.0700     6.9900     5.6870    22.9010   -18.0330 
  221.7500     2.4060    54.1060     6.6120     6.3760     5.5990    22.9000   -17.9530 
  221.8750     2.3970    53.4170     6.4120     6.0620     5.6220    22.9000   -17.9750 
  222.0000     2.3960    56.2820     6.4000     6.0020     5.3400    22.9000   -18.0790 
  222.1250     2.4000    63.4060     6.5100     6.1100     5.3280    22.9000   -18.2220 
  222.2500     2.4050    71.2680     6.7410     6.3640     5.5160    22.9160   -18.4200 
  222.3750     2.4040    78.7200     7.0960     6.7520     5.7540    22.9720   -18.6830 
  222.5000     2.3910    88.8190     7.5620     7.2590     6.6960    23.0740   -18.9940 
  222.6250     2.3710    99.6100     8.0560     7.7970     7.2960    23.0880   -19.2870 
  222.7500     2.3540   106.6800     8.4930     8.2810     7.5220    22.9800   -19.4980 
  222.8750     2.3450   108.2490     8.8010     8.6290     7.6420    22.7780   -19.6110 
  223.0000     2.3470   105.8600     8.9400     8.7730     7.9000    22.5850   -19.7050 
  223.1250     2.3520   103.9250     8.9880     8.7790     8.0990    22.4350   -19.7940 
  223.2500     2.3550   104.2550     9.0310     8.7310     8.0500    22.3780   -19.9230 
  223.3750     2.3580   105.8700     9.1530     8.7190     7.9130    22.3800   -20.0740 
  223.5000     2.3680   105.9960     9.4540     8.8420     7.9040    22.3240   -20.2500 
  223.6250     2.3830   105.2900     9.9380     9.1160     8.1290    22.3600   -20.4250 
  223.7500     2.3930   104.5150    10.5910     9.5400     8.7500    22.5910   -20.6100 
  223.8750     2.3940   103.8660    11.3760    10.0920     9.5220    22.8370   -20.7820 
  224.0000     2.3890   101.8370    12.2630    10.7640    10.2630    22.9590   -20.9040 
  224.1250     2.3910    97.8370    13.2340    11.5460    10.9680    22.9820   -21.0230 
  224.2500     2.4040    91.7600    14.3620    12.5010    11.6820    22.9870   -21.1240 
  224.3750     2.4230    85.1400    15.7920    13.7440    12.8230    23.0010   -21.2280 
  224.5000     2.4340    82.5650    17.8060    15.5210    15.0010    23.0500   -21.3420 
  224.6250     2.4300    82.9660    20.4730    17.9140    18.1650    23.1550   -21.4480 
  224.7500     2.4120    81.2520    23.8440    20.9960    22.8720    23.3590   -21.5350 
  224.8750     2.3880    74.4170    27.8790    24.7650    27.5110    23.5900   -21.6490 
  225.0000     2.3660    67.8220    32.5720    29.2390    31.1620    23.6510   -21.7970 
  225.1250     2.3500    67.1830    37.7850    34.2520    32.8500    23.6310   -21.9570 
  225.2500     2.3380    69.0840    43.6430    39.8630    34.3370    23.5580   -22.1270 
  225.3750     2.3300    68.7070    50.3980    46.2550    35.9070    23.4450   -22.2720 
  225.5000     2.3270    66.1920    58.5220    53.8260    35.6970    23.3510   -22.3570 
  225.6250     2.3230    65.0860    67.8250    62.4120    36.4830    23.3400   -22.4610 
  225.7500     2.3160    63.7530    77.8780    71.6360    42.4540    23.4840   -22.6240 
  225.8750     2.2970    60.6340    87.7990    80.7590    51.6930    23.7070   -22.8330 
  226.0000     2.2620    59.1580    96.1180    88.5920    57.8140    23.8410   -23.0560 
  226.1250     2.2190    60.8780   102.1930    94.5930    58.8080    23.6990   -23.2700 
  226.2500     2.1800    61.9710   105.9150    98.6310    59.2690    23.3560   -23.4330 
  226.3750     2.1550    60.2630   108.5130   100.9800    53.7770    23.0710   -23.5290 
  226.5000     2.1520    59.4550   111.4610   102.1060    53.6810    23.1600   -23.5670 
  226.6250     2.1630    61.0410   115.0230   102.9360    66.3910    23.4700   -23.5690 
