~V
VERS. 2.00: Ver 2.00
~W
STRT.M 55.0000:
STOP.M 242.0000:
STEP.M 0.1250:
NULL. -999.2500:
UWI. F10652:
~C
DEPT.M :
SP.MV :
GR.API :
RML.OHMM :
RI. :
RXO.OHMM :
CALI.CM :
DEN.GM/CC :
~A
# ...
   88.7500   -12.7720    70.5950     8.3250     6.9150     6.0980    23.0600     2.2960 
   88.8750   -12.8810    78.1160     8.3720     6.7460     6.3640    23.0050     2.2820 
   89.0000   -12.9820    78.9940     8.6890     6.8480     6.7790    22.9750     2.2640 
   89.1250   -13.1090    75.6020     8.9660     7.0380     7.0320    22.9760     2.2590 
   89.2500   -13.1900    73.2320     8.9290     7.0790     6.9980    23.0030     2.2640 
   89.3750   -13.2800    72.6510     8.4920     6.8610     6.6850    23.0320     2.2770 
   89.5000   -13.3240    74.2150     7.7700     6.4190     6.2620    23.0520     2.2940 
   89.6250   -13.3710    77.7610     7.0280     5.9090     5.7910    23.0620     2.3080 
   89.7500   -13.4030    79.4300     6.5270     5.5240     5.4080    23.0660     2.3150 
   89.8750   -13.4170    78.6300     6.4220     5.3810     5.4060    23.0540     2.3100 
   90.0000   -13.4340    77.4160     6.7860     5.5490     5.6810    23.0250     2.2910 
   90.1250   -13.4230    75.1790     7.6840     6.1050     6.5020    22.9760     2.2590 
   90.2500   -13.3850    72.5280     8.9290     6.9490     7.8360    22.9860     2.2220 
   90.3750   -13.3010    71.5480    10.3480     7.9730     9.0000    23.1870     2.1880 
   90.5000   -13.1770    72.5010    11.7360     9.0360     9.4640    23.6030     2.1680 
   90.6250   -12.9820    72.3300    12.9110     9.9940     9.2850    23.8150     2.1690 
   90.7500   -12.7170    69.6670    13.9750    10.8670     9.3570    23.8940     2.1890 
   90.8750   -12.3870    66.7360    15.1280    11.7800     9.5790    23.9530     2.2140 
   91.0000   -11.9990    64.4090    16.5470    12.8830    10.0250    24.0290     2.2320 
   91.1250   -11.5710    62.4680    18.2870    14.2830    10.9300    24.0550     2.2340 
   91.2500   -11.1630    62.1230    20.0610    15.8230    14.9700    24.0640     2.2220 
   91.3750   -10.7560    64.4190    21.5340    17.2740    28.7150    24.1090     2.2010 
   91.5000   -10.4000    67.5940    22.4370    18.4040    49.3160    24.1950     2.1780 
   91.6250   -10.0950    66.2300    22.6590    19.0460    46.7710    24.1350     2.1590 
   91.7500    -9.8750    62.4110    22.5680    19.3830    40.2610    23.9180     2.1460 
   91.8750    -9.7060    59.7400    22.3830    19.5710    30.2670    23.7300     2.1380 
   92.0000    -9.6310    58.9930    22.0780    19.6330    20.3920    23.5980     2.1300 
   92.1250    -9.6620    58.9320    21.2000    19.2640    16.5810    23.5360     2.1200 
   92.2500    -9.7750    58.3530    19.4010    18.1260    14.9720    23.4770     2.1140 
   92.3750   -10.0070    57.7950    16.6590    16.0560    14.0910    23.4580     2.1200 
   92.5000   -10.3030    58.8440    13.4610    13.3410    12.5890    23.5080     2.1450 
   92.6250   -10.6770    62.8900    10.6180    10.6630     9.8560    23.6450     2.1900 
   92.7500   -11.0660    68.5960     8.5120     8.5280     7.2940    23.7650     2.2400 
   92.8750   -11.4820    73.8720     7.1580     7.0460     6.0450    23.8030     2.2780 
   93.0000   -11.8530    76.7970     6.4110     6.1340     5.6340    23.7570     2.2960 
   93.1250   -12.1610    78.4540     6.1410     5.6930     5.9230    23.6340     2.3000 
   93.2500   -12.3840    80.4800     6.1010     5.5060     6.2420    23.4520     2.3030 
   93.3750   -12.5060    81.7730     6.2140     5.4990     5.8970    23.3140     2.3100 
   93.5000   -12.5490    80.1080     6.5060     5.6720     5.3460    23.2980     2.3160 
   93.6250   -12.4850    76.3780     7.1450     6.1350     5.7120    23.3820     2.3120 
   93.7500   -12.3600    73.7230     8.2150     6.9480     6.7810    23.4050     2.2960 
   93.8750   -12.1750    70.9620     9.7920     8.1940     7.7090    23.3640     2.2770 
   94.0000   -11.9630    66.9740    11.8840     9.9110     8.7070    23.3150     2.2660 
   94.1250   -11.7460    64.1830    14.3270    12.0070    11.3920    23.2760     2.2620 
   94.2500   -11.5170    63.1870    16.5070    13.9660    14.5910    23.2520     2.2540 
   94.3750   -11.3020    61.1140    17.7380    15.2130    14.4690    23.2270     2.2370 
   94.5000   -11.0900    58.2390    17.5840    15.3590    12.8970    23.2680     2.2130 
   94.6250   -10.9310    58.2060    16.1000    14.3400    11.3590    23.3510     2.1950 
   94.7500   -10.8030    61.0760    14.2590    12.8690     9.7420    23.4460     2.1920 
   94.8750   -10.7020    64.6690    12.6980    11.4600     8.5260    23.5790     2.2040 
   95.0000   -10.6450    67.2270    11.7200    10.4160     7.8920    23.7240     2.2210 
   95.1250   -10.5800    68.5840    11.4400     9.9190     7.7080    23.7420     2.2280 
   95.2500   -10.5650    67.3680    11.6760     9.8980     8.1540    23.6300     2.2250 
   95.3750   -10.5450    65.0720    12.3130    10.2960     9.7530    23.4460     2.2130 
   95.5000   -10.5410    65.5800    13.1490    10.9520    10.7590    23.2830     2.1980 
   95.6250   -10.5030    68.4000    13.7600    11.5160    10.2150    23.1660     2.1840 
   95.7500   -10.4680    68.8840    13.8120    11.6670     9.7990    23.1480     2.1790 
   95.8750   -10.4280    66.3140    13.2800    11.3230    10.6520    23.2060     2.1890 
   96.0000   -10.3820    65.0650    12.4900    10.6830    10.5870    23.2920     2.2120 
   96.1250   -10.3320    67.8950    12.0370    10.1840     9.0270    23.3190     2.2410 
   96.2500   -10.2510    69.1410    12.2550    10.1490     8.1860    23.2350     2.2550 
   96.3750   -10.1420    67.1290    13.2140    10.6920     9.5110    23.0800     2.2450 
   96.5000   -10.0100    63.3800    14.7790    11.7710    11.5840    22.9840     2.2160 
   96.6250    -9.8620    60.4330    16.5840    13.1970    12.9680    22.9800     2.1860 
   96.7500    -9.7500    57.1370    17.9810    14.4980    13.6910    23.0270     2.1670 
   96.8750    -9.6800    54.1320    18.4880    15.2680    13.4930    23.0770     2.1600 
   97.0000    -9.6680    54.6180    18.0380    15.3230    13.0030    23.0800     2.1610 
   97.1250    -9.7170    59.5480    17.0060    14.7710    13.0160    23.0230     2.1690 
   97.2500    -9.8170    63.7380    15.9540    14.0230    13.3530    22.9800     2.1800 
   97.3750   -10.0010    65.1660    15.0430    13.2510    12.8580    22.9580     2.1900 
   97.5000   -10.2360    66.8580    14.2350    12.5050    11.4540    22.9410     2.1940 
   97.6250   -10.5510    68.9370    13.3720    11.7500    10.2770    22.9210     2.1870 
   97.7500   -10.8580    67.5300    12.3190    10.9010    10.1870    22.9330     2.1780 
   97.8750   -11.1880    64.5250    11.0680     9.9160     9.9530    22.9590     2.1780 
   98.0000   -11.4810    64.9560     9.7390     8.8450     8.5860    22.9890     2.1990 
   98.1250   -11.8060    69.7820     8.5510     7.8390     7.0720    23.0850     2.2420 
   98.2500   -12.1280    75.5490     7.6410     7.0230     6.3120    23.2370     2.2850 
   98.3750   -12.4360    81.3910     7.0750     6.4630     5.7620    23.3650     2.3110 
   98.5000   -12.7380    84.8900     6.8500     6.1710     5.4950    23.3580     2.3150 
   98.6250   -13.0110    82.4250     6.9080     6.1180     5.7340    23.1650     2.3060 
   98.7500   -13.2870    79.9130     7.0310     6.1480     6.1690    22.9760     2.2970 
   98.8750   -13.5270    80.6670     7.0740     6.1540     6.3410    22.9410     2.2970 
   99.0000   -13.7630    83.2070     6.9860     6.0800     6.0620    23.0870     2.3040 
   99.1250   -13.9510    83.0280     6.8150     5.9380     5.7930    23.2290     2.3090 
   99.2500   -14.1230    80.9620     6.6830     5.8040     5.5640    23.1820     2.3040 
   99.3750   -14.2780    78.3760     6.6540     5.7330     5.6490    22.9320     2.2890 
   99.5000   -14.4160    76.1380     6.7390     5.7440     6.1710    22.6480     2.2700 
   99.6250   -14.5570    76.1590     6.9220     5.8290     6.7210    22.4900     2.2550 
   99.7500   -14.6880    78.4900     7.1900     5.9630     6.6660    22.3880     2.2480 
   99.8750   -14.8330    79.8010     7.5890     6.1760     6.4380    22.3120     2.2480 
