~V
VERS. 2.00: Ver 2.00
~W
STRT.M 52.0000:
STOP.M 238.0000:
STEP.M 0.1250:
NULL. -999.2500:
UWI. F10653:
~C
DEPT.M :
GR.API :
RML.OHMM :
RI. :
RXO.OHMM :
CALI.CM :
DEN.GM/CC :
SP.MV :
~A
# ...
   85.7500    53.9560    12.7290    11.7290    10.6580    21.5080     2.1750   -20.5060 
   85.8750    54.3520    12.9830    11.9830    11.5080    22.1210     2.1790   -20.3220 
   86.0000    55.1480    13.1800    12.1800    12.4490    22.7730     2.1890   -20.0440 
   86.1250    55.9790    13.1090    12.1090    12.9730    23.2470     2.2070   -19.7060 
   86.2500    56.1630    12.6870    11.6870    13.4000    23.4610     2.2210   -19.3310 
   86.3750    57.2880    11.9620    10.9620    13.1310    23.4380     2.2240   -18.8740 
   86.5000    60.6950    11.1460    10.1460    11.4640    23.3330     2.2150   -18.4100 
   86.6250    64.4290    10.5200     9.5200    10.2090    23.2690     2.2010   -17.9700 
   86.7500    67.1020    10.1940     9.1940     9.7160    23.2480     2.1920   -17.5600 
   86.8750    68.8200    10.2060     9.2060     9.6790    23.2590     2.1880   -17.2050 
   87.0000    68.4760    10.5150     9.5150    10.0250    23.2900     2.1840   -16.9240 
   87.1250    64.7270    11.0340    10.0340    11.2250    23.3060     2.1790   -16.7610 
   87.2500    60.2380    11.5730    10.5730    12.3010    23.3100     2.1770   -16.6780 
   87.3750    58.4130    12.0010    11.0010    12.4280    23.3100     2.1830   -16.6770 
   87.5000    59.0860    12.2560    11.2560    11.9530    23.3100     2.1940   -16.7620 
   87.6250    59.7780    12.3380    11.3380    11.9600    23.3090     2.2030   -16.9040 
   87.7500    59.5090    12.3470    11.3470    11.8720    23.3070     2.2010   -17.0800 
   87.8750    58.8690    12.3230    11.3230    11.7390    23.3080     2.1920   -17.2750 
   88.0000    58.3530    12.2790    11.2790    11.6840    23.3120     2.1820   -17.4960 
   88.1250    57.5920    12.2180    11.2180    11.7090    23.3270     2.1780   -17.7020 
   88.2500    58.1960    12.1720    11.1720    11.6340    23.3520     2.1800   -17.8850 
   88.3750    61.5550    12.1800    11.1800    11.7050    23.3940     2.1850   -18.0740 
   88.5000    64.9960    12.2450    11.2450    11.7710    23.4680     2.1870   -18.1890 
   88.6250    64.1930    12.3370    11.3370    11.9270    23.6030     2.1840   -18.2410 
   88.7500    62.6260    12.3850    11.3850    12.0920    23.7090     2.1790   -18.2790 
   88.8750    64.0440    12.3390    11.3390    12.1750    23.8320     2.1780   -18.2750 
   89.0000    65.8400    12.2120    11.2120    11.9900    24.0110     2.1870   -18.2220 
   89.1250    64.0220    12.1400    11.1400    11.7290    24.1140     2.2020   -18.1230 
   89.2500    60.5000    12.3170    11.3170    11.6760    24.1490     2.2120   -18.0090 
   89.3750    58.1390    12.8570    11.8570    11.7670    24.1280     2.2160   -17.8360 
   89.5000    58.0510    13.7380    12.7380    11.6550    23.9660     2.2200   -17.6750 
   89.6250    59.2850    14.7450    13.7450    11.5970    23.5440     2.2360   -17.5250 
   89.7500    61.1130    15.4600    14.4600    12.1810    23.1460     2.2550   -17.3650 
   89.8750    64.6900    15.5750    14.5750    13.5020    23.1710     2.2650   -17.2240 
   90.0000    68.1700    15.0300    14.0300    13.4870    23.5300     2.2540   -17.1220 
   90.1250    67.0080    14.0550    13.0550    13.4890    23.9270     2.2180   -17.0590 
   90.2500    62.2160    13.0970    12.0970    13.1520    24.1110     2.1790   -17.0140 
   90.3750    57.9280    12.3660    11.3660    12.7780    24.1540     2.1520   -17.0420 
   90.5000    56.3520    11.9410    10.9410    12.3780    24.1140     2.1440   -17.0700 
   90.6250    56.6590    11.8410    10.8410    12.0730    24.0320     2.1490   -17.0580 
   90.7500    58.0920    11.9640    10.9640    12.0130    23.9340     2.1600   -17.0530 
   90.8750    60.2870    12.2720    11.2720    12.0480    23.7550     2.1670   -17.0240 
   91.0000    61.1660    12.6950    11.6950    11.7700    23.5300     2.1680   -16.9500 
   91.1250    60.3950    13.0180    12.0180    11.5040    23.3940     2.1610   -16.7920 
   91.2500    58.9110    12.9380    11.9380    11.4270    23.3200     2.1540   -16.5760 
   91.3750    58.0740    12.2460    11.2460    11.4670    23.2630     2.1520   -16.2730 
   91.5000    59.1720    10.9710     9.9710    11.0510    23.2160     2.1590   -15.9520 
   91.6250    61.8090     9.4130     8.4130     9.3930    23.1760     2.1820   -15.6140 
   91.7500    64.1640     8.0510     7.0510     7.4710    23.1180     2.2180   -15.2850 
   91.8750    65.2430     7.1170     6.1170     6.4730    23.0460     2.2570   -14.9920 
   92.0000    66.2370     6.6670     5.6670     6.3560    22.9140     2.2840   -14.7520 
   92.1250    70.3130     6.7180     5.7180     6.7500    22.8030     2.2850   -14.6170 
   92.2500    74.8550     7.1080     6.1080     7.4780    22.7260     2.2740   -14.6040 
   92.3750    76.3500     7.7640     6.7640     8.4880    22.7270     2.2590   -14.6870 
   92.5000    73.6430     8.6080     7.6080     8.8750    22.8040     2.2460   -14.8220 
   92.6250    69.4470     9.5550     8.5550     9.1390    22.9870     2.2360   -15.0560 
   92.7500    65.3180    10.4600     9.4600    10.3790    23.3150     2.2220   -15.2960 
   92.8750    59.9340    11.1860    10.1860    11.7060    23.7620     2.2030   -15.4810 
   93.0000    54.3740    11.6280    10.6280    12.3230    24.1290     2.1830   -15.6120 
   93.1250    51.5980    11.7170    10.7170    12.1760    24.2030     2.1710   -15.6600 
   93.2500    53.3600    11.5930    10.5930    11.7340    24.0620     2.1670   -15.6220 
   93.3750    57.9690    11.3860    10.3860    11.2710    23.8630     2.1680   -15.4880 
   93.5000    62.1480    11.1860    10.1860    11.0590    23.7240     2.1680   -15.2850 
   93.6250    64.5560    10.9850     9.9850    10.9970    23.6270     2.1620   -14.9570 
   93.7500    65.1200    10.6890     9.6890    10.9530    23.5010     2.1540   -14.5200 
   93.8750    63.7570    10.2100     9.2100    10.7770    23.3930     2.1500   -14.0460 
   94.0000    61.5410     9.5430     8.5430    10.2570    23.4040     2.1610   -13.5600 
   94.1250    63.5540     8.7650     7.7650     9.2280    23.5950     2.1930   -13.0840 
   94.2500    69.7350     8.0270     7.0270     8.0500    23.9260     2.2350   -12.6090 
   94.3750    75.5710     7.4200     6.4200     7.3400    24.2310     2.2750   -12.1930 
   94.5000    77.9410     6.9920     5.9920     6.9670    24.3740     2.3000   -11.8470 
   94.6250    77.1940     6.7640     5.7640     6.9340    24.4130     2.3020   -11.5630 
   94.7500    75.9110     6.6400     5.6400     6.6380    24.4200     2.2910   -11.3210 
   94.8750    75.7140     6.5320     5.5320     6.3610    24.4170     2.2800   -11.1240 
   95.0000    74.4140     6.3530     5.3530     6.6750    24.3830     2.2800   -10.9340 
   95.1250    72.0640     6.0640     5.0640     6.7370    24.3170     2.2930   -10.7170 
   95.2500    72.8000     5.8010     4.8010     6.3810    24.1840     2.3080   -10.4840 
   95.3750    76.9330     5.7880     4.7880     5.9630    23.9310     2.3100   -10.2190 
   95.5000    79.0880     6.2580     5.2580     6.2250    23.6600     2.3030    -9.9240 
   95.6250    74.8540     7.5520     6.5520     7.6040    23.7480     2.3250    -9.7230 
   95.7500    69.3090     9.6920     8.6920    10.5640    24.0250     2.4010    -9.7140 
   95.8750    64.2150    12.6070    11.6070    17.5970    24.1510     2.5030    -9.9760 
   96.0000    58.1120    15.8080    14.8080    31.9510    24.0880     2.5500   -10.6160 
   96.1250    54.6070    18.0410    17.0410    34.2330    23.9750     2.4860   -11.5640 
   96.2500    56.0200    18.6730    17.6730    24.5310    24.0620     2.3680   -12.2770 
   96.3750    57.9960    18.1020    17.1020    18.2670    24.2470     2.2500   -12.6560 
   96.5000    55.7200    17.1370    16.1370    16.5090    24.2890     2.1710   -13.0110 
   96.6250    52.5920    16.2090    15.2090    15.9390    24.2430     2.1420   -13.3030 
   96.7500    54.5540    15.1350    14.1350    15.2080    24.2850     2.1360   -13.4670 
   96.8750    58.3960    13.6600    12.6600    14.4600    24.3370     2.1370   -13.3980 
