~V
VERS. 2.00: Ver 2.00
~W
STRT.M 58.0000:
STOP.M 272.0000:
STEP.M 0.1250:
NULL. -999.2500:
UWI. F10670:
~C
DEPT.M :
DEN.GM/CC :
GR.API :
RML.OHMM :
RI. :
RXO.OHMM :
CALI.CM :
SP.MV :
~A
# ...
  114.2500     2.1790    84.7170     7.6680     7.2060     7.0130    22.4740   -18.2940 
  114.3750     2.2160    92.6790     7.0940     6.7670     6.1740    22.4080   -18.1460 
  114.5000     2.2630    95.8840     6.6990     6.3810     5.9500    22.3880   -17.9430 
  114.6250     2.3020    94.3150     6.5520     6.1440     5.7690    22.4120   -17.7150 
  114.7500     2.3240    90.1870     6.6410     6.0750     6.0140    22.4720   -17.4930 
  114.8750     2.3300    86.5670     6.8960     6.1480     6.4800    22.5390   -17.2790 
  115.0000     2.3250    85.4560     7.2070     6.2980     6.8370    22.5850   -17.0530 
  115.1250     2.3180    86.5280     7.4550     6.4300     6.6830    22.6130   -16.9520 
  115.2500     2.3110    89.1530     7.5820     6.4880     6.6920    22.6380   -16.9620 
  115.3750     2.3070    93.0990     7.5850     6.4510     6.4700    22.6540   -16.9920 
  115.5000     2.3010    95.5960     7.4900     6.3230     6.2380    22.6540   -16.9680 
  115.6250     2.2930    93.9430     7.3620     6.1610     6.1540    22.6400   -17.0260 
  115.7500     2.2820    89.4170     7.2380     6.0030     6.3860    22.6180   -17.0930 
  115.8750     2.2700    86.2320     7.1560     5.8880     6.6270    22.5980   -17.0230 
  116.0000     2.2690    85.8360     7.1820     5.8790     6.4310    22.5730   -17.0780 
  116.1250     2.2870    85.8800     7.3200     5.9950     6.0440    22.5380   -17.0530 
  116.2500     2.3270    85.4210     7.5440     6.2250     6.5930    22.5020   -16.9510 
  116.3750     2.3810    84.7390     7.7770     6.5180     9.3160    22.4830   -16.9070 
  116.5000     2.4240    83.8970     7.8750     6.7620    13.1790    22.4710   -16.8850 
  116.6250     2.4390    82.6690     7.7700     6.8600    11.5680    22.4440   -16.7850 
  116.7500     2.4240    83.3360     7.4730     6.7780     7.7120    22.3950   -16.7020 
  116.8750     2.3910    86.9730     7.0800     6.5560     6.4610    22.3480   -16.7420 
  117.0000     2.3590    91.3610     6.7280     6.2880     6.9230    22.3000   -16.8240 
  117.1250     2.3380    91.8060     6.4900     6.0680     7.0070    22.2660   -16.9370 
  117.2500     2.3250    89.2750     6.3720     5.9270     6.3670    22.2530   -17.0820 
  117.3750     2.3160    87.4680     6.3340     5.8490     6.1920    22.2510   -17.2060 
  117.5000     2.3120    88.2940     6.3150     5.7930     6.0750    22.2510   -17.2150 
  117.6250     2.3130    90.9610     6.2580     5.7220     5.6470    22.2510   -17.2520 
  117.7500     2.3160    95.4360     6.1490     5.6310     5.4350    22.2510   -17.3520 
  117.8750     2.3200   100.4940     6.0470     5.5330     5.4310    22.2460   -17.5050 
  118.0000     2.3260   100.9400     5.9750     5.4420     5.3910    22.2120   -17.5640 
  118.1250     2.3370    99.7960     5.9330     5.3700     5.3220    22.1150   -17.5570 
  118.2500     2.3510   102.0010     5.8870     5.3220     5.2590    21.9740   -17.5490 
  118.3750     2.3610   104.6930     5.8440     5.2950     5.3890    21.9360   -17.6020 
  118.5000     2.3610   101.7000     5.8360     5.2780     5.4330    22.2980   -17.7470 
  118.6250     2.3470    95.9370     5.9350     5.2610     5.5320    22.9640   -17.9690 
  118.7500     2.3210    92.0600     6.1360     5.2560     5.5480    23.6490   -18.1810 
  118.8750     2.2900    91.4650     6.3050     5.2950     5.5210    24.0540   -18.2800 
  119.0000     2.2650    93.1570     6.4510     5.4390     5.6800    24.1580   -18.3240 
  119.1250     2.2590    95.0890     6.6290     5.6840     5.9360    24.1670   -18.4630 
  119.2500     2.2770    94.0700     6.8370     5.9810     6.6730    24.1550   -18.6480 
  119.3750     2.3140    91.5560     6.9960     6.2430     8.2560    24.1340   -18.7010 
  119.5000     2.3500    91.1220     7.0000     6.3570    10.0870    24.1340   -18.8060 
  119.6250     2.3700    91.7470     6.8730     6.3330     8.5920    24.1390   -18.8600 
  119.7500     2.3670    90.9950     6.7030     6.2390     6.8480    24.1500   -18.8950 
  119.8750     2.3460    89.3690     6.5950     6.1720     6.2250    24.1670   -18.9880 
  120.0000     2.3120    89.7180     6.6330     6.2130     6.5620    24.1350   -19.0520 
  120.1250     2.2750    92.3360     6.7690     6.3340     7.3730    24.0770   -19.1380 
  120.2500     2.2420    93.9320     6.9260     6.4740     7.7880    23.9980   -19.2370 
  120.3750     2.2170    92.8100     7.0330     6.5620     7.3420    23.8820   -19.3730 
  120.5000     2.2030    91.3130     7.0620     6.5470     6.4740    23.5930   -19.4840 
  120.6250     2.1930    90.8340     7.0650     6.4720     6.3700    23.1640   -19.6560 
  120.7500     2.1840    89.9610     7.0760     6.3870     6.6280    22.8440   -19.8010 
  120.8750     2.1780    89.3540     7.0980     6.3270     6.5940    22.7290   -20.0260 
  121.0000     2.1830    90.6700     7.0970     6.2940     6.2440    22.7810   -20.2900 
  121.1250     2.1990    91.6980     7.0400     6.2580     6.0190    22.9370   -20.4930 
  121.2500     2.2220    90.8110     6.9150     6.1910     5.8910    23.1620   -20.6180 
  121.3750     2.2450    89.9280     6.7420     6.0860     5.8410    23.4060   -20.7520 
  121.5000     2.2640    90.1770     6.5660     5.9580     6.0970    23.6280   -21.0170 
  121.6250     2.2760    91.0560     6.4340     5.8490     6.2430    23.7730   -21.2650 
  121.7500     2.2780    91.8430     6.3660     5.7810     5.8810    23.8120   -21.4930 
  121.8750     2.2680    92.7910     6.3490     5.7550     5.4120    23.7720   -21.7220 
  122.0000     2.2500    94.3660     6.3130     5.7360     5.7370    23.5980   -22.0950 
  122.1250     2.2350    95.8210     6.1880     5.6770     6.4130    23.3430   -22.5280 
  122.2500     2.2330    96.1270     5.9820     5.5730     6.7700    23.1630   -23.0160 
  122.3750     2.2470    94.8010     5.8180     5.4920     6.3230    23.1020   -23.5470 
  122.5000     2.2750    90.3490     5.9990     5.6370     5.8100    23.0630   -23.9650 
  122.6250     2.3110    84.7290     6.7380     6.1810     5.8550    22.9590   -24.3290 
  122.7500     2.3510    79.0280     8.1860     7.2690     7.3610    22.9220   -24.7330 
  122.8750     2.3910    73.4310    10.3150     8.9190    11.7800    22.9560   -25.1830 
  123.0000     2.4190    67.4530    12.6330    10.8380    22.1170    22.9340   -25.5920 
  123.1250     2.4240    64.1220    14.1440    12.2820    30.4060    22.8140   -25.9550 
  123.2500     2.4010    65.6560    14.2080    12.6850    25.4010    22.6310   -26.3000 
  123.3750     2.3600    68.7910    12.9910    11.9980    15.8300    22.4860   -26.6230 
  123.5000     2.3110    69.2870    11.3270    10.7020    10.7550    22.3970   -26.9470 
  123.6250     2.2650    68.0990    10.0120     9.5200     9.4220    22.4130   -27.2980 
  123.7500     2.2160    66.8980     9.2190     8.7220     9.4330    22.6240   -27.6900 
  123.8750     2.1620    66.2560     8.8580     8.3270     9.7100    23.0940   -28.0390 
  124.0000     2.1070    66.5180     8.7770     8.2460     9.4880    23.6630   -28.2240 
  124.1250     2.0640    66.0070     8.7770     8.2720     9.3260    24.1730   -28.3420 
  124.2500     2.0430    64.4060     8.7820     8.3090     9.3980    24.3950   -28.5320 
  124.3750     2.0480    63.5410     8.7620     8.3140     9.4940    24.4210   -28.7230 
  124.5000     2.0730    65.3650     8.7200     8.2910     9.4310    24.3860   -28.8410 
  124.6250     2.1020    68.7130     8.6800     8.2710     9.2600    24.3650   -28.9340 
  124.7500     2.1250    70.0190     8.6630     8.2680     9.0810    24.3880   -28.9530 
  124.8750     2.1380    67.4790     8.6790     8.2790     9.0220    24.4650   -28.8390 
  125.0000     2.1420    62.4180     8.7110     8.2880     9.2120    24.5070   -28.6710 
  125.1250     2.1440    59.7930     8.7300     8.2880     9.4490    24.5110   -28.5030 
  125.2500     2.1480    61.3210     8.7470     8.2810     9.6930    24.4810   -28.3220 
  125.3750     2.1570    64.3420     8.8080     8.2800     9.7900    24.4430   -28.0760 
