~V
VERS. 2.00: Ver 2.00
~W
STRT.M 52.0000:
STOP.M 240.0000:
STEP.M 0.1250:
NULL. -999.2500:
UWI. F10646:
~C
DEPT.M :
GR.API :
RML.OHMM :
RI. :
RXO.OHMM :
CALI.CM :
DEN.GM/CC :
SP.MV :
~A
# ...
  164.5000    39.7300    17.9630    15.7600    15.7010    23.7560     2.5020   -15.5070 
  164.6250    41.3190    18.0970    15.8060    15.7140    23.7370     2.4990   -15.3150 
  164.7500    46.0960    18.3980    15.9970    15.6090    23.6930     2.4920   -15.1410 
  164.8750    50.8450    18.7680    16.2600    16.4490    23.6140     2.4850   -15.0100 
  165.0000    49.9930    19.0520    16.4570    16.9680    23.6040     2.4820   -14.9560 
  165.1250    45.5790    19.1480    16.4940    17.3090    23.6630     2.4840   -14.9360 
  165.2500    42.4390    19.0440    16.3680    16.9650    23.6860     2.4850   -14.9210 
  165.3750    41.3120    18.8210    16.1570    15.6830    23.6410     2.4820   -14.9300 
  165.5000    41.8190    18.6190    15.9770    14.7640    23.5300     2.4730   -15.0330 
  165.6250    43.3850    18.5360    15.8980    14.4690    23.3830     2.4660   -15.1680 
  165.7500    45.5700    18.6010    15.9350    14.6820    23.1820     2.4660   -15.2630 
  165.8750    47.8470    18.8040    16.0750    14.4100    22.8590     2.4730   -15.3330 
  166.0000    50.2600    19.1370    16.3030    14.2730    22.6340     2.4810   -15.4090 
  166.1250    50.9770    19.5650    16.5910    14.8230    22.7700     2.4870   -15.4830 
  166.2500    48.8820    20.0790    16.9320    15.8650    23.2650     2.4920   -15.5510 
  166.3750    45.3770    20.6360    17.3120    17.6190    23.8480     2.4990   -15.6200 
  166.5000    44.0200    21.1130    17.6730    19.0370    24.0750     2.5120   -15.6310 
  166.6250    45.2220    21.4050    17.9430    19.9670    24.1370     2.5290   -15.5900 
  166.7500    47.2800    21.4630    18.0710    20.3360    24.1360     2.5440   -15.5570 
  166.8750    48.5630    21.3120    18.0360    19.7670    24.1280     2.5540   -15.5220 
  167.0000    47.6250    21.0470    17.8600    19.1700    24.1230     2.5530   -15.4400 
  167.1250    45.9790    20.8260    17.6530    19.2140    24.1300     2.5430   -15.3270 
  167.2500    45.8440    20.7270    17.4970    19.6510    24.1650     2.5240   -15.2000 
  167.3750    47.2020    20.7770    17.4460    19.3260    24.2230     2.5040   -15.0590 
  167.5000    48.6290    20.9920    17.5260    18.7890    24.2440     2.4860   -14.9350 
  167.6250    48.9180    21.3080    17.6850    18.8310    24.1750     2.4710   -14.8360 
  167.7500    48.6790    21.6640    17.8690    19.3760    24.1090     2.4620   -14.7270 
  167.8750    47.9080    21.9820    18.0280    20.1670    24.0400     2.4630   -14.6310 
  168.0000    46.9830    22.1730    18.1180    20.2460    23.8920     2.4740   -14.6020 
  168.1250    46.7300    22.2150    18.1390    19.7230    23.7130     2.4900   -14.6190 
  168.2500    46.4420    22.1150    18.0850    19.6710    23.5520     2.5040   -14.6450 
  168.3750    45.7090    21.9060    17.9530    19.3990    23.4910     2.5120   -14.6740 
  168.5000    45.9720    21.6080    17.7380    19.3240    23.4300     2.5120   -14.7520 
  168.6250    46.6050    21.2780    17.4850    19.3260    23.3480     2.5080   -14.8850 
  168.7500    44.8350    20.9820    17.2430    18.6540    23.2290     2.5000   -15.0490 
  168.8750    42.2820    20.7930    17.0640    17.7050    23.0900     2.4910   -15.1870 
  169.0000    42.2820    20.7730    16.9920    17.7190    23.0660     2.4850   -15.2890 
  169.1250    43.8140    20.8490    16.9820    18.1590    23.1240     2.4900   -15.4130 
  169.2500    45.1700    20.9190    16.9730    18.7070    23.1200     2.5020   -15.5410 
  169.3750    45.5140    20.8840    16.9070    19.0060    23.0880     2.5110   -15.6380 
  169.5000    45.0630    20.6940    16.7460    17.9600    23.2710     2.5050   -15.6930 
  169.6250    44.7680    20.4480    16.5390    17.4820    23.6120     2.4860   -15.7050 
  169.7500    45.7190    20.2460    16.3420    17.2580    24.0190     2.4630   -15.6760 
  169.8750    46.7560    20.1550    16.2040    17.5640    24.2790     2.4460   -15.6630 
  170.0000    46.4180    20.1960    16.1440    18.4040    24.3400     2.4410   -15.6510 
  170.1250    46.4550    20.3010    16.1290    18.6170    24.3460     2.4460   -15.5710 
  170.2500    47.0430    20.4160    16.1280    18.4420    24.3300     2.4590   -15.4690 
  170.3750    47.4260    20.4840    16.1120    18.0660    24.1540     2.4750   -15.3820 
  170.5000    45.9630    20.4240    16.0380    17.7870    23.9350     2.4890   -15.2890 
  170.6250    44.1630    20.1900    15.8830    17.5720    23.9520     2.4960   -15.1900 
  170.7500    43.5950    19.7600    15.6330    17.6500    23.9130     2.4950   -15.0810 
  170.8750    43.8390    19.1710    15.2950    17.4240    23.7480     2.4890   -14.9490 
  171.0000    43.9740    18.5330    14.9140    16.0740    23.6780     2.4810   -14.8330 
  171.1250    44.5310    18.0190    14.5850    15.4270    23.6840     2.4760   -14.7960 
  171.2500    47.0210    17.7530    14.3970    15.6570    23.7060     2.4770   -14.8100 
  171.3750    50.2940    17.8020    14.4170    16.3670    23.7010     2.4830   -14.8270 
  171.5000    51.4120    18.1910    14.6940    16.6990    23.7210     2.4870   -14.8490 
  171.6250    51.4570    18.7250    15.1160    17.3700    23.7760     2.4830   -14.9270 
  171.7500    51.8100    19.1640    15.5180    18.5060    23.8460     2.4740   -15.0650 
  171.8750    53.6930    19.1920    15.6610    18.9010    23.8130     2.4780   -15.2050 
  172.0000    57.4330    18.3960    15.2000    18.0600    23.7200     2.5150   -15.3150 
  172.1250    60.3970    16.8650    14.1550    15.5980    23.6350     2.5570   -15.3880 
  172.2500    60.3820    14.8750    12.7160    12.7900    23.7140     2.5670   -15.4060 
  172.3750    57.3430    12.8470    11.1970    10.2810    24.1310     2.5280   -15.3940 
  172.5000    54.4130    11.2420     9.9420     8.4700    24.8240     2.4510   -15.3620 
  172.6250    52.7210    10.1820     9.0650     7.0350    25.4410     2.3800   -15.2660 
  172.7500    51.2440     9.6260     8.5610     7.0050    25.5570     2.3420   -15.1150 
  172.8750    49.2850     9.4160     8.3370     7.7980    25.5130     2.3480   -14.9730 
  173.0000    48.6010     9.3380     8.2600     7.8930    25.5450     2.3770   -14.8390 
  173.1250    48.6260     9.1860     8.1800     7.6800    25.5390     2.3860   -14.6830 
  173.2500    48.9240     8.9240     8.0510     7.3470    25.7330     2.3640   -14.5270 
  173.3750    49.9740     8.6220     7.8910     6.8480    26.2590     2.3230   -14.3750 
  173.5000    50.7390     8.4300     7.7620     6.3470    26.4910     2.2870   -14.2380 
  173.6250    49.4610     8.4110     7.7140     6.2510    25.8740     2.2670   -14.1520 
  173.7500    46.3540     8.5530     7.7640     6.7160    24.9340     2.2770   -14.1170 
  173.8750    43.4720     8.8110     7.9090     7.1160    24.4690     2.3200   -14.0940 
  174.0000    42.3460     9.1330     8.1200     7.1020    24.2260     2.3870   -14.1080 
  174.1250    44.0220     9.4360     8.3180     7.5820    24.0070     2.4430   -14.2070 
  174.2500    48.0120     9.6420     8.4270     8.1390    23.8620     2.4570   -14.3930 
  174.3750    51.2310     9.6790     8.3890     8.0530    24.1090     2.4140   -14.6310 
  174.5000    49.5910     9.5450     8.2070     7.7850    24.8050     2.3330   -14.8890 
  174.6250    47.0880     9.4110     8.0120     7.7270    25.2560     2.2610   -15.1900 
  174.7500    47.8540     9.4670     7.9260     7.6180    25.2730     2.2300   -15.5410 
  174.8750    51.7030     9.9110     8.0720     7.5210    24.7950     2.2570   -15.9130 
  175.0000    53.9260    11.0340     8.6380     8.9640    24.1560     2.3290   -16.2520 
  175.1250    54.7290    12.8640     9.6730    11.6430    23.8270     2.4030   -16.5690 
  175.2500    57.1340    15.4320    11.2450    13.5560    23.8540     2.4540   -16.8640 
  175.3750    60.7570    18.7050    13.3880    14.1020    24.0510     2.4750   -17.1340 
  175.5000    59.5400    22.6110    16.1620    18.1410    24.1420     2.4580   -17.4010 
  175.6250    55.4560    26.7170    19.2980    25.6250    24.2340     2.4100   -17.6040 
