~V
VERS. 2.00: Ver 2.00
~W
STRT.M 50.0000:
STOP.M 263.0000:
STEP.M 0.1250:
NULL. -999.2500:
UWI. F10656:
~C
DEPT.M :
DEN.GM/CC :
GR.API :
RML.OHMM :
RI. :
RXO.OHMM :
CALI.CM :
SP.MV :
~A
# ...
  140.0000     2.1740    57.4210    23.7800    22.0720    17.5830    22.8190     2.1420 
  140.1250     2.1730    57.7600    23.9020    22.0990    17.3740    22.8220     2.2280 
  140.2500     2.1730    55.5980    24.1800    22.2590    17.3530    22.8200     2.3380 
  140.3750     2.1720    54.8750    24.5100    22.4800    17.4950    22.8040     2.4110 
  140.5000     2.1700    58.3780    24.6970    22.6110    17.6100    22.7820     2.4350 
  140.6250     2.1680    62.7100    24.4050    22.3850    17.7040    22.7590     2.3930 
  140.7500     2.1680    63.4190    23.5630    21.7140    17.7120    22.7540     2.3280 
  140.8750     2.1720    61.4940    22.3080    20.6770    17.5460    22.7600     2.2550 
  141.0000     2.1810    60.8980    21.0220    19.5570    17.1020    22.7740     2.1790 
  141.1250     2.1920    61.9660    20.3350    18.8570    16.6890    22.7890     2.1000 
  141.2500     2.2020    61.2760    20.5490    18.8720    16.5760    22.7830     2.0420 
  141.3750     2.2050    58.8900    21.6910    19.6960    17.0840    22.7560     1.9700 
  141.5000     2.2000    56.5570    23.4480    21.1580    18.2630    22.7140     1.8620 
  141.6250     2.1890    56.6650    25.1190    22.7600    19.3760    22.7080     1.7200 
  141.7500     2.1780    58.4920    25.9790    23.8180    19.5200    22.7270     1.5410 
  141.8750     2.1730    59.9740    25.6760    23.9030    18.7370    22.7530     1.3120 
  142.0000     2.1760    58.9750    24.3260    22.9730    17.1580    22.7710     1.0620 
  142.1250     2.1850    58.7580    22.4660    21.3840    14.8460    22.7700     0.7870 
  142.2500     2.1960    61.0900    20.8020    19.8150    12.5500    22.7320     0.4910 
  142.3750     2.2040    62.8990    19.6050    18.5780    10.9960    22.6530     0.2410 
  142.5000     2.2080    62.4460    18.9000    17.7680    10.3600    22.5380     0.0610 
  142.6250     2.2050    64.4530    18.6790    17.4380    10.2820    22.4140    -0.0560 
  142.7500     2.1980    68.0650    18.8110    17.4810    10.3440    22.3210    -0.1310 
  142.8750     2.1900    69.0560    19.2750    17.8720    10.5360    22.2420    -0.1240 
  143.0000     2.1860    67.6510    20.0270    18.5640    11.0620    22.1380    -0.0490 
  143.1250     2.1870    65.5820    20.9520    19.4680    12.1890    22.0190     0.0490 
  143.2500     2.1930    61.5560    21.7780    20.3450    13.7810    22.0720     0.1280 
  143.3750     2.2010    57.8170    22.2760    20.9830    15.3250    22.3140     0.1750 
  143.5000     2.2110    57.5540    22.3150    21.2250    15.9940    22.5400     0.2010 
  143.6250     2.2180    59.7760    21.9050    20.9980    15.3670    22.6000     0.2120 
  143.7500     2.2210    62.2670    21.3580    20.5420    14.3300    22.5510     0.1830 
  143.8750     2.2190    65.4550    20.8930    20.0570    14.0340    22.4810     0.0810 
  144.0000     2.2170    68.6020    20.5960    19.6700    14.5950    22.4610    -0.0850 
  144.1250     2.2180    69.3510    20.3810    19.3800    15.3790    22.5910    -0.2590 
  144.2500     2.2220    71.8850    20.0500    19.0520    15.8270    22.7390    -0.4180 
  144.3750     2.2270    77.5060    19.4830    18.5770    15.4090    22.7140    -0.5680 
  144.5000     2.2260    81.5380    18.6820    17.9230    14.0550    22.6330    -0.7510 
  144.6250     2.2160    77.8310    17.7950    17.1750    13.1220    22.7880    -0.9110 
  144.7500     2.2030    70.4950    17.0670    16.5370    12.3710    23.1110    -1.0310 
  144.8750     2.1900    65.8330    16.6910    16.1840    11.7810    23.4250    -1.1060 
  145.0000     2.1800    64.7270    16.7880    16.2470    11.5620    23.6400    -1.1230 
  145.1250     2.1750    63.6270    17.4150    16.8150    12.0720    23.6650    -1.0960 
  145.2500     2.1710    61.6760    18.2710    17.6400    12.9500    23.5430    -1.0620 
  145.3750     2.1670    60.0080    18.9900    18.3940    13.7640    23.2270    -1.0510 
  145.5000     2.1620    59.6660    19.1480    18.6640    14.2970    22.8650    -1.0500 
  145.6250     2.1610    62.3290    18.2820    17.9610    14.5070    22.6600    -1.1290 
  145.7500     2.1690    67.9550    16.6090    16.4330    14.1160    22.5430    -1.2510 
  145.8750     2.1920    73.5970    14.5520    14.4610    12.8220    22.4410    -1.3960 
  146.0000     2.2270    77.6290    12.6610    12.5590    10.9790    22.3410    -1.5930 
  146.1250     2.2620    79.4980    11.5100    11.2490     9.0640    22.2360    -1.8160 
  146.2500     2.2800    79.8840    11.1530    10.6170     7.8600    22.1750    -2.0290 
  146.3750     2.2760    78.4760    11.4830    10.6190     7.6360    22.1320    -2.1930 
  146.5000     2.2550    75.3030    12.2740    11.1160     7.9690    22.0910    -2.2770 
  146.6250     2.2290    72.1750    13.2610    11.9380     8.3250    22.0540    -2.2660 
  146.7500     2.2100    70.7140    14.1890    12.8270     8.4950    22.0490    -2.2000 
  146.8750     2.2000    69.7220    14.9800    13.6590     8.5960    22.0550    -2.0840 
  147.0000     2.1990    68.0240    15.6570    14.3960     8.7920    22.0430    -1.8920 
  147.1250     2.2020    66.5160    16.3110    15.0740     9.0350    22.0670    -1.6310 
  147.2500     2.2060    66.0680    17.0340    15.7650     9.2580    22.1370    -1.3310 
  147.3750     2.2080    65.8050    17.8680    16.5040     9.4760    22.1930    -1.0250 
  147.5000     2.2060    65.2240    18.8300    17.3060     9.7360    22.2140    -0.7140 
  147.6250     2.2010    63.6450    19.9170    18.1760    10.1610    22.2100    -0.3720 
  147.7500     2.1930    60.8440    21.0440    19.0690    10.8450    22.1850     0.0030 
  147.8750     2.1870    59.0980    22.1270    19.9310    11.7720    22.1370     0.3600 
  148.0000     2.1850    60.2470    23.0920    20.7040    12.7820    22.0920     0.6350 
  148.1250     2.1880    60.2910    23.8820    21.3280    13.5920    22.0700     0.8510 
  148.2500     2.1940    57.9880    24.5620    21.8370    14.0750    22.0530     1.0440 
  148.3750     2.2010    56.6460    25.1930    22.2690    14.2900    22.0380     1.2080 
  148.5000     2.2040    57.4530    25.8160    22.6660    14.6210    22.0070     1.3490 
  148.6250     2.2020    58.2850    26.4120    23.0360    15.3720    21.9980     1.4630 
  148.7500     2.1980    58.8670    26.9170    23.3640    15.9910    22.0190     1.5410 
  148.8750     2.1930    59.5340    27.2650    23.6150    16.2950    22.0770     1.6240 
  149.0000     2.1890    58.2480    27.4160    23.7650    16.3830    22.1230     1.7330 
  149.1250     2.1870    55.3200    27.3640    23.8020    16.2890    22.1230     1.8130 
  149.2500     2.1840    55.1180    27.2260    23.7940    16.1350    22.1020     1.8310 
  149.3750     2.1820    57.2620    27.1220    23.8260    15.9270    22.0420     1.8360 
  149.5000     2.1790    58.0940    27.1900    24.0040    15.6670    21.9430     1.8310 
  149.6250     2.1780    56.2590    27.5860    24.4610    15.4450    21.8010     1.7960 
  149.7500     2.1810    55.8790    28.2420    25.1560    15.2720    21.7200     1.7240 
  149.8750     2.1910    57.9520    28.9790    25.9650    14.9420    21.6240     1.5930 
  150.0000     2.2100    61.2730    29.5000    26.6540    14.5560    21.4990     1.3610 
  150.1250     2.2320    64.0230    29.3280    26.8120    13.9780    21.3190     1.0310 
  150.2500     2.2500    64.3010    28.2870    26.2150    13.5110    21.1870     0.6870 
  150.3750     2.2590    62.6510    26.3330    24.7480    12.9680    21.0980     0.2910 
  150.5000     2.2600    62.3120    23.6090    22.4790    12.1360    20.9010    -0.2010 
  150.6250     2.2610    65.7650    20.3940    19.6150    11.1130    20.4760    -0.8180 
  150.7500     2.2690    70.5800    17.1950    16.6680     9.9290    19.9010    -1.4620 
  150.8750     2.2880    73.1870    14.3830    14.0140     8.6790    19.3110    -2.1010 
  151.0000     2.3140    72.9350    12.2440    11.9390     7.5660    18.8750    -2.6670 
  151.1250     2.3430    72.2460    11.0580    10.7090     6.8810    18.6580    -3.1570 
