~V
VERS. 2.00: Ver 2.00
~W
STRT.M 55.0000:
STOP.M 197.0000:
STEP.M 0.1250:
NULL. -999.2500:
UWI. F10681:
~C
DEPT.M :
DEN.GM/CC :
GR.API :
RML.OHMM :
RI. :
RXO.OHMM :
CALI.CM :
SP.MV :
~A
# ...
   88.7500     2.2290    75.2540     8.3480     5.8290     6.8780    23.7740   -12.1930 
   88.8750     2.2010    72.0300     8.4090     5.6920     6.9510    23.7060   -11.9110 
   89.0000     2.1660    73.5630     9.1650     6.0030     6.7870    23.7460   -11.6800 
   89.1250     2.1440    75.1180    10.7820     6.9010     7.5240    23.7670   -11.4640 
   89.2500     2.1510    73.0620    13.1340     8.3510     9.6910    23.7480   -11.2500 
   89.3750     2.1910    70.5380    16.0610    10.3440    13.2550    23.7410   -11.0870 
   89.5000     2.2470    70.3190    19.1730    12.7330    16.4740    23.6930   -10.9600 
   89.6250     2.2870    69.5200    21.6100    15.0510    17.5500    23.8270   -10.8370 
   89.7500     2.2980    66.9740    22.6480    16.6110    18.1210    23.9000   -10.7040 
   89.8750     2.2850    64.1420    21.9480    16.9060    19.0580    23.9460   -10.5620 
   90.0000     2.2650    63.1460    19.7540    15.8720    18.8190    24.2730   -10.4410 
   90.1250     2.2500    65.5380    16.7550    13.8760    16.2910    24.3120   -10.3880 
   90.2500     2.2400    70.6630    13.8870    11.7230    12.8530    24.2850   -10.3500 
   90.3750     2.2310    76.1860    11.6040     9.8270     9.5720    24.2840   -10.2570 
   90.5000     2.2210    79.4600    10.0940     8.3970     7.9770    24.3380   -10.1180 
   90.6250     2.2100    79.4340     9.4810     7.5930     7.2680    24.3340    -9.9900 
   90.7500     2.1970    79.4810     9.5080     7.2980     7.4140    24.2750    -9.9040 
   90.8750     2.1840    80.4060     9.9790     7.4210     7.4570    24.1860    -9.8280 
   91.0000     2.1730    80.7650    10.6150     7.7910     7.6040    24.1620    -9.7330 
   91.1250     2.1710    78.4330    11.0160     8.1290     9.3260    24.1330    -9.6330 
   91.2500     2.1730    73.8510    11.0110     8.2310    12.1220    24.1380    -9.5720 
   91.3750     2.1710    71.3390    10.7730     8.1270    11.4270    24.1810    -9.5470 
   91.5000     2.1580    73.2830    10.7870     8.0690     8.3300    24.3240    -9.5560 
   91.6250     2.1320    75.7090    11.8250     8.5170     7.5330    24.3910    -9.6200 
   91.7500     2.1030    72.8670    14.1600     9.7440     9.5600    24.5490    -9.7120 
   91.8750     2.0760    67.1300    17.8600    11.9680    14.3690    24.7060    -9.8590 
   92.0000     2.0540    63.5580    22.5740    15.1930    20.8250    24.8650   -10.0450 
   92.1250     2.0340    63.3710    27.0320    18.8080    24.2280    24.9150   -10.1960 
   92.2500     2.0160    63.5750    29.6190    21.4340    24.1890    24.8540   -10.3130 
   92.3750     2.0020    63.2990    29.8400    22.3240    23.0030    24.7490   -10.4490 
   92.5000     1.9980    63.9590    28.6480    21.8690    21.3070    24.7360   -10.6000 
   92.6250     2.0120    64.5620    27.6150    21.0970    19.6950    24.8260   -10.7300 
   92.7500     2.0390    62.1810    27.5460    20.7870    19.5730    24.8630   -10.8110 
   92.8750     2.0720    57.5280    28.5100    21.1460    21.0400    24.7790   -10.8460 
   93.0000     2.1030    53.4370    30.2690    22.1350    23.1920    24.6130   -10.8870 
   93.1250     2.1220    52.7100    32.4530    23.6100    24.9630    24.5050   -10.9750 
   93.2500     2.1300    53.6380    34.5420    25.1790    26.3290    24.5280   -11.0300 
   93.3750     2.1290    55.6510    36.2440    26.5790    26.9780    24.4350   -11.0400 
   93.5000     2.1230    56.4840    37.4410    27.6620    26.4740    24.4430   -11.0400 
   93.6250     2.1170    53.7230    38.0660    28.3540    25.9760    24.2390   -11.0610 
   93.7500     2.1130    52.9370    38.2110    28.7250    25.6320    23.9050   -11.1010 
   93.8750     2.1130    56.5280    37.8310    28.7440    25.8440    23.9030   -11.1130 
   94.0000     2.1190    61.3320    36.8540    28.3420    27.1920    24.2930   -11.0940 
   94.1250     2.1300    61.2610    35.2060    27.4080    28.3850    25.2510   -11.0880 
   94.2500     2.1400    59.6140    33.2920    26.1810    28.5410    26.1440   -11.1250 
   94.3750     2.1440    60.8510    31.6520    25.0230    26.8490    26.3050   -11.1570 
   94.5000     2.1340    63.7520    30.8970    24.3980    24.7500    27.1500   -11.1560 
   94.6250     2.1070    66.3950    31.6900    24.8810    23.1050    25.7410   -11.1220 
   94.7500     2.0700    66.7880    33.7730    26.4410    22.8580    25.2990   -11.0880 
   94.8750     2.0330    64.5840    36.6310    28.8690    24.8870    24.8050   -11.0870 
   95.0000     2.0080    59.8910    39.2160    31.5440    29.9480    24.4210   -11.0880 
   95.1250     2.0060    55.5320    39.2750    32.7560    36.2230    24.5530   -11.0440 
   95.2500     2.0280    54.7360    35.6010    30.9760    38.0410    24.6700   -10.9850 
   95.3750     2.0680    57.8630    28.7650    26.1180    33.4820    24.7200   -10.9750 
   95.5000     2.1170    61.8020    21.1150    19.9630    26.9080    24.7560   -11.0270 
   95.6250     2.1620    62.6210    15.2720    14.8220    19.7010    24.6290   -11.0870 
   95.7500     2.1950    62.9860    11.6750    11.3380    12.1890    24.3110   -11.1370 
   95.8750     2.2190    66.6140     9.9620     9.3390     7.5440    24.1060   -11.1970 
   96.0000     2.2380    71.4700     9.5040     8.4140     6.9840    24.1860   -11.3020 
   96.1250     2.2590    72.6380     9.6630     8.1670     9.8300    24.4780   -11.4790 
   96.2500     2.2780    72.2420     9.6940     8.0310    11.8680    24.7380   -11.6990 
   96.3750     2.2850    74.6230     9.2020     7.6620     9.3270    24.7230   -11.9320 
   96.5000     2.2680    77.5240     8.2300     6.9750     6.7290    24.5180   -12.2050 
   96.6250     2.2260    76.0680     7.3710     6.2660     5.5950    24.2540   -12.5930 
   96.7500     2.1730    72.3270     7.1950     5.9230     5.4300    24.0460   -13.1060 
   96.8750     2.1220    69.5620     7.9590     6.1640     5.9250    23.8860   -13.7140 
   97.0000     2.0800    68.8820     9.7320     7.1150     7.8520    23.8380   -14.3960 
   97.1250     2.0520    69.7570    12.4960     8.9280    12.4080    23.7920   -15.1460 
   97.2500     2.0330    70.8040    15.5380    11.2280    17.3340    23.7170   -15.8920 
   97.3750     2.0210    68.9460    18.0170    13.4060    18.5220    23.6810   -16.5970 
   97.5000     2.0130    65.3030    19.3160    14.7860    16.6260    23.6830   -17.2220 
   97.6250     2.0090    63.6190    19.7380    15.2340    15.1340    23.7760   -17.7020 
   97.7500     2.0120    61.3690    20.7540    15.7190    14.9490    23.9310   -18.0400 
   97.8750     2.0220    56.6810    23.4630    17.0920    16.5410    24.0600   -18.2550 
   98.0000     2.0440    53.0020    28.4080    19.9680    20.9940    24.1250   -18.3270 
   98.1250     2.0830    53.4070    35.4730    24.7340    30.9210    24.1380   -18.2160 
   98.2500     2.1320    53.3320    42.1150    29.9100    41.9130    24.1330   -18.0070 
   98.3750     2.1800    51.8320    44.5400    32.7390    49.5580    24.0730   -17.7660 
   98.5000     2.2120    51.6550    40.0590    30.6770    49.7570    23.9370   -17.5210 
   98.6250     2.2110    54.6880    30.7360    24.4520    38.4780    23.7320   -17.2620 
   98.7500     2.1850    60.5470    22.4560    18.3660    23.2110    23.5020   -16.9600 
   98.8750     2.1450    65.2960    17.2890    14.1320    13.3360    23.2440   -16.6400 
   99.0000     2.1130    66.6130    15.2380    11.9290    10.3310    23.0210   -16.3250 
   99.1250     2.1130    65.9400    15.9030    11.6440    10.5260    22.8380   -16.0090 
   99.2500     2.1500    66.3130    17.9350    12.5840    12.7870    22.8840   -15.6630 
   99.3750     2.2140    66.1220    20.1630    14.1910    17.2850    23.1030   -15.2480 
   99.5000     2.2830    64.7040    21.0320    15.4140    21.7470    23.2700   -14.7750 
   99.6250     2.3220    63.7750    18.9750    14.7160    20.7480    23.2720   -14.2880 
   99.7500     2.3230    64.6440    15.2630    12.5020    15.1320    23.5410   -13.8070 
   99.8750     2.2970    69.0030    11.6160     9.9360     9.6210    23.7740   -13.3220 
