~V
VERS. 2.00: Ver 2.00
~W
STRT.M 57.0000:
STOP.M 248.0000:
STEP.M 0.1250:
NULL. -999.2500:
UWI. F10637:
~C
DEPT.M :
SP.MV :
GR.API :
RML.OHMM :
RI. :
RXO.OHMM :
CALI.CM :
DEN.GM/CC :
~A
# ...
  169.5000   -10.7680    50.8770    19.3180    16.7720    17.9220    24.5020     2.4650 
  169.6250   -10.8420    49.2200    20.1380    17.5660    17.9700    24.4450     2.4600 
  169.7500   -10.8870    51.7140    20.6420    18.0770    17.6920    24.4340     2.4570 
  169.8750   -10.9070    56.1540    20.8610    18.3260    18.1860    24.4990     2.4570 
  170.0000   -10.9040    58.7830    20.7950    18.3150    19.1310    24.6440     2.4610 
  170.1250   -10.8760    56.9440    20.4950    18.0840    19.1790    24.7670     2.4660 
  170.2500   -10.8260    52.7030    20.0760    17.7180    18.1320    24.8950     2.4670 
  170.3750   -10.7700    49.5830    19.7070    17.3660    17.4270    25.0000     2.4620 
  170.5000   -10.7100    47.6940    19.4890    17.1170    17.3150    25.0740     2.4530 
  170.6250   -10.6500    45.9060    19.4590    17.0210    17.2540    25.1270     2.4390 
  170.7500   -10.6010    45.1290    19.6230    17.1060    17.1680    25.1380     2.4270 
  170.8750   -10.5720    47.5100    19.9080    17.3160    17.1440    25.0950     2.4240 
  171.0000   -10.5680    52.6930    20.2710    17.6110    17.1580    25.0350     2.4320 
  171.1250   -10.5860    57.3030    20.6640    17.9420    17.2570    25.0360     2.4460 
  171.2500   -10.6320    58.1250    21.0260    18.2560    17.5210    25.1140     2.4560 
  171.3750   -10.6950    57.3390    21.3030    18.5160    17.9250    25.1440     2.4610 
  171.5000   -10.7730    56.7140    21.4560    18.6950    18.5110    25.1140     2.4630 
  171.6250   -10.8700    55.6150    21.5010    18.7920    19.2250    25.0970     2.4660 
  171.7500   -10.9830    54.1440    21.4920    18.8350    19.7460    25.1200     2.4660 
  171.8750   -11.0960    52.7290    21.4850    18.8600    20.1260    25.1330     2.4620 
  172.0000   -11.1990    52.0750    21.4760    18.8660    20.4410    25.1340     2.4540 
  172.1250   -11.2880    52.0650    21.4460    18.8420    20.6240    25.1310     2.4480 
  172.2500   -11.3670    52.1440    21.3820    18.7760    20.5840    25.1110     2.4480 
  172.3750   -11.4350    52.7810    21.3190    18.6870    20.4080    25.0550     2.4480 
  172.5000   -11.4870    54.5100    21.3130    18.6100    20.1570    24.9770     2.4450 
  172.6250   -11.5190    56.1210    21.4230    18.5870    19.9170    24.9220     2.4400 
  172.7500   -11.5250    54.2270    21.6980    18.6640    19.7650    24.8730     2.4460 
  172.8750   -11.5100    50.4740    22.0960    18.8340    19.7020    24.8550     2.4680 
  173.0000   -11.4840    50.0730    22.5680    19.0860    19.7970    24.8820     2.5020 
  173.1250   -11.4480    54.4020    23.0400    19.3880    20.1220    24.9250     2.5340 
  173.2500   -11.3970    59.7690    23.3740    19.6630    20.6600    24.8840     2.5460 
  173.3750   -11.3300    61.2470    23.4570    19.8120    21.1980    24.7580     2.5390 
  173.5000   -11.2570    59.4070    23.2280    19.7600    21.6000    24.5800     2.5240 
  173.6250   -11.1840    56.9270    22.7290    19.5040    21.8500    24.3890     2.5080 
  173.7500   -11.1200    54.9240    22.1080    19.1210    21.8770    24.0900     2.4950 
  173.8750   -11.0700    53.4540    21.5930    18.7750    21.5410    23.6980     2.4820 
  174.0000   -11.0340    52.8670    21.3320    18.5850    20.8110    23.2780     2.4670 
  174.1250   -11.0100    53.7510    21.3800    18.6140    20.4850    23.0140     2.4500 
  174.2500   -11.0070    54.8690    21.6790    18.8440    20.1630    22.9530     2.4360 
  174.3750   -11.0260    53.3980    22.0050    19.1110    19.6800    23.0800     2.4320 
  174.5000   -11.0690    51.1570    22.1910    19.2770    19.2090    23.3610     2.4420 
  174.6250   -11.1310    49.8610    22.1260    19.2390    19.1650    23.6690     2.4630 
  174.7500   -11.2060    49.3130    21.7570    18.9320    19.6440    23.9540     2.4870 
  174.8750   -11.2850    47.6640    21.2250    18.4700    20.2210    24.2560     2.5030 
  175.0000   -11.3690    46.3790    20.6480    17.9610    20.5690    24.4900     2.5050 
  175.1250   -11.4550    47.5180    20.1110    17.4870    20.5380    24.5900     2.4970 
  175.2500   -11.5450    48.8310    19.6690    17.1110    19.9230    24.6140     2.4860 
  175.3750   -11.6290    49.1980    19.2960    16.8190    18.8270    24.6040     2.4810 
  175.5000   -11.6940    49.7340    18.9460    16.5810    18.3600    24.6010     2.4860 
  175.6250   -11.7360    49.5920    18.5830    16.3610    17.8010    24.5930     2.4960 
  175.7500   -11.7560    48.0130    18.2200    16.1480    17.2520    24.6460     2.5070 
  175.8750   -11.7550    47.4510    17.9040    15.9520    16.2120    24.6400     2.5150 
  176.0000   -11.7370    49.4960    17.6680    15.7850    15.2890    24.5010     2.5210 
  176.1250   -11.7040    50.5780    17.5120    15.6480    14.9280    24.3230     2.5250 
  176.2500   -11.6530    48.2620    17.4080    15.5330    14.6810    24.3640     2.5250 
  176.3750   -11.5850    46.0950    17.3050    15.4170    14.5360    24.4180     2.5190 
  176.5000   -11.5090    45.9860    17.1850    15.2940    14.5690    24.4700     2.5080 
  176.6250   -11.4350    46.7970    17.0610    15.1740    14.8080    24.5830     2.4920 
  176.7500   -11.3700    43.9590    16.9830    15.0910    15.1240    24.7440     2.4760 
  176.8750   -11.3200    39.2560    17.0000    15.0800    15.4130    24.8970     2.4630 
  177.0000   -11.2840    38.7120    17.1650    15.1860    16.1100    25.0200     2.4530 
  177.1250   -11.2630    44.2180    17.5170    15.4460    16.4490    25.0860     2.4480 
  177.2500   -11.2670    48.6160    18.0780    15.8880    16.6690    25.0680     2.4470 
  177.3750   -11.3030    46.8190    18.7350    16.4290    16.8330    24.9980     2.4490 
  177.5000   -11.3750    43.1870    19.3500    16.9610    16.9140    24.9060     2.4560 
  177.6250   -11.4730    42.1980    19.7480    17.3450    16.9580    24.8520     2.4690 
  177.7500   -11.5820    43.9710    19.6950    17.3780    16.9880    24.8360     2.4870 
  177.8750   -11.6950    45.3660    19.2130    17.0470    16.9130    24.8230     2.5040 
  178.0000   -11.8090    45.9220    18.4180    16.4230    16.6170    24.7870     2.5140 
  178.1250   -11.9250    45.6800    17.5130    15.6630    16.1260    24.7720     2.5130 
  178.2500   -12.0310    44.3690    16.7550    14.9680    15.6360    24.7840     2.5010 
  178.3750   -12.1120    42.3050    16.2750    14.4730    15.2670    24.8000     2.4860 
  178.5000   -12.1570    40.6330    16.1120    14.2290    15.0030    24.8040     2.4720 
  178.6250   -12.1690    40.6800    16.2270    14.2300    14.9290    24.8010     2.4600 
  178.7500   -12.1480    43.0100    16.5450    14.4340    15.2140    24.7980     2.4510 
  178.8750   -12.1090    45.9950    16.9160    14.7140    15.5940    24.7880     2.4460 
  179.0000   -12.0540    47.6540    17.2530    14.9850    15.8930    24.7930     2.4480 
  179.1250   -11.9770    46.9160    17.4980    15.1800    16.1510    24.8120     2.4590 
  179.2500   -11.8810    45.0080    17.6110    15.2510    16.4320    24.8390     2.4780 
  179.3750   -11.7830    44.9000    17.6210    15.2250    16.6180    24.9040     2.4980 
  179.5000   -11.6940    46.9550    17.5520    15.1270    16.6430    25.0300     2.5120 
  179.6250   -11.6220    48.6880    17.4330    14.9910    16.5140    25.1800     2.5180 
  179.7500   -11.5750    46.8770    17.3010    14.8520    16.2110    25.2620     2.5180 
  179.8750   -11.5450    43.3560    17.1850    14.7420    15.8200    25.2900     2.5160 
  180.0000   -11.5290    41.7110    17.0910    14.6680    15.4750    25.3070     2.5150 
  180.1250   -11.5370    43.5220    17.0130    14.6220    15.2650    25.3120     2.5130 
  180.2500   -11.5720    44.5750    16.9430    14.5920    15.1530    25.3230     2.5100 
  180.3750   -11.6280    42.7050    16.8760    14.5640    15.2140    25.3250     2.5020 
  180.5000   -11.7010    40.3940    16.8070    14.5280    15.6510    25.3340     2.4920 
  180.6250   -11.7810    39.8360    16.7310    14.4760    15.9870    25.3320     2.4820 
