~V
VERS. 2.00: Ver 2.00
~W
STRT.M 50.0000:
STOP.M 217.0000:
STEP.M 0.1250:
NULL. -999.2500:
UWI. F10606:
~C
DEPT.M :
DEN.GM/CC :
GR.API :
RML.OHMM :
RI. :
RXO.OHMM :
CALI.CM :
SP.MV :
~A
# ...
   61.2500     2.1380    74.5400     8.9760     8.1560     8.6100    23.5230   -26.5320 
   61.3750     2.1300    72.2800     8.4580     7.7780     8.2950    23.6080   -26.7230 
   61.5000     2.1370    71.6890     7.9210     7.3340     8.0570    23.6630   -26.8860 
   61.6250     2.1600    74.6790     7.5860     6.9870     7.2510    23.6610   -27.0430 
   61.7500     2.1870    76.7360     7.5040     6.8070     7.0180    23.6120   -27.1760 
   61.8750     2.2110    76.3530     7.6210     6.7840     7.2090    23.5900   -27.2540 
   62.0000     2.2290    75.3410     7.8050     6.8520     7.2470    23.6010   -27.2890 
   62.1250     2.2340    74.2200     7.8700     6.8960     7.2990    23.5420   -27.2890 
   62.2500     2.2290    75.5420     7.7090     6.8130     7.2580    23.3600   -27.2430 
   62.3750     2.2180    79.0790     7.3220     6.5660     7.0540    23.1200   -27.1560 
   62.5000     2.2110    82.9510     6.8080     6.1990     6.7420    22.9700   -27.0390 
   62.6250     2.2210    87.5030     6.3160     5.8110     6.3570    22.9730   -26.8680 
   62.7500     2.2430    93.2100     5.9360     5.4900     5.8600    23.1120   -26.6810 
   62.8750     2.2630    97.7630     5.6970     5.2780     5.5390    23.3710   -26.4950 
   63.0000     2.2740    97.1450     5.5940     5.1840     5.4320    23.6950   -26.2820 
   63.1250     2.2720    93.2890     5.6120     5.1980     5.4050    23.9100   -26.0380 
   63.2500     2.2610    92.0690     5.7090     5.2680     5.4570    24.0620   -25.8390 
   63.3750     2.2440    94.1380     5.8810     5.3750     5.5640    24.1630   -25.6820 
   63.5000     2.2280    96.5350     6.1210     5.5090     5.9960    24.1830   -25.5610 
   63.6250     2.2250    94.4460     6.4010     5.6570     6.0370    24.0550   -25.5220 
   63.7500     2.2350    89.3180     6.6480     5.7790     6.2000    23.7390   -25.5130 
   63.8750     2.2520    85.4680     6.7770     5.8240     6.7140    23.3170   -25.5580 
   64.0000     2.2680    85.6850     6.7040     5.7280     7.6390    22.9720   -25.6960 
   64.1250     2.2800    89.6560     6.3510     5.4270     6.4980    22.8050   -25.9200 
   64.2500     2.2910    92.6230     5.8370     4.9940     5.7890    22.7510   -26.1660 
   64.3750     2.3030    92.9840     5.3520     4.5520     5.4340    22.7500   -26.4340 
   64.5000     2.3270    93.5890     5.1510     4.2710     5.2750    22.7850   -26.7270 
   64.6250     2.3820    95.0430     5.6030     4.3980     5.3460    22.8410   -27.0400 
   64.7500     2.4550    93.4490     6.8280     5.0320     5.7820    22.8660   -27.3620 
   64.8750     2.4990    86.0960     8.9180     6.2750     7.4680    22.8940   -27.6890 
   65.0000     2.4690    73.1680    11.7140     8.1300    12.7770    23.0060   -27.9910 
   65.1250     2.3640    59.1430    14.4190    10.2760    23.3450    23.4300   -28.2390 
   65.2500     2.2410    50.0340    15.8980    11.8850    21.8900    24.1920   -28.4610 
   65.3750     2.1370    47.1950    15.7530    12.4370    15.3860    25.1390   -28.6360 
   65.5000     2.0720    48.1550    14.5670    12.0900    13.1580    26.0140   -28.7470 
   65.6250     2.0510    50.5510    13.3660    11.4490    13.3320    26.5250   -28.7870 
   65.7500     2.0500    52.7410    12.7050    11.0250    13.4870    26.7820   -28.7720 
   65.8750     2.0520    50.7240    12.5850    10.9260    13.6050    26.9580   -28.6740 
   66.0000     2.0540    46.4630    12.7920    11.0690    13.7460    26.8610   -28.5090 
   66.1250     2.0550    47.2490    13.0840    11.2860    13.6220    26.2790   -28.3220 
   66.2500     2.0590    52.4320    13.2800    11.4110    13.3670    25.7650   -28.1130 
   66.3750     2.0730    56.5700    13.2710    11.3570    13.0340    25.4410   -27.9040 
   66.5000     2.1040    56.1180    12.9760    11.0700    12.9180    25.2200   -27.7040 
   66.6250     2.1540    54.3040    12.3480    10.5230    12.6020    24.9890   -27.5540 
   66.7500     2.2150    56.5120    11.5610     9.8460    11.9620    24.6550   -27.4470 
   66.8750     2.2740    63.1160    10.8090     9.1700    11.1990    24.3570   -27.4180 
   67.0000     2.3150    68.5290    10.2730     8.6260    10.3340    24.2270   -27.4540 
   67.1250     2.3240    68.1790    10.1240     8.3500     9.7200    24.2040   -27.5560 
   67.2500     2.3040    66.8150    10.2950     8.3220     9.8070    24.0640   -27.7220 
   67.3750     2.2640    66.6570    10.6840     8.4950    10.4510    23.8000   -27.9480 
   67.5000     2.2210    65.0720    11.1480     8.7860    11.1590    23.7010   -28.2410 
   67.6250     2.1950    61.5970    11.5360     9.1060    11.3770    23.9940   -28.5260 
   67.7500     2.1900    59.6480    11.8070     9.3850    11.2300    24.4910   -28.8090 
   67.8750     2.1940    58.9070    11.9890     9.6070    11.1980    24.7770   -29.0590 
   68.0000     2.1920    58.5220    12.1300     9.7750    11.4230    24.8310   -29.2970 
   68.1250     2.1750    58.8940    12.2490     9.8850    11.7470    24.8170   -29.4880 
   68.2500     2.1540    59.6910    12.3170     9.9360    11.8610    24.8850   -29.6260 
   68.3750     2.1430    59.4530    12.2950     9.9180    11.3560    24.9600   -29.6970 
   68.5000     2.1480    58.2350    12.1860     9.8370    10.5940    24.8510   -29.6870 
   68.6250     2.1680    58.7920    12.0480     9.7250    10.2700    24.6120   -29.6490 
   68.7500     2.1890    59.2240    11.9610     9.6330    10.4200    24.4980   -29.5680 
   68.8750     2.2040    57.9120    11.9530     9.5870    10.7140    24.5500   -29.4740 
   69.0000     2.2120    55.9810    11.9980     9.5840    11.0430    24.7060   -29.3700 
   69.1250     2.2090    56.3320    12.0440     9.6020    11.4350    24.8840   -29.2250 
   69.2500     2.1980    56.2330    12.0590     9.6140    11.7130    25.0570   -29.0890 
   69.3750     2.1780    52.5390    12.0550     9.6190    11.8270    25.2250   -28.9630 
   69.5000     2.1520    48.8000    12.0600     9.6300    11.6790    25.3530   -28.8450 
   69.6250     2.1290    50.1620    12.1000     9.6600    11.4440    25.4730   -28.7340 
   69.7500     2.1160    54.3430    12.1500     9.7010    11.5020    25.5530   -28.6040 
   69.8750     2.1130    56.8340    12.1620     9.7260    12.0880    25.4990   -28.4740 
   70.0000     2.1180    55.9340    12.0900     9.7050    12.8020    25.3000   -28.3390 
   70.1250     2.1290    54.9600    11.9240     9.6230    12.3200    24.8950   -28.2200 
   70.2500     2.1470    56.0210    11.7330     9.5200    11.7000    24.4360   -28.1010 
   70.3750     2.1760    58.6770    11.5880     9.4350    11.1920    24.3360   -27.9720 
   70.5000     2.2130    61.1860    11.5390     9.4000    10.9370    24.5940   -27.8620 
   70.6250     2.2450    61.8450    11.5930     9.4270    11.0650    24.8520   -27.7390 
   70.7500     2.2610    62.5220    11.6660     9.4710    11.4370    24.8780   -27.6430 
   70.8750     2.2550    64.3220    11.6820     9.4840    11.7460    24.7950   -27.5370 
   71.0000     2.2340    66.8670    11.6030     9.4390    11.7880    24.7450   -27.4050 
   71.1250     2.2080    67.3460    11.4330     9.3310    11.6040    24.9320   -27.2480 
   71.2500     2.1830    64.3180    11.2470     9.2050    11.2600    25.0260   -27.0600 
   71.3750     2.1630    60.2140    11.1120     9.1040    10.9890    24.8520   -26.8260 
   71.5000     2.1560    56.8080    11.0690     9.0670    10.8830    24.5530   -26.5690 
   71.6250     2.1690    56.6880    11.1390     9.1220    11.0420    24.4320   -26.3020 
   71.7500     2.2000    60.1260    11.2770     9.2450    11.0440    24.3850   -26.0100 
   71.8750     2.2380    62.7360    11.4550     9.4070    10.9870    24.2890   -25.7230 
   72.0000     2.2660    61.9440    11.6600     9.5830    11.2480    24.1410   -25.4210 
   72.1250     2.2650    60.1700    11.8850     9.7530    11.9180    23.9750   -25.1050 
   72.2500     2.2450    60.7930    12.1160     9.9110    12.2500    23.8320   -24.7990 
   72.3750     2.2170    61.7830    12.3270    10.0530    12.1850    23.8670   -24.5420 
