~V
VERS. 2.00: Ver 2.00
~W
STRT.M 57.0000:
STOP.M 242.0000:
STEP.M 0.1250:
NULL. -999.2500:
UWI. F10636:
~C
DEPT.M :
GR.API :
RML.OHMM :
RI. :
RXO.OHMM :
CALI.CM :
DEN.GM/CC :
SP.MV :
~A
# ...
  135.7500    65.7350    14.4230    13.2350    15.5150    23.9870     2.4820   -21.0610 
  135.8750    63.6200    18.4730    17.0610    22.4090    24.0090     2.5360   -21.0670 
  136.0000    66.0120    22.3970    21.1410    31.2990    24.0340     2.5760   -21.0160 
  136.1250    72.8520    23.8330    23.3180    36.1450    24.0620     2.5770   -20.9120 
  136.2500    80.8580    22.2790    22.6870    31.2310    24.0960     2.5360   -20.7840 
  136.3750    86.3510    18.7920    19.8250    20.4740    24.1170     2.4690   -20.6420 
  136.5000    86.5240    14.9820    16.1360    12.6470    24.1080     2.4000   -20.5040 
  136.6250    84.1210    12.0720    12.9470     9.9870    24.0770     2.3550   -20.3960 
  136.7500    85.2950    10.2050    10.6860    11.2930    24.0680     2.3370   -20.3270 
  136.8750    88.5790     9.3360     9.4250    12.8250    24.1090     2.3370   -20.3230 
  137.0000    86.6690     9.4490     9.1920    10.2540    24.1810     2.3520   -20.3950 
  137.1250    77.0570    10.8680    10.3240     8.8450    24.2140     2.3870   -20.5050 
  137.2500    67.6410    13.6960    12.9010    11.5740    24.1680     2.4430   -20.6240 
  137.3750    62.4310    18.1630    17.1390    22.4670    24.0650     2.5140   -20.7300 
  137.5000    60.9390    24.0840    22.8680    38.9750    23.9810     2.5820   -20.8170 
  137.6250    60.1570    30.1630    28.9700    47.7260    23.9910     2.6190   -20.8580 
  137.7500    58.7090    34.3550    33.5600    41.4100    24.0570     2.6190   -20.8750 
  137.8750    57.8800    35.7450    35.6100    35.0640    24.1280     2.5930   -20.8600 
  138.0000    58.5660    35.0240    35.4150    32.6000    24.1970     2.5560   -20.8060 
  138.1250    59.8580    33.7830    34.2090    33.6220    24.2710     2.5290   -20.7390 
  138.2500    60.1110    33.2260    33.3470    35.6360    24.3150     2.5100   -20.6900 
  138.3750    58.5090    33.6100    33.2770    36.5510    24.2940     2.4930   -20.6780 
  138.5000    56.1770    34.8150    34.0140    34.8370    24.1950     2.4690   -20.7030 
  138.6250    54.5380    36.5650    35.3660    34.7150    24.0060     2.4360   -20.7950 
  138.7500    54.3560    38.3330    36.8370    34.8700    23.7690     2.4070   -20.9260 
  138.8750    54.9530    39.7180    38.0540    34.8770    23.5610     2.3930   -21.0800 
  139.0000    54.8410    40.3740    38.6990    34.5300    23.4660     2.3980   -21.2530 
  139.1250    54.2670    39.9550    38.4450    34.5690    23.5450     2.4190   -21.4620 
  139.2500    54.9380    38.7800    37.4970    32.7780    23.7240     2.4420   -21.6840 
  139.3750    56.9990    37.3040    36.1920    32.2500    23.9270     2.4630   -21.9140 
  139.5000    58.6600    36.0810    34.9890    33.0660    24.0860     2.4800   -22.1570 
  139.6250    58.4920    35.6850    34.4140    30.2170    24.1650     2.4890   -22.4080 
  139.7500    58.0400    36.1080    34.5510    28.2760    24.1970     2.4900   -22.6920 
  139.8750    57.9180    37.1610    35.2880    28.4750    24.2090     2.4830   -23.0030 
  140.0000    58.0170    38.5090    36.3590    30.9820    24.2190     2.4710   -23.3420 
  140.1250    58.0780    39.7320    37.4170    35.0970    24.2320     2.4610   -23.6780 
  140.2500    57.9060    40.5410    38.2030    36.4840    24.2490     2.4580   -24.0140 
  140.3750    56.4420    40.7850    38.5880    36.8380    24.2570     2.4620   -24.3360 
  140.5000    53.6040    40.4420    38.5210    37.6790    24.2390     2.4700   -24.6370 
  140.6250    51.3590    39.6070    38.0010    39.8120    24.1850     2.4790   -24.9030 
  140.7500    51.2530    38.6720    37.2950    37.8640    24.1340     2.4830   -25.1260 
  140.8750    53.5480    37.9730    36.6840    34.7160    24.1290     2.4790   -25.3350 
  141.0000    56.1230    37.8000    36.4810    30.6910    24.1760     2.4710   -25.5230 
  141.1250    56.2980    38.4530    37.0680    30.5000    24.2300     2.4670   -25.7090 
  141.2500    54.4180    39.7510    38.3470    32.9560    24.2450     2.4760   -25.9140 
  141.3750    52.9740    41.3810    40.0330    37.3670    24.2330     2.4980   -26.1370 
  141.5000    54.0540    42.8660    41.6390    41.9890    24.2300     2.5290   -26.3780 
  141.6250    57.3530    43.5470    42.4920    44.0340    24.2480     2.5550   -26.6300 
  141.7500    60.6120    43.2590    42.4010    44.0620    24.2570     2.5680   -26.8790 
  141.8750    62.3890    42.0970    41.4470    42.1580    24.2420     2.5670   -27.1240 
  142.0000    61.5790    40.3970    39.9350    39.9840    24.2120     2.5550   -27.3930 
  142.1250    59.6480    38.6040    38.2420    36.2200    24.2080     2.5390   -27.7000 
  142.2500    59.8900    37.0580    36.6920    31.8520    24.2360     2.5270   -28.0130 
  142.3750    62.7630    35.8420    35.4040    30.3330    24.2730     2.5190   -28.3300 
  142.5000    66.1580    34.9010    34.3880    31.6850    24.2770     2.5110   -28.6570 
  142.6250    66.1270    34.1970    33.6360    30.8240    24.2120     2.4940   -29.0080 
  142.7500    64.2720    33.7480    33.1300    30.7760    24.1030     2.4700   -29.3990 
  142.8750    63.2830    33.7130    32.9920    29.7460    24.0040     2.4480   -29.8040 
  143.0000    64.3660    34.2350    33.3730    26.9770    23.9760     2.4380   -30.1780 
  143.1250    65.6170    35.3350    34.3520    26.9410    24.0370     2.4540   -30.4880 
  143.2500    64.9950    36.5100    35.4920    28.9650    24.1240     2.4890   -30.7240 
  143.3750    62.6010    37.1500    36.2220    33.0740    24.2010     2.5290   -30.8700 
  143.5000    59.7970    36.7100    35.9890    35.1140    24.2600     2.5580   -30.9170 
  143.6250    58.9010    34.8900    34.3990    31.7550    24.2900     2.5590   -30.8180 
  143.7500    59.3750    32.4110    32.0210    24.6170    24.2800     2.5320   -30.5270 
  143.8750    58.8520    29.9730    29.4770    19.2890    24.2350     2.4910   -30.0210 
  144.0000    56.2280    28.1410    27.3580    16.0860    24.1890     2.4520   -29.3010 
  144.1250    54.1260    27.3680    26.2210    14.3240    24.1910     2.4370   -28.4040 
  144.2500    54.9390    27.5340    26.0650    13.6760    24.2360     2.4470   -27.4430 
  144.3750    57.7540    28.4960    26.8060    14.2140    24.2810     2.4790   -26.4270 
  144.5000    58.5170    29.9540    28.1840    15.4370    24.2580     2.5210   -25.3460 
  144.6250    55.5200    31.3960    29.7260    16.3910    24.1060     2.5600   -24.2190 
  144.7500    53.0800    32.2870    30.8460    16.9660    23.8990     2.5910   -23.1280 
  144.8750    52.2970    32.3190    31.1840    17.0010    23.7530     2.6120   -22.1610 
  145.0000    52.2430    31.4440    30.6420    15.7730    23.7470     2.6220   -21.3560 
  145.1250    52.6000    29.8500    29.3420    15.2420    23.8740     2.6230   -20.6780 
  145.2500    53.1610    28.1020    27.8000    16.2590    24.0310     2.6120   -20.0680 
  145.3750    52.6340    26.5410    26.3360    17.3700    24.1620     2.5840   -19.5640 
  145.5000    50.5370    25.3520    25.1520    17.7190    24.2340     2.5390   -19.1900 
  145.6250    48.7730    24.6350    24.4080    17.6110    24.2120     2.4850   -18.9830 
  145.7500    49.0270    24.2700    24.0460    18.2460    24.1240     2.4430   -18.8910 
  145.8750    49.7910    24.2080    24.0180    18.7650    24.0170     2.4270   -18.8730 
  146.0000    49.5970    24.4220    24.2660    19.1680    23.9500     2.4420   -18.9100 
  146.1250    48.4030    24.9190    24.7560    20.3970    23.9650     2.4820   -19.0090 
  146.2500    47.8910    25.5610    25.3630    21.5210    24.0450     2.5260   -19.1460 
  146.3750    47.5550    26.2100    25.9730    22.2330    24.1600     2.5610   -19.2950 
  146.5000    45.6800    26.7360    26.4740    22.9550    24.2740     2.5810   -19.4540 
  146.6250    43.5990    27.0190    26.7710    24.0660    24.3400     2.5870   -19.6340 
  146.7500    43.7530    27.0840    26.9040    22.9940    24.3580     2.5870   -19.8360 
  146.8750    45.7410    26.9730    26.9120    21.0680    24.3520     2.5870   -20.0420 
