~V
VERS. 2.00: Ver 2.00
~W
STRT.M 49.0000:
STOP.M 221.0000:
STEP.M 0.1250:
NULL. -999.2500:
UWI. F10615:
~C
DEPT.M :
DEN.GM/CC :
GR.API :
RML.OHMM :
RI. :
RXO.OHMM :
CALI.CM :
SP.MV :
~A
# ...
   94.0000     2.1850    59.0970    10.0430     7.3650     8.4840    25.2490   -18.2940 
   94.1250     2.1880    60.6600    10.0700     7.3540     8.6400    25.3870   -18.6370 
   94.2500     2.1760    60.3070    10.1960     7.4040     8.9550    25.7710   -18.9480 
   94.3750     2.1510    58.7310    10.3390     7.4800     9.1500    26.3980   -19.2080 
   94.5000     2.1190    58.2580    10.4300     7.5400     9.0550    26.9420   -19.4260 
   94.6250     2.0940    58.1900    10.4710     7.5720     8.8540    27.0290   -19.5860 
   94.7500     2.0910    56.9800    10.4890     7.5860     8.6730    26.6850   -19.7050 
   94.8750     2.1090    55.7420    10.5110     7.5970     8.8030    26.1230   -19.7630 
   95.0000     2.1360    55.0000    10.5480     7.6200     9.2680    25.6640   -19.7720 
   95.1250     2.1620    54.7050    10.5790     7.6540     9.6440    25.4370   -19.7360 
   95.2500     2.1800    56.1030    10.5940     7.6970     9.6440    25.3230   -19.6620 
   95.3750     2.1970    58.7870    10.6050     7.7530     9.2770    25.3350   -19.5370 
   95.5000     2.2170    58.5480    10.6620     7.8420     9.0380    25.2760   -19.3790 
   95.6250     2.2370    56.6230    10.8030     7.9720     9.0610    25.3200   -19.2050 
   95.7500     2.2460    56.3690    11.0200     8.1410     9.3800    25.5040   -18.9760 
   95.8750     2.2380    57.1040    11.2550     8.3240     9.7320    25.7050   -18.7190 
   96.0000     2.2140    56.5970    11.4000     8.4670     9.7770    25.8950   -18.3960 
   96.1250     2.1710    56.3580    11.4100     8.5390     9.6370    25.9860   -18.0140 
   96.2500     2.1130    57.5400    11.2640     8.5150     9.4830    26.0390   -17.5640 
   96.3750     2.0500    57.3440    10.9250     8.3600     9.3250    26.1400   -17.0840 
   96.5000     2.0030    53.7460    10.3670     8.0280     9.0640    26.2330   -16.5480 
   96.6250     1.9890    51.4720     9.7460     7.6110     8.7860    26.2090   -15.9580 
   96.7500     2.0410    55.1530     9.2320     7.2230     8.3500    25.9650   -15.3850 
   96.8750     2.1600    62.9730     8.9660     6.9670     7.5910    25.4550   -14.8070 
   97.0000     2.3160    68.7860     9.0620     6.9400     7.4320    24.9230   -14.3370 
   97.1250     2.4460    71.3070     9.3990     7.1010     9.1960    24.5480   -13.9370 
   97.2500     2.4690    72.5400     9.8040     7.3640    12.1080    24.3890   -13.6520 
   97.3750     2.4140    72.0100    10.0810     7.6020    10.2530    24.4020   -13.4340 
   97.5000     2.3260    68.2830    10.0740     7.6840     8.5000    24.5270   -13.3240 
   97.6250     2.2500    65.1980     9.8440     7.6070     8.0100    24.6610   -13.2900 
   97.7500     2.2060    65.0190     9.4900     7.4210     8.4520    24.7570   -13.2750 
   97.8750     2.1920    67.4430     9.1290     7.2040     8.6170    24.8110   -13.2750 
   98.0000     2.1950    69.3540     8.8480     7.0190     8.2660    24.8330   -13.2250 
   98.1250     2.2060    68.8450     8.6540     6.8720     7.9090    24.8450   -13.1320 
   98.2500     2.2170    67.9220     8.5550     6.7610     7.6820    24.8400   -12.9750 
   98.3750     2.2280    69.1180     8.5530     6.7050     7.5490    24.8250   -12.7750 
   98.5000     2.2380    72.8580     8.6310     6.7230     7.4780    24.7950   -12.5340 
   98.6250     2.2500    75.7330     8.7160     6.7760     7.6610    24.7560   -12.2710 
   98.7500     2.2660    77.6360     8.7550     6.8150     7.9490    24.7040   -12.0130 
   98.8750     2.2840    80.1760     8.7170     6.7950     7.7960    24.6080   -11.7800 
   99.0000     2.3020    82.8820     8.6290     6.7150     7.6310    24.4410   -11.5710 
   99.1250     2.3170    85.1370     8.6010     6.6560     7.4790    24.3480   -11.4410 
   99.2500     2.3300    85.8080     8.7390     6.7070     7.4330    24.3470   -11.3660 
   99.3750     2.3440    83.1630     9.1080     6.9320     7.5370    24.3670   -11.3770 
   99.5000     2.3520    76.2010     9.7140     7.3580     8.5120    24.3470   -11.4850 
   99.6250     2.3490    68.8050    10.3650     7.8680    11.0400    24.3900   -11.6790 
   99.7500     2.3310    62.5390    10.8660     8.3240    14.1690    24.5220   -11.9780 
   99.8750     2.3100    56.5540    11.0750     8.6070    12.2060    24.6720   -12.3350 
  100.0000     2.2880    53.8180    10.9690     8.6560    10.1980    24.7300   -12.7670 
  100.1250     2.2630    57.5510    10.7590     8.5940     9.3160    24.6400   -13.1740 
  100.2500     2.2320    65.4660    10.6140     8.5320     9.5170    24.4990   -13.5770 
  100.3750     2.1960    69.7970    10.6370     8.5470     9.8980    24.5660   -13.9340 
  100.5000     2.1630    65.6010    10.8380     8.6560    10.0820    25.0270   -14.2090 
  100.6250     2.1350    60.5320    11.0600     8.7680    10.0480    25.2860   -14.4070 
  100.7500     2.1210    59.6190    11.1610     8.7970     9.9870    25.3930   -14.4910 
  100.8750     2.1260    61.7850    11.0520     8.6970     9.9810    25.4410   -14.4840 
  101.0000     2.1570    63.1810    10.7070     8.4590    10.0240    25.4870   -14.3630 
  101.1250     2.2030    61.9910    10.2800     8.1730    10.0740    25.4850   -14.1690 
  101.2500     2.2180    59.4860     9.9970     7.9560    10.2070    25.4190   -13.9070 
  101.3750     2.1940    57.3270    10.2120     8.0040    10.2170    25.4320   -13.5620 
  101.5000     2.1400    56.7510    11.5720     8.7190    10.4710    25.6950   -13.1470 
  101.6250     2.0970    55.5350    14.2690    10.3250    11.4040    25.8560   -12.6620 
  101.7500     2.1370    52.9210    18.2160    12.9680    14.5230    25.7400   -12.1030 
  101.8750     2.2780    51.2610    22.5890    16.3690    23.3910    25.2830   -11.5050 
  102.0000     2.4750    52.2000    24.9260    18.9600    46.2300    24.8230   -10.8440 
  102.1250     2.6130    55.7190    23.5200    18.9350    57.5100    24.5590   -10.1990 
  102.2500     2.6030    61.1740    19.0860    16.3070    36.1840    24.4780    -9.5580 
  102.3750     2.5120    67.4360    14.0870    12.7690    14.4110    24.5020    -8.9900 
  102.5000     2.3930    71.4070    10.6210     9.9700     8.8670    24.7230    -8.4880 
  102.6250     2.2850    72.7490     8.6830     8.1860     7.6180    24.8430    -8.0780 
  102.7500     2.2080    73.9140     7.8320     7.2460     7.9260    24.8460    -7.7960 
  102.8750     2.1840    76.7490     7.5880     6.8850     7.8440    24.7600    -7.5930 
  103.0000     2.2170    80.8270     7.5580     6.8480     7.1290    24.6500    -7.5290 
  103.1250     2.2910    84.1020     7.4780     6.8530     6.6450    24.5140    -7.4980 
  103.2500     2.3690    87.4220     7.3120     6.8090     6.6630    24.2960    -7.5320 
  103.3750     2.4130    91.1240     7.1060     6.7140     6.7780    24.0630    -7.5680 
  103.5000     2.4150    93.7880     6.9230     6.6090     6.7120    24.0900    -7.6190 
  103.6250     2.3860    93.0890     6.7920     6.5350     6.5060    24.3790    -7.6630 
  103.7500     2.3400    89.0430     6.7270     6.5020     6.4760    24.6840    -7.6750 
  103.8750     2.2950    86.1300     6.7290     6.5020     6.4490    24.8390    -7.6900 
  104.0000     2.2600    87.9810     6.7840     6.5090     6.4680    24.8790    -7.6520 
  104.1250     2.2410    90.1440     6.8480     6.4910     6.6190    24.9550    -7.5960 
  104.2500     2.2430    88.3230     6.8820     6.4260     6.5630    25.0400    -7.4890 
  104.3750     2.2590    85.4790     6.8510     6.3040     6.2720    25.0460    -7.3670 
  104.5000     2.2830    87.1680     6.7350     6.1240     6.0340    24.9650    -7.1870 
  104.6250     2.3060    90.1620     6.5640     5.9120     6.2040    24.8880    -6.9850 
  104.7500     2.3250    91.2210     6.3840     5.7000     6.4600    24.9000    -6.7430 
  104.8750     2.3420    90.4280     6.3000     5.5540     6.1550    24.9400    -6.4820 
  105.0000     2.3490    90.1640     6.5470     5.6300     6.0570    24.9200    -6.2320 
  105.1250     2.3300    89.8420     6.8770     5.8000     6.0680    24.9030    -5.9750 
