~V
VERS. 2.00: Ver 2.00
~W
STRT.M 57.0000:
STOP.M 204.0000:
STEP.M 0.1250:
NULL. -999.2500:
UWI. F10604:
~C
DEPT.M :
SP.MV :
GR.API :
RML.OHMM :
RI. :
RXO.OHMM :
CALI.CM :
DEN.GM/CC :
~A
# ...
  124.5000    -1.8150    59.6740    37.3340    37.0610    40.2520    24.8160     2.5180 
  124.6250    -1.7880    59.6740    36.2110    35.7830    36.8810    24.8390     2.5010 
  124.7500    -1.7660    59.5620    35.7430    35.1450    35.0510    24.8480     2.5060 
  124.8750    -1.7440    58.7940    35.9680    35.2180    35.9710    24.8040     2.5320 
  125.0000    -1.7400    57.9060    36.6690    35.8530    39.7510    24.7980     2.5620 
  125.1250    -1.7520    57.9180    37.4400    36.7010    43.4210    24.8070     2.5770 
  125.2500    -1.7490    57.9730    37.9480    37.3340    43.3450    24.8060     2.5770 
  125.3750    -1.7500    58.1640    38.1950    37.6570    40.2670    24.7760     2.5710 
  125.5000    -1.7750    59.4560    38.4490    37.9110    37.5650    24.7630     2.5700 
  125.6250    -1.7990    60.1740    39.1840    38.5990    37.6000    24.7510     2.5780 
  125.7500    -1.8040    57.6880    40.5020    39.9120    39.6120    24.7540     2.5900 
  125.8750    -1.7910    53.7330    42.1520    41.7000    43.9040    24.7680     2.6030 
  126.0000    -1.7570    51.3170    43.5350    43.3960    49.4930    24.7760     2.6140 
  126.1250    -1.7730    50.9870    43.6620    43.8770    50.8740    24.7810     2.6200 
  126.2500    -1.8790    53.2620    42.2530    42.6590    45.0920    24.7640     2.6150 
  126.3750    -2.0410    58.1600    39.4900    39.8870    35.2090    24.7640     2.5970 
  126.5000    -2.2040    62.2570    36.0050    36.2790    27.4300    24.7930     2.5690 
  126.6250    -2.3520    62.9040    32.6970    32.8250    25.2690    24.8400     2.5380 
  126.7500    -2.5080    62.5390    30.1730    30.1530    25.2180    24.8510     2.5100 
  126.8750    -2.6560    63.2850    28.6390    28.4570    25.2440    24.8240     2.4890 
  127.0000    -2.7950    65.2240    28.0420    27.6980    25.6170    24.8300     2.4760 
  127.1250    -2.9010    66.8760    28.2650    27.8040    26.9640    24.8410     2.4800 
  127.2500    -2.9400    65.1530    28.9170    28.4020    28.1460    24.8560     2.5000 
  127.3750    -2.9140    59.1270    29.8190    29.2900    28.5820    24.8300     2.5290 
  127.5000    -2.8710    53.4440    30.8940    30.3490    28.8000    24.8080     2.5550 
  127.6250    -2.8340    54.6370    32.1710    31.5990    29.7560    24.8040     2.5690 
  127.7500    -2.8040    58.9930    33.5820    33.0010    31.6430    24.8330     2.5760 
  127.8750    -2.7910    60.9130    34.9500    34.4020    34.6330    24.8380     2.5850 
  128.0000    -2.7780    59.7380    35.9530    35.4750    38.5220    24.8100     2.5980 
  128.1250    -2.7430    58.4780    36.0720    35.6540    40.9530    24.7780     2.6050 
  128.2500    -2.7230    58.3970    35.2470    34.8230    39.5870    24.7990     2.5970 
  128.3750    -2.7110    58.7970    33.6250    33.1220    35.0040    24.8400     2.5740 
  128.5000    -2.6850    59.2860    31.5800    30.9680    30.3040    24.8650     2.5470 
  128.6250    -2.6650    60.2420    29.6290    28.9010    28.2670    24.8310     2.5300 
  128.7500    -2.6500    61.0780    28.1340    27.2830    27.8500    24.7750     2.5250 
  128.8750    -2.6400    61.6650    27.2410    26.2600    28.0560    24.7480     2.5260 
  129.0000    -2.6330    61.9590    26.9540    25.8420    28.6190    24.7590     2.5280 
  129.1250    -2.6390    61.6660    27.2730    26.0380    29.1110    24.7870     2.5290 
  129.2500    -2.6760    61.8460    27.9920    26.6660    29.0120    24.7730     2.5340 
  129.3750    -2.7440    60.5020    28.9870    27.6390    28.8290    24.7800     2.5480 
  129.5000    -2.8530    56.5180    30.0950    28.8140    29.6860    24.7890     2.5720 
  129.6250    -3.0030    54.1130    31.0520    29.9300    32.1960    24.7530     2.6040 
  129.7500    -3.1780    56.5590    31.6280    30.7040    34.8280    24.6410     2.6370 
  129.8750    -3.3750    62.0610    31.6520    30.9200    35.9100    24.5060     2.6630 
  130.0000    -3.5900    65.3220    31.0380    30.4510    34.7500    24.4250     2.6740 
  130.1250    -3.7790    63.9760    29.7230    29.1800    32.3170    24.4080     2.6650 
  130.2500    -3.8910    62.1060    27.9750    27.3840    29.9850    24.4630     2.6410 
  130.3750    -3.9330    62.0370    26.0230    25.3180    27.6480    24.5990     2.6140 
  130.5000    -3.9430    63.7980    24.1080    23.2650    24.8430    24.7520     2.5950 
  130.6250    -3.9240    65.5300    22.4940    21.5170    21.8620    24.8120     2.5910 
  130.7500    -3.8820    64.8070    21.2690    20.1660    19.5480    24.8010     2.5880 
  130.8750    -3.8140    61.3460    20.4800    19.2480    18.3020    24.7780     2.5690 
  131.0000    -3.7290    58.1050    20.1310    18.7670    18.1390    24.7980     2.5250 
  131.1250    -3.6500    59.6540    20.2640    18.7700    18.7620    24.8760     2.4680 
  131.2500    -3.5920    61.9720    20.7600    19.1460    19.7080    24.9150     2.4270 
  131.3750    -3.5780    61.3340    21.5570    19.8380    20.9470    24.9230     2.4240 
  131.5000    -3.5490    59.0220    22.5890    20.7890    22.5440    24.9150     2.4610 
  131.6250    -3.4610    57.6000    23.8140    21.9630    24.5250    24.8860     2.5220 
  131.7500    -3.3260    56.3020    25.1360    23.2590    26.6790    24.8470     2.5810 
  131.8750    -3.1610    55.2920    26.4730    24.5980    28.8170    24.8320     2.6240 
  132.0000    -2.9580    55.3930    27.6790    25.8540    30.4850    24.8420     2.6460 
  132.1250    -2.7810    55.0120    28.4170    26.6980    30.9410    24.8490     2.6500 
  132.2500    -2.6620    53.7660    28.4510    26.8430    30.2910    24.8430     2.6500 
  132.3750    -2.5650    53.0890    27.6270    26.0870    28.8830    24.8310     2.6510 
  132.5000    -2.4820    53.0410    25.9930    24.4760    26.8380    24.8330     2.6530 
  132.6250    -2.4600    53.6830    23.7660    22.2780    23.9340    24.8220     2.6500 
  132.7500    -2.5200    56.2650    21.4360    20.0290    20.8220    24.8030     2.6300 
  132.8750    -2.6620    60.0510    19.2930    18.0190    18.3630    24.7900     2.5950 
  133.0000    -2.8940    62.5330    17.5220    16.3970    16.7720    24.7840     2.5530 
  133.1250    -3.1240    62.8660    16.3220    15.2990    15.5390    24.7870     2.5210 
  133.2500    -3.3000    63.0240    15.6940    14.7030    14.3270    24.8090     2.5040 
  133.3750    -3.4230    62.7280    15.6750    14.6440    13.5380    24.8200     2.5020 
  133.5000    -3.5320    60.8710    16.2080    15.1010    13.7100    24.7970     2.5070 
  133.6250    -3.6270    58.5550    17.1140    15.9790    15.3940    24.7940     2.5110 
  133.7500    -3.6850    57.6940    17.9550    16.8970    17.7550    24.7580     2.5130 
  133.8750    -3.7000    58.4290    18.3910    17.4770    19.2710    24.7180     2.5130 
  134.0000    -3.6770    58.6620    18.2410    17.4470    18.6960    24.6910     2.5080 
  134.1250    -3.6230    58.3240    17.5500    16.7940    16.3350    24.7120     2.4960 
  134.2500    -3.5580    61.1580    16.7550    15.9830    14.3000    24.7440     2.4810 
  134.3750    -3.5100    66.3970    16.1920    15.3470    13.5530    24.7360     2.4650 
  134.5000    -3.4910    68.7310    16.0620    15.0830    13.9280    24.6440     2.4570 
  134.6250    -3.4560    66.1380    16.4600    15.3070    14.8610    24.5150     2.4640 
  134.7500    -3.3920    63.9340    17.1670    15.8510    15.7300    24.4330     2.4790 
  134.8750    -3.3240    64.2610    17.9950    16.5500    16.3480    24.3610     2.4950 
  135.0000    -3.2880    64.3120    18.7660    17.2380    16.9140    24.3270     2.5040 
  135.1250    -3.2780    62.6610    19.3230    17.7550    17.8630    24.2880     2.5040 
  135.2500    -3.2560    61.2010    19.6580    18.0820    18.8400    24.2710     2.5010 
  135.3750    -3.2300    60.2370    19.7900    18.2310    19.1050    24.2570     2.5020 
  135.5000    -3.2010    59.2400    19.7470    18.2220    18.4980    24.2420     2.5060 
  135.6250    -3.2240    58.3800    19.5280    18.0330    17.8730    24.2380     2.5090 
