~V
VERS. 2.00: Ver 2.00
~W
STRT.M 52.0000:
STOP.M 260.0000:
STEP.M 0.1250:
NULL. -999.2500:
UWI. F10654:
~C
DEPT.M :
SP.MV :
GR.API :
RML.OHMM :
RI. :
RXO.OHMM :
CALI.CM :
DEN.GM/CC :
~A
# ...
  187.0000    -8.2430    53.9660     5.7550     5.3200     4.7350    23.3710     2.4310 
  187.1250    -8.2960    59.9870     5.6700     5.2940     4.7510    23.4550     2.4300 
  187.2500    -8.3810    66.9890     5.5900     5.2490     4.7120    23.3060     2.4290 
  187.3750    -8.5030    73.5200     5.5700     5.2120     4.6090    22.8850     2.4290 
  187.5000    -8.6700    78.6660     5.6570     5.2110     4.4780    22.2280     2.4250 
  187.6250    -8.8760    83.4530     5.8160     5.2550     4.4110    21.6670     2.4130 
  187.7500    -9.1030    86.4180     5.9950     5.3350     4.4730    21.3130     2.3980 
  187.8750    -9.3320    86.4590     6.1310     5.4220     4.6560    21.1700     2.3840 
  188.0000    -9.5680    85.4000     6.1630     5.4720     4.9150    21.2100     2.3760 
  188.1250    -9.8060    83.5350     6.1010     5.4670     5.1340    21.3720     2.3740 
  188.2500   -10.0400    80.1550     5.9760     5.4150     5.2490    21.5340     2.3750 
  188.3750   -10.2940    76.0420     5.8480     5.3530     5.2630    21.6720     2.3790 
  188.5000   -10.5710    74.6080     5.8140     5.3490     5.2040    21.8000     2.3860 
  188.6250   -10.8430    73.8180     5.9030     5.4420     5.1570    21.8220     2.3980 
  188.7500   -11.1190    71.4150     6.1310     5.6530     5.1980    21.6760     2.4130 
  188.8750   -11.4060    69.0740     6.5220     5.9800     5.4760    21.3870     2.4260 
  189.0000   -11.6810    68.5660     7.0850     6.4250     5.9750    21.0130     2.4330 
  189.1250   -11.9280    70.1590     7.8630     6.9550     6.4540    20.5880     2.4320 
  189.2500   -12.1460    74.7050     8.8350     7.5650     6.6430    20.1430     2.4280 
  189.3750   -12.3240    79.6780     9.9330     8.2560     6.3980    19.5280     2.4240 
  189.5000   -12.4490    80.6360    11.0320     9.0180     6.0700    18.6410     2.4210 
  189.6250   -12.5380    77.4640    11.6040     9.7620     6.1640    17.7150     2.4180 
  189.7500   -12.5930    73.0640    11.9560    10.3580     6.5810    16.9920     2.4110 
  189.8750   -12.6250    70.5340    11.9990    10.6680     7.0090    16.6200     2.4000 
  190.0000   -12.6460    72.6600    11.6410    10.5390     7.3170    16.7140     2.3890 
  190.1250   -12.6660    76.7270    10.9960    10.0690     7.4340    17.1410     2.3810 
  190.2500   -12.7040    79.5300    10.1850     9.3920     7.2900    17.8720     2.3790 
  190.3750   -12.7640    80.4950     9.3650     8.6800     7.0670    18.9200     2.3820 
  190.5000   -12.8350    79.7490     8.7270     8.1190     7.0170    20.3010     2.3870 
  190.6250   -12.9100    78.2090     8.3530     7.7760     7.0030    21.5130     2.3910 
  190.7500   -12.9880    77.9120     8.2660     7.6670     6.9500    22.3910     2.3920 
  190.8750   -13.0790    79.2420     8.4150     7.7610     7.0110    22.9910     2.3920 
  191.0000   -13.1640    80.5210     8.7100     8.0160     7.2320    23.2290     2.3950 
  191.1250   -13.2300    79.5940     9.0390     8.3510     7.4630    23.2660     2.4030 
  191.2500   -13.2670    78.8460     9.3750     8.7320     7.7030    23.1900     2.4170 
  191.3750   -13.2690    79.8970     9.6920     9.1220     8.0130    23.0700     2.4320 
  191.5000   -13.2340    81.5010     9.9240     9.4400     8.4490    22.8800     2.4420 
  191.6250   -13.1560    81.9770     9.9560     9.6130     8.8660    22.6400     2.4420 
  191.7500   -13.0540    81.5280     9.8030     9.5740     9.1270    22.4490     2.4310 
  191.8750   -12.9120    82.0370     9.4860     9.3030     9.0600    22.4320     2.4170 
  192.0000   -12.7390    82.2310     9.0010     8.8380     8.6180    22.6480     2.4100 
  192.1250   -12.5640    81.0110     8.6990     8.3630     8.2050    23.0280     2.4120 
  192.2500   -12.4010    79.3750     8.5710     8.0570     7.9940    23.4750     2.4240 
  192.3750   -12.2550    77.0820     8.8790     8.1200     7.8850    23.8250     2.4400 
  192.5000   -12.1420    74.6430    10.2700     8.8960     8.6890    24.0020     2.4460 
  192.6250   -12.0730    72.2180    12.7950    10.5440    10.8650    24.0900     2.4290 
  192.7500   -12.0360    69.0980    16.6460    13.2640    14.6790    24.1360     2.3870 
  192.8750   -12.0330    65.1810    21.7170    17.1160    19.7440    24.1850     2.3280 
  193.0000   -12.0600    61.5000    26.9490    21.9460    25.5290    24.2450     2.2750 
  193.1250   -12.0930    58.2300    31.9630    26.8850    29.9610    24.3160     2.2510 
  193.2500   -12.1220    56.0520    35.8890    31.0470    32.8020    24.3620     2.2650 
  193.3750   -12.1380    55.3460    38.0430    33.6570    34.6480    24.3660     2.3120 
  193.5000   -12.1350    55.9950    37.9450    34.1030    35.8760    24.2940     2.3670 
  193.6250   -12.1300    56.8980    36.4180    33.0560    36.5830    24.1800     2.4010 
  193.7500   -12.1260    58.2840    34.2050    31.1600    35.4850    24.0730     2.4000 
  193.8750   -12.1230    59.1150    31.9950    29.0610    31.7360    24.0260     2.3730 
  194.0000   -12.1260    58.5350    30.3510    27.3300    27.2720    24.0320     2.3350 
  194.1250   -12.1430    58.6680    29.2750    26.1180    24.8530    24.0740     2.3030 
  194.2500   -12.1660    60.2870    28.5500    25.3320    24.6680    24.1230     2.2810 
  194.3750   -12.1970    61.0650    27.8560    24.7230    25.5350    24.1550     2.2690 
  194.5000   -12.2370    59.3410    26.9110    24.0030    25.8110    24.1050     2.2670 
  194.6250   -12.2710    56.6330    25.8040    23.1280    24.6230    23.9730     2.2670 
  194.7500   -12.2990    55.4770    24.8440    22.2900    22.6510    23.7890     2.2670 
  194.8750   -12.3230    57.4690    24.4250    21.8210    20.9150    23.6440     2.2640 
  195.0000   -12.3380    62.0290    24.9960    22.1750    21.1500    23.6390     2.2570 
  195.1250   -12.3430    65.9040    26.4230    23.3400    22.7130    23.7610     2.2490 
  195.2500   -12.3420    66.8370    28.4450    25.1540    25.5060    23.9290     2.2430 
  195.3750   -12.3310    64.4320    30.6600    27.2850    27.9770    24.0510     2.2380 
  195.5000   -12.3000    60.9410    32.5700    29.2610    29.5290    24.0860     2.2350 
  195.6250   -12.2490    59.0500    33.9390    30.7750    30.3870    24.0720     2.2300 
  195.7500   -12.1620    57.9630    34.7550    31.7580    30.6650    24.0270     2.2230 
  195.8750   -12.0380    57.2090    35.1600    32.3190    31.1590    24.0120     2.2150 
  196.0000   -11.8870    59.9870    35.2870    32.5690    32.2770    24.0420     2.2060 
  196.1250   -11.7200    64.0360    35.2020    32.5840    32.5470    24.0710     2.2010 
  196.2500   -11.5420    64.7380    34.7810    32.2700    31.8260    24.0790     2.2020 
  196.3750   -11.3630    60.4250    33.8430    31.4950    30.6730    24.0650     2.2120 
  196.5000   -11.2070    55.9750    32.1590    30.0890    29.2180    24.0460     2.2310 
  196.6250   -11.0810    55.0900    29.9460    28.2360    27.2780    24.0450     2.2530 
  196.7500   -10.9960    58.0000    27.5030    26.1600    24.8220    24.0880     2.2730 
  196.8750   -10.9520    61.8620    25.1710    24.1220    22.0260    24.1600     2.2840 
  197.0000   -10.9510    62.7910    23.2380    22.3480    19.7950    24.2170     2.2840 
  197.1250   -10.9700    63.3600    21.6410    20.8230    18.4570    24.2710     2.2850 
  197.2500   -11.0110    65.7980    20.2560    19.4780    17.8770    24.3090     2.2960 
  197.3750   -11.0810    65.7920    18.9930    18.2510    17.6470    24.2720     2.3180 
  197.5000   -11.1580    59.7460    17.9790    17.2180    16.8770    24.1560     2.3400 
  197.6250   -11.2360    57.0810    17.4670    16.5550    15.5280    23.9880     2.3450 
  197.7500   -11.3070    63.5010    17.7920    16.5390    14.2590    23.8470     2.3290 
  197.8750   -11.3740    71.7620    19.2530    17.4800    14.2970    23.7860     2.2960 
  198.0000   -11.4410    72.4650    22.2510    19.8710    16.1950    23.8780     2.2620 
  198.1250   -11.5090    67.1520    26.4650    23.5750    20.5740    24.1170     2.2390 
