~V
VERS. 2.00: Ver 2.00
~W
STRT.M 55.0000:
STOP.M 197.0000:
STEP.M 0.1250:
NULL. -999.2500:
UWI. F10681:
~C
DEPT.M :
DEN.GM/CC :
GR.API :
RML.OHMM :
RI. :
RXO.OHMM :
CALI.CM :
SP.MV :
~A
   55.0000     2.0100    53.0880     0.2960     0.2560     5.0240    24.7110   108.2590 
   55.1250     1.9900    51.7400     0.3240     0.2560     4.7320    24.7110   107.1210 
   55.2500     1.9820    49.5930     0.3910     0.2590     4.5020    24.7110   106.2030 
   55.3750     1.9920    49.5910     0.4640     0.2620     4.2480    24.7100   105.5270 
   55.5000     2.0260    51.9940     0.5080     0.2630     3.3910    24.6950   105.0860 
   55.6250     2.0830    52.3610     0.5060     0.2620     2.3000    24.5870   104.9670 
   55.7500     2.1520    51.1120     0.4760     0.2620     1.6550    24.2760   105.0830 
   55.8750     2.2240    51.3830     0.4330     0.2650     1.4500    23.8190   105.3950 
   56.0000     2.2930    53.6140     0.3940     0.2690     1.5220    23.2250   105.8670 
   56.1250     2.3560    55.6130     0.3710     0.2750     1.6740    22.3460   106.5380 
   56.2500     2.4150    54.6760     0.3650     0.2810     1.7520    21.9960   107.4050 
   56.3750     2.4710    51.4440     0.3720     0.2860     1.7550    21.9100   108.5140 
   56.5000     2.5210    48.8600     0.3990     0.2870     1.7180    21.9780   109.9440 
   56.6250     2.5580    49.5130     0.4500     0.2880     1.6730    21.9030   111.8640 
   56.7500     2.5790    51.8560     0.5080     0.2890     1.6450    21.4040   114.3200 
   56.8750     2.5820    53.3730     0.5510     0.2950     1.6330    20.6050   117.4590 
   57.0000     2.5650    54.1090     0.5600     0.3040     1.6100    20.0890   121.2900 
   57.1250     2.5270    55.3360     0.5210     0.3160     1.5300    20.2040   125.7980 
   57.2500     2.4750    55.8680     0.4590     0.3260     1.4090    20.8720   130.7330 
   57.3750     2.4140    54.3630     0.4030     0.3290     1.3740    21.7750   135.9880 
   57.5000     2.3490    51.0570     0.3740     0.3270     1.6380    23.2050   141.4200 
   57.6250     2.2870    49.1910     0.3800     0.3220     2.5210    24.8500   146.6990 
   57.7500     2.2350    49.3490     0.4030     0.3180     3.4390    25.3690   151.4570 
   57.8750     2.1980    49.1730     0.4240     0.3180     3.6900    25.4520   155.3590 
   58.0000     2.1840    47.3840     0.4290     0.3210     3.5510    25.4160   158.3020 
   58.1250     2.1980    45.5330     0.4090     0.3230     3.0540    25.3950   160.1480 
   58.2500     2.2360    44.2710     0.3830     0.3230     2.4220    25.3330   161.1310 
   58.3750     2.2940    42.3150     0.3680     0.3200     1.8770    25.1980   161.2940 
   58.5000     2.3630    40.0360     0.3710     0.3140     1.5410    24.9850   160.7190 
   58.6250     2.4260    39.5990     0.3800     0.3090     1.5130    24.5160   159.5440 
   58.7500     2.4670    39.1840     0.3830     0.3070     1.6950    23.8410   158.1490 
   58.8750     2.4850    38.1000     0.3860     0.3090     1.9410    23.1730   156.7040 
   59.0000     2.4890    38.2220     0.3950     0.3140     2.1840    22.6860   155.2560 
   59.1250     2.4990    40.8850     0.4020     0.3120     2.3580    22.4660   153.7310 
   59.2500     2.5300    44.2360     0.3710     0.2890     2.5090    22.3750   151.9270 
   59.3750     2.5770    46.8140     0.2830     0.2400     2.6300    22.3410   149.4780 
   59.5000     2.6210    48.3290     0.1710     0.1780     2.6490    22.3940   145.9970 
   59.6250     2.6190    48.0250     0.0960     0.1270     2.4970    22.4580   140.6970 
   59.7500     2.5520    45.6980     0.0680     0.0980     2.4220    22.4300   133.2720 
   59.8750     2.4310    44.5570     0.0880     0.1020     2.4170    22.3750   123.4020 
   60.0000     2.2890    45.6080     0.1800     0.1680     2.7880    22.2690   111.1400 
   60.1250     2.1710    47.0040     0.4560     0.4130     4.4650    22.1880    96.8750 
   60.2500     2.1070    47.1570     1.0840     1.0000     7.1720    22.9190    81.8890 
   60.3750     2.1010    46.9860     2.3510     2.1890     8.2420    25.1730    66.9400 
   60.5000     2.1350    49.1710     4.4640     4.1740     7.6580    29.1400    52.5960 
   60.6250     2.1690    52.2480     6.9760     6.7520     7.3190    32.0650    39.5630 
   60.7500     2.1730    53.4240     8.9640     9.1930     7.4350    29.5330    28.2270 
   60.8750     2.1480    54.0040    10.4030    11.2890     8.1420    26.1180    19.0160 
   61.0000     2.1120    54.1640    11.6740    13.1820     9.5130    24.5920    11.9950 
   61.1250     2.0940    53.6920    12.9290    14.9070    10.9390    24.4600     6.9930 
   61.2500     2.1030    53.4330    14.0210    16.3190    12.0820    24.7270     3.0200 
   61.3750     2.1300    54.3270    14.8440    17.2950    12.7500    24.7850    -0.2900 
   61.5000     2.1550    56.7950    15.4000    17.8640    13.1780    24.7750    -3.0930 
   61.6250     2.1530    58.9530    15.7530    18.1320    13.5370    24.5940    -5.3360 
   61.7500     2.1230    60.8980    16.0550    18.2790    13.7240    24.2820    -7.1580 
   61.8750     2.0800    62.9660    16.4100    18.3910    13.7970    23.9200    -8.6770 
   62.0000     2.0520    63.8230    16.9730    18.6120    13.7970    23.7310    -9.9650 
   62.1250     2.0760    64.9230    18.0920    19.3210    13.7950    23.2000   -11.0690 
   62.2500     2.1540    66.8180    19.8750    20.7190    13.7120    22.9790   -12.0590 
   62.3750     2.2670    68.6480    22.1600    22.7160    14.4400    22.7080   -12.9530 
   62.5000     2.3760    67.9790    24.2350    24.6830    17.5640    22.4450   -13.8110 
   62.6250     2.4340    63.3510    24.3740    25.0300    25.5920    22.3040   -14.6680 
   62.7500     2.4330    58.8900    21.9540    22.9810    31.5670    22.4430   -15.4770 
   62.8750     2.3910    59.2330    17.8270    19.0850    23.0910    22.5690   -16.1800 
   63.0000     2.3350    64.2520    13.6400    14.8170    12.3020    22.6830   -16.7830 
   63.1250     2.2930    69.9830    10.6670    11.5050     9.3140    22.7660   -17.3020 
   63.2500     2.2690    74.0640     8.8440     9.2780     7.9230    22.7530   -17.7350 
   63.3750     2.2590    76.7140     7.9050     7.9710     7.2900    22.9520   -18.1130 
   63.5000     2.2570    79.0980     7.5390     7.3460     6.8980    23.2080   -18.4680 
   63.6250     2.2490    83.0500     7.4850     7.1960     6.7530    23.4350   -18.8200 
   63.7500     2.2320    86.8790     7.5060     7.2370     6.6470    23.3700   -19.1850 
   63.8750     2.2080    86.8300     7.5540     7.3650     6.7250    23.1000   -19.5630 
   64.0000     2.1860    81.3090     7.6690     7.5570     7.1400    22.6740   -19.9380 
   64.1250     2.1840    73.0650     8.0000     7.8920     7.4600    22.1550   -20.3600 
   64.2500     2.2120    66.1200     8.6480     8.4650     7.6740    21.5340   -20.8200 
   64.3750     2.2690    62.0260     9.6490     9.3540     8.0060    21.0830   -21.2720 
   64.5000     2.3390    60.7170    10.8990    10.5280     8.4670    21.1850   -21.6410 
   64.6250     2.3890    59.7410    12.0520    11.7340     9.9910    21.6270   -21.8760 
   64.7500     2.3980    58.0710    12.6550    12.5090    13.5550    22.1470   -22.0750 
   64.8750     2.3650    58.6520    12.4370    12.5020    16.2340    23.0820   -22.2820 
   65.0000     2.3080    62.0510    11.5110    11.7110    14.2440    23.7070   -22.5020 
   65.1250     2.2500    63.9090    10.3700    10.5240     9.4620    23.7540   -22.6530 
   65.2500     2.2050    62.0310     9.4870     9.4460     7.9340    23.5430   -22.7700 
   65.3750     2.1730    59.9290     8.9740     8.6550     7.7230    23.1340   -22.9020 
   65.5000     2.1540    61.8200     8.7420     8.1620     7.9270    22.8860   -23.0570 
   65.6250     2.1480    67.5080     8.5750     7.8640     7.9080    22.9540   -23.1780 
   65.7500     2.1500    72.6070     8.2890     7.5700     7.4970    23.3090   -23.2620 
   65.8750     2.1530    74.0750     7.9120     7.2320     6.8610    23.6130   -23.3550 
   66.0000     2.1510    70.4660     7.6150     6.9240     6.7260    23.6490   -23.4720 
   66.1250     2.1410    64.2180     7.6260     6.8090     6.8520    23.6910   -23.6510 
