~V
VERS. 2.00: Ver 2.00
~W
STRT.M 55.0000:
STOP.M 253.0000:
STEP.M 0.1250:
NULL. -999.2500:
UWI. F10665:
~C
DEPT.M :
SP.MV :
DEN.GM/CC :
GR.API :
RML.OHMM :
RI. :
RXO.OHMM :
CALI.CM :
~A
# ...
  190.0000   -10.9700     2.2840    51.5100    33.4610    31.3580    30.7560    23.1720 
  190.1250   -11.1110     2.2830    52.4840    31.6060    29.7680    30.9070    23.3660 
  190.2500   -11.2150     2.2690    56.5230    29.9350    28.3130    30.5010    23.6370 
  190.3750   -11.2770     2.2480    61.2960    28.8000    27.2640    30.2910    23.8510 
  190.5000   -11.3180     2.2260    62.6000    28.3730    26.7780    27.8780    23.9570 
  190.6250   -11.3050     2.2100    59.3080    28.6820    26.9070    28.4860    23.9630 
  190.7500   -11.2600     2.2090    56.6320    29.3670    27.3810    29.5830    23.9380 
  190.8750   -11.1840     2.2340    56.0910    30.1320    27.9680    31.6440    23.9220 
  191.0000   -11.0860     2.2970    55.8940    30.6840    28.4180    32.5180    23.9210 
  191.1250   -10.9860     2.3940    54.0110    30.7370    28.4630    30.9260    23.9270 
  191.2500   -10.8820     2.4710    51.0600    30.3640    28.1370    29.9400    23.9380 
  191.3750   -10.7920     2.4840    49.3730    29.7280    27.5800    30.5990    23.9510 
  191.5000   -10.7080     2.4310    50.1800    29.0470    27.0000    31.1170    24.0010 
  191.6250   -10.6480     2.3470    52.3020    28.5310    26.6100    29.3190    24.1110 
  191.7500   -10.5950     2.2800    53.8470    28.2190    26.4440    29.3990    24.1720 
  191.8750   -10.5780     2.2490    55.0080    28.0600    26.4460    31.0900    24.1440 
  192.0000   -10.5860     2.2510    56.8040    27.9580    26.5180    32.4430    24.0840 
  192.1250   -10.6060     2.2660    57.8030    27.8170    26.5620    32.4110    24.0440 
  192.2500   -10.6680     2.2760    58.0380    27.6570    26.5620    30.1650    24.0210 
  192.3750   -10.7260     2.2760    58.6480    27.5760    26.5770    28.9910    24.0030 
  192.5000   -10.8060     2.2680    59.7940    27.6100    26.6330    28.5730    23.9960 
  192.6250   -10.8590     2.2600    61.0390    27.4720    26.4970    27.3840    24.0110 
  192.7500   -10.9400     2.2550    60.8140    26.6140    25.7070    27.4180    24.0440 
  192.8750   -10.9890     2.2570    58.6700    24.5580    23.8160    27.3540    24.0760 
  193.0000   -11.0440     2.2710    56.6120    21.3220    20.8230    25.1220    24.0810 
  193.1250   -11.0820     2.3000    58.9930    17.6640    17.4150    20.7910    24.0550 
  193.2500   -11.0860     2.3370    64.8700    14.6310    14.5310    15.7980    24.0240 
  193.3750   -11.0770     2.3690    69.8380    12.7040    12.5720    12.2040    24.0190 
  193.5000   -11.0380     2.3830    70.7380    12.0170    11.6480    10.9160    24.0270 
  193.6250   -11.0040     2.3730    66.8460    12.7500    11.9330    12.5330    24.0440 
  193.7500   -10.9460     2.3540    61.7180    14.6140    13.2560    16.3910    24.0510 
  193.8750   -10.8830     2.3360    58.5710    17.4430    15.5750    19.3880    24.0540 
  194.0000   -10.8120     2.3250    59.4970    20.8740    18.6860    22.6050    24.0590 
  194.1250   -10.7100     2.3160    61.4950    24.1460    21.9990    27.7070    24.0540 
  194.2500   -10.6260     2.3050    59.6990    26.4570    24.5950    31.0080    24.0510 
  194.3750   -10.5280     2.2930    54.6860    27.4600    25.9500    31.4600    24.0490 
  194.5000   -10.4520     2.2840    51.2910    27.3790    26.1230    30.3750    24.0460 
  194.6250   -10.3850     2.2800    53.1060    26.8350    25.5970    29.4200    24.0510 
  194.7500   -10.3450     2.2750    56.6450    26.5630    25.0940    27.5970    24.0720 
  194.8750   -10.3280     2.2660    57.5550    26.9400    24.9920    26.8110    24.0830 
  195.0000   -10.3360     2.2510    55.1260    28.0770    25.4710    30.0970    24.0760 
  195.1250   -10.3980     2.2340    53.4000    29.9080    26.5830    34.2310    24.0240 
  195.2500   -10.4880     2.2240    53.8970    32.0250    28.0650    36.1850    23.9970 
  195.3750   -10.6150     2.2260    53.7160    34.1990    29.7580    35.9040    23.9890 
  195.5000   -10.7510     2.2380    51.1960    36.3130    31.5580    37.6220    23.9890 
  195.6250   -10.9190     2.2530    50.2920    38.4030    33.4590    38.8410    23.9850 
  195.7500   -11.0890     2.2650    52.0080    40.6470    35.5250    41.3620    23.9760 
  195.8750   -11.2560     2.2680    53.2980    43.1750    37.8330    45.0010    23.9610 
  196.0000   -11.3980     2.2630    52.3550    45.8810    40.2930    50.1150    23.9510 
  196.1250   -11.5120     2.2510    50.7530    48.1060    42.3590    52.7290    23.9280 
  196.2500   -11.5780     2.2400    49.3980    49.0290    43.3330    53.9760    23.9190 
  196.3750   -11.5980     2.2330    48.5470    48.0970    42.7260    55.2540    23.9160 
  196.5000   -11.5690     2.2320    50.0250    45.4440    40.6110    54.7290    23.9180 
  196.6250   -11.4600     2.2330    53.2260    42.0110    37.7110    46.1710    23.9250 
  196.7500   -11.2940     2.2330    55.6980    39.1720    35.1830    38.1310    23.9330 
  196.8750   -11.0820     2.2350    57.4090    37.5920    33.6090    34.2520    23.9350 
  197.0000   -10.8540     2.2430    58.7820    37.3880    33.1490    33.4360    23.9350 
  197.1250   -10.6120     2.2560    58.7090    38.3370    33.7270    37.3370    23.9340 
  197.2500   -10.3910     2.2620    56.5100    39.6030    34.7270    41.1620    23.9010 
  197.3750   -10.2150     2.2540    54.5620    40.5990    35.6690    42.3650    23.8510 
  197.5000   -10.0920     2.2390    54.6870    40.9910    36.2050    41.0560    23.8570 
  197.6250   -10.0850     2.2330    55.6850    40.7570    36.1910    38.2000    23.9090 
  197.7500   -10.1860     2.2380    56.2370    40.3170    35.9030    37.3580    23.9350 
  197.8750   -10.4010     2.2470    56.5080    39.9290    35.5580    37.4340    23.9360 
  198.0000   -10.7140     2.2490    57.3970    39.7080    35.2980    37.2080    23.9600 
  198.1250   -11.1670     2.2380    57.8680    39.7290    35.2230    36.8720    23.9970 
  198.2500   -11.6780     2.2220    56.9090    40.0190    35.3520    36.9110    24.0200 
  198.3750   -12.2580     2.2100    55.7890    40.6330    35.7060    38.2810    23.9630 
  198.5000   -12.8810     2.2070    55.8630    41.5660    36.2800    39.7970    23.8880 
  198.6250   -13.5100     2.2080    56.0940    42.6890    37.0030    40.4980    23.8510 
  198.7500   -14.1080     2.2110    55.4220    43.6370    37.6270    41.9240    23.7730 
  198.8750   -14.6830     2.2200    54.0510    44.0440    37.8720    42.8030    23.6830 
  199.0000   -15.2250     2.2390    53.5330    43.7050    37.5470    43.1450    23.7010 
  199.1250   -15.7110     2.2680    54.4990    42.7450    36.6820    44.0670    23.7250 
  199.2500   -16.1860     2.2920    55.6690    41.8440    35.7740    45.3150    23.7210 
  199.3750   -16.6280     2.3000    55.9820    41.6410    35.3180    45.0670    23.6910 
  199.5000   -17.0860     2.2910    54.8580    42.6820    35.7690    42.7220    23.6370 
  199.6250   -17.5700     2.2790    52.8980    45.5050    37.6490    44.3980    23.6560 
  199.7500   -18.1210     2.2710    51.0760    49.6890    40.7710    49.4170    23.7720 
  199.8750   -18.7170     2.2600    51.0800    54.6810    44.8290    54.2190    23.9080 
  200.0000   -19.3690     2.2350    53.8750    59.6320    49.2160    60.8060    24.0280 
  200.1250   -20.0780     2.1980    56.2270    63.4930    53.0570    67.8390    24.1670 
  200.2500   -20.7910     2.1800    56.0620    66.2500    56.0740    70.2730    24.2620 
  200.3750   -21.4990     2.2200    53.9640    68.4990    58.5280    70.0460    24.2680 
  200.5000   -22.0970     2.3360    51.0650    71.0700    60.9190    67.8480    24.1660 
  200.6250   -22.5180     2.4980    47.5470    74.8000    63.8440    66.8080    24.0310 
  200.7500   -22.6980     2.6170    44.9200    79.1560    67.2390    66.1200    23.9810 
  200.8750   -22.6170     2.6540    45.7250    81.6730    69.6080    67.2490    23.9640 
  201.0000   -22.2250     2.6310    48.3730    77.7980    67.4550    83.7360    23.9490 
  201.1250   -21.4560     2.5910    49.7700    63.0160    56.2940   121.6970    23.9620 
