~V
VERS. 2.00: Ver 2.00
~W
STRT.M 55.0000:
STOP.M 192.0000:
STEP.M 0.1250:
NULL. -999.2500:
UWI. F10682:
~C
DEPT.M :
DEN.GM/CC :
GR.API :
RML.OHMM :
RI. :
RXO.OHMM :
CALI.CM :
SP.MV :
~A
# ...
  122.5000     2.4260    39.8120    18.1790    15.5530    17.6850    24.8940   -18.5910 
  122.6250     2.4010    42.5810    18.3020    15.6620    18.0030    24.7970   -18.5550 
  122.7500     2.3690    45.1180    18.6110    15.9230    19.3360    24.6520   -18.5450 
  122.8750     2.3430    44.3750    19.0410    16.3090    20.6340    24.6660   -18.5500 
  123.0000     2.3340    40.7370    19.4570    16.7490    21.3620    24.8700   -18.5360 
  123.1250     2.3500    36.8930    19.6550    17.1090    21.3050    25.0310   -18.5090 
  123.2500     2.3810    35.6260    19.5640    17.2820    21.4930    25.3430   -18.4420 
  123.3750     2.4150    37.2020    19.1880    17.2150    21.8240    25.4910   -18.4160 
  123.5000     2.4390    40.4910    18.6060    16.9110    21.2760    25.5700   -18.3720 
  123.6250     2.4440    41.6270    17.9320    16.3960    20.2730    25.4430   -18.3040 
  123.7500     2.4370    39.3030    17.2790    15.7840    19.1630    25.0980   -18.2250 
  123.8750     2.4290    35.8990    16.7070    15.1590    17.4470    24.8690   -18.1140 
  124.0000     2.4260    35.4670    16.2490    14.6010    16.0720    24.5800   -17.9990 
  124.1250     2.4270    38.4940    15.9040    14.1750    15.8300    24.5570   -17.8630 
  124.2500     2.4270    41.6020    15.6000    13.8490    15.6440    24.5840   -17.7310 
  124.3750     2.4240    44.0960    15.2970    13.5850    15.4550    24.5830   -17.5700 
  124.5000     2.4200    44.3620    14.9900    13.3510    15.8450    24.5580   -17.3950 
  124.6250     2.4220    41.2430    14.7160    13.1480    16.3330    24.5960   -17.2680 
  124.7500     2.4320    39.3900    14.5410    13.0080    15.7930    24.8140   -17.1690 
  124.8750     2.4490    41.9680    14.5330    12.9750    15.3760    24.9930   -17.1200 
  125.0000     2.4680    45.9270    14.7010    13.0700    15.9100    24.9770   -17.0840 
  125.1250     2.4770    46.8930    14.9850    13.2830    17.1630    24.8830   -17.1020 
  125.2500     2.4720    46.1330    15.2290    13.5160    18.0110    24.7920   -17.1570 
  125.3750     2.4550    44.3680    15.3140    13.6700    18.3700    24.8010   -17.2260 
  125.5000     2.4330    42.0700    15.1860    13.6660    17.8100    24.9370   -17.3460 
  125.6250     2.4260    41.5870    14.8790    13.4790    16.6190    24.8780   -17.4540 
  125.7500     2.4410    43.2780    14.5150    13.1870    15.6580    24.8080   -17.5600 
  125.8750     2.4730    43.9170    14.1290    12.8270    14.7720    24.7780   -17.6380 
  126.0000     2.5110    42.7830    13.7070    12.4100    14.7770    24.8750   -17.7490 
  126.1250     2.5330    41.2550    13.2080    11.9220    15.4370    24.8330   -17.8370 
  126.2500     2.5290    40.3150    12.6340    11.3760    15.3040    24.6580   -17.8860 
  126.3750     2.5020    40.2940    12.0320    10.8040    13.6060    24.7490   -17.9260 
  126.5000     2.4640    41.5660    11.4930    10.2780    12.1820    24.8090   -17.9260 
  126.6250     2.4350    43.3420    11.1460     9.9050    11.6500    24.8130   -17.9110 
  126.7500     2.4250    44.6670    11.0170     9.7180    11.6050    24.8090   -17.8990 
  126.8750     2.4340    46.2270    11.0970     9.7220    11.9570    24.7890   -17.8860 
  127.0000     2.4520    47.8790    11.3210     9.8660    13.2500    24.7420   -17.8590 
  127.1250     2.4690    47.0680    11.5390    10.0390    15.1690    24.7200   -17.8480 
  127.2500     2.4790    45.0120    11.5910    10.1040    15.2250    24.7440   -17.8620 
  127.3750     2.4830    44.7100    11.3940     9.9890    14.1320    24.7360   -17.8940 
  127.5000     2.4840    45.4460    10.9660     9.6890    13.1490    24.6850   -17.9690 
  127.6250     2.4840    45.0900    10.4390     9.2720    12.1590    24.6940   -18.0790 
  127.7500     2.4860    44.6580    10.0180     8.8910    11.1480    24.7300   -18.1850 
  127.8750     2.4900    45.6770     9.8130     8.6440    10.6180    24.7420   -18.3380 
  128.0000     2.4980    48.3820     9.8410     8.5790    10.6530    24.7450   -18.4870 
  128.1250     2.5120    49.2600    10.0540     8.7040    11.3140    24.7350   -18.6390 
  128.2500     2.5280    48.5270    10.2980     8.9020    12.1690    24.6830   -18.7740 
  128.3750     2.5450    47.4410    10.4510     9.0570    12.8320    24.6150   -18.9010 
  128.5000     2.5590    47.5740    10.4160     9.0580    13.1000    24.5940   -19.0190 
  128.6250     2.5660    47.9130    10.0960     8.8100    12.4380    24.5800   -19.1410 
  128.7500     2.5640    46.2020     9.5620     8.3810    11.1220    24.5580   -19.2870 
  128.8750     2.5510    44.1670     8.9140     7.8610     9.9600    24.4730   -19.4290 
  129.0000     2.5280    43.0210     8.2880     7.3580     9.5590    24.4170   -19.6040 
  129.1250     2.4990    42.3160     7.8200     6.9750     9.1900    24.3130   -19.7890 
  129.2500     2.4720    42.5500     7.5300     6.7320     8.6630    24.1550   -20.0260 
  129.3750     2.4530    42.3990     7.4000     6.6220     8.3160    24.1180   -20.2620 
  129.5000     2.4420    40.9970     7.3800     6.6170     8.4000    24.0840   -20.4830 
  129.6250     2.4370    38.9070     7.4160     6.6630     8.5390    23.8900   -20.6920 
  129.7500     2.4300    39.2040     7.4560     6.6850     8.4510    23.4080   -20.8370 
  129.8750     2.4170    41.9270     7.4650     6.6400     8.3150    23.0660   -20.9320 
  130.0000     2.4030    43.6560     7.4070     6.5170     8.4360    23.0380   -20.9470 
  130.1250     2.3960    42.1380     7.2580     6.3460     8.4110    23.1930   -20.8980 
  130.2500     2.4010    39.3460     7.0700     6.1870     8.1530    23.3260   -20.7430 
  130.3750     2.4160    38.7970     6.9020     6.0720     7.8410    23.4980   -20.5410 
  130.5000     2.4350    41.2910     6.8000     6.0030     7.9990    23.6920   -20.3250 
  130.6250     2.4490    43.9290     6.7800     5.9610     8.4280    23.8170   -20.0910 
  130.7500     2.4530    46.2130     6.7820     5.9080     8.1540    23.8730   -19.8820 
  130.8750     2.4450    47.0080     6.7530     5.8250     7.3320    23.8850   -19.7050 
  131.0000     2.4270    45.2770     6.6730     5.7160     6.8520    23.9490   -19.5560 
  131.1250     2.4060    42.4890     6.5640     5.5990     6.9180    23.9870   -19.3880 
  131.2500     2.3940    41.7710     6.4720     5.4990     7.1050    24.0690   -19.2380 
  131.3750     2.3960    43.2890     6.4270     5.4350     7.2520    24.1410   -19.1160 
  131.5000     2.4140    44.3670     6.4560     5.4290     7.4420    24.2710   -19.0120 
  131.6250     2.4460    44.4880     6.6140     5.5250     7.8550    24.5310   -18.9120 
  131.7500     2.4780    45.4520     6.9210     5.7390     8.1740    24.5170   -18.8080 
  131.8750     2.4970    47.7640     7.4010     6.0920     8.9300    24.5340   -18.7090 
  132.0000     2.4960    50.4320     8.0780     6.6010    10.3360    24.4880   -18.6030 
  132.1250     2.4720    51.6660     9.0310     7.3210    12.3400    24.3960   -18.5420 
  132.2500     2.4420    53.5640    10.2630     8.2630    13.7220    24.4990   -18.5090 
  132.3750     2.4200    57.7900    11.7910     9.4630    14.5520    24.6160   -18.4890 
  132.5000     2.4150    62.1520    13.5490    10.9180    15.5230    24.6670   -18.4750 
  132.6250     2.4310    62.7060    15.2360    12.4800    17.8650    24.6890   -18.4330 
  132.7500     2.4550    61.3450    16.3360    13.7170    20.7490    24.7020   -18.3870 
  132.8750     2.4790    61.1310    16.3630    14.1310    23.3570    24.7530   -18.3140 
  133.0000     2.4980    61.2110    15.1610    13.4350    23.2050    24.9310   -18.2620 
  133.1250     2.5100    59.7410    13.1150    11.7960    19.7300    24.8390   -18.2340 
  133.2500     2.5200    58.0460    11.1860    10.0380    14.6750    24.6600   -18.2190 
  133.3750     2.5300    55.9380     9.8560     8.6320    10.9710    24.5970   -18.1900 
  133.5000     2.5410    53.2290     9.2210     7.7770     9.4920    24.5930   -18.1580 
  133.6250     2.5490    51.8600     9.2020     7.5740    10.0160    24.6000   -18.1580 
