~V
VERS. 2.00: Ver 2.00
~W
STRT.M 58.0000:
STOP.M 272.0000:
STEP.M 0.1250:
NULL. -999.2500:
UWI. F10670:
~C
DEPT.M :
DEN.GM/CC :
GR.API :
RML.OHMM :
RI. :
RXO.OHMM :
CALI.CM :
SP.MV :
~A
# ...
  193.0000     2.4240    38.0880     7.3840     6.3350     5.9490    23.7730   -15.9560 
  193.1250     2.4200    38.7540     7.4380     6.3290     5.9500    23.7600   -15.9480 
  193.2500     2.4210    40.4350     7.4680     6.3480     6.0050    23.7360   -15.9180 
  193.3750     2.4280    41.0310     7.4600     6.3830     6.0850    23.6710   -15.8690 
  193.5000     2.4350    41.0450     7.3990     6.4060     6.2130    23.5060   -15.8320 
  193.6250     2.4380    42.9860     7.3010     6.4010     6.3030    23.2130   -15.7710 
  193.7500     2.4350    45.7780     7.1940     6.3700     6.2720    22.9030   -15.6510 
  193.8750     2.4290    47.7830     7.1270     6.3320     6.1830    22.5760   -15.5210 
  194.0000     2.4300    49.3500     7.1660     6.3250     6.1000    22.2640   -15.3950 
  194.1250     2.4410    50.8670     7.3190     6.3710     6.0730    21.9700   -15.2860 
  194.2500     2.4570    51.4570     7.5560     6.4650     6.2490    21.9190   -15.1820 
  194.3750     2.4680    52.3120     7.8010     6.5730     6.3540    22.1000   -15.0760 
  194.5000     2.4640    54.1200     7.9250     6.6300     6.4130    22.2140   -14.9430 
  194.6250     2.4460    54.1070     7.8720     6.5950     6.3560    22.2330   -14.8160 
  194.7500     2.4260    50.8960     7.6470     6.4610     6.2080    22.2140   -14.7310 
  194.8750     2.4100    46.9920     7.3150     6.2590     6.0430    22.2050   -14.6610 
  195.0000     2.4030    45.4630     6.9690     6.0450     5.8220    22.2050   -14.5920 
  195.1250     2.4000    45.1380     6.6840     5.8690     5.6580    22.2050   -14.5260 
  195.2500     2.3970    44.7020     6.4830     5.7520     5.5980    22.2050   -14.4790 
  195.3750     2.3940    44.1690     6.3630     5.6930     5.5500    22.2020   -14.4650 
  195.5000     2.3910    44.1390     6.3140     5.6790     5.4910    22.1790   -14.4910 
  195.6250     2.3870    45.3160     6.3160     5.6850     5.4410    22.1280   -14.5570 
  195.7500     2.3790    47.6270     6.3640     5.7010     5.3610    22.0690   -14.7050 
  195.8750     2.3670    49.9670     6.4610     5.7310     5.2960    22.0290   -14.8860 
  196.0000     2.3530    51.7090     6.6050     5.7900     5.2720    21.9840   -15.1050 
  196.1250     2.3460    55.6010     6.7730     5.8840     5.2560    21.9200   -15.3440 
  196.2500     2.3490    60.7340     6.9380     6.0130     5.2600    21.8850   -15.5790 
  196.3750     2.3630    64.7530     7.0740     6.1660     5.3080    21.9060   -15.7900 
  196.5000     2.3860    68.9450     7.1440     6.3240     5.3770    21.9840   -15.9800 
  196.6250     2.4080    75.9630     7.1370     6.4550     5.4910    22.1180   -16.1500 
  196.7500     2.4240    84.3580     7.0480     6.5280     5.6760    22.2450   -16.2600 
  196.8750     2.4270    90.5550     6.8890     6.5160     5.8450    22.3050   -16.3510 
  197.0000     2.4100    92.2370     6.6930     6.3960     5.9770    22.3020   -16.4340 
  197.1250     2.3740    90.1650     6.5220     6.2150     6.0160    22.2550   -16.5040 
  197.2500     2.3220    85.0400     6.4400     6.0380     5.8840    22.0900   -16.5650 
  197.3750     2.2650    79.8270     6.5130     5.9440     5.6550    21.6420   -16.6320 
  197.5000     2.2220    78.2280     6.8350     6.0370     5.5860    20.8900   -16.7080 
  197.6250     2.2050    78.9200     7.3630     6.3130     5.7980    20.4110   -16.7790 
  197.7500     2.2080    78.5730     8.0050     6.7210     6.4910    20.5170   -16.8400 
  197.8750     2.2150    77.2880     8.6140     7.1620     7.4600    20.9960   -16.9190 
  198.0000     2.2130    78.6070     9.0310     7.5270     8.4090    21.5700   -17.0000 
  198.1250     2.2060    81.2310     9.3150     7.8330     8.6380    22.1470   -17.0710 
  198.2500     2.2090    79.5730     9.6330     8.1890     8.2440    22.6120   -17.1480 
  198.3750     2.2300    73.2350    10.1900     8.7510     8.0390    22.9690   -17.1870 
  198.5000     2.2570    67.9020    11.1900     9.7330     9.6600    23.1360   -17.1920 
  198.6250     2.2680    66.3490    12.5660    11.1300    13.5770    23.1880   -17.1810 
  198.7500     2.2510    68.1580    14.2200    12.8900    16.3810    23.1940   -17.1570 
  198.8750     2.2110    71.2230    16.2240    14.9050    16.5230    23.1940   -17.0900 
  199.0000     2.1800    73.9300    18.7280    17.0680    15.6570    23.2040   -17.0000 
  199.1250     2.1870    74.1560    21.4850    19.2270    16.1760    23.2350   -16.9130 
  199.2500     2.2370    72.2590    23.6580    21.1550    19.3470    23.2670   -16.8300 
  199.3750     2.3070    71.3770    24.7900    22.4210    25.0940    23.2530   -16.7850 
  199.5000     2.3590    75.2270    24.1550    22.2620    26.4170    23.1810   -16.7340 
  199.6250     2.3750    82.2310    21.9850    20.7270    22.9910    23.1520   -16.7020 
  199.7500     2.3630    87.9310    18.9530    18.2550    18.4960    23.1910   -16.6790 
  199.8750     2.3460    89.8660    15.9340    15.5510    13.7630    23.2480   -16.6750 
  200.0000     2.3420    89.0750    13.6620    13.3050    10.3150    23.2950   -16.6200 
  200.1250     2.3500    88.5330    12.1700    11.6820     9.3900    23.3460   -16.5250 
  200.2500     2.3610    88.1300    11.3340    10.6380     9.6180    23.4460   -16.4120 
  200.3750     2.3700    86.7960    10.9750    10.0490     9.7880    23.5700   -16.3020 
  200.5000     2.3730    85.4490    10.9700     9.8320     9.3830    23.6350   -16.2250 
  200.6250     2.3740    85.4440    11.1340     9.8280     8.9720    23.6530   -16.1860 
  200.7500     2.3720    84.8200    11.3660     9.9480     9.0160    23.6560   -16.1800 
  200.8750     2.3710    82.4740    11.5580    10.0990     9.1430    23.6560   -16.1930 
  201.0000     2.3720    80.3540    11.5570    10.1620     9.6190    23.6580   -16.2520 
  201.1250     2.3730    79.6210    11.3290    10.0820    10.1970    23.6620   -16.3270 
  201.2500     2.3700    79.2460    10.9260     9.8800     9.6830    23.6700   -16.3790 
  201.3750     2.3600    78.6080    10.4870     9.6460     8.3860    23.6720   -16.4430 
  201.5000     2.3510    78.4940    10.1820     9.5050     7.8730    23.6730   -16.5330 
  201.6250     2.3540    77.1630    10.0370     9.4810     8.0790    23.6670   -16.6170 
  201.7500     2.3720    75.8940     9.9910     9.5130     8.7410    23.6400   -16.6730 
  201.8750     2.3950    77.1160     9.9360     9.4920     9.6620    23.5790   -16.6630 
  202.0000     2.4080    81.4400     9.7600     9.2880     9.6630    23.5500   -16.6170 
  202.1250     2.4030    84.7590     9.4890     8.9220     7.8030    23.5410   -16.5860 
  202.2500     2.3880    85.3740     9.2030     8.4760     6.8640    23.5400   -16.5970 
  202.3750     2.3770    84.6970     8.9720     8.0510     6.7310    23.5260   -16.5770 
  202.5000     2.3820    84.7120     8.8250     7.7280     6.8740    23.4840   -16.5160 
  202.6250     2.3970    84.4590     8.7130     7.4920     6.9510    23.4280   -16.4030 
  202.7500     2.4140    82.7760     8.6060     7.3220     6.8090    23.3870   -16.2720 
  202.8750     2.4210    81.1760     8.5230     7.2170     6.6620    23.3710   -16.1680 
  203.0000     2.4160    80.2850     8.6000     7.2660     6.7320    23.3670   -16.1190 
  203.1250     2.4090    78.0890     8.9840     7.5720     6.9940    23.3650   -16.1010 
  203.2500     2.4100    74.1510     9.8420     8.2830     7.5130    23.3640   -16.1280 
  203.3750     2.4200    69.8150    11.3550     9.5790     8.7530    23.3620   -16.2050 
  203.5000     2.4270    66.1370    13.9080    11.8660    12.0620    23.3610   -16.3020 
  203.6250     2.4190    62.5180    17.6030    15.2970    17.1190    23.3510   -16.4280 
  203.7500     2.4050    58.8690    22.5920    20.0340    21.4800    23.3030   -16.5340 
  203.8750     2.4070    54.9020    28.7830    25.9750    27.1720    23.1940   -16.6080 
  204.0000     2.4520    49.8770    35.5500    32.5460    37.4470    23.0660   -16.6350 
  204.1250     2.5170    46.9560    41.4150    38.4700    52.7310    22.9130   -16.6380 
