~V
VERS. 2.00: Ver 2.00
~W
STRT.M 61.0000:
STOP.M 247.0000:
STEP.M 0.1250:
NULL. -999.2500:
UWI. F10600:
~C
DEPT.M :
GR.API :
RML.OHMM :
RI. :
RXO.OHMM :
CALI.CM :
DEN.GM/CC :
SP.MV :
~A
# ...
  162.2500    61.0780    15.3930    14.0040    13.4840    25.1600     2.5200   -24.4700 
  162.3750    60.0050    14.3830    13.0280    12.6730    25.1670     2.5130   -24.4700 
  162.5000    59.2250    13.6480    12.3190    12.9210    25.1750     2.5060   -24.4460 
  162.6250    58.8490    13.2510    11.9330    12.9260    25.1980     2.4980   -24.3810 
  162.7500    58.1000    13.0720    11.8280    12.0460    25.2240     2.4920   -24.3350 
  162.8750    57.4230    13.0540    12.0050    11.5240    25.2160     2.4890   -24.2600 
  163.0000    58.2200    13.2110    12.4440    11.9850    25.1760     2.4900   -24.1610 
  163.1250    60.0720    13.5270    13.0920    12.8390    25.2600     2.4940   -24.0990 
  163.2500    60.7470    13.8640    13.7560    13.6040    25.4550     2.4980   -24.0260 
  163.3750    60.1920    14.0910    14.2500    14.7460    25.5580     2.5020   -23.9460 
  163.5000    60.7810    14.1150    14.4240    15.9790    25.5780     2.5050   -23.8830 
  163.6250    63.6020    13.9050    14.1960    14.0190    25.5960     2.5060   -23.8470 
  163.7500    65.7190    13.6100    13.7520    12.3420    25.6320     2.5020   -23.7760 
  163.8750    65.5650    13.3610    13.2540    12.4080    25.6490     2.4960   -23.7040 
  164.0000    63.5110    13.2610    12.8300    12.9830    25.6680     2.4900   -23.6530 
  164.1250    59.9020    13.3970    12.5740    13.0300    25.6580     2.4910   -23.5850 
  164.2500    56.9170    13.7310    12.4840    13.6500    25.7300     2.4970   -23.5380 
  164.3750    55.5420    14.2300    12.5640    14.5650    25.8100     2.5020   -23.5140 
  164.5000    55.8810    14.8590    12.8270    15.2850    25.8350     2.5020   -23.4940 
  164.6250    57.4440    15.6210    13.3300    15.7410    25.7990     2.4930   -23.5120 
  164.7500    58.8100    16.4800    14.0350    16.8940    25.8120     2.4790   -23.5620 
  164.8750    60.5540    17.3840    14.9010    18.7080    25.8180     2.4620   -23.6050 
  165.0000    64.3090    18.2480    15.8590    20.6980    25.8030     2.4450   -23.6450 
  165.1250    68.8440    18.9480    16.8160    20.8120    25.7940     2.4330   -23.6870 
  165.2500    70.3690    19.4490    17.6740    20.3380    25.8150     2.4300   -23.7360 
  165.3750    68.5710    19.7440    18.3470    20.4810    25.8890     2.4340   -23.7800 
  165.5000    65.2960    19.8320    18.7570    21.4060    25.9700     2.4460   -23.8200 
  165.6250    62.1960    19.6400    18.7820    21.5050    25.9490     2.4620   -23.8310 
  165.7500    60.3920    19.1830    18.4660    19.9440    25.7410     2.4800   -23.8750 
  165.8750    60.2330    18.5180    17.8700    18.2440    25.5820     2.4960   -23.9480 
  166.0000    61.1370    17.7900    17.1200    17.1700    25.4740     2.5070   -24.0100 
  166.1250    61.0460    17.2190    16.4000    16.3720    25.4580     2.5030   -24.1170 
  166.2500    60.3770    16.9080    15.8520    15.5660    25.5710     2.4850   -24.1960 
  166.3750    61.7150    16.8570    15.5270    14.9790    25.6230     2.4600   -24.2520 
  166.5000    65.0230    16.9770    15.3840    15.3840    25.6210     2.4400   -24.3110 
  166.6250    67.0410    17.1140    15.3060    16.8190    25.5970     2.4330   -24.3610 
  166.7500    65.8030    17.1290    15.1520    18.1750    25.5880     2.4360   -24.3990 
  166.8750    62.9930    16.9780    14.8670    19.1550    25.5900     2.4400   -24.4190 
  167.0000    60.1130    16.7070    14.4910    17.3160    25.5930     2.4410   -24.4460 
  167.1250    57.6140    16.4550    14.1680    16.0980    25.5940     2.4390   -24.4560 
  167.2500    56.1750    16.3680    14.0510    15.9100    25.5850     2.4400   -24.5220 
  167.3750    55.2320    16.5190    14.2300    16.6460    25.5800     2.4460   -24.5930 
  167.5000    53.6820    16.9050    14.7140    17.2100    25.5910     2.4560   -24.7000 
  167.6250    53.1110    17.4530    15.4310    17.2330    25.5440     2.4630   -24.8130 
  167.7500    54.2840    17.9810    16.1590    16.8880    25.4120     2.4680   -24.8750 
  167.8750    55.3650    18.3450    16.7180    16.7250    25.2060     2.4700   -24.9960 
  168.0000    55.6010    18.4270    16.9660    16.4540    25.0180     2.4720   -25.1290 
  168.1250    56.5700    18.0570    16.7260    16.3560    24.8830     2.4770   -25.2260 
  168.2500    59.0700    17.2200    16.0040    15.8210    24.8090     2.4810   -25.3110 
  168.3750    61.4230    15.9080    14.7990    14.3220    24.7710     2.4840   -25.3670 
  168.5000    61.8870    14.2140    13.1920    12.4220    24.7510     2.4860   -25.3590 
  168.6250    60.3530    12.3470    11.3590    11.8190    24.7240     2.4830   -25.3630 
  168.7500    57.6000    10.5720     9.5900    10.7520    24.6870     2.4730   -25.3510 
  168.8750    54.8060     9.0560     8.0730     8.4630    24.6780     2.4570   -25.2500 
  169.0000    51.6400     7.9370     6.9220     6.3730    24.7000     2.4400   -25.1210 
  169.1250    48.2400     7.1760     6.2320     5.5300    24.7410     2.4310   -24.9780 
  169.2500    46.0130     6.6680     5.8940     5.5320    24.7800     2.4350   -24.8110 
  169.3750    45.2080     6.5700     5.8290     5.7830    24.8300     2.4470   -24.6390 
  169.5000    44.4400     6.7380     5.9410     5.9530    24.9070     2.4580   -24.5020 
  169.6250    42.1980     6.9040     6.1340     6.0340    25.0160     2.4570   -24.3370 
  169.7500    40.9520     7.0280     6.3210     6.0610    25.0950     2.4480   -24.1770 
  169.8750    40.6420     7.1090     6.4730     6.0710    25.1450     2.4340   -24.0930 
  170.0000    40.2330     7.1450     6.5850     6.1210    25.1650     2.4250   -24.0180 
  170.1250    39.8130     7.1500     6.6600     6.2030    25.1650     2.4250   -23.9680 
  170.2500    39.7010     7.1510     6.7150     6.3130    25.1600     2.4330   -23.9620 
  170.3750    39.5700     7.1510     6.7560     6.3510    25.1580     2.4440   -23.9680 
  170.5000    39.7800     7.1500     6.7770     6.2060    25.1630     2.4530   -23.9940 
  170.6250    41.0780     7.1390     6.7570     6.1830    25.1660     2.4580   -24.0810 
  170.7500    42.7190     7.1050     6.6880     6.2470    25.1670     2.4590   -24.1920 
  170.8750    43.9890     7.0310     6.5650     6.3900    25.1670     2.4580   -24.2980 
  171.0000    45.1190     6.9580     6.3970     6.4840    25.1670     2.4580   -24.4380 
  171.1250    44.9660     6.8230     6.2030     6.4540    25.1670     2.4610   -24.5970 
  171.2500    44.0130     6.7310     6.0120     6.4620    25.1650     2.4660   -24.7600 
  171.3750    43.5320     6.6340     5.8440     6.4680    25.1630     2.4720   -24.9340 
  171.5000    43.5830     6.4720     5.7110     6.4530    25.1610     2.4760   -25.1210 
  171.6250    44.6660     6.2950     5.6300     6.3550    25.1600     2.4800   -25.3050 
  171.7500    46.5430     6.1360     5.5920     6.3530    25.1590     2.4830   -25.4700 
  171.8750    48.0580     6.1010     5.5950     6.5020    25.1560     2.4870   -25.6290 
  172.0000    48.4150     6.1960     5.6410     6.7020    25.1570     2.4890   -25.7950 
  172.1250    46.9710     6.4070     5.7460     6.7350    25.1590     2.4890   -25.9380 
  172.2500    46.2740     6.5110     5.9060     6.6380    25.1550     2.4840   -26.0530 
  172.3750    47.4690     6.5770     6.1080     6.5480    25.1360     2.4760   -26.1500 
  172.5000    49.4330     6.6870     6.3150     6.6120    25.0960     2.4650   -26.2080 
  172.6250    51.2230     6.8480     6.4730     6.8370    25.0600     2.4540   -26.2140 
  172.7500    52.4730     6.9720     6.5590     6.9330    25.0470     2.4430   -26.2000 
  172.8750    52.8130     7.0170     6.5800     6.8720    25.0480     2.4340   -26.1620 
  173.0000    50.7230     7.0060     6.5690     6.8410    25.0560     2.4290   -26.0730 
  173.1250    48.3650     6.9770     6.5770     6.9120    25.0660     2.4300   -26.0210 
  173.2500    48.5230     6.9950     6.6280     6.9060    25.0790     2.4330   -25.9540 
  173.3750    47.9650     7.0660     6.7220     6.8530    25.1000     2.4370   -25.8980 
