~V
VERS. 2.00: Ver 2.00
~W
STRT.M 58.0000:
STOP.M 240.0000:
STEP.M 0.1250:
NULL. -999.2500:
UWI. F10642:
~C
DEPT.M :
SP.MV :
GR.API :
RML.OHMM :
RI. :
RXO.OHMM :
CALI.CM :
DEN.GM/CC :
~A
   58.0000    22.6200    47.9480     0.2480     0.2920     4.2610    31.7860     1.4170 
   58.1250    14.3690    49.0480     0.5530     0.6290     4.2170    35.6210     1.4010 
   58.2500     6.6220    48.2420     1.0630     1.1840     4.1520    37.6780     1.3870 
   58.3750    -0.3740    47.1130     1.7450     1.9460     4.1420    38.3550     1.3650 
   58.5000    -6.3780    46.6000     2.4540     2.8030     4.2130    38.3100     1.3480 
   58.6250   -11.0870    47.2430     2.9950     3.5670     4.3300    38.1510     1.3650 
   58.7500   -14.7490    47.6430     3.3770     4.1750     4.3020    37.8210     1.4260 
   58.8750   -17.5190    46.8830     3.6790     4.6580     4.0740    36.8520     1.5250 
   59.0000   -19.5070    45.4540     3.9440     5.0430     3.6620    34.9320     1.6360 
   59.1250   -20.8220    46.6510     4.1420     5.2990     3.4370    32.6590     1.7230 
   59.2500   -21.7220    50.2380     4.2730     5.4380     3.5040    31.3900     1.7800 
   59.3750   -22.3300    52.3990     4.3660     5.5030     3.5700    31.1240     1.8220 
   59.5000   -22.7230    51.5510     4.4730     5.5660     3.5060    31.1720     1.8660 
   59.6250   -22.9220    51.2470     4.6560     5.7090     3.4950    30.4120     1.9160 
   59.7500   -23.0290    52.9380     4.9060     5.9270     3.5750    28.7770     1.9580 
   59.8750   -23.0620    55.8720     5.1550     6.1480     3.7730    26.8440     1.9840 
   60.0000   -23.0470    60.2690     5.2950     6.2590     4.3210    25.1970     2.0020 
   60.1250   -23.0060    66.9750     5.2240     6.1390     4.9060    24.2310     2.0360 
   60.2500   -23.0040    73.2490     5.0260     5.8660     5.0800    23.8310     2.0990 
   60.3750   -23.0620    74.4540     4.8240     5.5670     4.5100    23.8320     2.1770 
   60.5000   -23.1750    71.8610     4.7280     5.3680     4.0310    23.9820     2.2330 
   60.6250   -23.4240    69.8790     4.7970     5.3410     3.9100    24.1760     2.2390 
   60.7500   -23.7760    69.8720     4.9640     5.4190     4.3590    24.3290     2.2230 
   60.8750   -24.2020    70.6570     5.1560     5.5260     5.0810    24.4080     2.2110 
   61.0000   -24.7070    71.6600     5.3080     5.6040     5.4290    24.4600     2.2180 
   61.1250   -25.2440    72.6210     5.4160     5.6540     5.0840    24.5470     2.2430 
   61.2500   -25.7840    72.8640     5.5510     5.7430     4.9300    24.5940     2.2640 
   61.3750   -26.2830    71.1290     5.7860     5.9300     5.5820    24.5490     2.2620 
   61.5000   -26.7460    67.1120     6.1510     6.2500     6.3940    24.4780     2.2300 
   61.6250   -27.1130    62.2200     6.6480     6.7190     6.6950    24.3680     2.1840 
   61.7500   -27.3740    59.6540     7.2000     7.2630     6.5910    24.1170     2.1640 
   61.8750   -27.5620    59.8700     7.7420     7.8120     6.4740    23.8570     2.1950 
   62.0000   -27.6550    60.3980     8.2390     8.3030     6.5250    23.8090     2.2720 
   62.1250   -27.6790    61.3590     8.6510     8.6710     6.7730    24.1750     2.3350 
   62.2500   -27.6490    64.2270     8.9190     8.8800     7.3930    24.5070     2.3380 
   62.3750   -27.6050    67.9350     8.9540     8.8750     7.9430    24.6940     2.2930 
   62.5000   -27.5330    71.4430     8.6960     8.6140     7.9430    24.7760     2.2320 
   62.6250   -27.4380    73.8420     8.1350     8.0780     7.3400    24.7650     2.2000 
   62.7500   -27.3410    76.3150     7.4330     7.3980     6.6380    24.6560     2.2040 
   62.8750   -27.2520    77.7240     6.7150     6.6850     6.0310    24.5440     2.2360 
   63.0000   -27.1730    76.7910     6.0840     6.0320     5.5570    24.4800     2.2750 
   63.1250   -27.1220    75.7960     5.6540     5.5350     5.2380    24.4750     2.3000 
   63.2500   -27.0900    76.5280     5.4680     5.2370     5.0360    24.4290     2.3150 
   63.3750   -27.0900    78.6460     5.5670     5.1880     4.9540    24.3960     2.3370 
   63.5000   -27.1120    78.0360     5.9820     5.4300     5.3110    24.3810     2.3730 
   63.6250   -27.1620    71.8490     6.7950     6.0410     5.6770    24.4190     2.3950 
   63.7500   -27.2220    65.2760     7.9190     6.9380     6.6670    24.5050     2.3790 
   63.8750   -27.2860    60.5630     9.2200     8.0220     8.0320    24.6840     2.3210 
   64.0000   -27.3680    57.8380    10.4620     9.1140     9.4070    24.8660     2.2440 
   64.1250   -27.4600    56.8520    11.2930     9.9320    10.1880    25.0070     2.1800 
   64.2500   -27.5820    57.8370    11.6220    10.3450    10.3540    25.0260     2.1470 
   64.3750   -27.6810    60.0760    11.5150    10.3530    10.0810    24.9590     2.1420 
   64.5000   -27.7710    62.0780    11.1590    10.0800     9.5560    24.8980     2.1470 
   64.6250   -27.8460    63.1060    10.7690     9.6820     8.9310    24.7820     2.1480 
   64.7500   -27.9140    63.2830    10.4630     9.2930     7.9400    24.5810     2.1480 
   64.8750   -27.9460    63.5230    10.2440     8.9500     6.7950    24.2080     2.1510 
   65.0000   -27.9360    64.7130    10.0750     8.6580     6.1140    23.7990     2.1570 
   65.1250   -27.8560    65.7640     9.8790     8.4090     5.9720    23.4220     2.1640 
   65.2500   -27.7070    67.2920     9.6050     8.1680     5.9850    23.0520     2.1700 
   65.3750   -27.4980    70.2130     9.2700     7.9210     5.8930    22.8150     2.1790 
   65.5000   -27.2770    73.2410     8.9620     7.6870     5.8220    22.8720     2.1890 
   65.6250   -27.0280    75.4140     8.8300     7.5310     6.0680    22.9110     2.1970 
   65.7500   -26.7940    78.3540     8.9210     7.5000     6.3380    22.9350     2.2010 
   65.8750   -26.5880    80.7630     9.2140     7.6080     6.3810    22.9320     2.1980 
   66.0000   -26.4530    78.9530     9.5930     7.8090     6.8700    22.8340     2.1910 
   66.1250   -26.3930    72.3590     9.8150     7.9550     7.0750    22.5800     2.1850 
   66.2500   -26.3980    67.1990     9.7080     7.8970     6.8130    22.5550     2.1820 
   66.3750   -26.4710    66.0260     9.2260     7.5740     6.5180    22.8670     2.1840 
   66.5000   -26.5990    66.8410     8.4790     7.0390     6.1170    23.4660     2.1950 
   66.6250   -26.8050    67.4950     7.7280     6.4550     5.7100    23.9140     2.2200 
   66.7500   -27.0540    69.9250     7.2270     6.0130     5.4820    24.1920     2.2510 
   66.8750   -27.3350    76.3980     7.0930     5.8160     5.4260    24.2120     2.2720 
   67.0000   -27.6180    83.4460     7.3360     5.8990     5.5540    24.1120     2.2700 
   67.1250   -27.8960    83.0430     7.9050     6.2630     5.9090    23.9180     2.2440 
   67.2500   -28.1800    76.4990     8.5820     6.7700     6.6260    23.7330     2.2100 
   67.3750   -28.4360    70.6600     9.2050     7.3030     7.4850    23.5730     2.1800 
   67.5000   -28.6560    68.6570     9.6560     7.7570     7.7010    23.5870     2.1570 
   67.6250   -28.8210    67.0100     9.8790     8.0460     7.2740    23.8210     2.1400 
   67.7500   -28.9280    67.2080     9.9600     8.1910     7.0010    24.2240     2.1240 
   67.8750   -28.9890    71.5850     9.9460     8.2160     7.2630    24.5990     2.1160 
   68.0000   -28.9860    76.4370     9.8460     8.1460     7.6580    24.8220     2.1260 
   68.1250   -28.9290    76.0190     9.6130     7.9750     7.8240    24.9400     2.1620 
   68.2500   -28.8210    74.6770     9.2610     7.7210     7.4480    24.9500     2.2070 
   68.3750   -28.7030    76.5630     8.8410     7.4050     6.9130    24.8570     2.2430 
   68.5000   -28.5340    78.7920     8.4360     7.0730     6.4630    24.7460     2.2550 
   68.6250   -28.3520    76.7820     8.1370     6.7990     6.2260    24.7390     2.2410 
   68.7500   -28.1580    73.7910     7.9610     6.6150     6.1310    24.8210     2.2150 
   68.8750   -27.9460    73.2300     7.9150     6.5400     6.1260    24.9430     2.1910 
   69.0000   -27.7590    75.1690     8.0260     6.5870     6.3080    24.9020     2.1760 
   69.1250   -27.6050    78.4500     8.3820     6.8050     6.6970    24.3370     2.1830 
