~V
VERS. 2.00: Ver 2.00
~W
STRT.M 52.0000:
STOP.M 239.0000:
STEP.M 0.1250:
NULL. -999.2500:
UWI. F10645:
~C
DEPT.M :
SP.MV :
GR.API :
RML.OHMM :
RI. :
RXO.OHMM :
CALI.CM :
DEN.GM/CC :
~A
# ...
  175.7500   -24.6740    63.4060    16.2220    14.1670    12.0460    24.3180     2.2790 
  175.8750   -24.6620    65.3300    18.2070    15.6150    13.7810    24.3090     2.2590 
  176.0000   -24.6690    65.8380    20.7020    17.4240    16.6730    24.3330     2.2520 
  176.1250   -24.7210    64.6210    23.5860    19.5320    20.3560    24.4590     2.2580 
  176.2500   -24.8010    64.2060    26.5430    21.7270    21.7710    24.6330     2.2600 
  176.3750   -24.9330    64.0340    29.1280    23.6820    22.8870    24.7020     2.2460 
  176.5000   -25.0650    61.4210    31.0250    25.1650    24.9340    24.6680     2.2150 
  176.6250   -25.2670    55.7090    32.1740    26.1150    27.8480    24.5230     2.1820 
  176.7500   -25.4910    54.2900    32.8790    26.7080    26.7820    24.3850     2.1690 
  176.8750   -25.7650    59.6770    33.8460    27.4130    25.8470    24.1660     2.1800 
  177.0000   -26.0620    65.8650    35.6200    28.6140    24.5960    23.8990     2.2080 
  177.1250   -26.3670    65.7790    38.5270    30.5880    23.6850    23.6180     2.2400 
  177.2500   -26.6700    60.5140    42.5990    33.4290    23.8120    23.2560     2.2650 
  177.3750   -26.9390    56.6170    46.7810    36.4160    23.9790    22.6500     2.2840 
  177.5000   -27.1800    53.6330    49.6310    38.5270    24.8750    22.0920     2.3110 
  177.6250   -27.3580    50.0640    49.6880    38.7320    26.8390    21.9690     2.3630 
  177.7500   -27.4520    48.8820    46.1650    36.4220    26.5480    22.3410     2.4390 
  177.8750   -27.4750    50.9890    41.0240    32.8710    24.4350    22.9660     2.4950 
  178.0000   -27.4200    54.0050    35.9120    29.2190    23.6100    23.7350     2.4940 
  178.1250   -27.2990    55.6250    31.8220    26.2330    22.5010    24.3690     2.4350 
  178.2500   -27.1250    57.2400    29.2020    24.3180    21.7240    24.6840     2.3440 
  178.3750   -26.9060    60.3360    27.6210    23.2040    21.0650    24.7380     2.2690 
  178.5000   -26.6920    62.5700    26.7810    22.6720    20.7900    24.6980     2.2330 
  178.6250   -26.4590    61.0560    26.4270    22.5200    20.4400    24.6500     2.2300 
  178.7500   -26.2680    57.3980    26.4160    22.6200    20.0710    24.5530     2.2410 
  178.8750   -26.0930    55.6660    26.5760    22.8300    19.8410    24.4890     2.2440 
  179.0000   -25.9730    58.3570    26.8510    23.0890    19.6270    24.4910     2.2350 
  179.1250   -25.8990    62.6640    27.2000    23.3580    19.6600    24.4840     2.2210 
  179.2500   -25.8600    62.5990    27.5420    23.5920    19.6280    24.4540     2.2130 
  179.3750   -25.8880    59.5070    27.7310    23.7150    19.1600    24.3720     2.2170 
  179.5000   -25.9200    58.6160    27.5320    23.5780    18.3750    24.1880     2.2290 
  179.6250   -25.9990    60.5010    26.6300    22.9340    18.0760    23.9350     2.2410 
  179.7500   -26.0680    60.6260    24.6740    21.4440    17.8490    23.7290     2.2450 
  179.8750   -26.1620    58.7120    22.1110    19.3870    16.4500    23.7080     2.2440 
  180.0000   -26.2510    57.7520    19.6000    17.2430    13.1500    23.6660     2.2450 
  180.1250   -26.3430    58.2870    17.7970    15.5380     9.5870    23.5720     2.2490 
  180.2500   -26.4210    60.0030    17.3650    14.8260     8.0820    23.5720     2.2540 
  180.3750   -26.4560    62.4260    18.2900    15.1800     9.5600    23.7580     2.2520 
  180.5000   -26.4780    63.2960    20.5280    16.6630    14.4800    24.1150     2.2370 
  180.6250   -26.4730    61.1990    23.8440    19.1930    20.7810    24.4180     2.2090 
  180.7500   -26.4320    58.8330    27.6740    22.4400    24.2940    24.4800     2.1770 
  180.8750   -26.3460    58.2190    30.9520    25.4600    25.2610    24.3460     2.1530 
  181.0000   -26.1950    58.4370    32.8700    27.4520    25.7290    24.2460     2.1440 
  181.1250   -25.9620    57.4770    33.2160    28.0970    25.8690    24.2940     2.1490 
  181.2500   -25.6670    55.9120    32.3990    27.6200    25.2040    24.4870     2.1620 
  181.3750   -25.3130    55.3540    31.3570    26.8020    24.3270    24.5630     2.1730 
  181.5000   -24.9230    55.2680    30.5730    26.0390    23.6960    24.4660     2.1820 
  181.6250   -24.5110    54.5800    30.3230    25.5630    23.5430    24.3250     2.1970 
  181.7500   -24.1240    53.4260    30.8360    25.6000    23.4870    24.2730     2.2280 
  181.8750   -23.7340    53.3540    31.9600    26.1330    23.8200    24.3170     2.2640 
  182.0000   -23.4170    54.8270    33.5190    27.1110    25.4710    24.3690     2.2850 
  182.1250   -23.1580    55.5370    35.1600    28.3310    28.3740    24.3990     2.2790 
  182.2500   -22.9830    54.1880    36.0360    29.2090    27.6990    24.3750     2.2600 
  182.3750   -22.8940    53.1350    35.3710    29.0440    25.8190    24.2830     2.2620 
  182.5000   -22.8680    53.7920    32.7810    27.3760    25.1630    24.1140     2.3080 
  182.6250   -22.9160    54.5920    28.6760    24.3560    26.2830    23.9890     2.3920 
  182.7500   -22.9980    53.4020    24.2340    20.8080    25.5980    23.9740     2.4650 
  182.8750   -23.1460    53.1540    20.6380    17.7870    23.5030    24.0960     2.4800 
  183.0000   -23.2900    56.8150    18.3740    15.7880    20.9600    24.1880     2.4360 
  183.1250   -23.4680    62.5520    17.5820    14.9790    19.8300    24.2410     2.3620 
  183.2500   -23.6450    63.8130    18.5080    15.5820    22.1440    24.3970     2.2890 
  183.3750   -23.8130    60.6520    20.8020    17.3420    25.9670    24.5390     2.2360 
  183.5000   -23.9590    58.2070    24.1500    20.0690    28.1920    24.5810     2.2090 
  183.6250   -24.0490    58.9200    27.8920    23.2950    28.7150    24.5160     2.2010 
  183.7500   -24.0850    60.8990    30.7030    25.9800    28.6690    24.5610     2.2020 
  183.8750   -24.0840    61.9630    31.6040    27.1780    27.6670    24.5830     2.1990 
  184.0000   -24.0510    61.5000    30.3800    26.5250    26.2890    24.5160     2.1870 
  184.1250   -23.9720    60.0470    27.6640    24.4110    24.9220    24.3920     2.1730 
  184.2500   -23.8760    59.7760    24.5340    21.7040    23.4910    24.2960     2.1660 
  184.3750   -23.7410    61.1650    21.8960    19.3000    19.2160    24.2350     2.1740 
  184.5000   -23.6200    62.6050    20.1350    17.6000    15.2080    24.1320     2.1930 
  184.6250   -23.4920    63.9270    19.4010    16.7590    14.5960    24.0140     2.2150 
  184.7500   -23.3980    64.4760    19.7990    16.8990    16.8170    23.9200     2.2260 
  184.8750   -23.3280    62.2360    20.9820    17.7440    19.1350    23.8330     2.2270 
  185.0000   -23.2720    58.2130    22.6960    19.0820    19.6640    23.7840     2.2260 
  185.1250   -23.2560    56.8070    24.6050    20.6250    20.9420    23.7150     2.2270 
  185.2500   -23.2440    59.8930    26.2810    22.0230    21.7820    23.8480     2.2270 
  185.3750   -23.3030    61.2170    27.5040    23.0930    22.0380    24.0520     2.2240 
  185.5000   -23.3610    59.8510    28.1640    23.7540    22.0230    24.0650     2.2260 
  185.6250   -23.4410    58.5250    28.1660    23.9270    22.4450    23.9400     2.2410 
  185.7500   -23.5440    58.0610    27.4230    23.4740    23.2470    24.0210     2.2660 
  185.8750   -23.6220    58.7420    26.2660    22.5700    23.7200    24.0360     2.2840 
  186.0000   -23.7230    60.5010    24.9780    21.4050    22.0040    23.8310     2.2860 
  186.1250   -23.8090    61.1770    23.8010    20.2210    18.8830    23.6760     2.2770 
  186.2500   -23.8860    57.7910    22.9350    19.2740    17.7250    23.8080     2.2730 
  186.3750   -23.9020    55.3020    22.3460    18.6220    18.5250    24.1200     2.2820 
  186.5000   -23.8950    58.2820    21.9700    18.2550    18.6410    24.3560     2.2980 
  186.6250   -23.8480    62.9400    21.8020    18.1290    18.0140    24.4460     2.3060 
  186.7500   -23.7630    64.3520    21.9950    18.2500    18.7230    24.4640     2.2950 
  186.8750   -23.6350    63.5820    22.6060    18.6180    18.7230    24.3890     2.2800 
