~V
VERS. 2.00: Ver 2.00
~W
STRT.M 50.0000:
STOP.M 265.0000:
STEP.M 0.1250:
NULL. -999.2500:
UWI. F10671:
~C
DEPT.M :
GR.API :
RML.OHMM :
RI. :
RXO.OHMM :
CALI.CM :
DEN.GM/CC :
SP.MV :
~A
   50.0000    42.7490     2.9160     0.2620     3.0760    25.2900     1.9900  -999.2500 
   50.1250    41.6060     2.9230     0.2590     3.0950    25.2680     2.0100  -999.2500 
   50.2500    41.6300     2.8610     0.2590     3.0810    25.2560     2.0490  -999.2500 
   50.3750    41.5690     2.7400     0.2620     2.9650    25.2530     2.1090  -999.2500 
   50.5000    40.2110     2.5880     0.2640     2.7470    25.2520     2.1860  -999.2500 
   50.6250    37.9720     2.4610     0.2650     2.5960    25.2480     2.2690  -999.2500 
   50.7500    36.3670     2.4080     0.2620     2.5570    25.2410     2.3440  -999.2500 
   50.8750    35.7720     2.4440     0.2570     2.5770    25.2260     2.4080  -999.2500 
   51.0000    36.6340     2.5480     0.2500     2.5990    25.2030     2.4650  -999.2500 
   51.1250    38.3750     2.6770     0.2450     2.5970    25.1890     2.5160  -999.2500 
   51.2500    39.5250     2.7870     0.2440     2.5800    25.1820     2.5590  -999.2500 
   51.3750    39.2720     2.8650     0.2450     2.5700    25.1750     2.5880  -999.2500 
   51.5000    38.2990     2.9140     0.2470     2.5950    25.1570     2.6000  -999.2500 
   51.6250    37.4940     2.9280     0.2490     2.6320    25.1130     2.5960  -999.2500 
   51.7500    36.8610     2.8980     0.2500     2.6330    25.0340     2.5870  -999.2500 
   51.8750    36.8610     2.8190     0.2510     2.6770    24.9040     2.5830  -999.2500 
   52.0000    37.8510     2.7080     0.2520     2.8020    24.6970     2.5860  -999.2500 
   52.1250    39.1380     2.6010     0.2510     2.8130    24.4090     2.5960  -999.2500 
   52.2500    39.8180     2.5230     0.2500     2.7440    24.1080     2.6090  -999.2500 
   52.3750    40.4200     2.4710     0.2480     2.5990    23.8780     2.6180  -999.2500 
   52.5000    42.2310     2.4330     0.2470     2.4640    23.7680     2.6220  -999.2500 
   52.6250    44.8770     2.4050     0.2460     2.4850    23.7420     2.6230  -999.2500 
   52.7500    46.4460     2.3830     0.2470     2.7470    23.7470     2.6260  -999.2500 
   52.8750    47.4460     2.3670     0.2470     3.2280    23.7920     2.6300  -999.2500 
   53.0000    48.8060     2.3490     0.2470     3.8200    23.8920     2.6320  -999.2500 
   53.1250    49.9880     2.3190     0.2460     4.2470    24.0270     2.6290  -999.2500 
   53.2500    49.3500     2.2810     0.2460     4.3710    24.1210     2.6210  -999.2500 
   53.3750    47.6770     2.2450     0.2450     4.7110    24.1290     2.6110  -999.2500 
   53.5000    48.0450     2.2150     0.2460     5.4870    24.1170     2.6030  -999.2500 
   53.6250    50.4000     2.1780     0.2490     5.9060    24.1770     2.5990  -999.2500 
   53.7500    51.3530     2.1160     0.2540     5.7260    24.2400     2.6010  -999.2500 
   53.8750    49.6790     2.0210     0.2610     4.9420    24.2350     2.6090  -999.2500 
   54.0000    47.4830     1.9050     0.2700     3.5820    24.1630     2.6180  -999.2500 
   54.1250    46.2110     1.8010     0.2810     2.0670    24.0600     2.6240  -999.2500 
   54.2500    45.0030     1.7360     0.2910     1.2130    24.0040     2.6240  -999.2500 
   54.3750    44.0820     1.7210     0.3000     0.7770    24.0500     2.6150  -999.2500 
   54.5000    43.9420     1.7480     0.3060     0.5770    24.1700     2.5930    18.1500 
   54.6250    44.4490     1.7890     0.3110     0.5230    24.2760     2.5480    18.1500 
   54.7500    44.4360     1.8060     0.3140     0.5280    24.3100     2.4750    14.0560 
   54.8750    43.8950     1.7830     0.3150     0.5640    24.3190     2.3750  1373.9290 
   55.0000    42.5330     1.7200     0.3150     0.6130    24.4080     2.2600  -999.2500 
   55.1250    40.1960     1.6390     0.3130     0.6530    24.6460     2.1500     0.0000 
   55.2500    38.6010     1.5740     0.3110     0.6690    24.9620     2.0620    55.7980 
   55.3750    38.9650     1.5420     0.3100     0.6450    25.2620     2.0040   110.3170 
   55.5000    40.5940     1.5420     0.3100     0.5210    25.4650     1.9740   108.5010 
   55.6250    41.3370     1.5540     0.3120     0.3170    25.5180     1.9640   107.2610 
   55.7500    42.0890     1.5530     0.3130     0.1320    25.5520     1.9620   106.4540 
   55.8750    43.2360     1.5290     0.3150     0.1150    25.6260     1.9640   105.9540 
   56.0000    42.8970     1.4900     0.3160     0.1150    25.7190     1.9710   105.5430 
   56.1250    40.7830     1.4610     0.3180     0.1010    25.7690     1.9800   104.9910 
   56.2500    38.9110     1.4600     0.3210     0.1010    25.7830     1.9880   104.1910 
   56.3750    39.1920     1.4860     0.3260     0.1280    25.7850     1.9930   103.0990 
   56.5000    41.8520     1.5260     0.3320     0.1730    25.7850     1.9920   101.7600 
   56.6250    44.3750     1.5600     0.3380     0.2060    25.7850     1.9880   100.1920 
   56.7500    43.4450     1.5700     0.3410     0.2370    25.7850     1.9830    98.5130 
   56.8750    39.7080     1.5500     0.3430     0.2730    25.7850     1.9770    96.8950 
   57.0000    36.0920     1.5040     0.3430     0.3170    25.7850     1.9700    95.5480 
   57.1250    35.1970     1.4460     0.3410     0.3850    25.7850     1.9620    94.4650 
   57.2500    36.8670     1.4000     0.3390     0.4960    25.7850     1.9520    93.5100 
   57.3750    39.1060     1.3790     0.3360     0.6530    25.7850     1.9430    92.6790 
   57.5000    39.3740     1.3870     0.3320     0.8270    25.7850     1.9330    91.8690 
   57.6250    37.4330     1.4020     0.3240     0.9900    25.7850     1.9230    90.9080 
   57.7500    36.2170     1.3720     0.3080     1.1430    25.7850     1.9230    89.6210 
   57.8750    36.6890     1.2490     0.2810     1.2840    25.7850     1.9520    87.9170 
   58.0000    38.0530     1.0030     0.2430     1.4040    25.7870     2.0300    85.7120 
   58.1250    39.0440     0.6570     0.1960     1.4840    25.7930     2.1810    82.7380 
   58.2500    39.0090     0.3230     0.1500     1.4910    25.8040     2.3670    78.8310 
   58.3750    38.6170     0.0800     0.1100     1.5260    25.8220     2.5270    73.5920 
   58.5000    39.2130    -0.0460     0.0830     1.6200    25.8450     2.6000    66.6640 
   58.6250    42.5320    -0.0070     0.1040     2.1460    25.8610     2.5570    58.0150 
   58.7500    48.1000     0.2350     0.2330     3.0850    25.8780     2.4620    48.6200 
   58.8750    53.9770     0.7430     0.5490     4.4060    25.9030     2.3590    38.9690 
   59.0000    57.9420     1.5310     1.1190     5.8490    25.9430     2.2760    29.3490 
   59.1250    60.3380     2.5130     1.9810     6.4630    25.9720     2.2340    20.2110 
   59.2500    63.9280     3.4140     2.9680     6.6470    25.9960     2.2200    11.8510 
   59.3750    67.6880     4.0030     3.8920     6.5870    25.9730     2.2180     4.7270 
   59.5000    69.2470     4.2310     4.6040     6.6160    25.8690     2.2120    -0.6850 
   59.6250    67.2460     4.2900     5.0540     6.7270    25.7600     2.1880    -4.2330 
   59.7500    64.7610     4.3820     5.3510     6.7660    25.7710     2.1540    -6.6290 
   59.8750    62.3730     4.5020     5.5280     6.6650    25.9240     2.1200    -8.2000 
   60.0000    61.0770     4.5800     5.5850     6.4860    26.1530     2.0990    -9.2400 
   60.1250    63.3970     4.5540     5.5180     6.2930    26.2560     2.0990    -9.8700 
   60.2500    68.0930     4.4790     5.4150     6.1890    25.9900     2.1130   -10.2440 
   60.3750    72.6920     4.4730     5.4020     6.1830    25.3610     2.1320   -10.4660 
   60.5000    75.1960     4.6970     5.6370     6.3010    24.6730     2.1570   -10.6850 
   60.6250    75.2410     5.3630     6.3400     7.2860    24.2660     2.2000   -10.8860 
   60.7500    73.8660     6.4210     7.4630    10.2200    24.0620     2.2630   -11.2130 
   60.8750    71.2040     7.6920     8.8260    14.8340    23.9890     2.3400   -11.7360 
   61.0000    67.6830     8.8290    10.0730    19.8480    23.9730     2.4060   -12.4230 
   61.1250    63.9290     9.2760    10.6330    23.1670    23.9150     2.4240   -13.2910 
