~V
VERS. 2.00: Ver 2.00
~W
STRT.M 58.0000:
STOP.M 221.0000:
STEP.M 0.1250:
NULL. -999.2500:
UWI. F10613:
~C
DEPT.M :
SP.MV :
GR.API :
RML.OHMM :
RI. :
RXO.OHMM :
CALI.CM :
DEN.GM/CC :
~A
# ...
   91.7500   -10.2620    78.3890     7.7040     6.1780     7.3050    24.4170     2.2710 
   91.8750   -10.3640    78.1430     7.2290     5.7720     6.7540    24.3890     2.2800 
   92.0000   -10.4920    83.0130     6.8850     5.4710     6.4040    24.3730     2.2980 
   92.1250   -10.6200    87.1070     6.6780     5.2710     5.8020    24.3680     2.3340 
   92.2500   -10.7710    86.7430     6.6520     5.1970     5.3690    24.3680     2.3820 
   92.3750   -10.8830    86.4440     6.8200     5.2650     5.4960    24.3720     2.4220 
   92.5000   -10.9680    91.0140     7.1460     5.4700     6.4360    24.3680     2.4230 
   92.6250   -11.0840    95.6000     7.4900     5.7220     7.4040    24.3360     2.3900 
   92.7500   -11.1720    94.9230     7.7480     5.9410     7.2660    24.3060     2.3460 
   92.8750   -11.2850    88.7570     7.8710     6.0710     6.7830    24.2550     2.3160 
   93.0000   -11.4240    81.3390     7.9060     6.1160     6.7720    24.2060     2.3110 
   93.1250   -11.5480    75.8040     7.9860     6.1680     7.1890    24.1750     2.3090 
   93.2500   -11.7030    71.9380     8.2050     6.3070     7.5210    24.1730     2.2910 
   93.3750   -11.8900    68.6830     8.5920     6.5800     7.7430    24.1820     2.2510 
   93.5000   -12.1140    64.2100     9.1140     6.9860     8.4190    24.2530     2.1980 
   93.6250   -12.3500    58.4970     9.6350     7.4290     9.4960    24.4100     2.1480 
   93.7500   -12.5730    53.5790    10.0530     7.8230    10.1140    24.6010     2.1130 
   93.8750   -12.7620    51.6790    10.3020     8.1060    10.1000    24.7240     2.0940 
   94.0000   -12.9270    53.5230    10.3590     8.2310    10.0010    24.7300     2.0930 
   94.1250   -13.0610    57.5770    10.3130     8.2520     9.9910    24.6830     2.1050 
   94.2500   -13.1410    61.2080    10.2300     8.2200     9.9410    24.6630     2.1250 
   94.3750   -13.1770    62.0570    10.1620     8.1850     9.9140    24.6060     2.1440 
   94.5000   -13.1670    60.5310    10.1410     8.1780     9.8810    24.6570     2.1520 
   94.6250   -13.1500    59.0110    10.1550     8.1970     9.7620    24.7470     2.1490 
   94.7500   -13.1380    59.2400    10.1780     8.2300     9.7140    24.7890     2.1410 
   94.8750   -13.0980    60.4680    10.1810     8.2580     9.7660    24.7470     2.1400 
   95.0000   -13.0140    59.0220    10.1440     8.2670     9.7770    24.6810     2.1540 
   95.1250   -12.8910    54.7090    10.1160     8.2700     9.7050    24.5960     2.1710 
   95.2500   -12.7350    51.5780    10.2010     8.3270     9.7330    24.6350     2.1780 
   95.3750   -12.5430    51.9460    10.4960     8.5150     9.8560    24.7510     2.1720 
   95.5000   -12.3020    52.4220    10.9940     8.8830     9.9270    24.8060     2.1720 
   95.6250   -11.9450    50.8770    11.4170     9.2750    10.2190    24.8150     2.1960 
   95.7500   -11.5230    49.1000    11.4370     9.4460    11.1970    24.8070     2.2520 
   95.8750   -11.0530    50.2720    10.8110     9.1590    12.1490    24.5660     2.3220 
   96.0000   -10.4930    59.3550     9.5310     8.2870    10.8100    24.1850     2.3690 
   96.1250    -9.9670    74.7780     8.0970     7.1550     6.9290    24.0560     2.3820 
   96.2500    -9.4590    88.9480     6.8550     6.0450     5.5130    24.2020     2.3780 
   96.3750    -8.9900    94.5950     5.9510     5.1370     5.1650    24.3360     2.3730 
   96.5000    -8.6040    92.8660     5.4300     4.5350     5.0260    24.3640     2.3710 
   96.6250    -8.2890    92.0170     5.1880     4.1980     4.9600    24.3780     2.3720 
   96.7500    -8.0730    92.0440     5.2280     4.1280     4.9550    24.3860     2.3880 
   96.8750    -8.0080    90.0840     5.6210     4.3560     5.0440    24.3760     2.4380 
   97.0000    -8.1180    86.2200     6.5620     5.0140     5.8180    24.3650     2.5200 
   97.1250    -8.3400    82.8420     8.0250     6.0950     7.9190    24.3560     2.5770 
   97.2500    -8.6910    77.7660     9.8580     7.5480    12.3360    24.3540     2.5580 
   97.3750    -9.1430    68.6100    11.6140     9.1010    19.0290    24.3600     2.4650 
   97.5000    -9.6980    59.2280    12.4170    10.0790    24.3560    24.4030     2.3380 
   97.6250   -10.3180    54.6780    12.0610    10.1370    19.6610    24.5170     2.2220 
   97.7500   -10.9470    54.8090    10.9740     9.4710    12.2560    24.6830     2.1420 
   97.8750   -11.5600    56.2520     9.8390     8.5770     8.8210    24.7300     2.1060 
   98.0000   -12.1220    56.9780     9.1780     7.8980     8.5030    24.6610     2.1060 
   98.1250   -12.6070    57.1000     8.9790     7.5440     9.5260    24.6850     2.1160 
   98.2500   -12.9820    57.1050     9.1070     7.4810    10.1990    24.7200     2.1240 
   98.3750   -13.2690    56.2490     9.3900     7.6120    10.3370    24.8010     2.1260 
   98.5000   -13.4030    54.4970     9.6770     7.8200    10.1650    24.9680     2.1230 
   98.6250   -13.4490    51.9160     9.8830     8.0020     9.9990    25.1130     2.1160 
   98.7500   -13.3990    49.6390     9.9890     8.1270     9.9140    25.1930     2.1020 
   98.8750   -13.1900    48.9950    10.0030     8.1980     9.9620    25.3220     2.0830 
   99.0000   -12.8800    49.5710     9.9480     8.2390     9.9940    25.6690     2.0650 
   99.1250   -12.4790    49.9010     9.8650     8.2720    10.0740    26.0200     2.0580 
   99.2500   -11.9770    49.7690     9.7690     8.2910    10.2870    26.0890     2.0640 
   99.3750   -11.3950    49.7790     9.6470     8.2700    10.3990    25.9700     2.0850 
   99.5000   -10.7100    50.8970     9.4660     8.1640    10.2410    25.9530     2.1210 
   99.6250    -9.9940    53.2840     9.2340     7.9840     9.8450    25.6890     2.1610 
   99.7500    -9.2700    56.5840     8.9800     7.7610     9.3400    25.2200     2.2010 
   99.8750    -8.5570    60.6700     8.7220     7.5140     8.7010    24.7660     2.2330 
  100.0000    -7.8960    63.9170     8.4190     7.2150     8.0270    24.3830     2.2600 
  100.1250    -7.3030    67.2370     8.0010     6.8170     7.4940    23.8470     2.2890 
  100.2500    -6.7870    71.4950     7.4310     6.2980     7.2930    23.3230     2.3230 
  100.3750    -6.3660    76.5090     6.7810     5.7080     6.8720    23.2340     2.3640 
  100.5000    -6.0870    80.6820     6.2840     5.2180     5.8550    23.6570     2.4050 
  100.6250    -5.9200    81.3270     6.1270     4.9780     5.2730    24.1280     2.4330 
  100.7500    -5.8820    78.4210     6.4020     5.0720     5.4090    24.3120     2.4250 
  100.8750    -5.9630    73.6890     7.1220     5.5220     6.8790    24.2890     2.3690 
  101.0000    -6.1320    67.2240     8.3040     6.3710    11.7610    24.1880     2.2700 
  101.1250    -6.3480    58.8040     9.7670     7.5210    17.7210    24.1850     2.1660 
  101.2500    -6.5770    51.3500    11.3330     8.8850    17.3140    24.3490     2.1040 
  101.3750    -6.7690    49.9470    12.7560    10.2870    13.2420    24.5730     2.1310 
  101.5000    -6.9060    53.6070    13.6420    11.3760    13.8550    24.6360     2.2590 
  101.6250    -6.9670    57.4040    13.7770    11.8650    20.5320    24.5460     2.3910 
  101.7500    -6.9180    61.3810    13.0640    11.5840    27.9370    24.3280     2.4460 
  101.8750    -6.8360    67.2650    11.6810    10.6210    19.4970    24.1820     2.4160 
  102.0000    -6.6820    73.6190    10.0870     9.3160    11.2130    24.2140     2.3520 
  102.1250    -6.4580    77.5500     8.7550     8.1200     8.1530    24.1770     2.3040 
  102.2500    -6.2380    80.2810     7.8460     7.2280     7.4450    23.8440     2.2820 
  102.3750    -6.0120    81.3540     7.3420     6.6900     7.1730    23.2030     2.2840 
  102.5000    -5.7920    81.0310     7.1420     6.4880     6.8170    22.7840     2.3030 
  102.6250    -5.5790    80.3620     7.0230     6.4310     6.5870    22.4830     2.3260 
  102.7500    -5.3470    80.9400     6.8850     6.3950     6.6220    22.2400     2.3460 
  102.8750    -5.0840    83.4000     6.7150     6.3180     6.7060    22.1660     2.3580 
