~V
VERS. 2.00: Ver 2.00
~W
STRT.M 51.0000:
STOP.M 221.0000:
STEP.M 0.1250:
NULL. -999.2500:
UWI. F10616:
~C
DEPT.M :
GR.API :
RML.OHMM :
RI. :
RXO.OHMM :
CALI.CM :
DEN.GM/CC :
SP.MV :
~A
# ...
  163.5000    56.4110    21.1410    18.6640    18.0080    24.7960     2.2580   -13.1320 
  163.6250    59.6570    20.4310    18.1750    17.5580    24.7430     2.2610   -13.0700 
  163.7500    61.1140    19.9470    17.8280    17.3830    24.7070     2.2700   -13.0630 
  163.8750    60.9390    19.7090    17.6490    17.4110    24.6330     2.2800   -13.1020 
  164.0000    59.6310    19.5980    17.5780    17.3640    24.6030     2.2830   -13.1740 
  164.1250    58.8690    19.5280    17.5640    17.1230    24.5890     2.2790   -13.2700 
  164.2500    60.1430    19.4360    17.5570    16.4140    24.5200     2.2700   -13.3890 
  164.3750    63.3750    19.2900    17.5000    15.9340    24.4250     2.2640   -13.5260 
  164.5000    65.0760    19.0850    17.3690    16.0810    24.4200     2.2610   -13.6470 
  164.6250    64.9120    18.8040    17.1460    16.2760    24.4860     2.2600   -13.7590 
  164.7500    64.4520    18.4440    16.8310    16.3060    24.5250     2.2610   -13.8430 
  164.8750    63.8480    18.0460    16.4630    16.3580    24.5410     2.2620   -13.9090 
  165.0000    62.5930    17.7490    16.1600    16.2160    24.5280     2.2630   -13.9390 
  165.1250    61.8460    17.7270    16.0680    15.2950    24.5210     2.2650   -13.9460 
  165.2500    61.5690    18.1510    16.3300    15.0000    24.5310     2.2720   -13.9130 
  165.3750    61.1940    19.2340    17.1250    15.3100    24.4920     2.2840   -13.8400 
  165.5000    60.9240    20.8830    18.4010    16.7750    24.4470     2.2960   -13.7520 
  165.6250    61.8110    22.9380    20.0740    19.9280    24.4840     2.2970   -13.6410 
  165.7500    63.9830    25.0630    21.9120    23.7000    24.5660     2.2810   -13.5300 
  165.8750    64.9180    26.7510    23.4940    24.1680    24.5380     2.2570   -13.4230 
  166.0000    63.8990    27.8610    24.6010    22.7730    24.4040     2.2420   -13.3330 
  166.1250    61.9400    28.5700    25.2990    20.8550    24.2640     2.2410   -13.2670 
  166.2500    61.2430    29.3000    25.8920    21.3460    24.1410     2.2460   -13.2520 
  166.3750    62.2800    30.7270    26.9160    23.1220    23.9390     2.2420   -13.2820 
  166.5000    61.8360    33.1150    28.6810    25.3630    23.7010     2.2270   -13.3450 
  166.6250    58.6100    36.4050    31.2490    27.1280    23.5570     2.2030   -13.4450 
  166.7500    54.9210    40.2050    34.3860    29.0690    23.4980     2.1790   -13.5840 
  166.8750    54.1920    43.9000    37.5980    30.8430    23.5110     2.1690   -13.7830 
  167.0000    53.8280    47.1380    40.4440    33.7050    23.6670     2.1850   -13.9850 
  167.1250    52.6560    50.0900    42.9250    37.9100    23.9950     2.2280   -14.2190 
  167.2500    52.1910    53.3210    45.4530    42.1430    24.2730     2.2860   -14.4290 
  167.3750    51.8500    57.5730    48.7290    50.8210    24.4290     2.3320   -14.6690 
  167.5000    50.0680    62.6180    52.7820    60.5270    24.5200     2.3530   -14.8910 
  167.6250    47.7160    67.6360    57.0600    65.4640    24.5820     2.3530   -15.0940 
  167.7500    47.4990    71.4300    60.5990    64.8800    24.5680     2.3400   -15.2610 
  167.8750    47.4470    72.5530    62.1230    68.5510    24.5080     2.3180   -15.3210 
  168.0000    46.6160    71.3240    61.6730    65.6780    24.5010     2.2850   -15.3480 
  168.1250    46.4960    68.6460    59.8460    57.7870    24.6290     2.2460   -15.3100 
  168.2500    48.4380    65.7290    57.6110    52.0210    24.7700     2.2110   -15.2080 
  168.3750    50.3770    63.6700    55.9540    51.1420    24.8070     2.1940   -15.0610 
  168.5000    50.7280    62.6490    55.1740    50.7490    24.7950     2.1920   -14.8770 
  168.6250    52.9810    62.4520    55.1820    50.3070    24.7770     2.1980   -14.6610 
  168.7500    56.7020    62.5260    55.5870    50.9840    24.6890     2.2000   -14.4420 
  168.8750    57.3220    61.7670    55.4870    53.2310    24.5560     2.1880   -14.2490 
  169.0000    54.6360    59.4200    54.0880    56.3320    24.5790     2.1640   -14.0680 
  169.1250    51.7670    55.3700    51.1300    56.4500    24.7470     2.1400   -13.9090 
  169.2500    50.2700    50.2430    47.0260    51.2170    24.8460     2.1350   -13.7670 
  169.3750    50.1690    45.1750    42.6770    41.2210    24.8010     2.1740   -13.6480 
  169.5000    52.3490    41.0460    38.9450    32.6470    24.7290     2.2460   -13.5730 
  169.6250    55.3660    38.1330    36.1700    29.7820    24.6780     2.3210   -13.5290 
  169.7500    56.0330    36.3170    34.3480    31.6590    24.6830     2.3570   -13.5310 
  169.8750    55.7350    35.3480    33.3610    33.9110    24.7910     2.3240   -13.5800 
  170.0000    56.6380    34.7520    32.8130    33.1910    24.9470     2.2540   -13.6330 
  170.1250    57.2830    34.3180    32.4920    31.0690    25.1240     2.1820   -13.7130 
  170.2500    56.7410    33.9460    32.2560    29.6560    25.2510     2.1440   -13.8200 
  170.3750    55.6750    33.6540    32.0680    30.5650    25.1480     2.1590   -13.9060 
  170.5000    54.7260    33.5170    31.9920    31.5210    24.9970     2.1970   -13.9830 
  170.6250    52.6920    33.6500    32.1360    31.6030    24.9220     2.2300   -14.0460 
  170.7500    50.2410    34.1600    32.5910    30.6940    24.9550     2.2520   -14.0670 
  170.8750    50.1990    35.1710    33.4510    29.1790    25.0180     2.2910   -14.0440 
  171.0000    52.3800    36.4740    34.5470    28.3120    24.9810     2.3750   -14.0250 
  171.1250    53.3710    37.7310    35.6100    29.3260    24.8820     2.4790   -13.9510 
  171.2500    51.4720    38.4880    36.2560    31.6830    24.7460     2.5360   -13.8610 
  171.3750    48.8080    38.2530    36.0200    31.9580    24.7210     2.4940   -13.7140 
  171.5000    48.4310    37.2850    35.0630    30.9140    24.8180     2.4080   -13.5180 
  171.6250    50.7420    36.0840    33.7790    30.8470    25.0250     2.3180   -13.3220 
  171.7500    52.8740    35.2300    32.6750    30.3380    25.1460     2.2480   -13.0830 
  171.8750    53.1050    35.2600    32.2600    30.5900    25.1410     2.2080   -12.8570 
  172.0000    52.9170    36.0560    32.5300    31.4360    25.0870     2.1880   -12.6290 
  172.1250    54.2310    37.3440    33.3080    32.8190    25.0250     2.1830   -12.4140 
  172.2500    56.1320    38.7480    34.2910    35.0460    24.9880     2.1940   -12.2550 
  172.3750    56.3220    39.8970    35.1350    36.4740    24.9210     2.2150   -12.1820 
  172.5000    56.8660    40.6990    35.7080    36.9420    24.8440     2.2330   -12.1520 
  172.6250    58.3780    41.2210    36.0490    35.2410    24.8040     2.2410   -12.1680 
  172.7500    58.6060    41.6230    36.2890    34.9340    24.9350     2.2450   -12.2330 
  172.8750    54.7080    42.0520    36.5590    35.5220    25.0910     2.2480   -12.3260 
  173.0000    49.4630    42.4200    36.8160    36.5220    25.1320     2.2460   -12.4540 
  173.1250    46.6900    42.4170    36.8260    37.6710    25.0980     2.2330   -12.5900 
  173.2500    47.5010    41.6920    36.2880    39.2930    25.1790     2.2100   -12.7110 
  173.3750    50.4170    40.0080    34.9460    36.0970    25.1810     2.1930   -12.7930 
  173.5000    51.8500    37.8530    33.1310    30.6230    24.9870     2.1950   -12.8770 
  173.6250    52.2470    35.7820    31.2520    25.0960    24.6560     2.2150   -12.9250 
  173.7500    53.6060    34.2950    29.7230    22.8950    24.4430     2.2420   -12.9640 
  173.8750    54.7690    33.8290    28.9550    24.8950    24.6300     2.2560   -12.9840 
  174.0000    53.6910    34.2430    28.9280    27.4230    24.8810     2.2510   -12.9530 
  174.1250    51.8710    35.3780    29.5800    29.0130    24.9800     2.2340   -12.9350 
  174.2500    52.4010    37.0210    30.7730    30.1540    24.9600     2.2110   -12.8680 
  174.3750    54.7210    38.9610    32.3290    31.6530    24.7900     2.1890   -12.7940 
  174.5000    56.3830    40.9510    33.9590    33.1070    24.4530     2.1750   -12.7320 
  174.6250    57.0130    42.8980    35.5270    34.3460    24.2540     2.1690   -12.6610 
