~V
VERS. 2.00: Ver 2.00
~W
STRT.M 50.0000:
STOP.M 263.0000:
STEP.M 0.1250:
NULL. -999.2500:
UWI. F10656:
~C
DEPT.M :
DEN.GM/CC :
GR.API :
RML.OHMM :
RI. :
RXO.OHMM :
CALI.CM :
SP.MV :
~A
# ...
  162.5000     2.5290    46.6310    27.2400    25.4960    26.0750    24.3270    -3.5710 
  162.6250     2.5500    48.4260    27.7260    26.0690    27.5690    24.4550    -3.5400 
  162.7500     2.5710    47.1160    28.0980    26.5800    28.4230    24.4730    -3.5060 
  162.8750     2.5880    43.7360    28.3600    26.9920    28.5370    24.4600    -3.4640 
  163.0000     2.6020    40.6000    28.5590    27.3060    27.2010    24.4480    -3.4180 
  163.1250     2.6100    40.2420    28.6980    27.4990    26.6380    24.4670    -3.3900 
  163.2500     2.6150    43.0810    28.6870    27.5150    27.3470    24.5130    -3.3750 
  163.3750     2.6180    46.4740    28.3610    27.2330    28.1260    24.5620    -3.3460 
  163.5000     2.6190    46.4840    27.5850    26.5400    28.2910    24.5870    -3.3140 
  163.6250     2.6170    43.3520    26.3030    25.3660    26.8500    24.5780    -3.2840 
  163.7500     2.6120    42.1260    24.8100    23.9530    24.6790    24.5610    -3.2590 
  163.8750     2.6040    43.7950    23.4200    22.5670    23.0860    24.5550    -3.2350 
  164.0000     2.5950    46.0290    22.4200    21.4750    21.7830    24.5590    -3.2100 
  164.1250     2.5870    45.9110    22.0750    20.9430    21.2440    24.5720    -3.2270 
  164.2500     2.5800    44.8160    22.2580    20.9040    21.4200    24.5920    -3.2530 
  164.3750     2.5750    45.3550    22.7910    21.2350    22.1720    24.6080    -3.2930 
  164.5000     2.5700    47.8730    23.4350    21.7400    23.2010    24.6100    -3.3390 
  164.6250     2.5660    48.5300    23.9270    22.1910    24.0810    24.5980    -3.3620 
  164.7500     2.5610    46.9260    24.1810    22.4710    24.0970    24.5810    -3.3420 
  164.8750     2.5550    46.4130    24.2690    22.6080    23.4060    24.5690    -3.3170 
  165.0000     2.5490    47.6480    24.3780    22.7310    22.6300    24.5700    -3.3020 
  165.1250     2.5480    47.7090    24.7910    23.0600    22.7250    24.5720    -3.2790 
  165.2500     2.5520    46.8890    25.5970    23.6870    23.6290    24.5440    -3.2560 
  165.3750     2.5610    48.2020    26.7490    24.5890    24.8710    24.5030    -3.2380 
  165.5000     2.5750    51.3120    28.0360    25.5990    26.3170    24.4780    -3.2100 
  165.6250     2.5950    51.0510    29.0230    26.3530    27.7230    24.4830    -3.1980 
  165.7500     2.6220    46.5300    29.3440    26.5330    28.6780    24.4930    -3.2070 
  165.8750     2.6540    42.4080    28.7820    25.9640    28.8490    24.5030    -3.2440 
  166.0000     2.6830    44.0270    27.3700    24.6860    27.7630    24.5160    -3.2840 
  166.1250     2.6960    49.8530    25.4050    22.9660    25.7500    24.4980    -3.3000 
  166.2500     2.6880    53.2160    23.5460    21.3510    23.5550    24.4650    -3.3230 
  166.3750     2.6620    53.3380    22.2790    20.2280    22.5260    24.4490    -3.3550 
  166.5000     2.6260    53.1020    21.8890    19.8320    23.2510    24.4670    -3.4060 
  166.6250     2.5970    54.5880    22.4810    20.2900    24.5900    24.5030    -3.4610 
  166.7500     2.5810    55.8500    23.5230    21.2090    25.6740    24.5150    -3.5640 
  166.8750     2.5810    55.1790    24.4630    22.1540    26.9610    24.4950    -3.6960 
  167.0000     2.5900    51.8880    24.7630    22.6440    27.7440    24.4570    -3.8570 
  167.1250     2.5970    48.4390    23.9700    22.1980    26.6000    24.4200    -4.0050 
  167.2500     2.5940    47.6560    22.4370    21.0160    23.3230    24.3970    -4.1350 
  167.3750     2.5790    49.2550    20.6580    19.4830    19.7390    24.3740    -4.2690 
  167.5000     2.5580    50.3530    19.1370    18.0490    17.1500    24.3510    -4.4130 
  167.6250     2.5370    48.8590    18.2740    17.1010    16.6070    24.3030    -4.5300 
  167.7500     2.5220    48.6100    17.9590    16.6200    17.0760    24.2150    -4.6260 
  167.8750     2.5130    51.8570    18.0140    16.5030    18.0280    24.1030    -4.7040 
  168.0000     2.5050    56.9970    18.2510    16.6100    18.8400    23.9840    -4.7670 
  168.1250     2.4980    60.0290    18.5590    16.8480    19.0320    23.8800    -4.8390 
  168.2500     2.4910    60.0770    18.9400    17.1840    18.7040    23.7770    -4.9260 
  168.3750     2.4860    58.2570    19.4650    17.6580    18.5010    23.6800    -4.9800 
  168.5000     2.4880    55.7160    20.1480    18.2820    18.6570    23.5680    -4.9930 
  168.6250     2.4980    52.2660    20.8310    18.9380    19.4050    23.4210    -4.9990 
  168.7500     2.5120    49.4550    21.2030    19.3610    20.0110    23.3270    -4.9900 
  168.8750     2.5240    48.4360    20.9900    19.2930    20.1870    23.3920    -4.9390 
  169.0000     2.5310    48.6240    20.0700    18.5870    19.7820    23.6180    -4.8400 
  169.1250     2.5310    49.4510    18.5240    17.2590    18.4130    23.8250    -4.7030 
  169.2500     2.5260    50.7210    16.8430    15.7320    16.2890    23.9230    -4.5200 
  169.3750     2.5170    52.5580    15.3960    14.3390    14.0800    23.9780    -4.3180 
  169.5000     2.5070    54.2080    14.4290    13.3230    12.4890    24.0350    -4.1200 
  169.6250     2.4950    54.7780    14.1090    12.8710    12.2380    24.0620    -3.9460 
  169.7500     2.4850    55.4820    14.2510    12.8680    12.4910    24.0860    -3.7870 
  169.8750     2.4810    56.6280    14.6900    13.2000    13.0470    24.1180    -3.6610 
  170.0000     2.4840    56.6200    15.2330    13.7100    13.7380    24.2300    -3.5640 
  170.1250     2.4930    52.6650    15.6550    14.2010    14.2010    24.3090    -3.5060 
  170.2500     2.5030    48.6790    15.8410    14.5200    14.2700    24.4090    -3.4730 
  170.3750     2.5100    47.6010    15.7710    14.6070    14.0590    24.4720    -3.4710 
  170.5000     2.5120    48.2740    15.5110    14.4900    13.9310    24.5060    -3.4850 
  170.6250     2.5080    50.2930    15.1790    14.2470    14.1070    24.5110    -3.4880 
  170.7500     2.4980    53.6140    14.9080    14.0100    14.0610    24.5260    -3.4580 
  170.8750     2.4840    55.9150    14.7500    13.8440    13.7940    24.5300    -3.4000 
  171.0000     2.4670    54.7750    14.6970    13.7620    13.7390    24.5000    -3.3260 
  171.1250     2.4510    53.2580    14.6990    13.7350    13.8380    24.4280    -3.2550 
  171.2500     2.4440    53.7980    14.6700    13.6940    13.8770    24.3610    -3.1980 
  171.3750     2.4460    53.6620    14.5520    13.5940    13.4940    24.3200    -3.1420 
  171.5000     2.4580    51.4140    14.3220    13.4160    12.9810    24.3330    -3.0820 
  171.6250     2.4730    48.1390    14.0110    13.1870    12.8570    24.3810    -3.0260 
  171.7500     2.4840    48.1940    13.7280    12.9930    13.0920    24.4170    -3.0060 
  171.8750     2.4880    53.0350    13.5750    12.9100    13.4480    24.4310    -3.0500 
  172.0000     2.4870    59.3440    13.6330    13.0050    13.8300    24.4270    -3.1370 
  172.1250     2.4850    60.0420    13.9740    13.3480    14.1480    24.4160    -3.2490 
  172.2500     2.4840    57.5020    14.5140    13.8750    14.4850    24.4300    -3.3970 
  172.3750     2.4830    56.4900    15.1590    14.5030    14.5380    24.4510    -3.5900 
  172.5000     2.4800    58.2120    15.7880    15.1140    14.8350    24.4810    -3.8020 
  172.6250     2.4740    59.9460    16.2490    15.5420    15.6340    24.5050    -4.0390 
  172.7500     2.4690    59.5100    16.4840    15.7180    16.0240    24.4840    -4.3180 
  172.8750     2.4660    56.2080    16.4810    15.6310    15.5090    24.4150    -4.6020 
  173.0000     2.4650    51.1990    16.2860    15.3330    14.7920    24.2880    -4.8770 
  173.1250     2.4660    50.6370    16.0150    14.9320    14.5320    24.1640    -5.1730 
  173.2500     2.4660    53.1580    15.9140    14.6330    14.7560    24.2330    -5.5080 
  173.3750     2.4640    53.7830    16.3100    14.6910    15.2450    24.4980    -5.8990 
  173.5000     2.4590    51.4920    17.6600    15.4700    16.3890    24.7170    -6.3900 
  173.6250     2.4450    51.5300    20.9200    17.8060    20.2030    24.7980    -6.9810 
