~V
VERS. 2.00: Ver 2.00
~W
STRT.M 50.0000:
STOP.M 221.0000:
STEP.M 0.1250:
NULL. -999.2500:
UWI. F10611:
~C
DEPT.M :
SP.MV :
GR.API :
RML.OHMM :
RI. :
RXO.OHMM :
CALI.CM :
DEN.GM/CC :
~A
# ...
  117.5000   -19.9890    59.8300    25.1250    19.8560    16.8870    25.5240     2.2450 
  117.6250   -20.2030    57.1480    24.2640    19.3520    17.2710    25.2720     2.2390 
  117.7500   -20.4310    54.6800    23.2050    18.6600    19.4260    25.0690     2.2190 
  117.8750   -20.6790    53.7620    21.8950    17.7270    18.1330    24.9900     2.1970 
  118.0000   -20.9530    54.2340    20.2350    16.4660    13.6430    25.0630     2.1850 
  118.1250   -21.2810    55.7250    18.1050    14.7780    10.9880    25.1800     2.1920 
  118.2500   -21.6120    59.6600    15.6980    12.8440     9.0960    25.2730     2.2120 
  118.3750   -21.9570    66.3130    13.3160    10.9140     8.0530    25.2670     2.2370 
  118.5000   -22.3080    74.1430    11.2890     9.2490     7.7000    25.0830     2.2520 
  118.6250   -22.6670    79.8760     9.9410     8.1020     6.3240    24.8960     2.2460 
  118.7500   -23.0190    81.6090     9.2390     7.4620     5.7470    24.9670     2.2300 
  118.8750   -23.3440    79.6840     9.1720     7.3180     5.9640    25.1560     2.2130 
  119.0000   -23.6330    75.7730     9.6930     7.6350     6.3740    25.1820     2.2030 
  119.1250   -23.8850    73.3240    10.7460     8.3940     7.1050    25.0010     2.2010 
  119.2500   -24.0970    71.8240    11.9940     9.3670     7.5580    24.6990     2.1970 
  119.3750   -24.2860    69.6160    13.0900    10.3030     7.8680    24.4160     2.1840 
  119.5000   -24.4320    67.3350    13.6640    10.9050     8.4260    24.3330     2.1650 
  119.6250   -24.5960    66.5560    13.3640    10.8620     9.6650    24.4380     2.1550 
  119.7500   -24.7590    67.6890    12.4090    10.2910    10.4800    24.5990     2.1720 
  119.8750   -24.9220    71.9870    11.0990     9.3960     9.0500    24.6830     2.2210 
  120.0000   -25.0790    78.2330     9.7980     8.4380     7.3940    24.7290     2.2890 
  120.1250   -25.1630    80.5870     8.9000     7.6850     7.0890    24.7800     2.3490 
  120.2500   -25.2410    78.4930     8.4870     7.2300     7.2240    24.8710     2.3840 
  120.3750   -25.2640    77.4870     8.5230     7.0940     7.2520    24.9270     2.3970 
  120.5000   -25.2500    80.5030     8.8640     7.2300     7.7540    24.9610     2.4000 
  120.6250   -25.2110    80.3040     9.2380     7.5000     8.2250    24.9000     2.4090 
  120.7500   -25.1310    74.0270     9.3200     7.6500     8.8260    24.6950     2.4210 
  120.8750   -25.0430    69.4930     8.9370     7.5070     8.2710    24.4590     2.4260 
  121.0000   -24.9630    72.5090     8.1210     7.0280     7.1820    24.4270     2.4160 
  121.1250   -24.9070    81.1010     7.0970     6.3050     6.1940    24.5850     2.3940 
  121.2500   -24.8900    87.6560     6.1900     5.5770     5.1000    24.8570     2.3720 
  121.3750   -24.9330    90.5070     5.5470     4.9960     4.5880    25.1190     2.3620 
  121.5000   -25.0180    90.8900     5.1860     4.6260     4.5600    25.2130     2.3670 
  121.6250   -25.1370    90.7390     5.0640     4.4790     4.7020    25.2670     2.3800 
  121.7500   -25.2900    89.6260     5.0590     4.4580     4.8040    25.3110     2.3890 
  121.8750   -25.4740    86.5550     5.1080     4.5040     4.8950    25.3500     2.3930 
  122.0000   -25.6650    84.8170     5.1640     4.5680     4.8960    25.3720     2.4010 
  122.1250   -25.8960    87.8700     5.1960     4.6220     4.9360    25.3960     2.4120 
  122.2500   -26.1170    89.6030     5.2180     4.6720     5.0590    25.4150     2.4200 
  122.3750   -26.3150    86.4740     5.2480     4.7310     5.2710    25.4180     2.4230 
  122.5000   -26.4890    83.7620     5.2890     4.7970     5.3690    25.3970     2.4190 
  122.6250   -26.5850    87.1440     5.3220     4.8550     5.3190    25.3850     2.4140 
  122.7500   -26.6360    91.2200     5.3270     4.8830     5.4040    25.3890     2.4110 
  122.8750   -26.5810    92.3260     5.2990     4.8650     5.5930    25.3900     2.4110 
  123.0000   -26.4950    91.3310     5.2520     4.7950     5.5460    25.3880     2.4100 
  123.1250   -26.3430    90.7560     5.2080     4.6890     5.2020    25.5080     2.4110 
  123.2500   -26.1290    90.7070     5.1930     4.5910     5.3030    25.6990     2.4060 
  123.3750   -25.8930    90.8620     5.2560     4.5500     5.5860    25.8700     2.3820 
  123.5000   -25.5920    89.5790     5.5050     4.6480     5.9200    25.8900     2.3370 
  123.6250   -25.2900    85.2650     6.2320     5.0800     6.3590    25.8560     2.2890 
  123.7500   -24.9630    80.6760     7.7260     6.0200     7.1290    25.7760     2.2770 
  123.8750   -24.6510    76.9430    10.3900     7.7460     9.3670    25.6590     2.3410 
  124.0000   -24.3410    71.9140    14.5590    10.5720    15.9620    25.5030     2.4850 
  124.1250   -24.0170    64.5450    20.3160    14.8460    29.8870    25.2810     2.6110 
  124.2500   -23.7180    58.6260    26.1910    19.7160    45.1070    24.8520     2.6140 
  124.3750   -23.4330    56.7240    30.2310    23.6400    49.7600    24.2170     2.5100 
  124.5000   -23.1750    57.7950    31.0850    25.1550    39.9630    24.0780     2.3650 
  124.6250   -22.9780    60.6710    29.2940    24.2140    29.5910    24.9620     2.2330 
  124.7500   -22.8360    64.4930    27.5120    22.8500    25.6230    26.0690     2.1410 
  124.8750   -22.7490    66.2610    27.0900    22.1970    25.1680    26.5380     2.1000 
  125.0000   -22.7110    64.0040    28.4160    22.7170    27.0120    26.4420     2.0980 
  125.1250   -22.7080    61.7300    31.4570    24.6000    31.7550    26.0720     2.1200 
  125.2500   -22.7170    61.8840    35.3830    27.3670    36.7120    25.9470     2.1360 
  125.3750   -22.7130    62.1110    39.6000    30.5920    40.9040    25.9560     2.1320 
  125.5000   -22.7290    60.6730    43.5640    33.7970    42.4470    25.9850     2.1140 
  125.6250   -22.6930    59.5310    46.7510    36.5000    44.2970    26.0100     2.1190 
  125.7500   -22.6350    59.7700    49.0380    38.5620    46.1520    26.0370     2.1640 
  125.8750   -22.5360    59.5920    50.3030    39.9070    47.0240    26.0530     2.2350 
  126.0000   -22.3880    58.5760    50.5450    40.5190    45.6430    26.0330     2.2880 
  126.1250   -22.2550    56.5810    49.8660    40.3800    43.5250    25.9450     2.2700 
  126.2500   -22.0730    54.9820    48.8910    39.8760    40.0680    25.8180     2.2070 
  126.3750   -21.9100    54.8730    48.1610    39.3950    35.5560    25.7410     2.1470 
  126.5000   -21.7350    56.0230    48.1630    39.3340    32.7280    25.7240     2.1290 
  126.6250   -21.5350    57.1510    49.3980    40.1300    32.7900    25.6820     2.1570 
  126.7500   -21.3680    57.8010    51.6700    41.7420    35.3230    25.5290     2.1860 
  126.8750   -21.2290    58.1260    54.6130    43.9770    38.2230    25.4140     2.1830 
  127.0000   -21.1120    57.6180    57.5760    46.4000    41.1350    25.6220     2.1430 
  127.1250   -21.0450    56.1070    59.5710    48.2790    40.9260    25.8720     2.0980 
  127.2500   -21.0300    55.1370    60.1850    49.1900    41.4300    25.9880     2.0890 
  127.3750   -21.0600    55.2600    59.4630    49.0530    43.0980    25.9430     2.1340 
  127.5000   -21.1300    55.0860    57.9380    48.1810    44.6920    25.7280     2.2280 
  127.6250   -21.2540    52.9060    56.4740    47.1950    44.2100    25.4100     2.3440 
  127.7500   -21.3590    49.8170    55.7290    46.6630    45.1160    25.1720     2.4420 
  127.8750   -21.4140    47.8170    55.9580    46.8520    43.7930    25.0600     2.5090 
  128.0000   -21.4420    47.9260    57.0680    47.8010    42.9420    25.0950     2.5580 
  128.1250   -21.3650    48.5790    58.4590    49.2100    42.0350    25.1160     2.6000 
  128.2500   -21.2490    48.0240    59.0290    50.2080    42.9530    25.0850     2.6250 
  128.3750   -21.0560    47.3080    57.9310    49.9940    43.2700    25.0960     2.6210 
  128.5000   -20.7890    48.3620    54.8890    48.1360    43.7960    25.1670     2.5950 
  128.6250   -20.4740    49.7450    50.2390    44.6560    41.3190    25.2170     2.5580 
