~V
VERS. 2.00: Ver 2.00
~W
STRT.M 54.0000:
STOP.M 246.0000:
STEP.M 0.1250:
NULL. -999.2500:
UWI. F10643:
~C
DEPT.M :
SP.MV :
GR.API :
RML.OHMM :
RI. :
RXO.OHMM :
CALI.CM :
DEN.GM/CC :
~A
# ...
  155.2500   -15.6610    37.7270    17.9910    15.1550    13.9900    24.1610     2.4610 
  155.3750   -15.5380    36.2350    18.4250    15.3870    14.5970    24.1610     2.4560 
  155.5000   -15.3860    37.7800    19.3540    16.0260    15.0660    24.0870     2.4540 
  155.6250   -15.2240    41.2780    20.5920    16.9550    16.5160    23.9550     2.4550 
  155.7500   -15.0860    44.3650    21.9580    18.0480    18.3880    23.8920     2.4590 
  155.8750   -14.9540    46.6370    23.2030    19.1160    19.2690    23.9710     2.4650 
  156.0000   -14.8610    47.5490    23.9300    19.8490    20.1200    24.1080     2.4710 
  156.1250   -14.8080    46.3080    23.9770    20.0770    21.3920    24.1710     2.4770 
  156.2500   -14.7740    44.0030    23.3840    19.7820    21.8520    24.1870     2.4790 
  156.3750   -14.7600    43.9150    22.4330    19.1380    20.0300    24.1730     2.4770 
  156.5000   -14.7850    45.3730    21.5470    18.4430    16.9230    24.1050     2.4710 
  156.6250   -14.8250    45.9040    20.9830    17.9300    15.6720    24.0270     2.4640 
  156.7500   -14.8750    44.9360    20.7810    17.6780    16.4750    24.0490     2.4610 
  156.8750   -14.9210    43.0850    20.8330    17.6570    18.3670    24.1360     2.4600 
  157.0000   -14.9700    42.9170    20.9150    17.7400    18.9980    24.1730     2.4600 
  157.1250   -15.0040    45.6000    20.8160    17.7360    18.2410    24.1130     2.4580 
  157.2500   -15.0570    49.6050    20.4890    17.5600    17.0280    23.8850     2.4560 
  157.3750   -15.0940    50.9320    20.0190    17.2410    16.4060    23.5720     2.4540 
  157.5000   -15.1120    48.3910    19.5530    16.8790    15.9860    23.5240     2.4550 
  157.6250   -15.1310    46.6970    19.1780    16.5690    15.5060    23.7990     2.4570 
  157.7500   -15.1230    47.2750    18.8950    16.3330    15.0620    23.9620     2.4600 
  157.8750   -15.1440    48.3670    18.6790    16.1610    14.6350    23.8690     2.4620 
  158.0000   -15.1130    47.4330    18.5280    16.0470    13.7170    23.6020     2.4650 
  158.1250   -15.0600    44.9410    18.4680    15.9970    13.0130    23.4880     2.4700 
  158.2500   -14.9980    42.0040    18.5590    16.0470    13.3740    23.5610     2.4810 
  158.3750   -14.9210    40.3960    18.8420    16.2300    14.1530    23.7290     2.4970 
  158.5000   -14.8630    40.5480    19.3290    16.5730    14.6480    23.8200     2.5140 
  158.6250   -14.7960    41.3470    19.9040    17.0100    15.0370    23.6680     2.5210 
  158.7500   -14.7390    42.4770    20.4570    17.4630    15.9410    23.3880     2.5160 
  158.8750   -14.6910    43.9790    20.9000    17.8520    17.4630    23.3540     2.5000 
  159.0000   -14.6910    46.4230    21.2030    18.1260    18.9700    23.6420     2.4840 
  159.1250   -14.7310    47.3130    21.4730    18.3480    19.1310    23.9820     2.4740 
  159.2500   -14.7850    45.8490    21.8170    18.6010    19.1890    24.1860     2.4710 
  159.3750   -14.8820    44.6910    22.3260    18.9680    19.6490    24.2510     2.4710 
  159.5000   -14.9870    46.4570    23.0880    19.5390    19.8580    24.2460     2.4680 
  159.6250   -15.1150    48.9060    24.0540    20.2930    20.5980    24.2350     2.4650 
  159.7500   -15.2830    49.4640    25.1520    21.1840    21.3210    24.2380     2.4670 
  159.8750   -15.4390    48.3420    26.2540    22.1170    22.2120    24.2510     2.4710 
  160.0000   -15.6030    46.0440    27.1120    22.9130    23.6220    24.2680     2.4760 
  160.1250   -15.7330    43.5460    27.5230    23.4060    24.1480    24.3020     2.4770 
  160.2500   -15.8360    42.0130    27.3370    23.4470    24.5600    24.3180     2.4750 
  160.3750   -15.9050    41.8970    26.5450    22.9810    23.9320    24.3050     2.4730 
  160.5000   -15.9270    42.3510    25.3200    22.0790    22.5980    24.1610     2.4740 
  160.6250   -15.9640    43.2680    24.0970    21.0840    20.3350    24.0170     2.4780 
  160.7500   -15.9410    44.3630    23.1630    20.2430    17.8700    24.0030     2.4830 
  160.8750   -15.9130    44.3540    22.6370    19.6940    16.1810    23.9530     2.4860 
  161.0000   -15.8660    42.9290    22.5050    19.4750    16.3640    23.8190     2.4870 
  161.1250   -15.8070    40.7340    22.5220    19.4070    17.0660    23.7040     2.4860 
  161.2500   -15.7750    38.9820    22.5040    19.3490    18.3030    23.8480     2.4860 
  161.3750   -15.7380    39.6140    22.3440    19.2000    18.6540    24.1890     2.4820 
  161.5000   -15.7340    42.7160    22.0600    18.9390    17.2440    24.4760     2.4720 
  161.6250   -15.7110    45.4410    21.8120    18.6750    16.4770    24.6230     2.4600 
  161.7500   -15.6980    45.2670    21.7270    18.5140    16.7870    24.6180     2.4510 
  161.8750   -15.7150    42.9410    21.8730    18.5330    17.4410    24.4490     2.4460 
  162.0000   -15.7400    43.1680    22.2690    18.7730    18.5220    24.2230     2.4450 
  162.1250   -15.7890    46.7550    22.8090    19.1500    19.2610    24.0510     2.4470 
  162.2500   -15.8710    50.2340    23.4270    19.6020    20.2530    23.9920     2.4510 
  162.3750   -15.9610    50.6190    24.0740    20.0760    20.7980    24.1110     2.4560 
  162.5000   -16.0550    47.9780    24.6850    20.5230    20.0980    24.1040     2.4610 
  162.6250   -16.1610    44.6140    25.1570    20.8750    19.8650    24.0640     2.4640 
  162.7500   -16.2660    41.1110    25.3600    21.0450    20.7740    24.1060     2.4640 
  162.8750   -16.3600    38.7480    25.1770    20.9360    21.9550    24.1880     2.4630 
  163.0000   -16.4460    39.0670    24.5030    20.4400    21.0130    24.2250     2.4660 
  163.1250   -16.5230    40.6280    23.5270    19.6670    19.7360    24.1620     2.4710 
  163.2500   -16.5630    42.4450    22.4620    18.7580    18.6120    23.9960     2.4740 
  163.3750   -16.6300    44.1330    21.5320    17.8860    17.3930    23.7210     2.4720 
  163.5000   -16.6660    44.3140    20.9470    17.2330    16.8990    23.4740     2.4650 
  163.6250   -16.7080    44.4870    20.6390    16.8020    16.1910    23.4370     2.4540 
  163.7500   -16.7400    44.9340    20.4420    16.5110    16.2910    23.5660     2.4440 
  163.8750   -16.7300    43.5380    20.1390    16.2170    16.6220    23.6800     2.4400 
  164.0000   -16.7200    39.7920    19.5300    15.7600    16.4470    23.6960     2.4500 
  164.1250   -16.6700    38.3930    18.7050    15.1470    15.4980    23.7230     2.4740 
  164.2500   -16.6110    41.9430    17.8590    14.4790    14.2700    23.8190     2.5080 
  164.3750   -16.5000    46.0550    17.2060    13.9050    13.2990    23.9730     2.5390 
  164.5000   -16.3620    45.3650    16.9410    13.5920    12.8000    24.0210     2.5520 
  164.6250   -16.2200    42.2730    17.0010    13.5330    12.8900    23.9280     2.5430 
  164.7500   -16.0790    40.0450    17.2920    13.6740    13.9840    23.8470     2.5200 
  164.8750   -15.9530    39.6410    17.6780    13.9180    15.0350    23.8480     2.4970 
  165.0000   -15.8400    39.5510    17.9800    14.1330    15.7370    23.8840     2.4840 
  165.1250   -15.7550    39.8780    18.0550    14.2110    15.1410    23.8420     2.4800 
  165.2500   -15.6930    41.5820    17.8170    14.0830    14.6920    23.7220     2.4810 
  165.3750   -15.6430    44.6360    17.2470    13.7270    14.7860    23.5740     2.4790 
  165.5000   -15.6560    45.9350    16.3990    13.1430    13.8750    23.4760     2.4720 
  165.6250   -15.6470    44.2870    15.4980    12.4660    12.3540    23.4150     2.4650 
  165.7500   -15.6340    41.7800    14.7290    11.8220    11.0290    23.2780     2.4610 
  165.8750   -15.6330    41.1470    14.2000    11.3100    10.2420    22.9480     2.4640 
  166.0000   -15.5980    43.5810    13.8870    10.9700     9.5930    22.4640     2.4760 
  166.1250   -15.5610    47.2840    13.5260    10.6690     8.9230    21.8500     2.4870 
  166.2500   -15.4590    49.1910    12.8510    10.2460     8.0570    21.0600     2.4920 
  166.3750   -15.3480    47.7240    11.7210     9.5650     6.9950    19.7700     2.4810 
