~V
VERS. 2.00: Ver 2.00
~W
STRT.M 56.0000:
STOP.M 256.0000:
STEP.M 0.1250:
NULL. -999.2500:
UWI. F10668:
~C
DEPT.M :
SP.MV :
GR.API :
RML.OHMM :
RI. :
RXO.OHMM :
CALI.CM :
DEN.GM/CC :
~A
# ...
   67.2500   -29.1880    60.2430     8.3150     5.8200     8.7180    25.5800     2.2270 
   67.3750   -29.1710    60.4430     8.4580     5.9140     8.7050    25.6570     2.2440 
   67.5000   -29.1490    59.4740     8.5210     5.9640     8.8680    26.0450     2.2360 
   67.6250   -29.1360    58.7910     8.4860     5.9630     8.9900    26.6270     2.2040 
   67.7500   -29.1170    57.0550     8.3730     5.9170     8.7650    27.1640     2.1570 
   67.8750   -29.1040    53.6060     8.2290     5.8380     8.2860    27.4850     2.1100 
   68.0000   -29.0910    53.7580     8.0960     5.7410     8.0180    27.4120     2.0760 
   68.1250   -29.0730    59.0520     7.9780     5.6310     8.0580    26.8080     2.0630 
   68.2500   -29.0460    63.2630     7.8720     5.5110     7.9470    25.8910     2.0770 
   68.3750   -29.0240    62.4820     7.7820     5.4010     7.6990    25.2360     2.1160 
   68.5000   -28.9920    62.4460     7.7290     5.3240     7.3020    24.8600     2.1630 
   68.6250   -28.9700    64.5680     7.7410     5.3020     7.3010    24.7130     2.2060 
   68.7500   -28.9570    64.4210     7.8400     5.3460     7.3210    24.6680     2.2310 
   68.8750   -28.9180    60.8300     8.0250     5.4560     7.6110    24.7120     2.2310 
   69.0000   -28.8480    58.2590     8.2360     5.5930     7.9400    24.7950     2.2150 
   69.1250   -28.7370    57.7930     8.4130     5.7200     8.1370    24.8840     2.1980 
   69.2500   -28.5690    58.9490     8.5120     5.8120     8.2580    24.9750     2.1900 
   69.3750   -28.3100    61.1120     8.5210     5.8570     8.2910    25.1050     2.1940 
   69.5000   -27.9810    62.0780     8.4980     5.8790     8.1510    25.1530     2.2010 
   69.6250   -27.5650    61.5720     8.4920     5.9020     8.0820    25.1110     2.2020 
   69.7500   -27.0700    60.1610     8.5150     5.9360     8.1370    25.0450     2.1930 
   69.8750   -26.5010    57.1570     8.5330     5.9630     8.2510    25.0370     2.1800 
   70.0000   -25.8930    53.9630     8.4800     5.9490     8.4110    25.1790     2.1730 
   70.1250   -25.2390    54.3090     8.3230     5.8720     8.5180    25.5030     2.1760 
   70.2500   -24.5640    59.4470     8.0770     5.7320     8.4100    25.9880     2.1890 
   70.3750   -23.8910    63.6260     7.8080     5.5510     7.8080    26.0910     2.2080 
   70.5000   -23.2620    65.7810     7.5790     5.3710     6.8540    25.4960     2.2300 
   70.6250   -22.6870    68.8980     7.4060     5.2080     6.2950    24.3200     2.2490 
   70.7500   -22.1920    72.0870     7.2690     5.0620     6.4030    23.3250     2.2660 
   70.8750   -21.8050    72.6200     7.1290     4.9290     6.1500    23.0600     2.2780 
   71.0000   -21.4880    72.0580     6.9650     4.8020     5.4350    23.1310     2.2830 
   71.1250   -21.2810    72.7590     6.7860     4.6830     5.0450    23.3680     2.2820 
   71.2500   -21.1690    74.0140     6.6260     4.5820     5.0620    23.6940     2.2780 
   71.3750   -21.1540    74.6510     6.5450     4.5320     5.2810    24.0470     2.2790 
   71.5000   -21.1700    76.4000     6.5630     4.5460     5.4520    24.2460     2.2840 
   71.6250   -21.2090    78.2230     6.6730     4.6240     5.2920    24.1150     2.2900 
   71.7500   -21.2380    77.5010     6.8350     4.7450     5.0640    23.6540     2.2930 
   71.8750   -21.2510    74.1920     6.9870     4.8740     5.3420    23.3100     2.2910 
   72.0000   -21.2550    72.0610     7.0760     4.9710     5.7930    23.2670     2.2880 
   72.1250   -21.2170    72.3010     7.0790     5.0130     5.7710    23.5200     2.2900 
   72.2500   -21.1490    72.7540     6.9950     4.9900     5.5470    23.9120     2.2960 
   72.3750   -21.0400    73.3740     6.8300     4.8960     5.2020    24.1160     2.3060 
   72.5000   -20.9520    75.5700     6.6360     4.7600     4.8890    23.8340     2.3190 
   72.6250   -20.8820    78.3790     6.4710     4.6140     4.7200    23.1250     2.3350 
   72.7500   -20.8530    79.1340     6.3880     4.5010     4.5820    22.5060     2.3510 
   72.8750   -20.8840    77.2840     6.4190     4.4590     4.5090    22.3230     2.3480 
   73.0000   -20.9730    73.4980     6.5080     4.4660     4.5070    22.4240     2.3230 
   73.1250   -21.1260    69.7620     6.5950     4.4930     4.8490    22.6050     2.2880 
   73.2500   -21.3310    67.3600     6.6330     4.5090     5.6990    22.8460     2.2580 
   73.3750   -21.6140    68.1760     6.6290     4.5110     6.1320    23.0820     2.2530 
   73.5000   -21.9090    70.7570     6.6800     4.5450     5.6200    23.2810     2.2700 
   73.6250   -22.2590    72.4300     6.8990     4.6760     5.0200    23.5920     2.2980 
   73.7500   -22.6270    72.0380     7.3750     4.9600     5.3070    23.9680     2.3170 
   73.8750   -23.0220    69.9950     8.1640     5.4530     6.7050    24.1570     2.3100 
   74.0000   -23.3920    67.1120     9.1090     6.0820     7.8790    23.9730     2.2820 
   74.1250   -23.7570    62.9630    10.0130     6.7410     8.2760    23.6410     2.2430 
   74.2500   -24.0820    59.1920    10.6600     7.2890     8.1610    23.4250     2.2060 
   74.3750   -24.3380    59.6930    10.8630     7.5660     8.2070    23.5640     2.1850 
   74.5000   -24.4960    61.9330    10.7400     7.6000     8.2820    23.9090     2.1800 
   74.6250   -24.5250    63.0750    10.4210     7.4490     8.4130    24.2600     2.1840 
   74.7500   -24.4390    63.0030    10.0110     7.1800     8.5370    24.4560     2.1880 
   74.8750   -24.2400    64.9990     9.5690     6.8420     8.4830    24.5350     2.1900 
   75.0000   -23.9820    67.0180     9.1450     6.4980     7.9970    24.5690     2.1930 
   75.1250   -23.6790    66.3500     8.7980     6.1990     7.1640    24.4650     2.1980 
   75.2500   -23.3610    64.9840     8.5930     5.9960     6.3920    24.1260     2.2090 
   75.3750   -23.0530    67.6910     8.5990     5.9410     5.8970    23.4430     2.2220 
   75.5000   -22.7700    72.8060     8.7590     6.0080     5.7920    22.7440     2.2320 
   75.6250   -22.5280    75.0460     8.9660     6.1410     6.0820    22.3230     2.2370 
   75.7500   -22.3140    72.5680     9.0690     6.2450     6.6020    22.2060     2.2390 
   75.8750   -22.1460    69.1040     8.8990     6.1950     6.6590    22.2740     2.2470 
   76.0000   -22.0040    68.6020     8.5120     5.9830     6.3650    22.3160     2.2640 
   76.1250   -21.8970    72.5410     8.0450     5.6740     5.7590    22.3010     2.2900 
   76.2500   -21.8280    78.1310     7.6740     5.3760     4.8840    22.1600     2.3170 
   76.3750   -21.8070    80.1390     7.5410     5.2070     4.5630    21.9850     2.3310 
   76.5000   -21.8590    78.2620     7.5920     5.1690     4.7690    21.9960     2.3270 
   76.6250   -21.9810    74.5050     7.7360     5.2220     5.3270    22.3390     2.3050 
   76.7500   -22.1900    71.6740     7.8830     5.3180     6.1820    23.0270     2.2720 
   76.8750   -22.4230    71.3740     7.9750     5.4190     7.2850    24.0700     2.2380 
   77.0000   -22.6890    72.0920     8.0440     5.5210     7.2510    24.8440     2.2070 
   77.1250   -22.9140    71.3610     8.1430     5.6460     6.7670    25.1860     2.1830 
   77.2500   -23.0780    67.8000     8.2880     5.7980     7.3030    25.2650     2.1610 
   77.3750   -23.1390    64.0200     8.4210     5.9420     8.2940    25.3130     2.1440 
   77.5000   -23.1090    64.6590     8.4600     6.0220     8.4600    25.3020     2.1370 
   77.6250   -22.9880    69.0920     8.3700     6.0050     7.8090    25.1910     2.1460 
   77.7500   -22.7690    73.4620     8.1770     5.8930     6.9290    24.9880     2.1690 
   77.8750   -22.4980    76.7260     7.9630     5.7230     6.3060    24.7800     2.1960 
   78.0000   -22.1750    79.9110     7.7990     5.5540     6.1810    24.6320     2.2160 
   78.1250   -21.8750    81.5520     7.6920     5.4100     6.0850    24.5360     2.2290 
   78.2500   -21.5870    80.3360     7.6120     5.2870     6.0710    24.4880     2.2430 
   78.3750   -21.3500    80.5340     7.5170     5.1710     6.0560    24.4730     2.2600 
