~V
VERS. 2.00: Ver 2.00
~W
STRT.M 51.0000:
STOP.M 221.0000:
STEP.M 0.1250:
NULL. -999.2500:
UWI. F10616:
~C
DEPT.M :
GR.API :
RML.OHMM :
RI. :
RXO.OHMM :
CALI.CM :
DEN.GM/CC :
SP.MV :
~A
# ...
  141.0000    43.8620    19.2560    16.0170    14.3310    24.2580     2.4300   -14.2660 
  141.1250    43.3310    19.2570    15.9950    13.6180    24.1390     2.4220   -14.3590 
  141.2500    41.8490    19.5770    16.1740    13.7740    23.9960     2.4170   -14.4160 
  141.3750    43.1870    20.2180    16.6200    13.8820    23.7290     2.4240   -14.4520 
  141.5000    44.8500    20.8420    17.1360    14.4020    23.4390     2.4410   -14.4510 
  141.6250    43.9670    21.1180    17.4750    15.4250    23.2520     2.4600   -14.4320 
  141.7500    41.8910    20.8620    17.4420    15.6160    23.3140     2.4690   -14.3700 
  141.8750    42.3220    20.1280    16.9860    13.8500    23.5900     2.4650   -14.2810 
  142.0000    45.6860    19.3250    16.3790    12.2550    23.6580     2.4570   -14.1450 
  142.1250    49.1670    18.7280    15.8380    11.8350    23.5100     2.4500   -14.0010 
  142.2500    49.7100    18.4790    15.5130    12.7300    23.2970     2.4450   -13.8350 
  142.3750    47.5010    18.5980    15.4960    13.7130    23.2350     2.4410   -13.6560 
  142.5000    45.9840    18.8260    15.6480    13.6290    23.3330     2.4400   -13.4760 
  142.6250    46.9580    18.9270    15.7830    13.2040    23.5410     2.4400   -13.3110 
  142.7500    50.7530    18.7450    15.7340    13.2420    23.8400     2.4410   -13.1600 
  142.8750    54.1750    18.2810    15.4350    13.8770    24.1770     2.4390   -13.0400 
  143.0000    53.9410    17.7830    15.0600    13.7070    24.4940     2.4340   -12.9810 
  143.1250    50.3570    17.4610    14.7770    12.8370    24.6740     2.4300   -12.9450 
  143.2500    47.3020    17.4480    14.7120    12.4740    24.6630     2.4310   -12.9550 
  143.3750    47.2200    17.8030    14.9340    13.3720    24.6080     2.4360   -13.0120 
  143.5000    47.0630    18.3460    15.3260    14.0380    24.5890     2.4400   -13.1060 
  143.6250    46.3020    18.8990    15.7610    14.2860    24.6000     2.4410   -13.2130 
  143.7500    45.1380    19.2980    16.1110    14.0730    24.5700     2.4450   -13.3420 
  143.8750    45.0780    19.4120    16.2540    13.8370    24.4840     2.4580   -13.4780 
  144.0000    46.5930    19.3350    16.2240    13.5680    24.3630     2.4790   -13.5930 
  144.1250    47.5060    19.1850    16.1020    13.5420    24.3060     2.5000   -13.6940 
  144.2500    46.5780    19.0620    15.9710    13.7560    24.3650     2.5070   -13.7770 
  144.3750    44.9870    19.0270    15.8980    14.1170    24.4590     2.4900   -13.8390 
  144.5000    45.1230    19.0810    15.8980    14.1740    24.4490     2.4560   -13.8520 
  144.6250    47.6490    19.2210    15.9640    14.4900    24.4560     2.4130   -13.8370 
  144.7500    50.6190    19.4420    16.0790    14.4430    24.4090     2.3740   -13.7860 
  144.8750    50.5740    19.7650    16.2530    13.8860    24.2460     2.3570   -13.7010 
  145.0000    47.2210    20.1930    16.5110    13.5270    24.0900     2.3670   -13.5640 
  145.1250    44.1290    20.7420    16.8870    13.6100    24.0570     2.3980   -13.4140 
  145.2500    44.1470    21.4330    17.4000    13.5490    24.0310     2.4360   -13.2450 
  145.3750    46.6180    22.2890    18.0590    13.1920    23.8490     2.4630   -13.0840 
  145.5000    48.7370    23.2400    18.8030    13.2370    23.6150     2.4760   -12.9470 
  145.6250    49.8020    24.2040    19.5750    13.1870    23.3830     2.4780   -12.8420 
  145.7500    50.6350    25.0530    20.2900    13.7770    23.1490     2.4760   -12.7650 
  145.8750    51.9560    25.5480    20.7700    15.5150    23.2480     2.4790   -12.7310 
  146.0000    51.6950    25.5810    20.9090    17.7090    23.6820     2.4860   -12.7390 
  146.1250    48.9060    25.1210    20.6690    19.0030    24.0600     2.4910   -12.7930 
  146.2500    45.5410    24.2600    20.1150    18.4760    24.2140     2.4870   -12.8770 
  146.3750    43.9140    23.2010    19.3740    16.5640    24.2500     2.4750   -12.9880 
  146.5000    44.0620    22.2580    18.6560    15.7170    24.2770     2.4630   -13.1260 
  146.6250    44.8440    21.6100    18.0940    16.0100    24.2870     2.4570   -13.2680 
  146.7500    46.2150    21.3100    17.7560    16.6920    24.2430     2.4590   -13.4230 
  146.8750    48.3670    21.3270    17.6770    17.0210    24.2060     2.4660   -13.5650 
  147.0000    50.8840    21.4730    17.7480    16.5360    24.1830     2.4730   -13.7110 
  147.1250    52.6390    21.6340    17.8720    16.3230    24.1610     2.4760   -13.8250 
  147.2500    52.2780    21.7470    17.9680    16.3480    24.1580     2.4730   -13.9070 
  147.3750    51.3500    21.8090    18.0010    16.4210    24.1800     2.4680   -13.9190 
  147.5000    50.5130    21.8610    18.0100    16.1140    24.1940     2.4640   -13.8540 
  147.6250    48.9440    21.9230    18.0350    15.9510    24.1770     2.4630   -13.7290 
  147.7500    47.3520    22.0160    18.0990    16.1260    24.0920     2.4630   -13.5800 
  147.8750    47.9460    22.1730    18.2290    16.1550    23.9560     2.4650   -13.3870 
  148.0000    49.9030    22.4130    18.4320    16.2430    23.8860     2.4700   -13.1690 
  148.1250    49.9170    22.7370    18.7180    16.4880    23.8140     2.4770   -12.9340 
  148.2500    47.2920    23.1270    19.0790    16.4370    23.7420     2.4860   -12.6980 
  148.3750    44.5510    23.4930    19.4580    16.0330    23.7290     2.4940   -12.5000 
  148.5000    44.1960    23.6750    19.7170    16.2630    23.7600     2.4970   -12.3360 
  148.6250    46.6300    23.5190    19.7110    16.9260    23.7850     2.4940   -12.2080 
  148.7500    50.5380    22.9440    19.3510    16.7170    23.7930     2.4860   -12.1020 
  148.8750    53.3280    21.9720    18.6330    15.3360    23.7860     2.4730   -12.0580 
  149.0000    53.1170    20.8600    17.7580    13.9710    23.7580     2.4610   -12.0510 
  149.1250    50.5990    19.7910    16.8740    13.1440    23.7060     2.4510   -12.0850 
  149.2500    47.1790    18.8740    16.0740    12.7960    23.6220     2.4430   -12.1530 
  149.3750    45.1550    18.1140    15.3840    12.3030    23.4980     2.4370   -12.2530 
  149.5000    45.6300    17.4020    14.7390    11.6640    23.4100     2.4310   -12.3770 
  149.6250    46.9510    16.7070    14.1240    11.0510    23.3640     2.4270   -12.5060 
  149.7500    47.2640    16.0800    13.5800    10.5300    23.3590     2.4260   -12.6250 
  149.8750    46.0070    15.6620    13.2120     9.9990    23.3720     2.4300   -12.7170 
  150.0000    44.9550    15.5180    13.0590     9.6310    23.3850     2.4370   -12.7820 
  150.1250    44.7620    15.6720    13.1350     9.9260    23.4050     2.4430   -12.8060 
  150.2500    44.4540    16.0640    13.4030    10.7270    23.4600     2.4500   -12.7990 
  150.3750    43.1740    16.5680    13.7810    11.3990    23.4990     2.4550   -12.7400 
  150.5000    40.8660    17.0390    14.1560    11.5700    23.5240     2.4630   -12.6590 
  150.6250    41.5510    17.4180    14.4770    11.7510    23.5340     2.4740   -12.5470 
  150.7500    46.7870    17.6910    14.7250    12.3040    23.5460     2.4870   -12.4220 
  150.8750    50.8780    17.8640    14.8890    12.9810    23.5570     2.4950   -12.2570 
  151.0000    49.8690    17.9790    14.9990    13.4610    23.6200     2.4930   -12.0850 
  151.1250    46.3720    18.0460    15.0590    13.9710    23.6800     2.4840   -11.9080 
  151.2500    43.6700    18.0500    15.0560    14.1100    23.6470     2.4710   -11.7470 
  151.3750    41.9450    17.9450    14.9550    13.6460    23.4760     2.4600   -11.6230 
  151.5000    42.2590    17.7290    14.7600    13.4160    23.3330     2.4510   -11.5230 
  151.6250    44.2550    17.3940    14.4710    13.9950    23.3230     2.4410   -11.4680 
  151.7500    44.7740    16.9590    14.1000    14.2760    23.4200     2.4280   -11.4510 
  151.8750    43.1110    16.4860    13.6810    13.1900    23.4900     2.4170   -11.5180 
  152.0000    42.9300    16.0600    13.2810    12.3180    23.4630     2.4120   -11.6140 
  152.1250    44.9970    15.7360    12.9560    11.9850    23.3920     2.4140   -11.7730 
