~V
VERS. 2.00: Ver 2.00
~W
STRT.M 50.0000:
STOP.M 265.0000:
STEP.M 0.1250:
NULL. -999.2500:
UWI. F10671:
~C
DEPT.M :
GR.API :
RML.OHMM :
RI. :
RXO.OHMM :
CALI.CM :
DEN.GM/CC :
SP.MV :
~A
# ...
  173.7500    55.1160    18.6350    16.6650    19.2130    24.4380     2.5140    -5.7340 
  173.8750    56.7710    18.1760    16.5220    18.7130    24.4560     2.5100    -5.8590 
  174.0000    57.0960    17.0980    15.7660    17.7130    24.4740     2.5030    -5.9560 
  174.1250    54.6750    15.7460    14.6450    15.7940    24.4970     2.4980    -6.0030 
  174.2500    52.4260    14.5790    13.5830    13.4650    24.5070     2.4960    -6.0800 
  174.3750    53.2780    13.8300    12.8170    11.8930    24.5090     2.4970    -6.1530 
  174.5000    56.8320    13.5550    12.4410    11.5950    24.5090     2.4990    -6.1920 
  174.6250    59.9230    13.6800    12.4540    12.0290    24.5090     2.5030    -6.2790 
  174.7500    61.2730    13.9120    12.6340    12.4800    24.5090     2.5060    -6.3690 
  174.8750    60.9800    14.0430    12.8040    12.7750    24.5090     2.5090    -6.3940 
  175.0000    59.6920    13.9400    12.8200    12.7290    24.5090     2.5120    -6.4470 
  175.1250    57.2410    13.5670    12.5990    12.1720    24.5090     2.5170    -6.5720 
  175.2500    56.5430    13.1050    12.2540    11.6250    24.5090     2.5220    -6.6450 
  175.3750    58.2390    12.7400    11.9260    11.3180    24.5090     2.5250    -6.7220 
  175.5000    59.5960    12.6440    11.7660    11.2390    24.5090     2.5240    -6.8670 
  175.6250    58.8360    12.9810    11.9280    11.5770    24.5090     2.5160    -7.0500 
  175.7500    57.1520    13.6510    12.3690    12.0470    24.5110     2.5030    -7.2320 
  175.8750    56.4570    14.4950    12.9930    13.0030    24.5110     2.4890    -7.5020 
  176.0000    57.0340    15.2950    13.6370    14.3720    24.5130     2.4780    -7.8360 
  176.1250    57.1100    15.8270    14.1100    15.4810    24.5070     2.4720    -8.2400 
  176.2500    56.9890    16.1680    14.4100    15.8550    24.4780     2.4650    -8.8090 
  176.3750    57.7180    16.6140    14.7170    15.5760    24.4210     2.4530    -9.5100 
  176.5000    59.5480    17.6430    15.3820    15.5130    24.3550     2.4290   -10.2820 
  176.6250    59.8170    20.0230    17.0480    17.6930    24.3080     2.3910   -11.1990 
  176.7500    57.3700    23.9320    20.0050    22.4910    24.2820     2.3500   -12.2400 
  176.8750    54.5810    29.3340    24.3890    30.3340    24.3080     2.3150   -13.2870 
  177.0000    53.7940    35.7780    29.9830    40.4880    24.4010     2.2900   -14.3520 
  177.1250    54.7330    42.3050    36.0990    50.0770    24.5630     2.2750   -15.4160 
  177.2500    53.8330    47.8050    41.6130    56.3580    24.7280     2.2630   -16.3890 
  177.3750    52.0560    51.6320    45.7670    60.6270    24.8190     2.2530   -17.3260 
  177.5000    52.5570    53.6870    48.2830    65.7380    24.7450     2.2450   -18.2500 
  177.6250    56.0230    54.1730    49.1960    69.4050    24.4650     2.2410   -18.9840 
  177.7500    58.4680    53.8570    49.2000    70.2220    24.1430     2.2400   -19.6170 
  177.8750    58.3120    53.1130    48.6460    67.2920    23.9590     2.2400   -20.2360 
  178.0000    56.6250    52.2600    47.8460    63.5430    23.8750     2.2370   -20.7570 
  178.1250    56.4260    51.6410    47.1380    61.1990    23.8600     2.2300   -21.2280 
  178.2500    58.1660    51.3650    46.7100    60.2010    23.8680     2.2210   -21.6930 
  178.3750    59.2520    51.3630    46.5620    60.0210    23.8700     2.2120   -22.0710 
  178.5000    57.8270    51.4390    46.5650    60.8220    23.8400     2.2080   -22.3430 
  178.6250    57.0200    51.3160    46.4990    62.2990    23.7670     2.2130   -22.6510 
  178.7500    58.0290    50.8630    46.2110    61.8110    23.6700     2.2220   -22.9340 
  178.8750    57.7900    50.0800    45.6670    58.6830    23.6010     2.2320   -23.1950 
  179.0000    54.7600    49.0630    44.9240    55.9500    23.5850     2.2390   -23.4460 
  179.1250    53.0380    47.9190    44.0700    56.5670    23.6280     2.2410   -23.6880 
  179.2500    53.8850    46.7250    43.1830    58.9380    23.6650     2.2390   -23.8850 
  179.3750    55.2640    45.4480    42.2470    59.3270    23.6680     2.2380   -24.0860 
  179.5000    55.9430    43.9980    41.1830    58.4830    23.6480     2.2360   -24.3300 
  179.6250    56.4020    42.1770    39.7940    57.5430    23.6400     2.2340   -24.4820 
  179.7500    56.2950    39.8810    37.9440    55.1550    23.6390     2.2300   -24.6490 
  179.8750    55.6000    36.9930    35.4830    51.7160    23.6290     2.2240   -24.7660 
  180.0000    56.9800    33.4740    32.3420    47.6530    23.5990     2.2200   -24.8100 
  180.1250    60.2290    29.4100    28.5590    42.6480    23.5560     2.2270   -24.7980 
  180.2500    62.4360    25.2460    24.5840    36.5100    23.4810     2.2430   -24.7640 
  180.3750    63.0650    21.3740    20.8160    29.2300    23.4120     2.2610   -24.6520 
  180.5000    65.4890    18.1080    17.5810    22.0250    23.5540     2.2710   -24.5160 
  180.6250    69.6660    15.7560    15.1860    17.0190    23.8810     2.2640   -24.4160 
  180.7500    71.0430    14.1790    13.5190    14.4600    24.0940     2.2440   -24.2530 
  180.8750    68.9230    13.2600    12.4890    13.5250    24.1450     2.2210   -24.0980 
  181.0000    67.1660    12.8450    11.9660    13.2510    24.1360     2.2040   -23.9650 
  181.1250    69.4030    12.8110    11.8500    13.2410    24.1450     2.2040   -23.6910 
  181.2500    71.4060    12.9580    11.9390    13.5320    24.1570     2.2200   -23.3080 
  181.3750    71.6670    13.1960    12.1340    13.9360    24.1590     2.2500   -22.9290 
  181.5000    72.4790    13.4600    12.3580    14.3740    24.1530     2.2890   -22.5230 
  181.6250    79.1360    13.6820    12.5430    14.8450    24.1410     2.3270   -22.0560 
  181.7500    86.2860    13.8160    12.6530    15.1280    24.1230     2.3540   -21.6250 
  181.8750    87.2170    13.8360    12.6690    15.1180    24.1100     2.3650   -21.3000 
  182.0000    82.6420    13.7440    12.5930    14.7420    24.1100     2.3600   -21.0630 
  182.1250    78.9110    13.5710    12.4390    14.3020    24.1280     2.3440   -20.9830 
  182.2500    79.1670    13.3980    12.2650    13.8820    24.1180     2.3230   -21.0960 
  182.3750    79.3030    13.3040    12.1370    13.6230    24.0810     2.2980   -21.2450 
  182.5000    75.8980    13.3600    12.1210    13.5800    24.0350     2.2720   -21.3600 
  182.6250    69.6560    13.6280    12.2820    13.7870    24.0230     2.2530   -21.4520 
  182.7500    64.8390    14.0330    12.5710    14.3850    24.0570     2.2480   -21.3870 
  182.8750    64.2950    14.4650    12.9000    15.5720    24.1170     2.2610   -21.1350 
  183.0000    67.2250    14.7890    13.1590    17.1600    24.1780     2.2870   -20.8100 
  183.1250    73.2550    14.8430    13.2140    18.1210    24.2180     2.3180   -20.3710 
  183.2500    78.8280    14.6520    13.0740    17.4930    24.2470     2.3440   -19.8450 
  183.3750    82.9330    14.3050    12.8050    15.7800    24.2990     2.3630   -19.3820 
  183.5000    86.6490    13.9400    12.5160    14.8140    24.3520     2.3760   -18.9890 
  183.6250    90.9890    13.7020    12.3250    14.6350    24.3740     2.3860   -18.6530 
  183.7500    93.1920    13.6190    12.2580    14.5750    24.3760     2.3950   -18.4940 
  183.8750    91.3260    13.6650    12.2970    14.4930    24.3800     2.4020   -18.4770 
  184.0000    88.4960    13.7910    12.3970    14.5440    24.3910     2.4030   -18.4870 
  184.1250    87.8780    13.9480    12.5090    14.7170    24.3990     2.4020   -18.6270 
  184.2500    88.7410    14.0880    12.5980    14.8850    24.4000     2.4000   -18.8160 
  184.3750    88.2300    14.1740    12.6410    15.0460    24.3960     2.3990   -18.9640 
  184.5000    83.9000    14.1600    12.6150    15.1440    24.3810     2.3990   -19.0720 
  184.6250    76.1100    13.9960    12.4900    15.0770    24.3790     2.3940   -19.2710 
  184.7500    71.1960    13.7580    12.3080    15.0030    24.3940     2.3830   -19.4500 
  184.8750    72.8850    13.6130    12.1740    15.0970    24.4220     2.3660   -19.5680 
