~V
VERS. 2.00: Ver 2.00
~W
STRT.M 59.0000:
STOP.M 270.0000:
STEP.M 0.1250:
NULL. -999.2500:
UWI. F10667:
~C
DEPT.M :
GR.API :
RML.OHMM :
RI. :
RXO.OHMM :
CALI.CM :
DEN.GM/CC :
SP.MV :
~A
# ...
  115.2500    87.6370     6.7230     5.8910     6.3550    23.8770     2.3840   -12.2710 
  115.3750    88.4100     6.9660     6.0870     6.7060    23.8110     2.3900   -12.3090 
  115.5000    92.9810     7.0420     6.2340     6.5710    23.8400     2.3910   -12.3170 
  115.6250    95.1140     6.9090     6.2290     6.1430    23.9170     2.3820   -12.3020 
  115.7500    95.1930     6.7050     6.1030     5.6560    23.9600     2.3700   -12.3230 
  115.8750    96.3780     6.5320     5.9260     5.3880    23.9990     2.3580   -12.3350 
  116.0000    97.6850     6.4180     5.7630     5.2530    24.0490     2.3510   -12.3110 
  116.1250    96.0980     6.3160     5.6390     5.3610    24.1160     2.3500   -12.2770 
  116.2500    93.9940     6.1690     5.5220     5.4820    24.1550     2.3510   -12.2650 
  116.3750    94.9130     5.9840     5.3970     5.4830    24.1680     2.3510   -12.2530 
  116.5000    97.4710     5.8220     5.2800     5.3850    24.1720     2.3500   -12.2560 
  116.6250    96.3590     5.7800     5.2210     5.2630    24.1640     2.3530   -12.2700 
  116.7500    91.6660     5.8740     5.2440     5.2850    24.1380     2.3620   -12.2830 
  116.8750    88.2280     6.0930     5.3590     5.5270    24.1060     2.3750   -12.3060 
  117.0000    88.3250     6.3960     5.5640     6.0210    24.0770     2.3900   -12.3350 
  117.1250    89.9370     6.7340     5.8350     6.3000    24.0570     2.3990   -12.4110 
  117.2500    90.3060     7.0330     6.0950     6.7170    24.0060     2.3990   -12.5180 
  117.3750    90.5520     7.2090     6.2600     7.6060    23.9110     2.3860   -12.5980 
  117.5000    92.1040     7.1760     6.2560     8.4190    23.8240     2.3660   -12.6340 
  117.6250    92.0140     6.8680     6.0400     6.6630    23.8600     2.3480   -12.6880 
  117.7500    89.9650     6.4020     5.7170     5.6130    23.9670     2.3420   -12.7200 
  117.8750    89.9150     5.9050     5.3790     5.2320    24.0330     2.3480   -12.7200 
  118.0000    94.2890     5.5100     5.0980     5.0530    24.0390     2.3580   -12.7500 
  118.1250   100.8360     5.3550     4.9290     4.8790    24.0230     2.3570   -12.7620 
  118.2500   105.2460     5.4180     4.8670     4.8710    24.0160     2.3410   -12.7290 
  118.3750   107.4530     5.6280     4.9040     4.8940    24.0060     2.3140   -12.7230 
  118.5000   107.2730     5.8760     5.0230     4.9980    23.9980     2.2860   -12.7810 
  118.6250   105.2130     6.0450     5.1860     5.3480    23.9940     2.2640   -12.8480 
  118.7500   104.0970     6.1060     5.3250     5.6110    23.9950     2.2480   -12.8810 
  118.8750   101.0800     6.0970     5.4000     5.6300    23.9960     2.2370   -12.9420 
  119.0000    94.9950     6.0880     5.4060     5.3620    23.9960     2.2340   -12.9880 
  119.1250    90.8420     6.1350     5.3860     5.4550    23.9960     2.2500   -13.0140 
  119.2500    90.4530     6.2250     5.4040     5.5770    23.9990     2.2840   -13.0920 
  119.3750    92.5450     6.3270     5.4880     5.9980    24.0010     2.3270   -13.1650 
  119.5000    96.4810     6.4160     5.6220     6.3250    23.9890     2.3660   -13.1960 
  119.6250   101.4700     6.4800     5.7440     7.0440    23.9140     2.3810   -13.2130 
  119.7500   102.1130     6.5380     5.7970     6.4670    23.8220     2.3710   -13.2780 
  119.8750    97.4480     6.6030     5.7710     6.1870    23.7730     2.3470   -13.3580 
  120.0000    94.2620     6.6710     5.7050     6.7180    23.8040     2.3210   -13.4400 
  120.1250    96.7780     6.7080     5.6620     7.5800    23.9170     2.3060   -13.5130 
  120.2500    99.7490     6.6940     5.6750     7.0250    24.0120     2.3030   -13.5710 
  120.3750   100.4950     6.6390     5.7450     6.2400    24.0480     2.3070   -13.6060 
  120.5000    99.1020     6.5890     5.8490     5.9330    24.0510     2.3140   -13.6290 
  120.6250    97.7830     6.6200     5.9590     5.9910    24.0510     2.3190   -13.6840 
  120.7500    96.6060     6.7450     6.0460     6.1370    24.0510     2.3240   -13.7420 
  120.8750    95.6340     6.9260     6.0880     6.5440    24.0530     2.3280   -13.7680 
  121.0000    95.3630     7.0770     6.0640     7.0650    24.0570     2.3320   -13.7630 
  121.1250    95.2460     7.0710     5.9500     7.3330    24.0590     2.3340   -13.8030 
  121.2500    95.7630     6.8860     5.7770     6.4210    24.0580     2.3350   -13.8430 
  121.3750    97.9370     6.5600     5.5800     5.9390    24.0450     2.3340   -13.8960 
  121.5000   100.8700     6.1750     5.4010     5.7650    24.0080     2.3330   -14.0010 
  121.6250   100.8160     5.8770     5.3050     5.7980    23.9620     2.3290   -14.1170 
  121.7500    96.6090     5.8050     5.3440     5.8500    23.9360     2.3240   -14.2000 
  121.8750    91.0200     6.0750     5.5760     5.9600    23.9200     2.3240   -14.2910 
  122.0000    87.2480     6.7330     6.0350     6.1390    23.9210     2.3350   -14.4350 
  122.1250    85.0730     7.7150     6.7010     6.7620    23.9590     2.3510   -14.6070 
  122.2500    83.3440     8.6550     7.3780     9.0950    24.0170     2.3580   -14.7610 
  122.3750    85.0170     9.1540     7.8340    14.5640    24.0460     2.3490   -14.9110 
  122.5000    91.0350     8.9310     7.8710    18.1630    24.0510     2.3270   -15.0700 
  122.6250    97.0010     7.9880     7.3980    12.3950    24.0510     2.3100   -15.2190 
  122.7500    99.1560     6.8770     6.6870     7.3890    24.0510     2.3100   -15.3590 
  122.8750    99.6440     5.9810     5.9680     5.6550    24.0510     2.3260   -15.5230 
  123.0000   100.4630     5.4960     5.4010     5.2720    24.0350     2.3480   -15.7170 
  123.1250   100.3180     5.4760     5.0860     5.0960    23.9850     2.3610   -15.8940 
  123.2500    98.6960     5.7020     4.9640     5.1160    23.9280     2.3620   -16.1010 
  123.3750    95.8770     6.0000     4.9850     5.3580    23.9050     2.3530   -16.3730 
  123.5000    93.0030     6.2520     5.1140     5.8240    23.9150     2.3360   -16.6500 
  123.6250    90.6810     6.4840     5.3860     6.1920    23.9580     2.3200   -16.9540 
  123.7500    87.0510     6.8790     5.8590     6.2620    24.0160     2.3160   -17.3800 
  123.8750    80.9860     7.6300     6.6210     6.4730    24.0520     2.3340   -17.8600 
  124.0000    73.4070     8.8520     7.7190     7.4890    24.0590     2.3740   -18.3290 
  124.1250    66.7190    10.4740     9.0860    10.5300    24.0300     2.4130   -18.8540 
  124.2500    63.0770    11.9510    10.3490    14.7880    24.0130     2.4230   -19.4370 
  124.3750    63.8610    12.7110    11.0990    14.9150    24.0080     2.3940   -19.9830 
  124.5000    67.6280    12.4410    11.0730    11.4270    24.0100     2.3350   -20.4830 
  124.6250    72.1220    11.2930    10.2820     9.7310    24.0190     2.2730   -20.9840 
  124.7500    74.0060    10.0090     9.2550     8.9330    24.0380     2.2250   -21.4080 
  124.8750    72.4620     9.0250     8.3530     8.1440    24.0630     2.1910   -21.7770 
  125.0000    70.1710     8.5290     7.7830     7.8760    24.0910     2.1660   -22.1560 
  125.1250    70.2500     8.5710     7.6420     8.2790    24.1270     2.1500   -22.4640 
  125.2500    70.2540     8.9010     7.7800     8.8850    24.1550     2.1480   -22.6590 
  125.3750    67.8140     9.3130     8.0660     9.3180    24.1680     2.1610   -22.7950 
  125.5000    65.0540     9.6090     8.3690     9.5990    24.1650     2.1830   -22.9060 
  125.6250    65.5440     9.6300     8.5690     9.9400    24.1160     2.1970   -22.9280 
  125.7500    67.5970     9.4430     8.6460    10.1090    24.0790     2.1950   -22.8450 
  125.8750    68.8300     9.1750     8.6250     9.8760    24.0630     2.1780   -22.6490 
  126.0000    68.6150     8.9740     8.5590     9.5630    24.0560     2.1560   -22.3330 
  126.1250    68.4660     8.9650     8.5050     9.3910    24.0310     2.1390   -21.8810 
  126.2500    69.0790     9.0910     8.4800     9.3170    23.9870     2.1300   -21.3410 
  126.3750    69.5750     9.2170     8.4540     9.2680    23.9470     2.1280   -20.7370 
