~V
VERS. 2.00: Ver 2.00
~W
STRT.M 50.0000:
STOP.M 217.0000:
STEP.M 0.1250:
NULL. -999.2500:
UWI. F10606:
~C
DEPT.M :
DEN.GM/CC :
GR.API :
RML.OHMM :
RI. :
RXO.OHMM :
CALI.CM :
SP.MV :
~A
# ...
  207.5000     2.3470    45.9460     5.8490     5.3430     6.6420    24.3430   -19.2930 
  207.6250     2.3790    45.9460     5.7530     5.2400     6.5440    24.2700   -18.9410 
  207.7500     2.4050    45.9460     5.7550     5.2080     6.6420    24.1840   -18.5490 
  207.8750     2.4170    45.9460     5.8020     5.2130     6.8140    24.0640   -18.1930 
  208.0000     2.4140    45.9460     5.8390     5.2160     6.7620    23.9180   -17.9320 
  208.1250     2.4010    45.9460     5.8120     5.1760     6.4460    23.7870   -17.7350 
  208.2500     2.3840    45.9460     5.7190     5.0860     6.0780    23.7160   -17.5570 
  208.3750     2.3650    45.9460     5.5830     4.9620     5.7520    23.7100   -17.4290 
  208.5000     2.3500    45.9460     5.4450     4.8310     5.5140    23.6810   -17.3520 
  208.6250     2.3470    45.9460     5.3580     4.7350     5.3940    23.5770   -17.3800 
  208.7500     2.3540    45.9460     5.3460     4.6920     5.4120    23.5220   -17.5320 
  208.8750     2.3660    45.9460     5.4160     4.7160     5.5730    23.5890   -17.8040 
  209.0000     2.3760    45.9460     5.5560     4.8030     5.8980    23.7990   -18.1150 
  209.1250     2.3790    45.9460     5.7350     4.9370     6.2890    24.0060   -18.3930 
  209.2500     2.3760    45.9460     5.9100     5.0760     6.6180    24.1560   -18.6430 
  209.3750     2.3730    45.9460     6.0540     5.1900     6.7910    24.1960   -18.8570 
  209.5000     2.3750    45.9460     6.1510     5.2600     6.9290    24.1680   -19.0370 
  209.6250     2.3840    45.9460     6.2010     5.2780     6.9800    24.1170   -19.1650 
  209.7500     2.3970    45.9460     6.2300     5.2730     7.0110    24.0540   -19.2440 
  209.8750     2.4110    45.9460     6.2520     5.2630     6.9760    24.0070   -19.2820 
  210.0000     2.4210    45.9460     6.2730     5.2540     6.9190    23.9600   -19.3110 
  210.1250     2.4210    45.9460     6.2900     5.2500     6.9550    23.9410   -19.3680 
  210.2500     2.4120    45.9460     6.2960     5.2480     7.3170    23.9410   -19.3940 
  210.3750     2.4000    45.9460     6.2830     5.2450     7.7890    23.9590   -19.4020 
  210.5000     2.3940    45.9460     6.2400     5.2460     7.8800    23.9650   -19.4030 
  210.6250     2.4000    45.9460     6.1600     5.2520     7.8890    23.9980   -19.3800 
  210.7500     2.4120    45.9460     6.0770     5.2590     8.1500    24.0100   -19.3510 
  210.8750     2.4210    45.9460     6.0310     5.2610     8.8270    23.9320   -19.3040 
  211.0000     2.4180    45.9460     6.0530     5.2560     9.7020    23.7740   -19.2440 
  211.1250     2.4050    45.9460     6.1430     5.2470     9.1800    23.6130   -19.1850 
  211.2500     2.3890    45.9460     6.2490     5.2390     8.0120    23.5740   -19.1680 
  211.3750     2.3740    45.9460     6.3290     5.2360     7.2110    23.5970   -19.1420 
  211.5000     2.3600    45.9460     6.3650     5.2370     6.9750    23.6260   -19.1220 
  211.6250     2.3450    45.9460     6.3600     5.2370     6.7040    23.5280   -19.0930 
  211.7500     2.3320    45.9460     6.3290     5.2340     6.1710    23.2390   -19.0520 
  211.8750     2.3280    45.9460     6.2830     5.2290     5.9160    22.8650   -19.0340 
  212.0000     2.3350    45.9460     6.2410     5.2240     6.2480    22.6360   -18.9880 
  212.1250     2.3550    45.9460     6.2270     5.2230     6.0430    22.6660   -18.9360 
  212.2500     2.3740    45.9460     6.2270     5.2230     5.8900    22.8790   -18.8900 
  212.3750     2.3810    45.9460     6.2270     5.2230     5.8170    23.1580   -18.8580 
  212.5000     2.3710    45.9460     6.2270     5.2230     5.7380    23.3140   -18.8290 
  212.6250     2.3500    45.9460     6.2270     5.2230     5.5760    23.2560   -18.8020 
  212.7500     2.3310    45.9460     6.2270     5.2230     5.3680    23.1500   -18.7840 
  212.8750     2.3240    45.9460     6.2270     5.2230     5.1950    23.0820   -18.7610 
  213.0000     2.3280    45.9460     6.2270     5.2230     5.1160    23.0370   -18.7740 
  213.1250     2.3300    45.9460     6.2270     5.2230     5.1190    22.9930   -18.8140 
  213.2500     2.3230    45.9460     6.2270     5.2230     5.0490    22.9250   -18.8230 
  213.3750     2.3070    45.9460     6.2270     5.2230     4.9030    22.8260   -18.8720 
  213.5000     2.2890    45.9460     6.2270     5.2230     4.7960    22.7650   -18.9160 
  213.6250     2.2770    45.9460     6.2270     5.2230     4.8260    22.6950   -19.0120 
  213.7500     2.2690    45.9460     6.2270     5.2230     4.9260    22.5920   -19.0490 
  213.8750     2.2650    45.9460     6.2270     5.2230     5.0510    22.4730   -19.0250 
  214.0000     2.2570    45.9460     6.2270     5.2230     5.1560    22.3920   -18.9940 
  214.1250     2.2410    45.9460     6.2270     5.2230     5.2430    22.2990   -18.9300 
  214.2500     2.2190    45.9460     6.2270     5.2230     5.3230    22.2410   -18.8660 
  214.3750     2.1940    45.9460     6.2270     5.2230     5.3410    22.1620   -18.7930 
  214.5000     2.1730    45.9460     6.2270     5.2230     5.2850    21.9570   -18.7100 
  214.6250     2.1570    45.9460     6.2270     5.2230     5.1750    21.0220   -18.6460 
  214.7500     2.1480    45.9460     6.2270     5.2230     5.2520    19.0830   -18.6460 
  214.8750     2.1400    45.9460     6.2270     5.2230     5.8350    16.4660   -18.6460 
  215.0000     2.1330    45.9460     6.2270     5.2230     6.8050    14.3730  -999.2500 
  215.1250     2.1240    45.9460     6.2270     5.2230     7.2940    13.7050  -999.2500 
  215.2500     2.1170    45.9460     6.2270     5.2230     7.4180    13.5730  -999.2500 
  215.3750     2.1130    45.9460     6.2270     5.2230     7.4160    13.5540  -999.2500 
  215.5000     2.1130    45.9460     6.2270     5.2230     7.4130    13.5180  -999.2500 
  215.6250     2.1150    45.9460     6.2270     5.2230     7.4130    13.4900  -999.2500 
  215.7500     2.1170    45.9460     6.2270     5.2230     7.4140    13.4760  -999.2500 
  215.8750     2.1180    45.9460     6.2270     5.2230     7.4140    13.4660  -999.2500 
  216.0000     2.1180    45.9460     6.2270     5.2230     7.4150    13.4580  -999.2500 
  216.1250     2.1180    45.9460     6.2270     5.2230     7.4140    13.4370  -999.2500 
  216.2500     2.1190    45.9460     6.2270     5.2230     7.4110    13.4360  -999.2500 
  216.3750  -999.2500    45.9460     6.2270     5.2230     7.4060    13.4520  -999.2500 
  216.5000  -999.2500    45.9460     6.2270     5.2230     7.3960    13.4500  -999.2500 
  216.6250  -999.2500    45.9460     6.2270     5.2230     7.3800    13.4310  -999.2500 
  216.7500  -999.2500    45.9460     6.2270     5.2230     7.3720    13.4070  -999.2500 
  216.8750  -999.2500    45.9460     6.2270     5.2230     7.3700    13.3830  -999.2500 
  217.0000  -999.2500    45.9460     6.2270     5.2230     7.3680    13.3810  -999.2500 
