~V
VERS. 2.00: Ver 2.00
~W
STRT.M 57.0000:
STOP.M 248.0000:
STEP.M 0.1250:
NULL. -999.2500:
UWI. F10637:
~C
DEPT.M :
SP.MV :
GR.API :
RML.OHMM :
RI. :
RXO.OHMM :
CALI.CM :
DEN.GM/CC :
~A
# ...
  113.2500   -20.0410    63.6490     8.7250     6.4990     9.2520    23.8330     2.2320 
  113.3750   -20.1920    68.8980     8.6310     6.3230     9.0430    24.0270     2.2180 
  113.5000   -20.3510    70.4090     8.8890     6.3980     8.8150    24.2290     2.1950 
  113.6250   -20.5380    66.9820     9.5480     6.7680     8.5660    24.4270     2.1700 
  113.7500   -20.7500    62.5940    10.7330     7.5410     8.3270    24.5410     2.1540 
  113.8750   -20.9620    57.8380    12.3280     8.6650     8.3440    24.5650     2.1700 
  114.0000   -21.1550    51.3280    14.1040    10.0330     8.9350    24.4280     2.2440 
  114.1250   -21.3180    46.4650    15.6150    11.3710    10.0370    24.2560     2.3690 
  114.2500   -21.4310    46.7960    16.0780    12.1110    11.0690    24.3880     2.4650 
  114.3750   -21.4980    48.9010    15.3470    11.9930    11.6300    24.7030     2.4630 
  114.5000   -21.5110    49.7840    13.7740    11.1310    11.8300    24.8690     2.3780 
  114.6250   -21.4530    50.0200    12.0350     9.9460    11.9090    24.8950     2.2690 
  114.7500   -21.3130    50.4880    10.7940     8.9300    11.7440    24.7640     2.1930 
  114.8750   -21.1130    51.7400    10.1610     8.3160    11.1900    24.5920     2.1610 
  115.0000   -20.8590    53.2650    10.0290     7.8910    10.3340    24.4060     2.1570 
  115.1250   -20.5520    54.0350    10.1540     7.8180     9.4890    24.2400     2.1600 
  115.2500   -20.1680    54.1300    10.1400     7.5370     8.8560    24.1650     2.1550 
  115.3750   -19.7100    55.4890     9.7020     7.1850     8.3120    24.1540     2.1510 
  115.5000   -19.1780    58.7850     8.8020     6.6070     7.8060    24.1970     2.1630 
  115.6250   -18.5880    64.2640     7.6440     5.8470     7.3550    24.3290     2.1950 
  115.7500   -17.9540    74.2770     6.5740     5.2680     6.9400    24.4910     2.2410 
  115.8750   -17.3070    86.4430     5.7860     4.7680     6.5550    24.7450     2.2850 
  116.0000   -16.6750    93.9060     5.2980     4.3680     6.2020    25.0740     2.3260 
  116.1250   -16.0930    92.3810     5.0400     4.0530     5.7880    25.2610     2.3610 
  116.2500   -15.6170    84.6310     4.9160     3.9020     5.2550    25.2630     2.3800 
  116.3750   -15.2680    80.6780     4.8240     3.8150     4.7870    25.2320     2.3730 
  116.5000   -15.0640    83.3720     4.7700     3.7680     4.5150    25.2560     2.3440 
  116.6250   -15.0120    89.6800     4.8230     3.7930     4.4070    25.2750     2.3080 
  116.7500   -15.1310    91.5070     5.1170     3.9800     4.4930    25.2450     2.2830 
  116.8750   -15.3820    87.8690     5.6690     4.3630     4.8580    25.1420     2.2700 
  117.0000   -15.7490    82.1680     6.4360     4.9360     5.4150    24.9560     2.2550 
  117.1250   -16.2070    75.4650     7.2690     5.6130     5.9070    24.5730     2.2330 
  117.2500   -16.7330    68.0460     7.8880     6.1920     6.2290    24.2890     2.2140 
  117.3750   -17.2720    63.5420     8.1730     6.5210     6.5520    24.1910     2.2090 
  117.5000   -17.7960    63.6010     8.2100     6.6080     6.9160    24.2230     2.2160 
  117.6250   -18.2800    65.7820     8.2260     6.5980     7.2730    24.2280     2.2230 
  117.7500   -18.6990    65.9550     8.4900     6.7020     7.6020    24.1320     2.2220 
  117.8750   -19.0530    64.0060     9.0460     7.0110     7.8900    24.0350     2.2200 
  118.0000   -19.3430    62.2530     9.8050     7.5070     8.1340    23.9540     2.2230 
  118.1250   -19.5750    61.2200    10.5880     8.0840     8.3510    23.7940     2.2310 
  118.2500   -19.7550    60.4150    11.1540     8.5720     8.5040    23.6740     2.2340 
  118.3750   -19.9100    60.2840    11.4350     8.8680     8.6190    23.6100     2.2280 
  118.5000   -20.0530    60.0640    11.4800     8.9660     8.7720    23.5570     2.2120 
  118.6250   -20.1940    58.3590    11.4050     8.9300     8.9580    23.4800     2.1930 
  118.7500   -20.3440    56.5690    11.3120     8.8370     9.0400    23.2860     2.1750 
  118.8750   -20.5080    57.0670    11.2340     8.7400     9.0030    23.1480     2.1650 
  119.0000   -20.6810    58.3260    11.1630     8.6440     9.0610    23.0990     2.1620 
  119.1250   -20.8520    56.7800    11.0930     8.5530     9.3780    23.1340     2.1650 
  119.2500   -20.9960    55.1450    11.0320     8.4790     9.6850    23.2000     2.1690 
  119.3750   -21.1060    55.9100    10.9920     8.4360     9.6300    23.2960     2.1670 
  119.5000   -21.1830    56.5720    10.9820     8.4350     9.2700    23.4780     2.1610 
  119.6250   -21.2310    55.8320    11.0010     8.4800     8.9490    23.7410     2.1540 
  119.7500   -21.2350    54.2460    11.0340     8.5660     8.8700    23.9940     2.1470 
  119.8750   -21.1930    54.2100    11.0520     8.6590     8.8530    24.1890     2.1430 
  120.0000   -21.1060    55.8060    11.0260     8.7300     8.8510    24.2910     2.1410 
  120.1250   -20.9780    58.0490    10.9330     8.7500     9.0070    24.2840     2.1430 
  120.2500   -20.8120    59.2100    10.7720     8.6970     9.4560    24.2170     2.1510 
  120.3750   -20.6220    59.2230    10.6070     8.6100     9.9290    24.1690     2.1640 
  120.5000   -20.4000    60.6770    10.4890     8.5310    10.1750    24.1480     2.1790 
  120.6250   -20.1360    63.9010    10.4300     8.4840    10.1930    24.0890     2.1880 
  120.7500   -19.8290    65.3040    10.3710     8.4400    10.1880    23.9840     2.1860 
  120.8750   -19.4930    64.0070    10.2040     8.3240    10.1310    23.9040     2.1780 
  121.0000   -19.1330    62.5880     9.8550     8.0710     9.8290    23.8650     2.1730 
  121.1250   -18.7570    63.0960     9.3280     7.6640     9.2280    23.7850     2.1850 
  121.2500   -18.3780    64.2260     8.7250     7.1530     8.5600    23.6040     2.2190 
  121.3750   -18.0090    65.9170     8.2010     6.6560     8.1330    23.5610     2.2600 
  121.5000   -17.6700    68.2950     7.8420     6.2500     7.9670    23.7640     2.2890 
  121.6250   -17.3800    71.0380     7.6780     5.9860     7.9060    24.0190     2.2950 
  121.7500   -17.1570    72.0650     7.7900     5.9500     7.8880    24.0140     2.2760 
  121.8750   -16.9840    71.5090     8.2920     6.2070     8.0100    23.8890     2.2470 
  122.0000   -16.8430    69.5890     9.4390     6.9090     8.5620    23.7950     2.2230 
  122.1250   -16.7130    66.3220    11.4710     8.2400     9.1000    23.7550     2.2240 
  122.2500   -16.5660    61.1870    14.4990    10.4330    10.2000    23.7700     2.2790 
  122.3750   -16.3830    55.6160    17.6700    13.0720    12.1600    23.9320     2.3820 
  122.5000   -16.1450    53.3600    19.5800    15.1940    16.6370    24.1660     2.5020 
  122.6250   -15.8340    58.4980    18.8280    15.4850    18.2520    24.2120     2.5860 
  122.7500   -15.4390    68.3480    15.3900    13.3970    16.6680    24.0960     2.5890 
  122.8750   -14.9850    76.0220    11.6790    10.6470    14.5890    24.0740     2.5390 
  123.0000   -14.4920    81.4830     8.9090     8.2980    13.3560    24.0560     2.4660 
  123.1250   -13.9850    86.7680     7.2460     6.6830    11.3920    23.9150     2.3950 
  123.2500   -13.4880    90.8960     6.4950     5.8170     9.6900    23.7730     2.3430 
  123.3750   -13.0190    91.4550     6.1750     5.3970     7.4970    23.6960     2.3150 
  123.5000   -12.5920    89.5260     6.0650     5.2500     6.3440    23.6300     2.3070 
  123.6250   -12.2200    88.3090     6.0360     5.2390     5.7450    23.5300     2.3120 
  123.7500   -11.9100    88.4530     6.0600     5.3020     5.6200    23.3850     2.3190 
  123.8750   -11.6540    89.2850     6.1620     5.4280     5.6270    23.2490     2.3210 
  124.0000   -11.4520    88.2850     6.3660     5.6360     5.6880    23.1680     2.3190 
  124.1250   -11.2970    86.6250     6.6560     5.9210     5.7750    23.1410     2.3150 
  124.2500   -11.1940    86.9150     6.9650     6.2310     5.8950    23.1380     2.3140 
  124.3750   -11.1330    87.6380     7.1900     6.4650     6.0370    23.1380     2.3170 
