~V
VERS. 2.00: Ver 2.00
~W
STRT.M 50.0000:
STOP.M 219.0000:
STEP.M 0.1250:
NULL. -999.2500:
UWI. F10688:
~C
DEPT.M :
SP.MV :
DEN.GM/CC :
GR.API :
RML.OHMM :
RI. :
RXO.OHMM :
CALI.CM :
~A
# ...
   95.0000   -16.8270     2.2890    70.3810    11.2170     8.9540    10.3890    24.0490 
   95.1250   -16.6990     2.2600    69.9350    10.7100     8.5930    10.4530    24.2640 
   95.2500   -16.5370     2.2560    69.0830    10.6910     8.5470    10.5380    24.4630 
   95.3750   -16.3480     2.3010    68.7480    11.1780     8.8680    10.6200    24.6160 
   95.5000   -16.1320     2.3850    68.9830    11.9970     9.4810    10.6950    24.7010 
   95.6250   -15.9350     2.4510    67.6220    12.7400    10.1460    10.7970    24.7100 
   95.7500   -15.7810     2.4570    64.1940    12.9790    10.5210    10.9710    24.7090 
   95.8750   -15.6170     2.4150    61.5420    12.5480    10.4130    11.2310    24.7070 
   96.0000   -15.4420     2.3580    62.9530    11.6200     9.8660    11.5460    24.7060 
   96.1250   -15.3470     2.3170    67.2270    10.5770     9.1100    11.8340    24.7050 
   96.2500   -15.3230     2.2980    69.8740     9.7140     8.4130    12.0220    24.7000 
   96.3750   -15.3630     2.2980    71.9940     9.0880     7.8700    12.0700    24.6830 
   96.5000   -15.4480     2.3120    74.9470     8.6570     7.4890    11.9650    24.6510 
   96.6250   -15.5090     2.3310    77.8870     8.3910     7.2590    11.7150    24.6030 
   96.7500   -15.4970     2.3360    79.3590     8.3020     7.1600    11.4360    24.5480 
   96.8750   -15.4890     2.3130    78.5050     8.5020     7.2580    11.2750    24.4860 
   97.0000   -15.5090     2.2640    74.4020     9.1070     7.6390    11.4080    24.4160 
   97.1250   -15.4720     2.2080    69.8100    10.2540     8.4300    12.1500    24.3470 
   97.2500   -15.3500     2.1690    68.4530    11.7990     9.5530    13.4910    24.2860 
   97.3750   -15.1410     2.1590    69.3130    13.5380    10.8810    15.2450    24.2360 
   97.5000   -14.8740     2.1750    67.6330    15.1590    12.1820    17.0480    24.1990 
   97.6250   -14.5900     2.2010    62.2180    16.2630    13.1270    18.3910    24.1620 
   97.7500   -14.2670     2.2150    58.6470    16.8790    13.6790    19.1520    24.1050 
   97.8750   -13.8200     2.2120    58.1720    17.2910    14.0090    18.8800    24.0330 
   98.0000   -13.2630     2.1940    58.6780    17.9110    14.4040    18.6860    23.9560 
   98.1250   -12.6280     2.1710    58.7510    19.2560    15.2380    19.6950    23.8750 
   98.2500   -11.9420     2.1530    57.6610    21.4420    16.6590    21.5970    23.7990 
   98.3750   -11.2140     2.1510    54.9040    24.4290    18.7180    23.0600    23.7400 
   98.5000   -10.4740     2.1670    51.8680    27.9450    21.3000    24.0410    23.7170 
   98.6250    -9.7630     2.1840    50.5930    31.4260    24.0870    27.1780    23.7690 
   98.7500    -9.1580     2.1850    51.0420    34.2140    26.5510    34.9920    23.8830 
   98.8750    -8.6910     2.1740    51.7570    35.8150    28.2530    44.8080    24.0330 
   99.0000    -8.3130     2.1680    51.1650    36.0120    28.9250    39.5930    24.1920 
   99.1250    -8.0810     2.1910    50.0180    34.8590    28.4720    34.2080    24.3390 
   99.2500    -8.0050     2.2340    50.3950    33.1530    27.4410    30.7630    24.4660 
   99.3750    -8.0520     2.2700    53.7670    31.4490    26.2560    29.3320    24.5630 
   99.5000    -8.1540     2.2770    56.9030    30.0650    25.2130    28.5900    24.6200 
   99.6250    -8.2490     2.2560    56.6040    28.9860    24.3850    28.0170    24.6370 
   99.7500    -8.3190     2.2300    56.6340    27.8560    23.5530    27.4400    24.6380 
   99.8750    -8.4260     2.2110    58.1690    26.4620    22.5520    27.3110    24.6380 
  100.0000    -8.6120     2.2000    60.9410    24.8400    21.3700    26.6570    24.6390 
  100.1250    -8.7480     2.1890    62.2590    23.3260    20.2130    24.2920    24.6380 
  100.2500    -8.7860     2.1790    60.1940    22.3030    19.3650    21.6550    24.6370 
  100.3750    -8.7420     2.1700    56.4720    22.0120    19.0340    21.0950    24.6340 
  100.5000    -8.6730     2.1640    53.9530    22.5500    19.3360    22.1590    24.6310 
  100.6250    -8.6180     2.1620    53.0090    23.9910    20.3960    23.2370    24.6290 
  100.7500    -8.5390     2.1680    51.5370    26.0060    21.9990    24.1820    24.6290 
  100.8750    -8.3770     2.1770    49.6000    28.3070    23.9360    25.4860    24.6380 
  101.0000    -8.1420     2.1830    48.9040    30.5530    25.9260    27.2060    24.6570 
  101.1250    -7.9070     2.1760    49.0600    32.3360    27.6050    28.6160    24.6870 
  101.2500    -7.6840     2.1650    49.8630    33.5450    28.8130    29.8270    24.7220 
  101.3750    -7.4750     2.1600    51.3210    34.2120    29.5270    30.4710    24.7600 
  101.5000    -7.2450     2.1670    51.5330    34.5120    29.8570    30.3430    24.7950 
  101.6250    -6.9980     2.1780    49.5410    34.6640    29.9660    29.5410    24.8250 
  101.7500    -6.7780     2.1780    49.2260    34.8180    30.0200    29.1420    24.8460 
  101.8750    -6.5720     2.1640    51.0290    34.9280    30.0250    30.4440    24.8570 
  102.0000    -6.3720     2.1460    52.0290    34.8350    29.8970    32.0840    24.8600 
  102.1250    -6.2300     2.1360    51.9880    34.2610    29.4510    32.7240    24.8610 
  102.2500    -6.1400     2.1350    53.0090    33.1800    28.6320    32.4720    24.8620 
  102.3750    -6.0640     2.1380    52.8030    31.6820    27.4620    31.7840    24.8620 
  102.5000    -5.9570     2.1450    50.7140    29.9880    26.0750    31.0500    24.8650 
  102.6250    -5.7660     2.1580    51.2490    28.4180    24.7030    29.7830    24.8690 
  102.7500    -5.5480     2.1760    54.5870    27.2150    23.5710    28.3980    24.8740 
  102.8750    -5.3480     2.1900    55.4510    26.5310    22.8330    27.6640    24.8780 
  103.0000    -5.1270     2.1940    52.0640    26.4390    22.5730    28.3160    24.8810 
  103.1250    -4.8030     2.1860    48.9200    27.0080    22.8690    30.1310    24.8830 
  103.2500    -4.4340     2.1740    48.8620    27.9890    23.5410    32.2520    24.8830 
  103.3750    -4.0700     2.1640    48.5730    29.1500    24.4150    34.0740    24.8810 
  103.5000    -3.7840     2.1590    46.5860    30.2370    25.2820    34.7120    24.8770 
  103.6250    -3.6250     2.1620    46.6600    30.9970    25.9000    34.6040    24.8620 
  103.7500    -3.4670     2.1710    50.3510    31.4060    26.2010    34.4850    24.8280 
  103.8750    -3.3220     2.1880    53.9120    31.4960    26.1930    34.4290    24.7650 
  104.0000    -3.2530     2.2040    53.7920    31.3360    25.9470    34.1330    24.6730 
  104.1250    -3.2650     2.2110    51.2280    31.0080    25.5630    33.7480    24.5450 
  104.2500    -3.3020     2.2050    49.3050    30.6660    25.1900    32.9330    24.3940 
  104.3750    -3.3750     2.1940    48.7750    30.4250    24.9290    32.1210    24.2310 
  104.5000    -3.4910     2.1820    50.1100    30.3700    24.8520    31.3090    24.0750 
  104.6250    -3.6150     2.1710    51.4090    30.5710    25.0330    29.9850    23.9770 
  104.7500    -3.7600     2.1620    50.2310    30.9800    25.4370    29.4810    23.9580 
  104.8750    -3.9550     2.1540    47.3900    31.5610    26.0300    30.0750    24.0100 
  105.0000    -4.1750     2.1470    45.8070    32.2750    26.7610    31.4700    24.1180 
  105.1250    -4.4250     2.1420    45.4050    33.1270    27.5880    34.2600    24.2580 
  105.2500    -4.7640     2.1400    43.9410    34.0170    28.4150    37.2430    24.4000 
  105.3750    -5.1890     2.1430    41.9870    34.6150    28.9950    39.8830    24.5020 
  105.5000    -5.6950     2.1620    42.7310    34.1970    28.7700    40.5670    24.5220 
  105.6250    -6.3420     2.2090    46.8680    31.5190    26.7240    38.7450    24.4270 
  105.7500    -7.0920     2.2730    51.3370    26.8970    23.0870    36.5020    24.2460 
  105.8750    -7.8700     2.3280    54.4270    21.5050    18.7890    33.9510    24.0110 
  106.0000    -8.6730     2.3500    55.7760    16.8240    14.9760    28.2530    23.7340 
  106.1250    -9.4850     2.3280    55.7440    14.1470    12.5930    12.8510    23.4230 
