~V
VERS. 2.00: Ver 2.00
~W
STRT.M 55.0000:
STOP.M 253.0000:
STEP.M 0.1250:
NULL. -999.2500:
UWI. F10665:
~C
DEPT.M :
SP.MV :
DEN.GM/CC :
GR.API :
RML.OHMM :
RI. :
RXO.OHMM :
CALI.CM :
~A
# ...
  223.7500    -9.9630     2.3020    26.1620     4.3540     3.9630     4.3650    23.1320 
  223.8750    -9.8580     2.3190    25.9690     4.4140     3.9860     4.4760    23.3750 
  224.0000    -9.7740     2.3450    25.8200     4.4550     3.9690     4.8050    23.4490 
  224.1250    -9.7560     2.3630    26.2430     4.4590     3.9020     4.6940    23.4410 
  224.2500    -9.7340     2.3670    27.1410     4.4330     3.8090     4.5860    23.4480 
  224.3750    -9.7540     2.3640    28.0940     4.3910     3.7080     4.3850    23.4900 
  224.5000    -9.7860     2.3600    28.6810     4.3590     3.6230     4.1980    23.5470 
  224.6250    -9.8470     2.3530    28.3530     4.3670     3.5800     4.2280    23.5200 
  224.7500    -9.9420     2.3390    26.9620     4.4170     3.5770     4.2220    23.4330 
  224.8750   -10.0690     2.3220    25.9050     4.4990     3.6090     4.1050    23.3280 
  225.0000   -10.2200     2.3130    26.8260     4.5900     3.6600     4.0910    23.2460 
  225.1250   -10.3420     2.3230    28.5390     4.6600     3.7070     4.2090    23.1750 
  225.2500   -10.4970     2.3440    28.7500     4.6980     3.7370     4.3120    23.1590 
  225.3750   -10.6350     2.3550    27.0820     4.7070     3.7450     4.3790    23.1960 
  225.5000   -10.7570     2.3440    25.2780     4.6960     3.7310     4.4020    23.1990 
  225.6250   -10.8320     2.3160    24.9650     4.6700     3.6950     4.4090    23.1210 
  225.7500   -10.8540     2.2930    25.0370     4.6400     3.6480     4.3160    23.0700 
  225.8750   -10.8220     2.2910    24.8650     4.6110     3.5960     4.1610    23.1170 
  226.0000   -10.7570     2.3070    25.1610     4.5900     3.5460     4.1290    23.1800 
  226.1250   -10.6610     2.3280    25.6180     4.5890     3.5080     4.2180    23.2330 
  226.2500   -10.5130     2.3400    25.4490     4.6130     3.4910     4.3430    23.3590 
  226.3750   -10.3510     2.3460    26.0130     4.6580     3.4950     4.3820    23.5960 
  226.5000   -10.1530     2.3540    28.1940     4.7110     3.5140     4.4790    23.7860 
  226.6250    -9.9920     2.3730    28.6670     4.7490     3.5350     4.5000    23.8350 
  226.7500    -9.8380     2.3870    25.4750     4.7610     3.5420     4.4900    23.8300 
  226.8750    -9.7300     2.3840    22.7660     4.7520     3.5340     4.4090    23.8230 
  227.0000    -9.6400     2.3610    23.6030     4.7340     3.5140     4.3850    23.7980 
  227.1250    -9.5850     2.3290    26.2270     4.7200     3.4940     4.3740    23.7170 
  227.2500    -9.5880     2.3030    27.4010     4.7090     3.4780     4.1370    23.5890 
  227.3750    -9.6050     2.2900    27.5340     4.6940     3.4620     3.9770    23.5040 
  227.5000    -9.6770     2.2910    26.9870     4.6670     3.4420     3.9440    23.4680 
  227.6250    -9.7530     2.3030    26.5510     4.6270     3.4160     3.9870    23.4560 
  227.7500    -9.8410     2.3180    27.1340     4.5890     3.3880     3.9610    23.4540 
  227.8750    -9.9340     2.3320    27.5950     4.5680     3.3640     3.9220    23.4700 
  228.0000   -10.0000     2.3410    27.2730     4.5720     3.3500     3.9890    23.5300 
  228.1250   -10.0410     2.3400    26.1730     4.6000     3.3530     4.0800    23.5770 
  228.2500   -10.0670     2.3350    25.1080     4.6380     3.3680     4.0980    23.6030 
  228.3750   -10.0890     2.3300    24.1870     4.6810     3.3910     4.0880    23.5840 
  228.5000   -10.0550     2.3260    23.3570     4.7230     3.4130     4.0870    23.4880 
  228.6250   -10.0120     2.3250    22.8390     4.7590     3.4260     4.1920    23.3060 
  228.7500    -9.9600     2.3260    23.0660     4.7840     3.4300     4.2640    23.2250 
  228.8750    -9.8540     2.3290    24.3410     4.7940     3.4270     4.2480    23.1980 
  229.0000    -9.7500     2.3350    25.6280     4.7870     3.4200     4.1580    23.1700 
  229.1250    -9.6980     2.3410    25.5800     4.7730     3.4150     4.1500    23.1150 
  229.2500    -9.6430     2.3450    24.7460     4.7660     3.4130     4.1200    23.0760 
  229.3750    -9.5700     2.3470    24.1840     4.7790     3.4140     4.0630    23.0880 
  229.5000    -9.5000     2.3490    23.6800     4.8140     3.4170     4.0590    23.1940 
  229.6250    -9.4430     2.3540    23.0710     4.8640     3.4210     4.1090    23.4220 
  229.7500    -9.4230     2.3600    23.4160     4.9070     3.4250     4.1710    23.5530 
  229.8750    -9.4490     2.3660    24.7480     4.9290     3.4300     4.2040    23.5650 
  230.0000    -9.4930     2.3680    25.3710     4.9310     3.4370     4.2100    23.5470 
  230.1250    -9.5440     2.3650    24.2840     4.9330     3.4550     4.1070    23.6540 
  230.2500    -9.6310     2.3570    24.0380     4.9670     3.4910     4.0200    23.7570 
  230.3750    -9.7910     2.3500    26.0930     5.0590     3.5590     4.0090    23.7990 
  230.5000   -10.0370     2.3530    28.3330     5.2200     3.6700     4.1750    23.7530 
  230.6250   -10.2820     2.3720    28.6430     5.4510     3.8340     4.4450    23.6890 
  230.7500   -10.4970     2.3990    27.9840     5.6990     4.0210     4.6570    23.6280 
  230.8750   -10.7030     2.4230    28.0480     5.9080     4.1950     4.7190    23.6340 
  231.0000   -10.9160     2.4330    29.3790     6.0160     4.3100     4.9480    23.7130 
  231.1250   -11.0880     2.4290    30.6150     5.9690     4.3140     5.2900    23.7790 
  231.2500   -11.1960     2.4150    30.1360     5.8110     4.2240     5.2830    23.8120 
  231.3750   -11.2360     2.3940    28.8670     5.5920     4.0740     5.0890    23.8330 
  231.5000   -11.2150     2.3700    28.1650     5.3730     3.9050     4.8380    23.8420 
  231.6250   -11.1570     2.3480    27.0940     5.2020     3.7580     4.5330    23.8130 
  231.7500   -11.0740     2.3330    24.9240     5.0830     3.6480     4.3820    23.7280 
  231.8750   -10.9600     2.3250    23.3710     5.0070     3.5750     4.3080    23.5780 
  232.0000   -10.7810     2.3210    23.9400     4.9620     3.5330     4.2940    23.3760 
  232.1250   -10.5680     2.3150    25.5710     4.9440     3.5190     4.2380    23.3500 
  232.2500   -10.3630     2.3080    27.2170     4.9470     3.5250     4.2070    23.3940 
  232.3750   -10.1820     2.3040    28.3960     4.9690     3.5480     4.1900    23.3430 
  232.5000    -9.9880     2.3040    28.3970     5.0010     3.5820     4.1420    23.2090 
  232.6250    -9.8120     2.3090    26.8500     5.0280     3.6150     4.1840    23.1560 
  232.7500    -9.6670     2.3160    25.1880     5.0400     3.6350     4.3280    23.1710 
  232.8750    -9.5540     2.3230    24.1770     5.0310     3.6390     4.5470    23.2030 
  233.0000    -9.5240     2.3300    24.4990     5.0070     3.6300     4.6010    23.1970 
  233.1250    -9.5450     2.3390    26.7030     4.9840     3.6220     4.3940    23.2910 
  233.2500    -9.5910     2.3520    28.5170     4.9840     3.6310     4.1640    23.4700 
  233.3750    -9.6410     2.3690    28.9420     5.0170     3.6640     4.1430    23.5740 
  233.5000    -9.7380     2.3870    28.9470     5.0830     3.7190     4.3130    23.4970 
  233.6250    -9.8440     2.4000    29.2410     5.1650     3.7870     4.5220    23.4920 
  233.7500    -9.9630     2.4030    28.7070     5.2350     3.8470     4.7060    23.5990 
  233.8750   -10.0920     2.3980    27.3420     5.2760     3.8860     4.9370    23.7250 
  234.0000   -10.2010     2.3920    26.6710     5.2790     3.8980     5.1900    23.7350 
  234.1250   -10.2960     2.3900    28.0980     5.2460     3.8830     5.0040    23.7410 
  234.2500   -10.3630     2.3900    30.3400     5.1960     3.8560     4.7090    23.7530 
  234.3750   -10.3940     2.3870    31.3370     5.1410     3.8240     4.6120    23.7660 
  234.5000   -10.3780     2.3730    29.5240     5.0870     3.7940     4.5820    23.7120 
  234.6250   -10.3300     2.3480    27.0990     5.0380     3.7720     4.4650    23.5370 
  234.7500   -10.2260     2.3230    27.1840     5.0010     3.7600     4.4200    23.3120 
  234.8750   -10.0950     2.3060    28.4730     4.9830     3.7590     4.4720    23.1850 
