~V
VERS. 2.00: Ver 2.00
~W
STRT.M 48.0000:
STOP.M 229.0000:
STEP.M 0.1250:
NULL. -999.2500:
UWI. F10623:
~C
DEPT.M :
GR.API :
RML.OHMM :
RI. :
RXO.OHMM :
CALI.CM :
DEN.GM/CC :
SP.MV :
~A
# ...
  115.5000    60.3520    26.8760    26.0320    26.0630    23.1300     2.1600     5.3400 
  115.6250    60.9470    26.0370    25.3350    26.3420    23.1220     2.1630     5.1830 
  115.7500    63.9740    24.9040    24.3250    25.5830    23.0890     2.1690     5.0310 
  115.8750    66.4290    23.6510    23.1600    23.4900    23.0710     2.1770     4.8770 
  116.0000    66.6050    22.4780    22.0310    21.3840    23.2210     2.1840     4.7460 
  116.1250    65.2160    21.6220    21.1580    20.4800    23.7100     2.1840     4.6580 
  116.2500    64.6620    21.1500    20.6200    20.4180    24.3720     2.1760     4.5950 
  116.3750    64.2460    21.0890    20.4640    20.5520    24.8840     2.1580     4.5700 
  116.5000    64.4980    21.4280    20.7020    20.6160    25.1180     2.1390     4.5860 
  116.6250    64.4640    22.1600    21.3560    20.9520    25.1720     2.1370     4.6350 
  116.7500    63.8930    23.0960    22.2570    22.1760    25.2000     2.1630     4.7130 
  116.8750    63.5270    24.0440    23.2300    24.5350    25.2240     2.2120     4.8090 
  117.0000    62.7230    24.7720    24.0460    27.2890    25.2110     2.2710     4.8910 
  117.1250    64.3810    24.9930    24.4140    29.8130    25.0510     2.3100     4.9340 
  117.2500    67.3280    24.7430    24.3160    29.9140    24.8110     2.3190     4.9620 
  117.3750    68.5150    24.1980    23.8760    26.4470    24.5170     2.3040     4.9760 
  117.5000    65.8450    23.6570    23.3470    24.6770    24.2290     2.2760     4.9690 
  117.6250    63.8240    23.4760    23.0560    26.6400    24.0860     2.2450     4.9460 
  117.7500    64.9210    23.7300    23.1300    29.3640    24.1040     2.2160     4.8990 
  117.8750    65.3420    24.3400    23.5410    31.0760    24.1640     2.1930     4.8110 
  118.0000    63.0160    25.1120    24.1420    30.0360    24.1380     2.1830     4.6800 
  118.1250    61.0920    25.7680    24.6910    25.4720    24.0210     2.1940     4.5390 
  118.2500    61.8270    26.1170    24.9900    23.2820    23.9320     2.2150     4.4000 
  118.3750    63.2110    26.0790    24.9500    21.6370    23.9410     2.2350     4.2670 
  118.5000    63.5850    25.6880    24.5890    20.3470    24.0300     2.2420     4.1190 
  118.6250    62.6560    25.0990    24.0330    19.7420    24.1330     2.2300     3.9060 
  118.7500    61.4420    24.6500    23.5780    19.2820    24.1110     2.2090     3.6370 
  118.8750    61.1880    24.6540    23.5060    18.6020    24.0280     2.1930     3.3310 
  119.0000    62.0430    25.3410    24.0500    17.7370    24.0310     2.1970     3.0030 
  119.1250    61.6450    26.8140    25.3780    17.4150    24.0720     2.2330     2.6330 
  119.2500    59.6180    28.6070    27.1370    17.9280    23.9950     2.2890     2.2310 
  119.3750    58.2700    30.1660    28.8720    19.1060    23.7010     2.3480     1.8060 
  119.5000    58.6150    30.8700    29.9990    20.4950    23.1730     2.3910     1.3740 
  119.6250    58.9250    29.9990    29.7670    20.8460    22.7600     2.4020     0.9670 
  119.7500    59.2540    27.7870    28.1760    19.2320    22.6180     2.3900     0.5820 
  119.8750    60.0930    24.5880    25.4290    16.7620    22.5590     2.3680     0.2130 
  120.0000    62.5830    20.9540    21.9320    14.7200    22.5200     2.3510    -0.1440 
  120.1250    69.1590    17.3420    18.1850    12.7720    22.5490     2.3460    -0.4700 
  120.2500    75.3880    14.2030    14.7010    10.8860    22.6620     2.3490    -0.7600 
  120.3750    78.3990    11.6800    11.7670     9.0140    22.7570     2.3560    -1.0150 
  120.5000    81.1800     9.6340     9.5230     7.3680    22.7840     2.3630    -1.2300 
  120.6250    87.2250     8.3450     8.0720     6.5490    22.7740     2.3660    -1.3980 
  120.7500    93.4980     7.6160     7.1820     6.2490    22.7950     2.3640    -1.5160 
  120.8750    98.5710     7.2800     6.7140     6.2100    22.8400     2.3590    -1.5700 
  121.0000   103.1870     7.2000     6.5450     6.3430    22.9030     2.3530    -1.5430 
  121.1250   103.4320     7.3460     6.6350     6.5190    22.9510     2.3470    -1.4380 
  121.2500    98.0850     7.7480     6.9570     6.6990    22.9510     2.3360    -1.2810 
  121.3750    91.8710     8.5580     7.6210     7.0270    22.8760     2.3160    -1.0840 
  121.5000    87.1530     9.9440     8.7850     7.8730    22.7690     2.2830    -0.8750 
  121.6250    81.9470    12.0450    10.6520     9.5980    22.7660     2.2400    -0.6690 
  121.7500    75.8770    14.4730    12.9610    12.1150    22.9780     2.1960    -0.4890 
  121.8750    71.0350    16.6660    15.2440    14.9600    23.4630     2.1620    -0.3670 
  122.0000    69.0410    17.9310    16.8200    17.4990    24.1220     2.1480    -0.3360 
  122.1250    69.1820    17.4770    16.7870    18.7050    24.7830     2.1640    -0.4240 
  122.2500    71.4890    15.6590    15.3130    17.4130    25.0500     2.2020    -0.6280 
  122.3750    77.7130    13.1520    13.0120    13.6500    24.7920     2.2530    -0.9280 
  122.5000    86.6920    10.7470    10.6830     9.4880    24.3070     2.3000    -1.2710 
  122.6250    92.5450     9.0810     8.9590     7.5580    24.0580     2.3330    -1.6160 
  122.7500    92.4510     8.1240     7.8690     7.0880    24.0420     2.3500    -1.9340 
  122.8750    91.5060     7.7170     7.3140     7.3520    24.0820     2.3570    -2.1990 
  123.0000    93.3640     7.6530     7.1440     7.8670    24.0700     2.3600    -2.3940 
  123.1250    94.5860     7.7470     7.2250     8.1630    24.1060     2.3650    -2.5050 
  123.2500    92.1340     7.8430     7.3830     8.5110    24.1770     2.3750    -2.5410 
  123.3750    90.3590     7.8930     7.5400     8.8530    24.2670     2.3920    -2.5080 
  123.5000    93.1200     7.9070     7.6720     8.8060    24.3210     2.4100    -2.4460 
  123.6250    95.8000     7.9220     7.7890     8.9440    24.3600     2.4230    -2.3700 
  123.7500    94.5980     7.9630     7.9090     9.0280    24.3500     2.4260    -2.2810 
  123.8750    92.5890     8.0230     8.0220     8.6150    24.3240     2.4160    -2.1930 
  124.0000    93.2720     8.0710     8.0990     7.9040    24.3010     2.3940    -2.1140 
  124.1250    94.4720     8.0260     8.0580     7.9070    24.2800     2.3660    -2.0320 
  124.2500    93.7420     7.8370     7.8530     7.7970    24.2410     2.3410    -1.9280 
  124.3750    92.3420     7.4850     7.4630     7.2450    24.1560     2.3260    -1.7910 
  124.5000    90.6540     7.0070     6.9270     6.6160    23.9670     2.3270    -1.6200 
  124.6250    90.0530     6.4790     6.3480     6.1720    23.6110     2.3430    -1.4500 
  124.7500    90.5900     6.1020     5.8840     5.9350    23.1710     2.3650    -1.2940 
  124.8750    92.7740     6.0700     5.6840     5.9840    22.8490     2.3890    -1.1220 
  125.0000    94.9330     6.7370     5.9220     6.5410    22.7280     2.4170    -0.8920 
  125.1250    91.9770     8.6080     7.0060     8.0670    22.6980     2.4580    -0.5810 
  125.2500    82.6190    12.0320     9.1930    10.8970    22.7140     2.5120    -0.2180 
  125.3750    70.7440    17.1340    12.7800    15.1570    22.7980     2.5730     0.1810 
  125.5000    62.3580    23.3900    17.8270    20.7420    22.9490     2.6250     0.6160 
  125.6250    58.4220    30.2330    23.9870    26.8230    23.1380     2.6460     1.1080 
  125.7500    55.3840    36.3230    30.0050    31.7130    23.2980     2.6280     1.6420 
  125.8750    53.4900    40.5560    34.7470    35.4960    23.4160     2.5800     2.1800 
  126.0000    53.3080    42.4740    37.5170    37.1350    23.5290     2.5180     2.6800 
  126.1250    55.6430    42.4350    38.2960    37.4840    23.6740     2.4660     3.1190 
  126.2500    60.2130    42.0020    38.3810    37.2820    23.8490     2.4380     3.4980 
  126.3750    63.4410    42.1180    38.6610    37.8200    24.0580     2.4370     3.8160 
  126.5000    62.0480    43.2200    39.6570    39.6790    24.2030     2.4610     4.0660 
  126.6250    58.8750    45.2250    41.5270    44.1770    24.2830     2.5000     4.2200 
