~V
VERS. 2.00: Ver 2.00
~W
STRT.M 55.0000:
STOP.M 197.0000:
STEP.M 0.1250:
NULL. -999.2500:
UWI. F10681:
~C
DEPT.M :
DEN.GM/CC :
GR.API :
RML.OHMM :
RI. :
RXO.OHMM :
CALI.CM :
SP.MV :
~A
# ...
  111.2500     2.4100    56.8090    29.5120    26.9600    24.1700    24.8200   -14.3870 
  111.3750     2.3940    54.5220    28.3280    25.6000    24.2060    24.5070   -14.5320 
  111.5000     2.3510    53.1900    27.4390    24.5730    21.2400    23.7680   -14.6470 
  111.6250     2.2950    53.9850    26.9890    23.9880    20.2710    23.2430   -14.7400 
  111.7500     2.2320    56.2190    26.9870    23.8210    21.3800    23.4700   -14.8510 
  111.8750     2.1660    60.8330    27.4620    24.0950    23.3990    24.1430   -15.0080 
  112.0000     2.1040    66.2320    28.4040    24.8170    23.8270    24.9560   -15.1660 
  112.1250     2.0620    68.7430    29.8390    26.0150    19.6380    24.1230   -15.2770 
  112.2500     2.0460    68.6720    31.6740    27.5700    17.4530    23.1700   -15.3760 
  112.3750     2.0510    66.9170    33.9010    29.4550    19.5060    23.6200   -15.4800 
  112.5000     2.0670    62.9910    36.4390    31.6210    24.1940    24.3490   -15.6110 
  112.6250     2.0790    58.2230    38.8940    33.8300    27.2410    24.8550   -15.7500 
  112.7500     2.0810    56.2180    40.5140    35.4920    29.7780    24.8660   -15.8460 
  112.8750     2.0750    55.7120    40.5430    35.9070    32.8210    24.7270   -15.8830 
  113.0000     2.0700    53.9840    38.6790    34.6670    34.6610    25.3700   -15.8980 
  113.1250     2.0700    52.6060    35.3120    31.9130    33.6690    26.2270   -15.9390 
  113.2500     2.0780    53.1070    31.8130    28.7840    30.6700    25.8830   -15.9930 
  113.3750     2.0890    55.1870    29.0600    26.0610    26.4650    25.1500   -16.0410 
  113.5000     2.0950    57.9850    27.4840    24.1960    24.1010    24.8570   -16.0930 
  113.6250     2.0880    60.5990    27.1620    23.4040    29.6800    25.5200   -16.1920 
  113.7500     2.0760    61.5030    27.4160    23.2550    35.4780    26.8640   -16.3340 
  113.8750     2.0760    61.1200    27.6250    23.3040    37.7980    27.3440   -16.5220 
  114.0000     2.1040    61.0330    27.2130    23.0430    33.2660    27.0540   -16.7400 
  114.1250     2.1660    60.6620    25.8480    22.0590    27.1270    27.2070   -16.9420 
  114.2500     2.2280    59.0260    24.0810    20.6600    23.6720    27.2520   -17.1670 
  114.3750     2.2550    58.6060    22.4890    19.2810    22.0010    26.6710   -17.4160 
  114.5000     2.2300    60.3220    21.4790    18.2770    20.3990    25.7380   -17.6440 
  114.6250     2.1690    59.8380    21.3060    17.9140    19.8660    25.3090   -17.8210 
  114.7500     2.1160    56.6200    21.7680    18.1170    20.7020    25.2450   -18.0280 
  114.8750     2.0920    55.2960    22.7200    18.8260    23.7190    25.0730   -18.3090 
  115.0000     2.0990    58.1580    24.0270    19.9440    27.8760    24.7630   -18.6450 
  115.1250     2.1320    60.4040    25.6270    21.3900    29.8200    24.7260   -19.0350 
  115.2500     2.1760    60.2290    27.4660    23.0350    30.4110    24.7410   -19.4350 
  115.3750     2.2300    59.0420    29.5120    24.8740    31.2010    24.8170   -19.8530 
  115.5000     2.2950    57.5560    31.4170    26.7490    31.6830    24.7280   -20.3050 
  115.6250     2.3700    56.0040    31.9020    27.7290    29.8170    24.4240   -20.7730 
  115.7500     2.4350    55.8660    29.8850    26.6740    27.7660    24.5180   -21.1930 
  115.8750     2.4710    56.9690    25.1460    23.0950    27.6180    24.4040   -21.5070 
  116.0000     2.4650    58.0560    18.8830    17.8960    25.9900    24.2450   -21.7330 
  116.1250     2.4230    62.0260    13.2850    12.9540    17.6410    24.3420   -21.8810 
  116.2500     2.3700    67.4190     9.4250     9.3060     9.9140    24.5850   -21.9430 
  116.3750     2.3240    69.8160     7.2380     7.0000     6.3720    24.7870   -21.9010 
  116.5000     2.2900    69.2850     6.2780     5.7610     5.6160    24.7270   -21.7760 
  116.6250     2.2720    71.4510     6.2000     5.3800     5.6790    24.7070   -21.5940 
  116.7500     2.2660    77.9740     6.4960     5.4520     5.5820    24.7960   -21.3850 
  116.8750     2.2710    84.7830     6.8630     5.7290     5.6190    24.9110   -21.1670 
  117.0000     2.2840    87.8220     7.0550     5.9750     6.0040    24.8970   -20.9270 
  117.1250     2.3000    88.2330     6.9140     5.9970     6.1870    24.9360   -20.6880 
  117.2500     2.3090    90.0200     6.5830     5.8330     5.9430    24.8520   -20.4820 
  117.3750     2.3050    90.6450     6.2530     5.6040     5.4360    24.7710   -20.3170 
  117.5000     2.2820    87.4720     6.1370     5.4680     5.2510    24.6990   -20.1580 
  117.6250     2.2430    84.9040     6.5230     5.6380     5.6880    24.6190   -19.9340 
  117.7500     2.2030    84.6680     7.4940     6.2080     6.6720    24.4950   -19.6580 
  117.8750     2.1830    84.3720     9.0550     7.2360     8.1210    24.5590   -19.3720 
  118.0000     2.1960    81.5320    10.9880     8.6480    10.0810    24.7860   -19.1080 
  118.1250     2.2490    78.9870    12.6180    10.0150    11.7810    24.9570   -18.8340 
  118.2500     2.3100    76.4940    13.1720    10.6370    13.8620    24.8460   -18.5100 
  118.3750     2.3470    72.7310    12.3260    10.1350    15.0460    24.4590   -18.1360 
  118.5000     2.3430    71.2870    10.5120     8.7830    12.2740    23.6430   -17.7660 
  118.6250     2.3030    75.0490     8.7400     7.3220     7.9240    23.9900   -17.4420 
  118.7500     2.2570    80.2810     7.6860     6.2910     6.4780    24.4760   -17.1370 
  118.8750     2.2210    84.0070     7.4880     5.8270     6.5460    24.5940   -16.8230 
  119.0000     2.1980    84.8440     8.0900     5.9360     7.1330    24.6320   -16.5020 
  119.1250     2.1880    83.7940     9.4380     6.6650     8.1630    24.6510   -16.2030 
  119.2500     2.1840    81.9810    11.1390     7.8160     9.9200    24.5060   -15.9470 
  119.3750     2.1810    79.7400    12.8330     9.1840    11.4770    24.4320   -15.7500 
  119.5000     2.1780    77.5330    14.1640    10.4940    12.2240    24.5410   -15.6050 
  119.6250     2.1700    74.6190    14.8650    11.4350    12.4970    24.2730   -15.5230 
  119.7500     2.1590    71.8340    15.1090    11.9800    12.7650    23.9820   -15.4890 
  119.8750     2.1480    71.7870    15.1180    12.2180    13.1840    24.2400   -15.4870 
  120.0000     2.1390    73.2430    15.1300    12.3100    13.3100    24.6560   -15.4770 
  120.1250     2.1330    73.6080    15.2780    12.3850    13.2790    24.7890   -15.4490 
  120.2500     2.1310    75.4390    15.4280    12.4240    13.2800    24.9330   -15.4490 
  120.3750     2.1350    80.3030    15.3020    12.2650    13.2600    25.0000   -15.4910 
  120.5000     2.1470    84.9860    14.6060    11.6990    13.1340    24.9570   -15.5200 
  120.6250     2.1680    83.2700    13.1490    10.5790    12.4080    24.7790   -15.4870 
  120.7500     2.1890    80.3610    11.3650     9.2070    10.7110    24.6060   -15.4100 
  120.8750     2.2000    80.8780     9.7530     7.9210     8.6290    24.1710   -15.3230 
  121.0000     2.1960    81.6100     8.7250     6.9930     7.2660    23.7660   -15.2510 
  121.1250     2.1800    77.4860     8.6330     6.6590     7.2350    23.5640   -15.1400 
  121.2500     2.1640    72.9550     9.3750     6.8850     7.6760    23.7670   -14.9580 
  121.3750     2.1540    72.5330    10.8820     7.6730     8.7710    24.0620   -14.7260 
  121.5000     2.1560    75.0500    12.9820     8.9860    10.8470    24.2280   -14.4820 
  121.6250     2.1740    74.1220    15.3130    10.6980    12.9550    24.1970   -14.2420 
  121.7500     2.1990    67.9110    17.2990    12.3890    15.0660    24.0240   -14.0240 
  121.8750     2.2230    60.8040    18.5560    13.6920    16.8630    23.9560   -13.8110 
  122.0000     2.2350    59.1000    18.9890    14.3970    17.2140    24.4930   -13.6210 
  122.1250     2.2270    63.4410    18.7530    14.4800    16.5380    25.1650   -13.4950 
  122.2500     2.2050    66.1080    18.3530    14.2830    16.8790    25.2260   -13.4200 
  122.3750     2.1800    64.0920    18.1360    14.0640    17.6680    25.1800   -13.3500 
