~V
VERS. 2.00: Ver 2.00
~W
STRT.M 61.0000:
STOP.M 247.0000:
STEP.M 0.1250:
NULL. -999.2500:
UWI. F10600:
~C
DEPT.M :
GR.API :
RML.OHMM :
RI. :
RXO.OHMM :
CALI.CM :
DEN.GM/CC :
SP.MV :
~A
# ...
   83.5000    89.6520     7.0880     5.1800     5.7140    24.7310     2.2920   -24.4220 
   83.6250    92.5140     7.0590     5.1800     5.6280    24.7480     2.2940   -24.2900 
   83.7500    91.2690     6.7900     5.2150     5.5980    24.7730     2.2980   -24.2300 
   83.8750    86.1450     6.4110     5.2330     5.5500    24.8280     2.3020   -24.2110 
   84.0000    81.7260     6.1620     5.2390     5.7120    24.9150     2.3090   -24.2920 
   84.1250    79.8620     6.3390     5.3270     5.7120    25.0150     2.3290   -24.4630 
   84.2500    77.6590     6.9370     5.5940     5.6960    25.0290     2.3610   -24.6310 
   84.3750    73.9010     7.8290     6.0650     6.4780    24.9450     2.3960   -24.7870 
   84.5000    70.8660     8.7490     6.6470     8.8740    24.7790     2.4140   -24.9790 
   84.6250    71.2730     9.3050     7.0740    11.1580    24.6960     2.3950   -25.2180 
   84.7500    73.9900     9.3660     7.1510     9.0710    24.7040     2.3490   -25.3860 
   84.8750    77.7390     9.0040     6.8610     7.0910    24.8130     2.2980   -25.5000 
   85.0000    81.9260     8.4250     6.3600     6.8170    25.0000     2.2660   -25.5310 
   85.1250    85.1870     7.8740     5.9040     6.7350    25.0300     2.2680   -25.4940 
   85.2500    86.8060     7.4970     5.6420     6.0170    24.9000     2.2910   -25.5130 
   85.3750    87.9160     7.3200     5.5670     5.4440    24.8150     2.3210   -25.5560 
   85.5000    89.3640     7.2900     5.5840     5.3370    24.7980     2.3390   -25.6390 
   85.6250    88.9520     7.3180     5.5850     5.5900    24.8110     2.3360   -25.8160 
   85.7500    85.9760     7.3100     5.5400     6.0420    24.8470     2.3190   -26.0970 
   85.8750    82.6650     7.2360     5.4920     6.3070    24.9070     2.2960   -26.4910 
   86.0000    81.5060     7.1390     5.5030     6.1110    24.9680     2.2780   -26.9920 
   86.1250    80.5110     7.1500     5.6210     5.7900    25.0260     2.2710   -27.6240 
   86.2500    78.2400     7.3630     5.8080     5.8740    25.0460     2.2710   -28.3430 
   86.3750    76.5710     7.7970     6.0170     6.2170    25.0340     2.2750   -29.1400 
   86.5000    77.0710     8.3980     6.2170     6.6780    24.9700     2.2780   -29.9170 
   86.6250    78.4740     9.0480     6.4140     7.4220    24.8320     2.2770   -30.6500 
   86.7500    78.8860     9.5900     6.6320     8.2190    24.7450     2.2710   -31.3390 
   86.8750    77.6040     9.9230     6.8730     8.5050    24.7700     2.2610   -31.9280 
   87.0000    76.3150    10.0190     7.0990     8.1810    24.8730     2.2480   -32.4050 
   87.1250    75.8950     9.9070     7.2190     7.8320    24.9500     2.2370   -32.7510 
   87.2500    75.6970     9.7120     7.1910     7.7070    24.9790     2.2310   -32.9470 
   87.3750    74.3880     9.5120     7.0210     7.6830    24.9770     2.2310   -32.9820 
   87.5000    73.2660     9.3700     6.7790     7.7100    24.9490     2.2380   -32.9090 
   87.6250    75.4490     9.3340     6.5900     7.5960    24.8680     2.2460   -32.7320 
   87.7500    77.5360     9.3770     6.5460     7.6330    24.8170     2.2480   -32.4470 
   87.8750    75.3460     9.4800     6.6670     7.6850    24.8010     2.2420   -32.1270 
   88.0000    70.6830     9.6500     6.9160     7.6310    24.8000     2.2280   -31.7240 
   88.1250    67.6240     9.9310     7.1940     7.5870    24.8010     2.2140   -31.1240 
   88.2500    66.0900    10.2630     7.3720     7.5260    24.8060     2.2110   -30.3690 
   88.3750    66.7560    10.4780     7.3630     7.4120    24.8230     2.2240   -29.5080 
   88.5000    72.6030    10.3440     7.1280     7.2740    24.8630     2.2510   -28.5470 
   88.6250    85.5110     9.6330     6.6740     7.0830    24.9240     2.2820   -27.4630 
   88.7500    96.5800     8.5490     6.1460     6.5590    24.9820     2.3070   -26.3590 
   88.8750   103.6060     7.3780     5.6560     5.7860    25.0260     2.3250   -25.3030 
   89.0000   109.0770     6.4090     5.2800     5.1290    25.0440     2.3390   -24.3700 
   89.1250   112.8520     5.9040     5.0630     5.0670    24.9560     2.3520   -23.6370 
   89.2500   112.4060     5.8440     4.9550     5.2200    24.6910     2.3580   -23.1260 
   89.3750   106.1030     6.1660     4.9230     5.3890    24.3080     2.3560   -22.8060 
   89.5000    96.8910     6.7230     4.9460     5.6180    24.0900     2.3440   -22.6210 
   89.6250    89.0160     7.2620     5.0310     5.8380    24.0930     2.3320   -22.5370 
   89.7500    85.2280     7.5680     5.1720     6.0970    24.2250     2.3270   -22.5240 
   89.8750    86.3300     7.5830     5.3500     6.2680    24.4370     2.3310   -22.5590 
   90.0000    89.7620     7.3850     5.5180     5.9180    24.7210     2.3400   -22.5940 
   90.1250    93.3700     7.1320     5.6100     5.6140    25.0120     2.3440   -22.6330 
   90.2500    96.6880     6.9780     5.6270     5.4740    25.2610     2.3410   -22.6360 
   90.3750    97.1510     6.9750     5.6110     5.5750    25.3390     2.3350   -22.6210 
   90.5000    94.1830     7.0990     5.6280     5.8550    25.2720     2.3340   -22.6780 
   90.6250    91.9020     7.2450     5.7200     6.5750    25.1510     2.3400   -22.8300 
   90.7500    92.7210     7.2730     5.8220     7.3460    25.0390     2.3500   -23.0210 
   90.8750    95.4710     7.1080     5.8410     6.9480    24.9450     2.3570   -23.2010 
   91.0000    99.7470     6.7770     5.7190     6.2230    24.8690     2.3620   -23.4440 
   91.1250   104.8670     6.4200     5.4940     5.5680    24.8250     2.3660   -23.8180 
   91.2500   105.9660     6.1950     5.3230     5.4360    24.8200     2.3720   -24.2280 
   91.3750   100.9140     6.1680     5.3140     5.5480    24.8270     2.3800   -24.7090 
   91.5000    95.4450     6.3450     5.4850     5.8130    24.8330     2.3830   -25.2340 
   91.6250    95.0020     6.7150     5.7570     6.5540    24.8200     2.3750   -25.7830 
   91.7500    95.8870     7.1730     5.9910     7.4260    24.7660     2.3560   -26.4070 
   91.8750    94.1500     7.6140     6.1410     7.3990    24.6760     2.3290   -27.1200 
   92.0000    90.9500     7.9120     6.2240     7.1140    24.5970     2.2990   -27.8090 
   92.1250    89.7570     7.9630     6.2940     6.7590    24.5640     2.2740   -28.3860 
   92.2500    89.7220     7.8950     6.3940     7.1050    24.5320     2.2600   -28.9500 
   92.3750    87.3910     7.9260     6.5490     7.3210    24.4630     2.2610   -29.4730 
   92.5000    81.7350     8.2840     6.8030     7.2070    24.3690     2.2810   -29.9330 
   92.6250    75.4870     9.1250     7.2430     7.3890    24.2870     2.3220   -30.3500 
   92.7500    72.9180    10.1870     7.8370     8.1390    24.2080     2.3700   -30.7520 
   92.8750    74.6470    11.0860     8.4500     9.7100    24.1960     2.4050   -31.1360 
   93.0000    79.1860    11.4410     8.8540    11.6360    24.2840     2.4130   -31.5320 
   93.1250    82.2610    11.0540     8.7680    11.2450    24.3880     2.3840   -31.9720 
   93.2500    82.0280    10.3430     8.2780     9.0020    24.4620     2.3360   -32.4670 
   93.3750    79.5180     9.6700     7.5960     7.7630    24.4870     2.2840   -32.9910 
   93.5000    75.9460     9.2430     6.9810     7.3300    24.4900     2.2370   -33.5600 
   93.6250    72.3080     9.1100     6.6770     7.7940    24.4970     2.2010   -34.1880 
   93.7500    70.1980     9.0810     6.6700     8.1520    24.5340     2.1770   -34.7330 
   93.8750    71.0830     8.9820     6.8500     8.2100    24.6060     2.1710   -35.1700 
   94.0000    72.9810     8.7180     7.0640     7.9320    24.6680     2.1850   -35.6040 
   94.1250    71.8950     8.3440     7.1760     7.7090    24.7140     2.2110   -36.0670 
   94.2500    69.4590     8.0720     7.1960     7.8260    24.7560     2.2280   -36.4270 
   94.3750    69.0350     8.0570     7.1950     9.4940    24.7490     2.2230   -36.7100 
   94.5000    69.9210     8.3290     7.2460    13.0780    24.7440     2.1970   -36.9490 
   94.6250    69.5610     8.7450     7.3590    16.6610    24.7470     2.1650   -37.0790 
