~V
VERS. 2.00: Ver 2.00
~W
STRT.M 49.0000:
STOP.M 254.0000:
STEP.M 0.1250:
NULL. -999.2500:
UWI. F10669:
~C
DEPT.M :
DEN.GM/CC :
GR.API :
RML.OHMM :
RI. :
RXO.OHMM :
CALI.CM :
SP.MV :
~A
# ...
  184.0000     2.3860    49.1860    22.7980    20.0650    13.7410    18.8780   -11.3190 
  184.1250     2.3880    48.7450    22.4900    19.8410    13.2130    18.7560   -11.0750 
  184.2500     2.3960    49.5890    22.4010    19.7250    13.3620    18.8920   -10.7910 
  184.3750     2.4110    50.7420    22.6480    19.8700    14.0570    19.2940   -10.5130 
  184.5000     2.4210    51.3160    23.1070    20.2300    14.7730    19.7290   -10.2200 
  184.6250     2.4160    52.7230    23.6240    20.7120    15.1410    20.1350    -9.9500 
  184.7500     2.3950    53.7320    24.0070    21.1700    16.4170    20.6080    -9.6800 
  184.8750     2.3700    50.9220    24.0140    21.3830    18.3250    21.1770    -9.4470 
  185.0000     2.3560    47.2290    23.6460    21.2790    19.5900    21.7370    -9.2470 
  185.1250     2.3560    47.3640    22.9930    20.8720    19.2640    21.9830    -9.0700 
  185.2500     2.3660    50.8820    22.2080    20.2510    18.9910    22.0400    -8.9660 
  185.3750     2.3760    52.6480    21.4650    19.5510    18.4250    22.0290    -8.8760 
  185.5000     2.3850    52.0170    20.8610    18.9140    18.1500    21.9800    -8.8740 
  185.6250     2.3960    49.3490    20.4300    18.4110    17.9210    21.9310    -8.9100 
  185.7500     2.4100    46.2810    20.1720    18.0770    18.1420    22.1230    -8.9970 
  185.8750     2.4180    45.8290    20.1210    17.9580    18.2460    22.4730    -9.0790 
  186.0000     2.4130    46.8150    20.2420    18.0240    18.4250    22.7300    -9.1610 
  186.1250     2.3960    46.7430    20.4970    18.2470    18.8730    22.8270    -9.2350 
  186.2500     2.3690    46.1030    20.8100    18.5670    19.4850    22.8380    -9.2900 
  186.3750     2.3420    47.9510    21.0570    18.8810    20.0340    22.8260    -9.3460 
  186.5000     2.3230    50.4570    21.1620    19.0980    20.0570    22.8250    -9.3720 
  186.6250     2.3220    51.7850    21.1340    19.1900    19.9370    22.7990    -9.3800 
  186.7500     2.3360    52.8480    21.0370    19.1870    19.4770    22.6840    -9.3810 
  186.8750     2.3590    52.7030    20.9270    19.1240    19.6950    22.4740    -9.3660 
  187.0000     2.3780    51.6170    20.7830    19.0110    20.1380    22.3520    -9.3600 
  187.1250     2.3940    51.8200    20.5380    18.8060    20.3530    22.2890    -9.3630 
  187.2500     2.4140    53.6220    20.1610    18.4770    19.4920    22.1980    -9.3630 
  187.3750     2.4420    54.0510    19.7060    18.0460    18.2820    22.1370    -9.3810 
  187.5000     2.4700    51.2810    19.3140    17.6350    16.5630    22.1600    -9.3930 
  187.6250     2.4850    48.8100    19.0550    17.3350    15.8380    22.2980    -9.4190 
  187.7500     2.4770    48.6850    18.8810    17.1600    16.6790    22.5120    -9.4360 
  187.8750     2.4450    50.3740    18.6380    17.0200    17.8190    22.7080    -9.5260 
  188.0000     2.4080    51.0800    18.2150    16.7660    18.6780    22.8610    -9.6130 
  188.1250     2.3780    48.8920    17.6110    16.3220    18.1260    22.9080    -9.7410 
  188.2500     2.3670    46.6100    16.9590    15.7410    16.4760    22.8930    -9.8880 
  188.3750     2.3750    47.3250    16.5410    15.2420    14.5420    22.9520   -10.0620 
  188.5000     2.3890    49.6940    16.5080    15.0360    13.9650    22.9940   -10.2480 
  188.6250     2.4020    50.6540    16.8900    15.2190    14.3540    22.9500   -10.4340 
  188.7500     2.4120    49.9970    17.5650    15.7460    15.2030    22.9000   -10.6320 
  188.8750     2.4300    50.5300    18.1990    16.3700    16.4860    22.9290   -10.7800 
  189.0000     2.4580    50.2860    18.4080    16.7080    17.5470    22.9570   -10.9310 
  189.1250     2.4780    49.1510    18.0300    16.5390    17.3710    22.9510   -11.0600 
  189.2500     2.4720    48.5770    17.2100    15.8990    16.7240    22.9270   -11.1820 
  189.3750     2.4390    48.1100    16.4140    15.0900    15.1490    22.9380   -11.2730 
  189.5000     2.4090    46.9120    16.1720    14.5750    13.6180    22.9300   -11.3680 
  189.6250     2.4060    46.4230    16.8620    14.7010    14.1300    22.8480   -11.4670 
  189.7500     2.4380    47.5470    18.7090    15.7360    16.9780    22.6190   -11.5540 
  189.8750     2.4830    49.3640    21.9580    18.0600    22.4130    22.3940   -11.6470 
  190.0000     2.5040    50.0260    26.1850    21.4740    28.1040    22.2460   -11.7400 
  190.1250     2.4920    49.7360    30.8200    25.5990    33.7490    22.1290   -11.8190 
  190.2500     2.4600    49.5440    34.9710    29.6560    37.2920    21.9580   -11.9080 
  190.3750     2.4180    50.1870    37.5170    32.5160    38.8990    22.0300   -11.9780 
  190.5000     2.3730    52.0690    38.5330    33.9720    39.6030    22.3920   -12.0640 
  190.6250     2.3340    53.5690    38.5790    34.3620    38.1180    22.6980   -12.1400 
  190.7500     2.3120    53.3990    38.4430    34.3370    34.6640    22.8160   -12.2310 
  190.8750     2.3180    52.0950    38.8770    34.6020    34.0740    22.8590   -12.3380 
  191.0000     2.3380    51.2470    40.0130    35.4200    35.4220    22.9030   -12.4330 
  191.1250     2.3570    52.3510    41.6180    36.6780    37.6850    22.7330   -12.5460 
  191.2500     2.3630    54.3870    43.1810    37.9860    40.5850    22.6030   -12.6160 
  191.3750     2.3550    55.6800    43.8350    38.6100    40.6280    22.6070   -12.6980 
  191.5000     2.3440    56.6790    43.1340    38.1090    38.5920    22.6870   -12.7260 
  191.6250     2.3410    58.0990    40.9300    36.3100    37.3260    22.6670   -12.7210 
  191.7500     2.3470    58.5600    37.4500    33.3790    35.3840    22.5820   -12.6460 
  191.8750     2.3580    55.3930    33.2400    29.7690    31.5060    22.5080   -12.5030 
  192.0000     2.3590    51.7100    29.1820    26.2520    27.9900    22.4150   -12.3050 
  192.1250     2.3390    51.9090    25.8220    23.2970    25.1120    22.3450   -12.0380 
  192.2500     2.2990    56.6840    23.5120    21.1930    21.1700    22.3630   -11.7550 
  192.3750     2.2530    62.1130    22.5930    20.2150    20.7560    22.4040   -11.4730 
  192.5000     2.2190    65.1770    22.7540    20.1240    22.1480    22.5880   -11.2000 
  192.6250     2.2020    65.1470    23.6820    20.6980    23.6740    22.7640   -10.9500 
  192.7500     2.1990    63.5530    24.8850    21.5920    24.7520    22.6820   -10.7240 
  192.8750     2.2020    62.8060    25.4870    22.1720    26.0370    22.2950   -10.5580 
  193.0000     2.2050    62.6170    24.8510    21.8570    26.1070    22.0330   -10.4310 
  193.1250     2.2120    61.3520    22.9010    20.4670    24.7160    21.9670   -10.3320 
  193.2500     2.2270    58.6320    20.1980    18.3540    22.5760    22.0780   -10.2600 
  193.3750     2.2500    56.9290    17.6520    16.1980    20.1100    22.2160   -10.1780 
  193.5000     2.2740    57.9490    15.8490    14.5260    16.1190    22.1760   -10.1290 
  193.6250     2.2870    60.7970    14.9650    13.5250    13.9720    22.0000   -10.0890 
  193.7500     2.2820    63.7540    14.9120    13.1830    14.9600    21.8890   -10.1010 
  193.8750     2.2590    66.5000    15.4410    13.3770    17.0370    21.8770   -10.0890 
  194.0000     2.2310    68.0620    15.9960    13.7070    17.5360    21.8790   -10.1040 
  194.1250     2.2130    66.8130    16.1750    13.8550    17.0180    21.8830   -10.1380 
  194.2500     2.2160    64.7260    15.7740    13.6070    16.0960    21.8980   -10.2050 
  194.3750     2.2460    64.7080    14.8770    12.9440    14.8290    21.9290   -10.2840 
  194.5000     2.2820    64.8800    13.9100    12.1680    14.0170    21.9460   -10.3550 
  194.6250     2.3070    63.8670    13.1220    11.4790    12.5710    21.9510   -10.4060 
  194.7500     2.3090    63.6470    12.6350    10.9900    12.0850    21.9520   -10.4190 
  194.8750     2.2900    65.0540    12.5440    10.7970    12.6850    21.9920   -10.4230 
  195.0000     2.2690    65.0520    12.7830    10.8600    13.2730    22.1420   -10.3820 
  195.1250     2.2550    63.3740    13.3090    11.1510    13.1940    22.4440   -10.3230 
