~V
VERS. 2.00: Ver 2.00
~W
STRT.M 55.0000:
STOP.M 213.0000:
STEP.M 0.1250:
NULL. -999.2500:
UWI. F10686:
~C
DEPT.M :
SP.MV :
DEN.GM/CC :
GR.API :
RML.OHMM :
RI. :
RXO.OHMM :
CALI.CM :
~A
# ...
  156.2500   -22.3450     2.3050    68.3240    11.2670    11.4300    12.1130    24.1090 
  156.3750   -22.2880     2.2970    65.9470    10.1320    10.4360    10.2010    24.1090 
  156.5000   -22.3020     2.2940    65.4100     9.5910     9.7330     9.3370    24.1090 
  156.6250   -22.3090     2.2920    65.0150     9.3070     9.3030     9.7510    24.1090 
  156.7500   -22.2670     2.2890    62.7370     9.1950     9.0570     9.9500    24.1090 
  156.8750   -22.1930     2.2840    60.6820     9.2900     9.0090     9.7920    24.1090 
  157.0000   -22.1350     2.2790    59.6110     9.6900     9.2240     9.7110    24.1090 
  157.1250   -22.0960     2.2800    58.3080    10.6310     9.8900     9.6240    24.1090 
  157.2500   -22.0520     2.2950    56.4480    12.1570    11.0630    10.3630    24.1040 
  157.3750   -21.9800     2.3250    53.5300    14.2560    12.7790    12.0680    24.0790 
  157.5000   -21.9070     2.3610    50.6930    16.7340    14.9340    14.9870    23.9340 
  157.6250   -21.8920     2.3780    49.9950    19.0750    17.1460    20.9850    23.8890 
  157.7500   -21.9130     2.3620    50.3370    20.6850    18.8070    25.9210    24.0230 
  157.8750   -21.9290     2.3210    49.0850    21.2880    19.5270    24.2680    24.0960 
  158.0000   -21.9060     2.2760    46.3890    21.0880    19.3630    20.3040    24.1090 
  158.1250   -21.8610     2.2550    45.5280    20.6500    18.7420    18.6100    24.1090 
  158.2500   -21.8160     2.2620    46.5030    20.4740    18.2140    18.3780    24.1090 
  158.3750   -21.7490     2.2860    49.1370    20.6310    17.9470    18.0750    24.1090 
  158.5000   -21.6470     2.3080    52.5060    20.9300    17.8780    18.2970    24.1090 
  158.6250   -21.4730     2.3170    54.5940    21.0770    17.8160    19.8870    24.1090 
  158.7500   -21.2800     2.3160    55.0140    21.0400    17.6890    21.6870    24.1090 
  158.8750   -21.1100     2.3130    53.1530    20.9790    17.5910    20.9880    24.1060 
  159.0000   -20.9800     2.3110    50.1260    21.0690    17.6530    17.8420    24.0960 
  159.1250   -20.9230     2.3050    47.7620    21.4010    17.9700    16.3250    24.0370 
  159.2500   -20.8820     2.2910    46.5740    21.8750    18.4620    19.3950    24.0330 
  159.3750   -20.8360     2.2700    46.6550    22.4820    19.0970    24.0610    24.0320 
  159.5000   -20.7770     2.2440    48.8490    23.3970    19.9400    25.0340    24.0320 
  159.6250   -20.7630     2.2220    52.4100    25.1420    21.3310    22.1790    24.0250 
  159.7500   -20.7820     2.2120    53.9000    27.8780    23.5110    21.4490    23.9720 
  159.8750   -20.7830     2.2200    52.3330    31.2530    26.4220    24.7590    23.8400 
  160.0000   -20.7450     2.2490    49.7490    34.0820    29.2890    35.6500    23.5470 
  160.1250   -20.6540     2.2900    46.8760    34.0250    30.1120    41.1390    23.2830 
  160.2500   -20.5760     2.3260    44.4830    30.7990    28.1400    38.1310    23.1850 
  160.3750   -20.4890     2.3420    43.2360    25.9270    24.3280    29.1530    23.0650 
  160.5000   -20.3770     2.3380    44.9380    21.5730    20.4700    19.7800    23.0250 
  160.6250   -20.2340     2.3230    48.9670    19.2840    18.0150    14.2120    23.0400 
  160.7500   -20.0800     2.3080    51.2330    18.7030    16.9500    13.9130    23.0830 
  160.8750   -19.9480     2.3030    50.6910    19.2440    16.9680    16.5150    23.0900 
  161.0000   -19.8500     2.3160    49.5220    20.2060    17.6190    19.2720    23.0750 
  161.1250   -19.7700     2.3570    49.0370    20.8250    18.3230    20.0570    22.9570 
  161.2500   -19.6780     2.4130    48.0950    20.8450    18.6470    20.7300    22.6140 
  161.3750   -19.6050     2.4630    47.8820    20.4960    18.6090    21.8540    22.4240 
  161.5000   -19.5740     2.4800    50.1030    20.2160    18.4940    21.7230    22.3960 
  161.6250   -19.6040     2.4540    53.3860    20.3810    18.6360    18.4040    22.7710 
  161.7500   -19.6670     2.4080    54.4970    20.9300    19.0790    18.3420    23.3630 
  161.8750   -19.7310     2.3580    52.8740    21.7120    19.7390    21.0020    23.7020 
  162.0000   -19.7670     2.3140    50.8130    22.5720    20.4900    22.6040    23.9280 
  162.1250   -19.8020     2.2820    52.5230    23.3880    21.1980    21.3660    23.9580 
  162.2500   -19.8670     2.2660    53.8540    24.0750    21.7510    20.9520    23.9670 
  162.3750   -19.9640     2.2740    50.3870    24.5530    22.0620    22.1920    23.9670 
  162.5000   -20.0640     2.3060    45.4150    24.7600    22.0890    24.3510    23.9670 
  162.6250   -20.1360     2.3450    45.6580    24.6310    21.8200    26.3970    23.9710 
  162.7500   -20.1920     2.3690    47.8190    24.2720    21.3870    25.7880    23.9940 
  162.8750   -20.2570     2.3650    46.8960    23.7880    20.8910    22.7230    24.0120 
  163.0000   -20.3310     2.3340    44.9030    23.2780    20.4080    20.2790    24.0130 
  163.1250   -20.3950     2.2880    46.0380    22.8050    19.9800    21.0970    24.4140 
  163.2500   -20.4310     2.2460    46.3310    22.3930    19.6110    22.6010    24.6610 
  163.3750   -20.4630     2.2180    44.3350    22.0940    19.3270    23.6140    24.7980 
  163.5000   -20.5190     2.2060    43.1440    22.0140    19.2030    22.6770    24.8200 
  163.6250   -20.5710     2.2100    45.9750    22.3560    19.3960    20.5130    24.8190 
  163.7500   -20.6210     2.2230    48.1020    23.1270    19.9430    20.1520    24.8090 
  163.8750   -20.6670     2.2400    46.3030    24.2370    20.8150    22.8840    24.7650 
  164.0000   -20.7240     2.2590    43.3140    25.4470    21.8610    27.2960    24.7160 
  164.1250   -20.8060     2.2800    43.6530    26.3460    22.7570    29.2830    24.6100 
  164.2500   -20.8700     2.3020    45.7700    26.6890    23.2420    28.0900    24.5940 
  164.3750   -20.8790     2.3210    46.7210    26.4190    23.2120    26.7900    24.5900 
  164.5000   -20.8020     2.3290    46.5500    25.6550    22.7300    26.9120    24.5900 
  164.6250   -20.6610     2.3200    47.8160    24.6120    21.9550    25.6130    24.5900 
  164.7500   -20.5140     2.2990    50.3240    23.5910    21.1450    23.7200    24.5910 
  164.8750   -20.3810     2.2720    53.4790    22.8040    20.4660    21.2300    24.5930 
  165.0000   -20.2450     2.2490    56.0090    22.4160    20.0650    19.2790    24.5960 
  165.1250   -20.0500     2.2380    55.9830    22.5170    20.0750    19.3350    24.5450 
  165.2500   -19.8560     2.2380    54.8450    22.8070    20.3260    19.4720    24.3010 
  165.3750   -19.7120     2.2460    54.2250    22.9200    20.5490    19.5170    24.1380 
  165.5000   -19.6570     2.2570    55.7890    22.5150    20.4250    19.9680    24.1050 
  165.6250   -19.6350     2.2630    56.5590    21.3590    19.6560    20.5060    24.0840 
  165.7500   -19.5770     2.2610    53.3030    19.8040    18.4460    20.0760    24.0380 
  165.8750   -19.5040     2.2500    48.6820    18.2700    17.1190    17.8120    24.0190 
  166.0000   -19.4720     2.2350    47.3910    17.1300    16.0110    15.6670    23.9750 
  166.1250   -19.5340     2.2200    49.5230    16.6950    15.4250    15.0220    23.9570 
  166.2500   -19.6300     2.2090    49.6080    16.8500    15.3360    15.3190    23.9100 
  166.3750   -19.7070     2.2080    49.1170    17.4270    15.6470    15.7720    23.8590 
  166.5000   -19.7570     2.2180    51.1020    18.1770    16.1720    16.4840    23.7110 
  166.6250   -19.8710     2.2410    52.5540    18.7730    16.6520    16.8310    23.5190 
  166.7500   -20.0610     2.2670    50.6080    18.9960    16.8860    16.3920    23.2060 
  166.8750   -20.2790     2.2850    48.5390    18.7610    16.7860    15.1430    22.9250 
  167.0000   -20.4630     2.2860    48.8740    18.1450    16.3920    14.4180    22.6230 
  167.1250   -20.5950     2.2670    48.8130    17.4270    15.8910    14.7300    22.4880 
  167.2500   -20.7060     2.2360    47.4510    17.0090    15.5810    15.5350    22.4980 
  167.3750   -20.8220     2.2050    48.2990    17.1850    15.7010    15.5980    22.6370 
