~V
VERS. 2.00: Ver 2.00
~W
STRT.M 58.0000:
STOP.M 244.0000:
STEP.M 0.1250:
NULL. -999.2500:
UWI. F10638:
~C
DEPT.M :
SP.MV :
GR.API :
RML.OHMM :
RI. :
RXO.OHMM :
CALI.CM :
DEN.GM/CC :
~A
# ...
  103.0000   -28.4530    62.0520    11.5020     8.5410    12.2440    24.0470     2.1570 
  103.1250   -27.8410    61.3950    11.3000     8.5300    11.8950    23.8930     2.1490 
  103.2500   -27.0730    59.1330    10.5720     8.1440    11.3530    23.8060     2.1480 
  103.3750   -26.0980    62.6760     9.4950     7.4500    10.2370    23.9130     2.1590 
  103.5000   -25.0340    71.2980     8.4660     6.7130     8.6480    23.9550     2.1810 
  103.6250   -23.9200    79.4560     7.7070     6.0960     7.1970    23.9180     2.2150 
  103.7500   -22.7750    83.7030     7.3000     5.6890     7.0550    23.8410     2.2630 
  103.8750   -21.7070    83.3730     7.2290     5.5320     7.4130    23.8030     2.3160 
  104.0000   -20.8000    80.2150     7.2950     5.5210     7.7050    23.8070     2.3540 
  104.1250   -20.0400    76.0330     7.3540     5.5680     7.2870    23.7740     2.3620 
  104.2500   -19.3930    73.3950     7.3100     5.5920     6.9360    23.8080     2.3420 
  104.3750   -18.9110    73.7640     7.1390     5.5400     6.6780    24.0420     2.3150 
  104.5000   -18.5620    76.4750     6.9300     5.4390     6.4380    24.3480     2.2980 
  104.6250   -18.3060    80.0150     6.7400     5.3200     6.1820    24.5060     2.2940 
  104.7500   -18.0980    81.3230     6.5780     5.2010     6.2270    24.5320     2.2930 
  104.8750   -17.9350    79.8960     6.4330     5.0780     6.4200    24.5280     2.2870 
  105.0000   -17.8110    78.2120     6.3180     4.9660     6.4280    24.5370     2.2850 
  105.1250   -17.7100    77.3660     6.2850     4.9030     6.1480    24.5350     2.3050 
  105.2500   -17.6520    79.6560     6.3820     4.9280     5.6820    24.5280     2.3470 
  105.3750   -17.6790    84.5010     6.6190     5.0610     5.7340    24.5400     2.3900 
  105.5000   -17.7400    85.0610     6.8820     5.2370     6.2710    24.5620     2.4040 
  105.6250   -17.8100    79.5170     7.0410     5.3660     7.4150    24.5730     2.3850 
  105.7500   -17.9070    75.1100     6.9850     5.3600     8.5370    24.5670     2.3480 
  105.8750   -18.0380    78.8580     6.6840     5.1680     7.7730    24.5590     2.3230 
  106.0000   -18.1390    83.2920     6.3400     4.9110     6.4420    24.5610     2.3190 
  106.1250   -18.2020    82.1660     6.1430     4.7190     5.7600    24.5560     2.3300 
  106.2500   -18.2850    78.9300     6.2170     4.6920     5.5450    24.5450     2.3400 
  106.3750   -18.3790    80.0490     6.6300     4.9100     5.9270    24.5490     2.3430 
  106.5000   -18.4220    81.9670     7.2200     5.2900     7.2090    24.5500     2.3520 
  106.6250   -18.4550    79.8210     7.7780     5.7060     9.4210    24.5200     2.3710 
  106.7500   -18.5220    74.2210     8.0660     5.9870    11.6220    24.4750     2.3930 
  106.8750   -18.5800    70.6420     7.8970     5.9620     9.6640    24.4300     2.4010 
  107.0000   -18.6010    71.1920     7.4470     5.7070     8.1760    24.3490     2.3880 
  107.1250   -18.6170    73.6140     6.9330     5.3550     6.9530    24.3040     2.3580 
  107.2500   -18.6370    75.3020     6.5420     5.0500     6.1720    24.3010     2.3300 
  107.3750   -18.6350    76.5090     6.3980     4.9030     6.3760    24.3110     2.3140 
  107.5000   -18.6030    78.5220     6.4390     4.8990     6.3810    24.3150     2.3060 
  107.6250   -18.5610    80.6280     6.5840     4.9920     6.4460    24.3020     2.3010 
  107.7500   -18.5200    79.9280     6.7330     5.1160     6.6130    24.3010     2.2910 
  107.8750   -18.4790    76.5410     6.7850     5.1980     6.7630    24.3080     2.2810 
  108.0000   -18.4370    75.5430     6.7250     5.2080     6.7010    24.3000     2.2750 
  108.1250   -18.4090    77.5190     6.5840     5.1520     6.4450    24.2910     2.2790 
  108.2500   -18.4150    79.9880     6.4120     5.0510     6.2100    24.2800     2.2920 
  108.3750   -18.4550    80.9970     6.2670     4.9390     6.0600    24.2870     2.3020 
  108.5000   -18.5130    80.9070     6.1850     4.8540     6.1180    24.3330     2.2990 
  108.6250   -18.5660    80.4170     6.1870     4.8240     6.1950    24.4030     2.2880 
  108.7500   -18.6280    79.2530     6.2720     4.8590     6.3150    24.4430     2.2810 
  108.8750   -18.7010    79.1850     6.4250     4.9580     6.4340    24.4470     2.2990 
  109.0000   -18.7830    80.9900     6.5890     5.0780     6.6690    24.4400     2.3350 
  109.1250   -18.8980    83.2280     6.7180     5.1880     7.1290    24.4350     2.3690 
  109.2500   -19.0000    83.3300     6.7850     5.2660     7.0880    24.4360     2.3790 
  109.3750   -19.0590    81.8260     6.7960     5.3050     6.8610    24.4460     2.3560 
  109.5000   -19.1820    80.9370     6.8180     5.3390     6.7880    24.4430     2.3200 
  109.6250   -19.3380    80.3060     6.9090     5.4050     7.1430    24.3980     2.2860 
  109.7500   -19.4260    78.9230     7.0940     5.5270     7.5090    24.3110     2.2620 
  109.8750   -19.4650    78.8350     7.3500     5.7000     7.9290    24.2850     2.2570 
  110.0000   -19.5290    79.2450     7.5890     5.8650     7.7330    24.3390     2.2650 
  110.1250   -19.5750    77.9740     7.7220     5.9590     7.8640    24.3510     2.2770 
  110.2500   -19.5650    75.7720     7.6890     5.9310     7.9230    24.3640     2.2870 
  110.3750   -19.5410    75.4770     7.4590     5.7590     7.6680    24.4010     2.2900 
  110.5000   -19.5250    76.8720     7.1120     5.5010     7.2680    24.4340     2.2890 
  110.6250   -19.5280    78.0070     6.7400     5.2190     7.0290    24.3960     2.2870 
  110.7500   -19.5640    78.6950     6.5080     5.0060     6.8770    24.2680     2.2840 
  110.8750   -19.6360    80.4210     6.7510     5.0630     7.1880    24.0260     2.2810 
  111.0000   -19.7410    81.6290     7.6300     5.5110     7.5860    23.7990     2.2890 
  111.1250   -19.8690    78.1530     9.2170     6.4400     8.2710    23.7010     2.3260 
  111.2500   -20.0270    70.8900    11.3680     7.8390    10.9200    23.7520     2.4000 
  111.3750   -20.2440    66.3950    13.3810     9.3780    18.7900    23.8770     2.4830 
  111.5000   -20.4910    66.5640    14.1150    10.2390    25.7700    23.9540     2.5170 
  111.6250   -20.7560    69.2320    13.0290     9.8700    21.8360    24.0190     2.4830 
  111.7500   -21.0580    73.1360    10.7880     8.5460    11.9810    24.0610     2.4060 
  111.8750   -21.4410    75.9270     8.7120     7.0930     8.8300    24.0820     2.3270 
  112.0000   -21.8910    77.3070     7.4310     6.0500     7.7200    24.0940     2.2790 
  112.1250   -22.3960    78.6150     6.9720     5.5250     7.4070    24.0920     2.2670 
  112.2500   -22.9980    79.8610     7.1810     5.4920     7.3890    24.0480     2.2800 
  112.3750   -23.7030    75.8260     7.9000     5.9120     7.9530    23.9920     2.3000 
  112.5000   -24.3920    67.4690     8.8110     6.5740     9.3180    24.0590     2.3110 
  112.6250   -25.0770    60.9350     9.6920     7.3160    10.9300    24.2240     2.3070 
  112.7500   -25.7800    58.9550    10.3530     7.9700    12.1090    24.3100     2.2910 
  112.8750   -26.4360    59.4140    10.6910     8.4000    12.2130    24.2700     2.2720 
  113.0000   -26.9730    60.6300    10.9400     8.7090    12.2480    24.2720     2.2600 
  113.1250   -27.4230    61.9020    11.3450     9.0550    13.0100    24.3970     2.2510 
  113.2500   -27.8060    61.5380    12.0450     9.5570    15.4870    24.5020     2.2350 
  113.3750   -28.0910    58.5140    12.9870    10.2270    23.0880    24.4640     2.2070 
  113.5000   -28.3240    56.4640    13.8040    10.8520    35.9750    24.3950     2.1710 
  113.6250   -28.4930    55.4260    14.1280    11.1740    37.7740    24.2980     2.1370 
  113.7500   -28.5800    53.7380    13.7670    11.0210    23.7520    24.1450     2.1140 
  113.8750   -28.6360    52.5200    12.8460    10.4220    14.1610    23.8980     2.1060 
  114.0000   -28.7380    52.3480    11.8800     9.7170    11.1910    23.6670     2.1030 
  114.1250   -28.8770    52.3930    11.1680     9.1230    10.6000    23.5640     2.1020 
