~V
VERS. 2.00: Ver 2.00
~W
STRT.M 50.0000:
STOP.M 219.0000:
STEP.M 0.1250:
NULL. -999.2500:
UWI. F10688:
~C
DEPT.M :
SP.MV :
DEN.GM/CC :
GR.API :
RML.OHMM :
RI. :
RXO.OHMM :
CALI.CM :
~A
# ...
   83.7500   -18.9610     2.2700    66.7150    10.5520     9.3400    15.2220    23.8310 
   83.8750   -19.0520     2.2100    68.7160     9.6580     8.5010    12.5760    23.9930 
   84.0000   -19.1160     2.1560    67.0040     9.7030     8.3170    12.3610    24.1420 
   84.1250   -19.0780     2.1470    63.0450    10.8200     8.9450    14.0280    24.2550 
   84.2500   -19.0000     2.1980    60.1050    12.5950    10.1580    15.6040    24.2990 
   84.3750   -18.8900     2.3020    58.0560    14.5160    11.6330    16.6740    24.2640 
   84.5000   -18.7320     2.4150    57.2520    15.8390    12.8170    16.9480    24.1850 
   84.6250   -18.5240     2.4630    59.4240    15.7390    12.9860    16.5520    24.0980 
   84.7500   -18.3010     2.4380    64.0370    14.5840    12.2730    15.8200    24.0170 
   84.8750   -18.0470     2.3720    66.8790    13.0870    11.1570    15.0410    23.9330 
   85.0000   -17.7610     2.3050    65.8060    11.9520    10.1650    14.8530    23.8400 
   85.1250   -17.4030     2.2720    64.5830    11.7670     9.7570    15.2550    23.7450 
   85.2500   -16.9560     2.2610    64.8350    12.5210    10.0010    16.2350    23.6600 
   85.3750   -16.4400     2.2480    66.5780    14.1280    10.8910    18.1350    23.5830 
   85.5000   -15.9000     2.2160    69.6840    16.3400    12.3060    20.7560    23.4930 
   85.6250   -15.3920     2.1710    71.5610    18.6960    13.9850    22.6970    23.4020 
   85.7500   -14.8770     2.1340    68.4090    20.6470    15.5060    22.6060    23.3270 
   85.8750   -14.3260     2.1150    62.3020    21.9520    16.6510    21.1170    23.2720 
   86.0000   -13.8550     2.1170    58.6480    22.7010    17.4290    19.9950    23.2340 
   86.1250   -13.5700     2.1330    58.7280    23.1540    17.9870    20.2180    23.1960 
   86.2500   -13.4000     2.1480    57.2730    23.5360    18.4720    20.8350    23.1490 
   86.3750   -13.3500     2.1560    54.1550    23.8400    18.8620    21.1750    23.0930 
   86.5000   -13.4280     2.1600    52.4650    24.0960    19.1430    20.8740    23.0310 
   86.6250   -13.6500     2.1840    53.2070    24.5880    19.4670    20.3000    22.9770 
   86.7500   -14.0410     2.2500    53.3170    25.4870    20.0020    19.7080    22.9720 
   86.8750   -14.6150     2.3600    51.5670    26.6130    20.7000    19.6080    23.0260 
   87.0000   -15.2590     2.4790    49.0290    27.3620    21.2200    23.2190    23.1030 
   87.1250   -15.9320     2.5320    47.8390    26.5250    20.7530    37.4340    23.1850 
   87.2500   -16.6530     2.5020    50.2560    23.7220    18.9090    53.6300    23.2710 
   87.3750   -17.3840     2.4230    57.4850    19.3980    15.8810    42.3160    23.3720 
   87.5000   -18.0600     2.3330    65.2170    14.7460    12.4600    22.2300    23.4900 
   87.6250   -18.5790     2.2750    67.9580    11.1160     9.6180    14.8400    23.6020 
   87.7500   -18.9300     2.2530    69.8360     8.8380     7.6830     8.1150    23.6960 
   87.8750   -19.1670     2.2510    73.7820     7.9130     6.7070     6.7370    23.7780 
   88.0000   -19.3050     2.2520    75.6280     8.2360     6.6530     6.6000    23.8700 
   88.1250   -19.3530     2.2450    70.4040     9.7880     7.5770     9.6090    23.9260 
   88.2500   -19.3630     2.2380    63.2630    11.9880     9.1410    16.2970    23.8860 
   88.3750   -19.3370     2.2390    59.5630    14.1520    10.9370    23.4840    23.7310 
   88.5000   -19.2990     2.2570    59.6470    15.4240    12.3190    24.7010    23.5010 
   88.6250   -19.3190     2.2990    61.7980    15.0580    12.5410    18.5130    23.3080 
   88.7500   -19.3880     2.3590    64.4160    13.6990    11.8590    14.2880    23.1850 
   88.8750   -19.4610     2.4140    65.9970    12.1120    10.7850    11.1420    23.1430 
   89.0000   -19.5980     2.4380    66.3860    10.8040     9.7440    10.3190    23.1830 
   89.1250   -19.7620     2.4230    68.1880     9.9080     8.9130    11.4360    23.3100 
   89.2500   -19.8460     2.3920    72.8840     9.2280     8.2260    11.0620    23.4850 
   89.3750   -19.8470     2.3640    77.8070     8.6930     7.6550     9.0710    23.6570 
   89.5000   -19.7810     2.3540    80.3030     8.2940     7.2010     7.6010    23.7760 
   89.6250   -19.6560     2.3580    80.6650     8.0800     6.8930     7.1610    23.8100 
   89.7500   -19.5220     2.3580    80.1470     8.0370     6.7220     7.2060    23.8100 
   89.8750   -19.3740     2.3480    78.9510     8.1170     6.6670     7.6000    23.8090 
   90.0000   -19.1340     2.3340    76.4960     8.2090     6.6630     8.1870    23.8060 
   90.1250   -18.8260     2.3220    73.8320     8.1790     6.6180     8.4320    23.7860 
   90.2500   -18.5580     2.3130    73.4670     8.0550     6.5210     7.9470    23.7360 
   90.3750   -18.3620     2.3080    76.3110     7.9630     6.4420     7.4690    23.6400 
   90.5000   -18.2370     2.3050    79.9190     8.0760     6.4940     7.2950    23.4750 
   90.6250   -18.1320     2.3000    79.0600     8.6820     6.8760     7.5890    23.2510 
   90.7500   -17.9930     2.2900    74.2180     9.8830     7.6700     8.5380    23.0370 
   90.8750   -17.8630     2.2780    68.0590    11.7370     8.9380    10.0040    22.8940 
   91.0000   -17.8220     2.2640    62.7930    14.1130    10.6340    11.4320    22.8710 
   91.1250   -17.8650     2.2490    60.0450    16.4220    12.4220    12.7110    22.9920 
   91.2500   -17.9410     2.2350    57.9580    17.7080    13.5950    14.1950    23.2190 
   91.3750   -18.0630     2.2280    57.2740    17.2860    13.5720    15.0010    23.5120 
   91.5000   -18.2310     2.2320    59.8240    15.2230    12.3070    14.2460    23.8240 
   91.6250   -18.4650     2.2480    65.6520    12.3550    10.3210    12.3380    24.0840 
   91.7500   -18.7010     2.2720    71.2450     9.7930     8.4130     9.6060    24.2530 
   91.8750   -18.8830     2.3000    75.0170     7.9470     6.9060     7.4740    24.3340 
   92.0000   -19.0250     2.3280    77.2190     6.8410     5.8800     6.5640    24.3490 
   92.1250   -19.1180     2.3500    77.0720     6.3930     5.3450     6.3880    24.3260 
   92.2500   -19.1190     2.3650    75.2870     6.3180     5.1370     6.3070    24.3030 
   92.3750   -19.0150     2.3670    76.2610     6.4720     5.1650     6.4160    24.2830 
   92.5000   -18.8350     2.3580    79.8680     6.7320     5.3390     6.8450    24.2680 
   92.6250   -18.6100     2.3440    79.9880     7.0070     5.5770     6.9240    24.2550 
   92.7500   -18.4110     2.3330    77.1130     7.2610     5.8180     7.2220    24.2420 
   92.8750   -18.2270     2.3270    75.5100     7.4920     6.0470     7.8180    24.2310 
   93.0000   -18.0050     2.3220    75.6820     7.7130     6.2620     8.0700    24.2230 
   93.1250   -17.8220     2.3160    73.7150     7.9680     6.4810     8.1650    24.2190 
   93.2500   -17.7220     2.3090    70.3650     8.2850     6.7260     8.2910    24.2160 
   93.3750   -17.6800     2.3030    68.9060     8.6710     7.0010     8.7450    24.2070 
   93.5000   -17.6820     2.2990    68.6530     9.0990     7.2990     9.3190    24.1910 
   93.6250   -17.6740     2.2980    67.5970     9.5170     7.5960    10.1460    24.1680 
   93.7500   -17.6330     2.2950    66.3910     9.8850     7.8700    10.4790    24.1340 
   93.8750   -17.6190     2.2870    66.3160    10.2220     8.1260    10.5440    24.0830 
   94.0000   -17.6390     2.2730    65.7900    10.5960     8.3920    10.4710    24.0150 
   94.1250   -17.6010     2.2560    63.9110    11.1030     8.7240    10.5050    23.9230 
   94.2500   -17.5230     2.2440    62.5340    11.7320     9.1260    10.5440    23.8120 
   94.3750   -17.4180     2.2420    62.5820    12.3880     9.5530    10.7180    23.6890 
   94.5000   -17.2910     2.2550    63.3330    12.9030     9.9100    10.9400    23.6060 
   94.6250   -17.1660     2.2790    64.5200    13.0130    10.0270    10.6760    23.6130 
   94.7500   -17.0620     2.3010    66.7540    12.6840     9.8660    10.2910    23.6990 
   94.8750   -16.9490     2.3070    69.2190    12.0070     9.4620    10.0550    23.8520 
