~V
VERS. 2.00: Ver 2.00
~W
STRT.M 55.0000:
STOP.M 242.0000:
STEP.M 0.1250:
NULL. -999.2500:
UWI. F10652:
~C
DEPT.M :
SP.MV :
GR.API :
RML.OHMM :
RI. :
RXO.OHMM :
CALI.CM :
DEN.GM/CC :
~A
# ...
  178.7500    -3.4480    75.7180     6.9180     6.0550     7.0160    24.2310     2.3760 
  178.8750    -3.4360    76.3210     6.6750     5.8740     6.9120    24.2410     2.3730 
  179.0000    -3.4300    75.9780     6.4900     5.7510     6.7790    24.2420     2.3760 
  179.1250    -3.3870    76.1740     6.5430     5.7670     6.7990    24.2420     2.3770 
  179.2500    -3.3050    78.0750     6.9100     5.9640     7.0070    24.2420     2.3690 
  179.3750    -3.2230    79.4850     7.6100     6.3860     7.5270    24.2420     2.3570 
  179.5000    -3.1010    77.2570     8.5990     7.0540     8.5560    24.2450     2.3520 
  179.6250    -3.0080    70.4510     9.7560     7.9480    10.3100    24.2390     2.3680 
  179.7500    -2.8960    62.7190    10.8310     8.8790    11.7910    24.2010     2.3970 
  179.8750    -2.7890    57.2830    11.5630     9.6420    12.1970    24.1200     2.4190 
  180.0000    -2.7100    56.9690    11.7560    10.0680    12.1520    24.0330     2.4180 
  180.1250    -2.6340    61.6930    11.4070    10.0760    11.9540    23.9550     2.3940 
  180.2500    -2.6060    64.5050    10.8980     9.8770    11.0940    23.8920     2.3700 
  180.3750    -2.6200    64.0260    10.4970     9.6370    10.1500    23.8640     2.3570 
  180.5000    -2.6550    63.8290    10.3510     9.4650     9.7120    23.8580     2.3520 
  180.6250    -2.7240    64.3360    10.4760     9.4140    10.1800    23.8580     2.3470 
  180.7500    -2.8290    62.3560    10.7070     9.4380    10.6630    23.8540     2.3370 
  180.8750    -2.9430    59.2100    10.9020     9.4820    10.7000    23.8430     2.3300 
  181.0000    -3.0700    58.8520    10.9800     9.4910    10.3890    23.8270     2.3350 
  181.1250    -3.2170    60.6020    10.9880     9.4530    10.2850    23.8110     2.3540 
  181.2500    -3.3600    61.6350    11.1210     9.4850    10.4220    23.8020     2.3620 
  181.3750    -3.4810    61.9730    11.6090     9.7700    10.5910    23.8000     2.3400 
  181.5000    -3.6130    62.5820    12.7170    10.5380    10.5940    23.8040     2.2930 
  181.6250    -3.6940    62.2770    14.9200    12.2020    11.4720    23.8600     2.2520 
  181.7500    -3.7480    59.5730    18.3300    14.8770    15.3030    23.9350     2.2550 
  181.8750    -3.8100    55.7670    22.9130    18.5600    24.8700    23.8900     2.3200 
  182.0000    -3.8210    52.6320    28.0270    22.8130    35.6090    23.6560     2.4280 
  182.1250    -3.8270    51.3320    31.9960    26.5110    35.1680    23.4410     2.4980 
  182.2500    -3.7720    51.6150    33.9140    28.8670    32.0650    23.3450     2.4850 
  182.3750    -3.6940    51.3720    34.2460    29.9680    28.8600    23.3370     2.4160 
  182.5000    -3.6070    51.0980    34.1300    30.4590    28.2650    23.3750     2.3340 
  182.6250    -3.4710    52.3040    34.2770    30.8390    26.5820    23.2930     2.2790 
  182.7500    -3.3420    53.8260    34.3200    30.9790    25.3850    23.1000     2.2530 
  182.8750    -3.2070    54.4490    33.5380    30.3850    23.7200    22.8450     2.2500 
  183.0000    -3.0760    53.6770    31.4760    28.7080    21.4360    22.5750     2.2540 
  183.1250    -2.9750    53.7220    28.2600    25.9520    18.3560    22.4260     2.2590 
  183.2500    -2.9110    54.7320    24.8440    22.8830    15.9200    22.3180     2.2640 
  183.3750    -2.8750    55.9190    21.8430    20.0700    14.7700    22.1940     2.2690 
  183.5000    -2.8500    58.0400    19.5930    17.8620    14.0870    22.1740     2.2760 
  183.6250    -2.8730    60.2500    18.2950    16.5040    13.3470    22.4060     2.2890 
  183.7500    -2.9210    60.5690    17.6920    15.8230    13.5860    22.7310     2.3060 
  183.8750    -2.9630    58.3750    17.6260    15.7030    15.3320    22.9430     2.3220 
  184.0000    -3.0460    55.7500    17.9350    16.0010    18.5090    23.0280     2.3290 
  184.1250    -3.1200    55.6530    18.5460    16.6260    18.6980    23.0450     2.3200 
  184.2500    -3.2010    56.1370    20.3700    17.4750    18.7420    23.0530     2.2940 
  184.3750    -3.2780    55.5270    22.4250    18.5460    19.5370    23.0900     2.2560 
  184.5000    -3.3330    53.5320    23.4980    19.7700    21.0210    23.2230     2.2200 
  184.6250    -3.3920    51.5110    23.9390    20.7910    22.9570    23.4110     2.2130 
  184.7500    -3.3690    50.9130    23.2790    21.0560    25.6800    23.6380     2.2490 
  184.8750    -3.3330    50.6600    21.3780    20.1430    27.3420    23.7850     2.3260 
  185.0000    -3.2350    49.7180    18.6380    18.1020    23.5040    23.8440     2.4140 
  185.1250    -3.0720    51.4000    15.8370    15.4980    15.8210    23.8540     2.4630 
  185.2500    -2.9050    56.8830    13.5370    13.1090    11.6660    23.8570     2.4650 
  185.3750    -2.6930    63.3270    11.8690    11.2480    11.4930    23.8660     2.4390 
  185.5000    -2.4960    67.0680    10.7750     9.9750    12.0170    23.8780     2.4080 
  185.6250    -2.2860    69.2100    10.1800     9.2690    11.1440    23.8710     2.3870 
  185.7500    -2.1060    70.4190     9.8540     8.8850     9.7930    23.9050     2.3780 
  185.8750    -1.9670    68.7340     9.6750     8.6780     9.2400    23.9230     2.3760 
  186.0000    -1.8550    64.5530     9.5540     8.5470     9.2560    23.8830     2.3790 
  186.1250    -1.7930    60.7110     9.4750     8.4810     9.4060    23.8270     2.3830 
  186.2500    -1.7640    59.0380     9.4910     8.5070     9.1120    23.8350     2.3880 
  186.3750    -1.7580    59.7790     9.6690     8.6560     8.8520    23.8690     2.3910 
  186.5000    -1.7700    62.0300    10.0290     8.9350     8.9850    23.8470     2.3920 
  186.6250    -1.8360    63.6830    10.5450     9.3130    10.1430    23.6990     2.3860 
  186.7500    -1.9200    62.6450    11.0770     9.6920    11.1850    23.5620     2.3710 
  186.8750    -2.0080    59.8280    11.5260    10.0090    11.2140    23.5060     2.3490 
  187.0000    -2.1120    58.1400    11.8900    10.2520    10.9560    23.5240     2.3270 
  187.1250    -2.2380    59.7000    12.3210    10.5020    10.9770    23.5740     2.3130 
  187.2500    -2.3530    61.4730    13.1250    10.9180    11.6240    23.4930     2.3080 
  187.3750    -2.4900    60.7820    14.6820    11.6560    12.9780    23.4550     2.3080 
  187.5000    -2.6250    58.9250    16.4630    12.8290    14.8570    23.6810     2.3070 
  187.6250    -2.7400    57.9370    18.1200    14.5520    16.0210    23.8650     2.2960 
  187.7500    -2.8840    56.2380    19.9200    16.6920    18.9100    23.9720     2.2760 
  187.8750    -2.9910    54.1860    22.2950    19.1110    23.2950    24.0590     2.2520 
  188.0000    -3.1130    53.4190    25.1310    21.5770    27.5870    24.2100     2.2340 
  188.1250    -3.2030    53.4030    27.4850    23.7340    29.2010    24.2670     2.2310 
  188.2500    -3.2650    51.6980    29.2180    25.3740    29.7520    24.2620     2.2390 
  188.3750    -3.3330    49.8720    30.3110    26.4150    30.1660    24.2540     2.2480 
  188.5000    -3.3690    50.3050    30.8940    26.9350    30.5680    24.2650     2.2480 
  188.6250    -3.3900    51.3030    31.1380    27.1100    31.2520    24.2870     2.2390 
  188.7500    -3.4090    51.7610    31.2150    27.1810    30.5460    24.2910     2.2310 
  188.8750    -3.4320    52.6220    31.1910    27.2320    30.5930    24.3300     2.2340 
  189.0000    -3.4550    54.0920    31.1580    27.3140    29.6870    24.3760     2.2450 
  189.1250    -3.4960    53.3240    31.2660    27.4850    29.4240    24.4170     2.2510 
  189.2500    -3.5610    48.9140    31.5720    27.7520    29.3910    24.4630     2.2440 
  189.3750    -3.6590    44.9500    32.0190    28.0850    29.6570    24.4870     2.2360 
  189.5000    -3.7780    45.5100    32.5190    28.4350    30.2660    24.4600     2.2370 
  189.6250    -3.9380    48.5170    33.0070    28.7490    30.9130    24.3880     2.2580 
  189.7500    -4.0920    50.4820    33.4550    29.0080    31.6360    24.3140     2.2870 
  189.8750    -4.2560    50.6640    33.8310    29.1950    31.0820    24.2570     2.3060 
