~V
VERS. 2.00: Ver 2.00
~W
STRT.M 50.0000:
STOP.M 217.0000:
STEP.M 0.1250:
NULL. -999.2500:
UWI. F10606:
~C
DEPT.M :
DEN.GM/CC :
GR.API :
RML.OHMM :
RI. :
RXO.OHMM :
CALI.CM :
SP.MV :
~A
# ...
   95.0000     2.1300    49.1810    11.4010     9.4750    12.3510    25.3740   -23.1810 
   95.1250     2.1410    48.1330    11.7280     9.6940    12.5570    25.3470   -23.2070 
   95.2500     2.1460    51.4710    11.9660     9.8780    12.5960    25.2630   -23.0930 
   95.3750     2.1470    54.4400    12.1080     9.9970    12.5370    25.1580   -22.8820 
   95.5000     2.1490    53.0400    12.1840    10.0600    12.5220    25.0620   -22.5400 
   95.6250     2.1580    50.7830    12.2360    10.0930    12.5830    25.0240   -22.1370 
   95.7500     2.1700    52.1630    12.2840    10.1200    12.6040    24.9690   -21.6800 
   95.8750     2.1810    55.5430    12.2850    10.1180    12.5040    24.9100   -21.1720 
   96.0000     2.1890    58.4020    12.1390    10.0200    12.0440    24.8240   -20.6540 
   96.1250     2.2020    60.1170    11.6820     9.7000    11.4910    24.6840   -20.1110 
   96.2500     2.2300    61.3600    10.9350     9.1520    11.2350    24.4940   -19.6040 
   96.3750     2.2690    62.9490    10.0200     8.4530    10.6860    24.3400   -19.1440 
   96.5000     2.3060    66.3260     9.1600     7.7590     9.5400    24.2440   -18.7740 
   96.6250     2.3190    71.3080     8.6550     7.2910     8.0370    24.1370   -18.5040 
   96.7500     2.3070    75.3840     8.6000     7.1370     7.6320    24.0090   -18.3230 
   96.8750     2.2800    75.0340     9.0070     7.3300     8.2670    23.9440   -18.2600 
   97.0000     2.2510    70.5870     9.7850     7.8350     9.8590    24.0270   -18.2800 
   97.1250     2.2250    65.9770    10.7350     8.5510    10.8110    24.2050   -18.3940 
   97.2500     2.1980    63.5760    11.5600     9.2450    10.8790    24.3230   -18.5820 
   97.3750     2.1700    61.8110    12.0740     9.7460    10.8970    24.3250   -18.7880 
   97.5000     2.1460    59.1000    12.2100     9.9620    11.0550    24.2660   -18.9880 
   97.6250     2.1390    57.0860    11.9720     9.8650    11.1450    24.2770   -19.1380 
   97.7500     2.1430    56.4650    11.5300     9.5840    11.2750    24.3540   -19.2290 
   97.8750     2.1480    56.6190    11.0440     9.2360    11.3760    24.4130   -19.2380 
   98.0000     2.1500    55.6540    10.7810     8.9970    11.3630    24.4390   -19.1410 
   98.1250     2.1560    55.9130    11.3380     9.2280    11.3250    24.3790   -18.9680 
   98.2500     2.1890    59.3070    13.2060    10.2420    11.7570    24.1910   -18.6890 
   98.3750     2.2660    61.6830    16.8850    12.4680    14.2390    23.9730   -18.3590 
   98.5000     2.3900    60.1420    22.5480    16.3070    22.2390    23.8200   -17.9690 
   98.6250     2.5260    58.2740    29.3210    21.7510    42.4020    23.9220   -17.5480 
   98.7500     2.6120    58.5360    33.8640    26.4300    65.5550    24.1920   -17.1390 
   98.8750     2.6210    58.7090    32.9020    27.2150    67.7520    24.3880   -16.7250 
   99.0000     2.5700    59.1140    26.5840    23.3200    48.0210    24.4430   -16.3820 
   99.1250     2.4880    63.4770    19.0540    17.6080    26.6070    24.4220   -16.0720 
   99.2500     2.4050    70.6060    13.5660    13.0250    14.0310    24.3850   -15.7930 
   99.3750     2.3350    76.4730    10.3600    10.0390     9.4480    24.3880   -15.5640 
   99.5000     2.2870    78.4730     8.7990     8.3490     8.2720    24.3870   -15.3750 
   99.6250     2.2680    77.2860     8.2810     7.6230     8.3650    24.2070   -15.2190 
   99.7500     2.2690    76.9800     8.1120     7.3550     8.3590    23.9650   -15.0940 
   99.8750     2.2820    78.5810     7.9970     7.2910     7.7800    23.9570   -15.0010 
  100.0000     2.2970    81.4030     7.7910     7.2510     7.2400    24.1810   -14.9350 
  100.1250     2.3060    84.2930     7.4860     7.1440     6.9490    24.2840   -14.8930 
  100.2500     2.3080    86.6430     7.1780     6.9990     6.8170    24.1630   -14.8710 
  100.3750     2.3070    88.6940     6.9270     6.8610     6.7830    24.0240   -14.8590 
  100.5000     2.3040    91.9760     6.7570     6.7580     6.7140    24.0730   -14.8440 
  100.6250     2.2980    93.8580     6.6690     6.6970     6.7160    24.2920   -14.8210 
  100.7500     2.2900    90.7330     6.6170     6.6470     6.8220    24.4180   -14.7700 
  100.8750     2.2840    87.6680     6.5710     6.5790     6.8880    24.4460   -14.7250 
  101.0000     2.2840    89.1520     6.5070     6.4750     7.1090    24.4550   -14.6420 
  101.1250     2.2970    92.0020     6.4160     6.3310     6.9570    24.5240   -14.5740 
  101.2500     2.3210    93.1140     6.3160     6.1680     6.5050    24.5690   -14.4840 
  101.3750     2.3490    92.5310     6.2190     6.0030     6.1480    24.5540   -14.3710 
  101.5000     2.3710    89.8370     6.1490     5.8510     6.3190    24.4910   -14.2640 
  101.6250     2.3770    85.2250     6.1650     5.7580     6.5770    24.4970   -14.1160 
  101.7500     2.3650    84.4640     6.2950     5.7610     6.7390    24.5390   -13.9890 
  101.8750     2.3390    87.4960     6.5350     5.8720     6.7720    24.5720   -13.8400 
  102.0000     2.3090    88.7500     6.8630     6.0780     7.2050    24.5330   -13.6660 
  102.1250     2.2860    85.9250     7.3310     6.4120     9.1500    24.4340   -13.4660 
  102.2500     2.2690    80.7780     8.0650     6.9360    11.8030    24.3810   -13.2720 
  102.3750     2.2510    74.6820     9.2920     7.7970    12.4950    24.4020   -13.1060 
  102.5000     2.2260    69.7040    11.2810     9.1820    12.0440    24.4080   -12.9640 
  102.6250     2.1960    67.0520    14.3630    11.4060    15.8010    24.3290   -12.8800 
  102.7500     2.1700    64.4170    18.1720    14.3530    25.8280    24.3150   -12.8300 
  102.8750     2.1560    60.3260    22.0110    17.6300    37.9050    24.2880   -12.8070 
  103.0000     2.1530    57.3980    24.8160    20.3940    43.6690    24.1860   -12.8420 
  103.1250     2.1560    58.7130    25.4140    21.4400    34.6940    24.2390   -12.9070 
  103.2500     2.1590    62.7460    24.4750    21.0130    28.4130    24.4350   -13.0070 
  103.3750     2.1620    66.9340    23.1600    19.9730    27.1550    24.5910   -13.1330 
  103.5000     2.1660    69.4430    22.5740    19.2370    26.8700    24.5120   -13.2570 
  103.6250     2.1690    67.9930    23.6950    19.6320    25.8520    24.2190   -13.3800 
  103.7500     2.1680    63.9230    26.6560    21.4010    27.2370    24.0370   -13.4640 
  103.8750     2.1620    59.1360    31.6180    24.8110    35.2670    24.0450   -13.5350 
  104.0000     2.1480    55.8970    38.5390    30.0190    49.7530    24.1690   -13.5740 
  104.1250     2.1330    55.1310    47.0480    37.0370    63.5580    24.2210   -13.5860 
  104.2500     2.1210    54.3830    55.3350    44.4900    74.0670    24.2120   -13.5890 
  104.3750     2.1130    52.1400    61.0910    50.4650    81.4320    24.2250   -13.5330 
  104.5000     2.1090    50.0660    62.1230    52.8960    83.9760    24.3020   -13.4890 
  104.6250     2.1080    51.8000    57.3330    50.2970    80.3330    24.3530   -13.3990 
  104.7500     2.1110    55.6490    49.8070    44.7940    70.6820    24.3880   -13.3030 
  104.8750     2.1200    57.9230    42.0890    38.4610    55.1550    24.4260   -13.2160 
  105.0000     2.1320    60.5000    35.9210    32.9550    40.1280    24.4990   -13.1040 
  105.1250     2.1460    65.9980    32.3690    29.3980    32.8300    24.5580   -13.0160 
  105.2500     2.1540    70.2620    30.8630    27.5410    32.1130    24.5690   -12.9090 
  105.3750     2.1560    70.4810    30.8620    27.0600    34.0470    24.5750   -12.8070 
  105.5000     2.1540    68.8550    31.6990    27.5140    35.7700    24.5570   -12.7010 
  105.6250     2.1530    67.5090    32.5420    28.3220    36.2910    24.5470   -12.6140 
  105.7500     2.1540    64.5010    32.6950    28.7730    35.2150    24.4540   -12.5550 
  105.8750     2.1550    61.1480    31.9370    28.5190    31.9410    24.2640   -12.5230 
  106.0000     2.1550    62.2410    30.4670    27.5710    29.4860    24.0110   -12.5180 
  106.1250     2.1510    65.9710    28.8240    26.2690    28.2590    23.8230   -12.5350 
