~V
VERS. 2.00: Ver 2.00
~W
STRT.M 58.0000:
STOP.M 272.0000:
STEP.M 0.1250:
NULL. -999.2500:
UWI. F10670:
~C
DEPT.M :
DEN.GM/CC :
GR.API :
RML.OHMM :
RI. :
RXO.OHMM :
CALI.CM :
SP.MV :
~A
# ...
   69.2500     2.2060    83.8630     6.9440     5.9760     6.1810    24.0090   -30.7190 
   69.3750     2.2270    80.5410     6.9890     5.9300     5.9750    23.9690   -30.6700 
   69.5000     2.2380    73.0820     7.2540     6.0440     6.4150    23.9280   -30.6380 
   69.6250     2.2350    66.8030     7.6300     6.2580     7.1130    23.8810   -30.5330 
   69.7500     2.2240    64.1040     8.0120     6.5150     7.4670    23.8400   -30.4180 
   69.8750     2.2110    64.7870     8.3110     6.7470     7.5570    23.8280   -30.4320 
   70.0000     2.2020    66.0550     8.4530     6.8860     7.5410    23.8440   -30.4440 
   70.1250     2.1980    67.8150     8.4750     6.9340     7.5150    23.8530   -30.3650 
   70.2500     2.1950    70.9950     8.4230     6.9180     7.4760    23.8470   -30.2860 
   70.3750     2.1910    73.5650     8.3370     6.8740     7.4850    23.8200   -30.3280 
   70.5000     2.1850    71.8250     8.2440     6.8280     7.5190    23.7650   -30.2640 
   70.6250     2.1800    67.9370     8.1610     6.7890     7.5550    23.7380   -30.1090 
   70.7500     2.1800    67.5250     8.0960     6.7620     7.5820    23.7330   -29.9800 
   70.8750     2.1850    69.8520     8.0480     6.7540     7.6160    23.7350   -29.8770 
   71.0000     2.1930    70.6290     8.0130     6.7660     7.4100    23.7350   -29.7900 
   71.1250     2.1980    69.2610     7.9850     6.7800     7.1730    23.7350   -29.7000 
   71.2500     2.2000    67.3000     7.9680     6.7830     7.0490    23.7360   -29.6510 
   71.3750     2.2000    66.7360     7.9680     6.7670     6.9080    23.7370   -29.5530 
   71.5000     2.1990    69.0900     7.9970     6.7400     6.8720    23.7400   -29.3990 
   71.6250     2.2000    71.9980     8.0670     6.7240     6.8550    23.7390   -29.3850 
   71.7500     2.2010    72.7120     8.1960     6.7280     6.9260    23.7200   -29.4170 
   71.8750     2.2010    70.4050     8.3800     6.7460     7.1860    23.6610   -29.2910 
   72.0000     2.2010    67.3630     8.5860     6.7600     7.4530    23.5520   -29.1440 
   72.1250     2.2010    65.1500     8.7470     6.7530     7.5510    23.4710   -29.1350 
   72.2500     2.2010    64.9360     8.8200     6.7150     7.5520    23.4330   -29.1210 
   72.3750     2.1990    67.7120     8.7960     6.6480     7.5210    23.4070   -29.0830 
   72.5000     2.1980    71.5990     8.7110     6.5770     7.4230    23.3880   -29.0480 
   72.6250     2.1970    72.8090     8.6380     6.5480     7.1400    23.3680   -28.9640 
   72.7500     2.1980    71.1340     8.6160     6.5910     6.8330    23.3210   -28.9310 
   72.8750     2.1990    68.3710     8.6410     6.7030     6.7890    23.2270   -28.9310 
   73.0000     2.1990    65.8780     8.6640     6.8520     7.4810    23.0460   -28.9410 
   73.1250     2.1980    63.4710     8.6250     6.9730     8.3680    22.7600   -28.9580 
   73.2500     2.1990    62.5050     8.5010     7.0230     8.1850    22.4430   -28.8380 
   73.3750     2.2010    63.9330     8.3150     6.9900     7.4320    22.2670   -28.6740 
   73.5000     2.1980    64.6600     8.1350     6.8910     7.0150    22.3200   -28.6880 
   73.6250     2.1870    62.4490     8.0260     6.7860     6.9030    22.5620   -28.7810 
   73.7500     2.1690    59.9590     8.0210     6.7190     6.8680    22.8900   -28.7140 
   73.8750     2.1490    60.3830     8.1270     6.7140     6.8800    23.0920   -28.5950 
   74.0000     2.1410    63.0330     8.3310     6.7730     6.9100    23.1330   -28.5450 
   74.1250     2.1450    64.7300     8.5510     6.8440     6.9420    23.1240   -28.4150 
   74.2500     2.1540    65.7650     8.7070     6.8790     6.9370    23.1170   -28.2620 
   74.3750     2.1620    67.7540     8.7220     6.8360     6.9040    23.1160   -28.1920 
   74.5000     2.1610    72.0750     8.5410     6.6870     6.8650    23.1250   -28.0610 
   74.6250     2.1580    76.8130     8.2420     6.4800     6.7200    23.1510   -27.7680 
   74.7500     2.1590    78.6890     7.9190     6.2690     6.3880    23.2000   -27.4520 
   74.8750     2.1670    75.3050     7.6680     6.1180     5.8750    23.2810   -27.2160 
   75.0000     2.1760    69.2330     7.5830     6.0970     6.0670    23.3340   -27.0110 
   75.1250     2.1820    65.0560     7.6480     6.1950     6.5030    23.3650   -26.9040 
   75.2500     2.1830    63.2720     7.8210     6.3800     6.8080    23.3740   -26.8980 
   75.3750     2.1800    61.8100     8.0370     6.6010     6.9410    23.3720   -26.7640 
   75.5000     2.1740    60.2520     8.2120     6.7980     7.0140    23.3490   -26.6390 
   75.6250     2.1680    61.5120     8.3070     6.9330     6.9620    23.2960   -26.6170 
   75.7500     2.1630    65.0050     8.3040     6.9800     6.8270    23.2300   -26.5550 
   75.8750     2.1620    67.6820     8.1950     6.9210     6.8030    23.1710   -26.4830 
   76.0000     2.1680    67.5520     7.9640     6.7280     6.8720    23.1210   -26.4040 
   76.1250     2.1820    68.5220     7.6670     6.4370     6.9220    23.0810   -26.2690 
   76.2500     2.2020    72.2920     7.3760     6.0980     6.8030    23.0620   -26.1260 
   76.3750     2.2240    75.1190     7.1680     5.7850     6.3850    23.0640   -26.0070 
   76.5000     2.2350    73.9790     7.1350     5.5830     5.8830    23.0950   -25.7950 
   76.6250     2.2260    72.0050     7.2700     5.5140     5.6500    23.1570   -25.6500 
   76.7500     2.1960    72.0790     7.5500     5.5780     5.9130    23.2660   -25.7110 
   76.8750     2.1580    73.6510     7.9130     5.7520     6.2890    23.4000   -25.7510 
   77.0000     2.1290    73.5480     8.2620     5.9890     6.6390    23.4680   -25.7870 
   77.1250     2.1170    71.9570     8.5050     6.2140     6.7940    23.4790   -25.7720 
   77.2500     2.1140    71.1370     8.6050     6.3820     6.9230    23.4740   -25.6700 
   77.3750     2.1100    72.5210     8.5790     6.4720     6.9110    23.5210   -25.6410 
   77.5000     2.0990    73.3120     8.4750     6.4870     6.8510    23.6570   -25.7670 
   77.6250     2.0900    73.6310     8.3600     6.4760     6.8510    23.7610   -25.8760 
   77.7500     2.0910    73.7930     8.2580     6.4690     6.9500    23.7930   -25.9110 
   77.8750     2.1070    72.7260     8.1750     6.4770     7.0220    23.7980   -25.9030 
   78.0000     2.1300    69.5590     8.1050     6.5000     7.1210    23.8200   -25.7710 
   78.1250     2.1510    68.4190     8.0430     6.5220     7.3170    23.8530   -25.7260 
   78.2500     2.1620    69.5390     7.9950     6.5380     7.4320    23.8950   -25.7050 
   78.3750     2.1620    69.0200     7.9740     6.5510     7.3290    23.9340   -25.6290 
   78.5000     2.1560    65.9800     7.9880     6.5630     7.2510    23.9340   -25.5520 
   78.6250     2.1510    64.5170     8.0150     6.5630     7.2870    23.9020   -25.4120 
   78.7500     2.1500    66.7630     8.0110     6.5290     7.2580    23.8460   -25.1980 
   78.8750     2.1540    72.1370     7.9360     6.4420     7.1200    23.7650   -24.9880 
   79.0000     2.1620    77.2020     7.7740     6.3050     6.9090    23.6940   -24.7270 
   79.1250     2.1650    78.8020     7.6090     6.1730     6.4740    23.6960   -24.3900 
   79.2500     2.1570    76.4280     7.5490     6.1060     5.9410    23.7440   -24.1480 
   79.3750     2.1360    72.8760     7.6880     6.1570     5.5820    23.6360   -23.8710 
   79.5000     2.1160    71.7570     8.0700     6.3580     5.9280    23.1830   -23.5180 
   79.6250     2.1140    72.1620     8.5350     6.6230     6.7490    22.5450   -23.0960 
   79.7500     2.1390    73.4910     8.8820     6.8430     8.4620    22.2450   -22.6270 
   79.8750     2.1810    75.2840     8.9110     6.8910    10.3040    22.4670   -22.2410 
   80.0000     2.2130    79.9510     8.4800     6.6450     9.4580    23.1040   -22.0030 
   80.1250     2.2240    86.4120     7.7830     6.1910     6.9440    23.6720   -21.7680 
   80.2500     2.2190    91.6220     7.0260     5.6530     5.7500    24.0120   -21.5060 
   80.3750     2.2140    92.7120     6.3960     5.1690     5.6170    24.1470   -21.2650 
