~V
VERS. 2.00: Ver 2.00
~W
STRT.M 57.0000:
STOP.M 204.0000:
STEP.M 0.1250:
NULL. -999.2500:
UWI. F10604:
~C
DEPT.M :
SP.MV :
GR.API :
RML.OHMM :
RI. :
RXO.OHMM :
CALI.CM :
DEN.GM/CC :
~A
# ...
   79.5000   -13.4000    96.1330     8.4940     6.6140     8.2810    23.9510     2.3450 
   79.6250   -13.1640    83.7890    10.1460     7.8260    12.5180    24.1100     2.2790 
   79.7500   -12.9050    77.2410    11.8300     9.3440    16.3950    24.4740     2.2040 
   79.8750   -12.6410    77.0280    13.0370    10.7050    17.5270    24.8720     2.1600 
   80.0000   -12.4260    80.9460    13.4610    11.4610    15.6590    25.1470     2.1780 
   80.1250   -12.3410    85.7000    13.0330    11.3670    13.5720    25.1280     2.2620 
   80.2500   -12.3740    87.5400    12.1670    10.7780    13.7500    24.9990     2.3650 
   80.3750   -12.4810    86.1970    11.0980     9.9140    15.0600    24.9190     2.4470 
   80.5000   -12.6930    84.3480     9.9500     8.8890    14.7310    24.8860     2.4850 
   80.6250   -13.0320    87.0920     8.8130     7.8060    11.6040    24.8790     2.4770 
   80.7500   -13.3710    94.3340     7.8200     6.8290     8.4510    24.8740     2.4510 
   80.8750   -13.6280   102.4020     7.1120     6.0930     6.9670    24.8770     2.4250 
   81.0000   -13.8180   105.0190     6.7920     5.6830     6.8360    24.8870     2.4080 
   81.1250   -13.9420   100.2900     6.9180     5.6710     7.2030    24.8830     2.4000 
   81.2500   -14.0000    94.4220     7.2840     5.9180     7.7620    24.8960     2.3950 
   81.3750   -14.0240    92.0750     7.6990     6.2770     8.4640    24.9110     2.3870 
   81.5000   -14.0090    93.3500     7.9940     6.5860     8.9270    24.9180     2.3740 
   81.6250   -13.9290    94.4270     8.0490     6.7090     8.6700    24.9190     2.3580 
   81.7500   -13.8380    93.6800     7.9310     6.6700     8.0840    24.9110     2.3450 
   81.8750   -13.8160    93.0660     7.7270     6.5330     7.6600    24.8650     2.3370 
   82.0000   -13.8470    92.9940     7.5290     6.3750     7.5010    24.8160     2.3310 
   82.1250   -13.9500    91.5950     7.4320     6.2760     7.3720    24.8050     2.3230 
   82.2500   -14.1370    91.3360     7.4620     6.2660     7.1960    24.8210     2.3110 
   82.3750   -14.3630    93.9680     7.6160     6.3490     7.0910    24.8350     2.2980 
   82.5000   -14.6120    96.9680     7.8510     6.4990     7.1490    24.8300     2.2850 
   82.6250   -14.9140    96.2050     8.0620     6.6540     7.3530    24.8100     2.2770 
   82.7500   -15.2360    92.8650     8.1370     6.7210     7.5130    24.8110     2.2760 
   82.8750   -15.5750    90.7700     8.0150     6.6350     7.4340    24.8190     2.2850 
   83.0000   -15.9170    92.3280     7.7080     6.3870     7.0550    24.8190     2.3010 
   83.1250   -16.1630    99.7020     7.3030     6.0390     6.4960    24.7750     2.3150 
   83.2500   -16.3460   106.4790     6.9390     5.7090     5.9770    24.7350     2.3230 
   83.3750   -16.5200   108.0190     6.6870     5.4550     5.6280    24.6760     2.3250 
   83.5000   -16.6650   106.3470     6.5620     5.2960     5.5610    24.5620     2.3260 
   83.6250   -16.7450   106.9080     6.5550     5.2370     5.8100    24.4430     2.3310 
   83.7500   -16.8390   108.1900     6.6070     5.2400     6.1210    24.3550     2.3400 
   83.8750   -16.9420   106.7150     6.6920     5.2820     6.3290    24.2720     2.3470 
   84.0000   -17.0010   103.7960     6.7960     5.3460     6.5180    24.1450     2.3480 
   84.1250   -17.0130   103.6120     6.9140     5.4260     6.8300    23.9600     2.3450 
   84.2500   -16.9720   105.1300     7.0400     5.5170     7.0100    23.7900     2.3420 
   84.3750   -16.9180   106.0370     7.1800     5.6250     6.8460    23.7150     2.3410 
   84.5000   -16.8790   105.1920     7.3640     5.7680     6.5790    23.7280     2.3400 
   84.6250   -16.8490   101.9440     7.6730     5.9940     6.7820    23.8360     2.3280 
   84.7500   -16.7980    96.9530     8.1590     6.3400     7.4310    24.0670     2.3020 
   84.8750   -16.7130    93.0430     8.8480     6.8370     8.2650    24.3230     2.2620 
   85.0000   -16.6300    91.2390     9.7030     7.4820     9.2770    24.5530     2.2150 
   85.1250   -16.5910    88.5860    10.6010     8.2050    10.6000    24.7520     2.1730 
   85.2500   -16.5550    83.4100    11.3710     8.8530    11.8220    24.8960     2.1450 
   85.3750   -16.4750    78.6130    11.9040     9.3090    12.3970    24.9720     2.1300 
   85.5000   -16.3750    77.4560    12.1620     9.5230    12.1160    25.0060     2.1260 
   85.6250   -16.2690    78.8490    12.1180     9.4790    11.3900    25.0170     2.1270 
   85.7500   -16.1370    80.1920    11.8450     9.2560    10.9340    25.0050     2.1350 
   85.8750   -16.0050    81.9120    11.3650     8.8810    10.9220    25.0080     2.1520 
   86.0000   -15.9110    84.0450    10.7420     8.4040    11.0450    25.0400     2.1780 
   86.1250   -15.8600    84.8840    10.1810     7.9660    10.7760    25.0340     2.2070 
   86.2500   -15.8560    83.8540    10.0080     7.7660    10.2200    24.9750     2.2390 
   86.3750   -15.8860    82.9140    10.5900     8.0230    10.0610    24.9350     2.2850 
   86.5000   -15.8990    83.3470    12.2370     8.9720    11.4950    24.9090     2.3590 
   86.6250   -15.8790    82.8730    15.1310    10.9640    16.1950    24.8770     2.4650 
   86.7500   -15.8850    80.3650    18.4350    13.7270    23.6330    24.8570     2.5700 
   86.8750   -15.9470    77.1990    20.9880    16.4830    31.4070    24.8720     2.6330 
   87.0000   -16.0150    75.1390    21.6380    17.8560    35.0070    24.8860     2.6270 
   87.1250   -16.0590    76.9500    19.7260    16.6210    30.0310    24.8640     2.5460 
   87.2500   -16.0940    82.6470    16.5760    14.0620    20.8710    24.8600     2.4380 
   87.3750   -16.1110    87.8180    13.3840    11.4190    13.1930    24.8830     2.3390 
   87.5000   -16.1430    89.6510    10.8970     9.3090     9.7130    24.9020     2.2760 
   87.6250   -16.1600    91.1560     9.3560     7.8990     9.0380    24.9070     2.2590 
   87.7500   -16.1490    96.5830     8.3800     6.9460     8.5580    24.8980     2.2690 
   87.8750   -16.0980   103.5820     7.7790     6.3280     7.9110    24.8730     2.2890 
   88.0000   -16.0440   108.2570     7.5220     6.0030     7.2770    24.8300     2.3090 
   88.1250   -16.0040   107.2820     7.8480     6.1010     6.9920    24.7200     2.3360 
   88.2500   -16.0040   101.8630     8.8700     6.6880     7.4770    24.5620     2.3810 
   88.3750   -16.0860    94.7270    10.6240     7.8440    10.0120    24.4430     2.4400 
   88.5000   -16.2590    88.9820    12.8680     9.5360    16.0310    24.4430     2.4890 
   88.6250   -16.5940    82.0700    14.9190    11.4100    23.2600    24.5760     2.4870 
   88.7500   -17.0680    72.7160    16.0490    12.6880    25.6680    24.7650     2.4240 
   88.8750   -17.6720    65.8030    15.9580    12.8820    21.7250    24.9880     2.3190 
   89.0000   -18.3410    64.2480    14.9020    12.1590    15.4700    25.1550     2.2120 
   89.1250   -18.9810    64.6930    13.5580    11.1350    12.1840    25.2900     2.1440 
   89.2500   -19.5520    63.6620    12.5860    10.3530    11.5010    25.2920     2.1170 
   89.3750   -20.0710    62.5500    12.1720     9.9650    11.7420    25.2990     2.1170 
   89.5000   -20.5380    61.1360    12.2260     9.9330    12.1960    25.3180     2.1260 
   89.6250   -20.8920    58.1480    12.5380    10.1220    12.5320    25.3220     2.1330 
   89.7500   -21.0980    56.8110    12.8490    10.3340    12.6540    25.3610     2.1340 
   89.8750   -21.1380    57.8030    13.0540    10.4850    12.6200    25.4550     2.1340 
   90.0000   -21.0480    58.8530    13.1110    10.5380    12.5260    25.5530     2.1340 
   90.1250   -20.9670    60.0960    13.0040    10.4710    12.4310    25.6090     2.1330 
   90.2500   -20.9410    63.2450    12.7980    10.3290    12.3210    25.6340     2.1280 
   90.3750   -20.8850    67.0140    12.5490    10.1540    12.0820    25.6210     2.1210 
   90.5000   -20.7820    69.0460    12.3190     9.9950    11.6950    25.6170     2.1160 
   90.6250   -20.7250    68.6460    12.1710     9.9140    11.5150    25.5670     2.1150 
