~V
VERS. 2.00: Ver 2.00
~W
STRT.M 49.0000:
STOP.M 254.0000:
STEP.M 0.1250:
NULL. -999.2500:
UWI. F10669:
~C
DEPT.M :
DEN.GM/CC :
GR.API :
RML.OHMM :
RI. :
RXO.OHMM :
CALI.CM :
SP.MV :
~A
# ...
  206.5000     2.2790    57.9480    34.9190    31.0600    34.0490    23.0410   -11.8130 
  206.6250     2.2540    57.4830    35.1750    31.1100    33.9740    22.9940   -11.8880 
  206.7500     2.2230    56.8630    35.9370    31.5950    35.0760    22.9620   -11.9020 
  206.8750     2.2080    57.5610    37.2280    32.5580    36.3270    22.9540   -11.9080 
  207.0000     2.2320    57.2720    38.7350    33.7710    37.5160    22.9540   -11.8800 
  207.1250     2.3070    53.5320    40.0090    34.8900    38.7180    22.9800   -11.8210 
  207.2500     2.4150    48.3780    40.4520    35.4380    39.4570    23.0490   -11.7680 
  207.3750     2.4950    46.6870    39.3680    34.8170    38.0420    23.1290   -11.6740 
  207.5000     2.5020    48.7720    37.1010    33.1830    34.7000    23.2250   -11.6060 
  207.6250     2.4450    52.0350    34.2550    30.9330    29.4930    23.3110   -11.5100 
  207.7500     2.3640    54.3910    31.5400    28.6090    25.9680    23.3220   -11.4140 
  207.8750     2.2990    55.2000    29.5960    26.7580    25.4270    23.2060   -11.2820 
  208.0000     2.2560    54.7550    28.4510    25.5150    26.1290    23.0850   -11.1270 
  208.1250     2.2290    54.2410    27.9790    24.8540    26.0130    23.0920   -10.9760 
  208.2500     2.2060    54.5430    27.9360    24.6470    25.3630    23.2900   -10.7910 
  208.3750     2.1850    55.4680    28.0600    24.7310    27.0950    23.5390   -10.6250 
  208.5000     2.1750    56.2130    28.1720    24.8900    28.2090    23.6980   -10.4680 
  208.6250     2.1830    57.0260    28.2960    25.0590    27.7730    23.7540   -10.3520 
  208.7500     2.2100    58.1700    28.5450    25.2610    27.3710    23.7120   -10.3030 
  208.8750     2.2410    58.7570    28.9750    25.5690    27.6780    23.6620   -10.3100 
  209.0000     2.2610    58.2120    29.4580    25.9950    28.4060    23.6630   -10.3580 
  209.1250     2.2660    55.8960    29.8600    26.4890    28.9110    23.6800   -10.4320 
  209.2500     2.2590    52.6570    30.0740    26.9300    29.6870    23.6910   -10.5410 
  209.3750     2.2460    52.2800    30.0350    27.1160    30.2740    23.7190   -10.6960 
  209.5000     2.2350    54.8970    29.8490    26.9980    30.0200    23.7490   -10.8830 
  209.6250     2.2300    56.8780    29.6450    26.6410    29.3230    23.7660   -11.1240 
  209.7500     2.2380    57.2140    29.5770    26.2240    28.2680    23.7600   -11.3770 
  209.8750     2.2530    56.6470    29.8810    26.0500    28.9630    23.6990   -11.6960 
  210.0000     2.2620    55.2980    30.7110    26.3570    29.8090    23.7070   -12.0700 
  210.1250     2.2660    53.7630    32.2320    27.3560    30.7240    23.7070   -12.4710 
  210.2500     2.2830    53.8950    34.5550    29.2150    32.9690    23.6750   -12.9210 
  210.3750     2.3510    54.9190    37.8490    32.1580    35.7900    23.6010   -13.3610 
  210.5000     2.4750    53.2090    41.8400    35.9410    37.4120    23.5760   -13.8150 
  210.6250     2.6210    49.4430    46.0920    40.1980    40.7060    23.6010   -14.2200 
  210.7500     2.7200    46.4620    49.8020    44.1990    45.2260    23.6500   -14.5690 
  210.8750     2.7250    45.7830    51.8260    46.7670    49.0370    23.6490   -14.8070 
  211.0000     2.6770    46.7110    52.1740    47.6700    52.4890    23.6420   -14.8890 
  211.1250     2.6140    49.1400    50.9070    46.9780    55.0380    23.6440   -14.8440 
  211.2500     2.5700    53.3580    47.5100    44.4600    53.1850    23.6480   -14.6480 
  211.3750     2.5620    59.1880    40.5150    38.8690    50.1430    23.6310   -14.2900 
  211.5000     2.5700    63.7390    30.9600    30.7600    48.5730    23.5990   -13.8000 
  211.6250     2.5620    65.0750    21.1110    21.9290    41.0010    23.5480   -13.2280 
  211.7500     2.5190    64.6900    13.2240    14.4750    22.4850    23.3800   -12.6340 
  211.8750     2.4490    65.0790     8.5640     9.7140    10.4630    23.0620   -12.0500 
  212.0000     2.3840    65.3420     6.1240     6.9280     5.6700    22.8910   -11.5910 
  212.1250     2.3460    64.9040     5.1810     5.5440     4.8580    22.9140   -11.2590 
  212.2500     2.3420    66.1910     5.2140     5.1400     5.5840    23.1250   -11.0720 
  212.3750     2.3650    71.7530     5.9510     5.5590     6.9340    23.4350   -11.0790 
  212.5000     2.3890    77.0990     6.9580     6.4490     7.6140    23.5860   -11.1970 
  212.6250     2.4030    79.8400     7.8990     7.5060     8.0560    23.6380   -11.4520 
  212.7500     2.4080    83.8340     8.4810     8.3780     8.5360    23.6530   -11.7610 
  212.8750     2.4080    93.1730     8.5370     8.7540     9.0890    23.6770   -12.1470 
  213.0000     2.4040   101.2710     8.3160     8.7550     9.2230    23.7060   -12.5370 
  213.1250     2.3980   103.6660     8.0610     8.5860     9.0470    23.7310   -12.9210 
  213.2500     2.3930   102.7290     7.9700     8.4510     8.7800    23.7610   -13.3060 
  213.3750     2.3940   102.9900     8.1860     8.5120     8.7990    23.7640   -13.6460 
  213.5000     2.3990   104.5880     8.6560     8.7660     9.5420    23.7310   -13.9890 
  213.6250     2.4050   105.4810     9.3050     9.1570    11.2470    23.6930   -14.2780 
  213.7500     2.4050   104.0460    10.0190     9.5910    12.2520    23.6980   -14.5630 
  213.8750     2.3920   101.7460    10.6740     9.9620    11.8440    23.7120   -14.7990 
  214.0000     2.3730   100.4600    11.2710    10.2770    12.1520    23.7280   -15.0150 
  214.1250     2.3550    98.4340    11.9210    10.6260    12.9310    23.7470   -15.2210 
  214.2500     2.3410    94.1740    12.8110    11.1490    13.4590    23.7510   -15.3990 
  214.3750     2.3320    89.7080    14.2190    12.0720    14.9980    23.7360   -15.6220 
  214.5000     2.3260    85.6000    16.2010    13.4810    17.6770    23.7400   -15.8540 
  214.6250     2.3220    80.3490    18.7860    15.4480    21.0150    23.7640   -16.1220 
  214.7500     2.3200    75.5700    21.9600    17.9940    24.0430    23.7820   -16.4310 
  214.8750     2.3190    72.3280    25.7800    21.1840    27.2880    23.7800   -16.7740 
  215.0000     2.3130    67.9640    30.1420    24.8820    31.1320    23.7460   -17.1570 
  215.1250     2.2970    62.6030    35.1460    29.1310    33.9550    23.7280   -17.5670 
  215.2500     2.2750    59.6620    41.0830    34.1530    36.8200    23.7340   -18.0050 
  215.3750     2.2710    59.0300    48.6900    40.5520    43.6960    23.7000   -18.4430 
  215.5000     2.3100    56.9430    58.0640    48.4130    53.1490    23.6320   -18.8720 
  215.6250     2.4040    53.8930    68.8300    57.4750    65.7950    23.5290   -19.3050 
  215.7500     2.5260    52.7280    79.4210    66.5690    82.6750    23.4350   -19.7020 
  215.8750     2.5970    53.9380    86.0730    72.9410    90.2600    23.4430   -20.1290 
  216.0000     2.5850    54.9870    87.1140    75.1020    91.0850    23.4390   -20.5350 
  216.1250     2.5120    56.6160    83.6780    73.4140    88.5050    23.3680   -20.9140 
  216.2500     2.4230    59.9500    78.9050    69.9150    81.8190    23.1960   -21.2830 
  216.3750     2.3510    59.7990    76.3070    67.4560    75.5860    23.1020   -21.5990 
  216.5000     2.2990    56.6320    77.0910    67.6100    79.2840    23.1110   -21.9150 
  216.6250     2.2650    54.8190    81.2530    70.7020    97.1440    23.2770   -22.1850 
  216.7500     2.2430    55.5280    87.9320    76.1840   118.8400    23.5170   -22.4300 
  216.8750     2.2320    55.1640    95.4880    82.8980   140.1790    23.6520   -22.5840 
  217.0000     2.2270    53.0570   101.7320    89.0190   119.2630    23.6660   -22.6780 
  217.1250     2.2230    52.9000   105.3890    93.3540    81.7230    23.6320   -22.7390 
  217.2500     2.2210    56.0530   106.2250    95.4240    69.5440    23.6060   -22.7540 
  217.3750     2.2210    59.2470   104.5740    95.2660    72.5240    23.5620   -22.7420 
  217.5000     2.2240    60.0490   101.6360    93.9200    74.8680    23.4310   -22.6990 
  217.6250     2.2240    59.6240    97.9650    91.9410    67.7530    23.2090   -22.6240 
