~V
VERS. 2.00: Ver 2.00
~W
STRT.M 55.0000:
STOP.M 197.0000:
STEP.M 0.1250:
NULL. -999.2500:
UWI. F10681:
~C
DEPT.M :
DEN.GM/CC :
GR.API :
RML.OHMM :
RI. :
RXO.OHMM :
CALI.CM :
SP.MV :
~A
# ...
   66.2500     2.1330    60.7490     7.9550     6.9360     6.6550    23.6470   -23.8900 
   66.3750     2.1370    60.3890     8.5410     7.2980     6.7900    23.1110   -24.1940 
   66.5000     2.1570    59.6900     9.2380     7.8170     7.6320    22.3000   -24.5650 
   66.6250     2.1820    58.2660     9.8210     8.3250     8.5150    21.8370   -25.0010 
   66.7500     2.1960    60.2470    10.1830     8.6720     8.5310    21.7770   -25.4130 
   66.8750     2.1870    65.9070    10.3990     8.8470     8.0910    21.9150   -25.7340 
   67.0000     2.1600    70.7850    10.6780     8.9700     7.9880    22.0250   -25.9930 
   67.1250     2.1350    68.8370    11.2890     9.2470     8.0380    21.7560   -26.2050 
   67.2500     2.1310    63.2910    12.1840     9.7390     8.5100    21.5660   -26.3560 
   67.3750     2.1520    59.2760    13.0960    10.3330     9.3120    21.3980   -26.4200 
   67.5000     2.1860    58.2840    13.5930    10.7400    10.6090    21.3130   -26.4080 
   67.6250     2.2070    59.8510    13.2460    10.5790    11.2840    21.3190   -26.3820 
   67.7500     2.2010    63.4110    12.4190     9.9910    10.5010    21.2790   -26.3960 
   67.8750     2.1690    68.2180    11.7110     9.3450     9.2530    21.4350   -26.4780 
   68.0000     2.1240    69.4090    11.6900     9.0290     8.1080    21.6670   -26.6160 
   68.1250     2.0830    65.0480    12.8510     9.4330     8.0240    22.0020   -26.7610 
   68.2500     2.0560    61.1320    14.9840    10.5610     9.9620    22.5010   -26.9210 
   68.3750     2.0470    61.2180    17.7240    12.3220    13.0140    22.9880   -27.1270 
   68.5000     2.0550    61.3910    20.3730    14.3490    15.5580    23.3090   -27.3480 
   68.6250     2.0770    58.1780    21.7950    15.8020    16.2480    23.1690   -27.5220 
   68.7500     2.1040    55.8390    21.7390    16.1820    14.9040    23.0030   -27.6470 
   68.8750     2.1290    58.5870    20.6840    15.6300    13.3550    22.8350   -27.7310 
   69.0000     2.1430    63.3710    19.4420    14.6920    12.6170    22.6970   -27.7510 
   69.1250     2.1380    63.3030    18.7250    13.9320    12.2460    22.7020   -27.6780 
   69.2500     2.1190    60.4040    18.6650    13.5740    11.6960    22.7260   -27.5400 
   69.3750     2.0990    58.0540    19.2130    13.6590    11.3340    22.7190   -27.3760 
   69.5000     2.0900    56.6090    20.2160    14.1320    11.6700    22.7520   -27.2020 
   69.6250     2.1120    55.4680    21.4820    14.9040    13.0940    22.8770   -27.0050 
   69.7500     2.1680    55.3800    22.7920    15.8030    15.0340    22.9690   -26.7650 
   69.8750     2.2530    56.7390    24.1030    16.7770    15.9210    23.0120   -26.4570 
   70.0000     2.3500    57.2830    25.4800    17.8400    15.0800    23.0740   -26.0720 
   70.1250     2.4210    56.7720    27.0310    19.0790    14.8350    23.1070   -25.6700 
   70.2500     2.4370    57.5480    28.6140    20.4260    17.2620    23.3020   -25.2670 
   70.3750     2.3910    58.7500    29.8330    21.6330    23.3520    23.5970   -24.8550 
   70.5000     2.3030    59.2850    30.1280    22.2710    28.6200    23.7450   -24.5100 
   70.6250     2.2220    59.2490    28.8500    21.7440    27.6430    23.7530   -24.3510 
   70.7500     2.1770    59.2910    26.3900    20.2040    22.2060    23.5350   -24.3120 
   70.8750     2.1710    59.8750    23.3560    18.0540    17.0240    23.3180   -24.3130 
   71.0000     2.1840    60.7800    20.3790    15.8030    13.7010    23.2410   -24.3150 
   71.1250     2.1890    64.9090    17.9530    13.8870    11.8350    23.0960   -24.3150 
   71.2500     2.1740    69.5900    16.1240    12.4120    10.6080    22.8610   -24.3020 
   71.3750     2.1460    69.6590    14.8810    11.3900     9.6180    22.6370   -24.2350 
   71.5000     2.1200    66.8800    14.1580    10.7840     9.0940    22.5230   -24.0580 
   71.6250     2.1100    66.7720    13.8780    10.5550     9.0870    22.5630   -23.7300 
   71.7500     2.1100    67.8990    13.7920    10.5230     9.3740    22.5960   -23.3320 
   71.8750     2.1080    65.7070    13.7400    10.5720     9.5760    22.6450   -22.9250 
   72.0000     2.0940    60.9980    13.6470    10.6230     9.3920    22.6630   -22.5140 
   72.1250     2.0680    59.3730    13.5900    10.6880     9.1400    22.6750   -22.0410 
   72.2500     2.0510    60.2300    13.6970    10.8460     9.0900    22.7130   -21.5380 
   72.3750     2.0590    62.6460    14.0020    11.1400     9.2230    22.7460   -21.0200 
   72.5000     2.1010    66.4870    14.3790    11.5120     9.5910    22.7720   -20.4570 
   72.6250     2.1630    68.5500    14.4580    11.7240     9.9050    22.6990   -19.7890 
   72.7500     2.2150    67.0920    13.9470    11.5310    10.2000    22.6060   -19.0170 
   72.8750     2.2430    64.5690    12.7660    10.8220    10.0380    22.5980   -18.1990 
   73.0000     2.2490    64.0890    11.1360     9.7090     9.0850    22.7500   -17.4120 
   73.1250     2.2450    66.0830     9.5170     8.4760     7.6200    23.1530   -16.7040 
   73.2500     2.2440    69.2920     8.2720     7.4150     6.8550    23.6540   -16.0440 
   73.3750     2.2470    73.7780     7.5180     6.6530     6.2970    23.7870   -15.4450 
   73.5000     2.2480    77.5960     7.2420     6.2350     5.8510    24.0160   -14.9760 
   73.6250     2.2440    78.9360     7.4040     6.1930     5.9070    24.2170   -14.6970 
   73.7500     2.2380    78.5980     7.8060     6.3930     6.0310    24.1220   -14.5550 
   73.8750     2.2370    78.3350     8.3140     6.7270     6.3990    23.7830   -14.4820 
   74.0000     2.2460    76.5900     8.7750     7.0630     7.0970    22.9650   -14.4090 
   74.1250     2.2610    71.1560     8.9580     7.2150     7.4730    22.8390   -14.3550 
   74.2500     2.2710    67.3170     8.7720     7.1020     7.2960    22.7580   -14.3450 
   74.3750     2.2640    68.9110     8.2250     6.7200     6.9000    22.8280   -14.3570 
   74.5000     2.2420    73.8250     7.4720     6.1610     6.4890    22.8940   -14.3660 
   74.6250     2.2180    78.2350     6.8460     5.6260     6.3420    23.1640   -14.4250 
   74.7500     2.2170    79.7610     6.6810     5.3320     6.3480    23.7160   -14.5730 
   74.8750     2.2500    77.3650     7.2760     5.4670     6.4540    24.3300   -14.8450 
   75.0000     2.3050    71.9750     8.9230     6.2250     7.4560    24.6040   -15.2750 
   75.1250     2.3410    67.5080    12.0920     8.0130    11.5630    24.6580   -15.8870 
   75.2500     2.3220    64.2120    16.4850    10.8740    20.9180    24.4970   -16.6400 
   75.3750     2.2490    61.7160    21.3300    14.5710    30.9400    24.2640   -17.5110 
   75.5000     2.1530    62.3330    25.0280    18.0840    33.0390    23.8650   -18.4550 
   75.6250     2.0810    65.2290    25.5340    19.5150    24.3180    23.7100   -19.3750 
   75.7500     2.0470    64.0820    23.8500    18.9750    17.3250    23.6150   -20.2310 
   75.8750     2.0420    59.7810    21.8170    17.6620    14.0990    23.7280   -21.0050 
   76.0000     2.0530    57.8940    20.7320    16.6360    13.2230    23.7690   -21.6720 
   76.1250     2.0690    59.0970    21.0160    16.4150    14.2030    23.8180   -22.1590 
   76.2500     2.0840    58.8340    21.9930    16.7570    15.8320    23.8330   -22.4530 
   76.3750     2.0980    57.3830    23.0420    17.3290    16.9370    23.8430   -22.5640 
   76.5000     2.1140    57.1550    23.6050    17.7450    17.1220    23.8690   -22.5390 
   76.6250     2.1500    58.9000    23.3340    17.6780    16.6330    23.8710   -22.3980 
   76.7500     2.2160    62.3970    22.6730    17.3200    15.6870    23.7770   -22.1360 
   76.8750     2.3150    67.2860    22.1990    17.0350    14.8260    23.7460   -21.7310 
   77.0000     2.4300    69.9090    22.4830    17.2300    14.6270    23.7500   -21.2200 
   77.1250     2.5250    67.8760    24.2480    18.4530    15.9070    23.7650   -20.6170 
   77.2500     2.5690    63.6260    27.6200    20.9070    19.0380    23.8270   -19.9410 
   77.3750     2.5510    60.7790    32.6330    24.7860    24.3650    24.0010   -19.2610 
