~V
VERS. 2.00: Ver 2.00
~W
STRT.M 49.0000:
STOP.M 221.0000:
STEP.M 0.1250:
NULL. -999.2500:
UWI. F10615:
~C
DEPT.M :
DEN.GM/CC :
GR.API :
RML.OHMM :
RI. :
RXO.OHMM :
CALI.CM :
SP.MV :
~A
# ...
  161.5000     2.2270    55.8840    20.8320    20.0860    20.6670    24.4850   -22.9080 
  161.6250     2.2470    57.6730    19.3260    18.7290    19.9920    24.4230   -22.8820 
  161.7500     2.2750    63.0490    18.0520    17.5120    19.0160    24.2980   -22.9380 
  161.8750     2.3050    67.0670    17.0950    16.5440    17.6530    24.1140   -23.0280 
  162.0000     2.3250    65.4070    16.5180    15.9050    16.7590    23.8990   -23.1030 
  162.1250     2.3230    61.5940    16.2250    15.5260    16.5550    23.8130   -23.2240 
  162.2500     2.2970    60.8680    16.2080    15.4010    17.5880    23.7940   -23.3630 
  162.3750     2.2580    63.5620    16.5330    15.5760    19.6940    23.8180   -23.4620 
  162.5000     2.2270    66.1140    17.4570    16.2420    19.5580    23.8990   -23.5850 
  162.6250     2.2180    66.7090    19.0770    17.4820    17.9790    23.9800   -23.6970 
  162.7500     2.2340    64.6170    21.4420    19.3810    18.0340    23.9400   -23.7620 
  162.8750     2.2640    60.4890    24.3690    21.8840    21.1550    23.8490   -23.8100 
  163.0000     2.2940    57.2250    27.2640    24.6310    28.4490    23.7540   -23.8370 
  163.1250     2.3070    56.8120    29.3500    26.8850    31.7040    23.6280   -23.8520 
  163.2500     2.3000    57.1240    30.2320    28.1370    30.4350    23.5260   -23.8630 
  163.3750     2.2810    56.3530    30.1250    28.3930    26.5630    23.4900   -23.8400 
  163.5000     2.2590    56.1780    29.7000    28.1540    25.6910    23.5740   -23.7670 
  163.6250     2.2420    58.3600    29.5290    28.0380    26.1680    23.7850   -23.7150 
  163.7500     2.2310    61.9030    29.6550    28.1840    26.4970    24.0320   -23.6540 
  163.8750     2.2270    63.3740    29.8320    28.4480    27.8400    24.1140   -23.5600 
  164.0000     2.2300    59.5900    29.6730    28.4870    29.3830    24.0510   -23.5210 
  164.1250     2.2340    54.8840    29.0960    28.1370    27.2790    23.9860   -23.5020 
  164.2500     2.2390    53.4360    28.2180    27.4530    23.4210    23.9350   -23.4630 
  164.3750     2.2410    55.0380    27.2470    26.6070    23.7670    23.9920   -23.4920 
  164.5000     2.2410    57.3000    26.3880    25.7860    25.6350    24.1180   -23.6050 
  164.6250     2.2390    58.8390    25.7700    25.1370    26.4870    24.2130   -23.7150 
  164.7500     2.2390    59.9970    25.5240    24.7950    25.3660    24.2310   -23.8660 
  164.8750     2.2370    61.2640    25.8180    24.9100    23.7980    24.1760   -24.0840 
  165.0000     2.2330    61.4460    27.0590    25.8150    24.0660    24.0130   -24.2810 
  165.1250     2.2270    60.5470    29.4130    27.6730    25.2930    23.7980   -24.4570 
  165.2500     2.2200    58.5690    33.0280    30.7000    27.7160    23.6520   -24.6920 
  165.3750     2.2130    56.7860    37.8130    34.9370    31.9810    23.7570   -24.9140 
  165.5000     2.2050    56.8390    43.3260    40.1370    37.4900    24.1910   -25.0730 
  165.6250     2.1960    58.2370    48.5390    45.3070    41.6020    24.4920   -25.2530 
  165.7500     2.1820    59.5110    52.5750    49.5140    45.5640    24.6510   -25.3920 
  165.8750     2.1650    57.6360    54.8520    52.0500    50.3080    24.7080   -25.4820 
  166.0000     2.1600    53.3920    55.1170    52.5070    52.2690    24.7070   -25.5540 
  166.1250     2.1790    51.9690    54.2810    51.7180    51.6900    24.6790   -25.5860 
  166.2500     2.2200    54.0390    53.0220    50.3580    51.0450    24.6310   -25.5540 
  166.3750     2.2660    56.2550    51.8830    48.9960    52.1520    24.5420   -25.4820 
  166.5000     2.3020    55.2600    51.3660    48.1650    52.2620    24.4960   -25.3480 
  166.6250     2.3280    54.1310    51.5770    48.0500    50.3200    24.5020   -25.1710 
  166.7500     2.3460    53.1680    52.4530    48.6750    51.6710    24.5730   -25.0080 
  166.8750     2.3500    50.5560    53.7730    49.8990    57.1080    24.6860   -24.8050 
  167.0000     2.3250    48.2690    55.2220    51.5060    60.9090    24.6590   -24.5960 
  167.1250     2.2740    49.9980    56.3390    53.0330    63.7110    24.6330   -24.4410 
  167.2500     2.2170    53.3360    56.5820    53.9250    59.7250    24.7340   -24.2780 
  167.3750     2.1780    53.5820    55.3920    53.5560    53.2190    24.9040   -24.1210 
  167.5000     2.1740    50.8130    52.1810    51.2120    50.6560    24.9910   -24.0620 
  167.6250     2.1900    48.8020    47.5380    47.3280    53.5030    25.0140   -24.0290 
  167.7500     2.2140    48.9870    42.1870    42.5390    51.0280    25.0100   -23.9930 
  167.8750     2.2340    51.4240    40.6600    37.6510    39.8240    24.9700   -24.0290 
  168.0000     2.2470    54.7430    35.9510    33.4790    31.7970    24.8700   -24.1300 
  168.1250     2.2520    57.4580    32.4050    30.2430    27.3280    24.7090   -24.2060 
  168.2500     2.2520    58.9280    29.9630    27.9510    25.5270    24.5580   -24.3240 
  168.3750     2.2470    59.5330    28.4230    26.4720    24.8510    24.4620   -24.4750 
  168.5000     2.2400    60.8990    27.5950    25.6730    24.5230    24.4870   -24.5820 
  168.6250     2.2370    62.4020    27.1470    25.2480    24.0610    24.5910   -24.6890 
  168.7500     2.2430    62.6500    26.9710    25.0840    23.6560    24.6840   -24.7770 
  168.8750     2.2530    61.7720    26.9950    25.1060    23.5760    24.7190   -24.8290 
  169.0000     2.2500    60.2930    27.1450    25.2430    23.7080    24.6670   -24.8310 
  169.1250     2.2310    58.9450    27.3320    25.3920    24.3960    24.4650   -24.7990 
  169.2500     2.2110    58.1270    27.5450    25.5150    25.6070    24.1520   -24.7340 
  169.3750     2.2170    58.1420    27.8200    25.6340    28.8650    24.0030   -24.6640 
  169.5000     2.2680    57.7720    28.2250    25.8230    29.4220    24.3150   -24.5760 
  169.6250     2.3320    57.3950    28.7050    26.0900    28.7380    24.5410   -24.4410 
  169.7500     2.3590    57.4790    29.1060    26.3390    29.1930    24.5090   -24.3390 
  169.8750     2.3240    55.5930    29.2180    26.3970    30.5060    24.4120   -24.2370 
  170.0000     2.2450    51.6500    28.9170    26.0930    30.8920    24.4950   -24.0980 
  170.1250     2.1840    51.5220    28.5930    25.6620    29.3360    24.7100   -24.0020 
  170.2500     2.1880    55.6390    28.8090    25.5260    26.6780    24.9370   -23.9290 
  170.3750     2.2830    57.3620    30.0930    26.1360    24.3750    25.0080   -23.8280 
  170.5000     2.4310    53.5290    32.6280    27.9550    24.7810    24.7910   -23.7690 
  170.6250     2.5190    48.9830    34.8120    30.6770    28.6300    24.3180   -23.7790 
  170.7500     2.5010    45.9910    36.8110    33.6390    36.7600    23.7090   -23.7670 
  170.8750     2.4110    45.1000    38.6930    35.7560    39.7560    23.1310   -23.7490 
  171.0000     2.3180    47.6150    38.4020    35.7330    30.0780    22.6600   -23.8140 
  171.1250     2.2580    52.0030    36.3720    33.9830    22.8720    22.5290   -23.8800 
  171.2500     2.2370    55.1590    33.6600    31.4190    21.4070    22.7930   -23.9140 
  171.3750     2.2380    56.0770    31.2770    28.9880    22.1120    23.2020   -23.9810 
  171.5000     2.2430    57.5340    29.9450    27.4140    22.7780    23.4330   -24.0420 
  171.6250     2.2390    60.2370    29.5080    26.6570    22.9920    23.5680   -24.0290 
  171.7500     2.2300    61.8310    29.7030    26.5210    23.2390    23.6700   -24.0260 
  171.8750     2.2260    61.1490    30.2680    26.7810    23.0980    23.6620   -24.0420 
  172.0000     2.2360    59.6440    30.9940    27.2680    22.4600    23.4710   -23.9700 
  172.1250     2.2550    57.6370    31.6610    27.7800    22.5940    23.2230   -23.8620 
  172.2500     2.2720    53.8780    32.1440    28.1950    22.5000    23.0010   -23.7720 
  172.3750     2.2780    50.6100    32.4060    28.4510    22.9370    22.9900   -23.6570 
  172.5000     2.2720    51.8840    32.5030    28.5330    24.5300    23.1290   -23.4820 
  172.6250     2.2680    53.9830    32.5680    28.5220    27.3890    23.2690   -23.3210 
