~V
VERS. 2.00: Ver 2.00
~W
STRT.M 57.0000:
STOP.M 248.0000:
STEP.M 0.1250:
NULL. -999.2500:
UWI. F10637:
~C
DEPT.M :
SP.MV :
GR.API :
RML.OHMM :
RI. :
RXO.OHMM :
CALI.CM :
DEN.GM/CC :
~A
# ...
   68.2500   -23.2500    72.7300     6.1480     4.5530     5.4800    24.1280     2.2850 
   68.3750   -22.6740    70.5550     6.0010     4.4580     5.3160    24.1290     2.2750 
   68.5000   -22.2010    70.9880     5.8750     4.3750     5.1570    24.0800     2.2660 
   68.6250   -21.8350    73.9090     5.7780     4.3140     5.0270    23.9210     2.2660 
   68.7500   -21.5830    75.2790     5.7120     4.2780     4.9370    23.6210     2.2770 
   68.8750   -21.4120    75.2690     5.6720     4.2620     4.8720    23.4490     2.2900 
   69.0000   -21.3040    76.6030     5.6750     4.2710     4.8280    23.4260     2.3020 
   69.1250   -21.2330    79.0300     5.7390     4.3180     4.8020    23.4630     2.3130 
   69.2500   -21.1930    79.2500     5.8790     4.4140     4.7920    23.5040     2.3240 
   69.3750   -21.1700    77.0830     6.0660     4.5370     4.8390    23.5260     2.3290 
   69.5000   -21.1620    75.0560     6.2630     4.6630     4.9740    23.5480     2.3260 
   69.6250   -21.1700    74.1170     6.4300     4.7640     5.1270    23.5600     2.3120 
   69.7500   -21.1900    72.3220     6.5110     4.8050     5.1460    23.5360     2.2950 
   69.8750   -21.2220    71.3110     6.4850     4.7740     5.0380    23.4840     2.2810 
   70.0000   -21.2630    71.6580     6.3520     4.6680     4.9230    23.4310     2.2720 
   70.1250   -21.3120    73.1250     6.1840     4.5270     4.9180    23.4070     2.2640 
   70.2500   -21.3780    74.4520     6.1670     4.4630     5.5350    23.4240     2.2610 
   70.3750   -21.4600    75.2230     6.4790     4.5930     7.4050    23.4000     2.2750 
   70.5000   -21.5650    75.3940     7.2900     5.0300    10.1790    23.3210     2.3200 
   70.6250   -21.7110    72.1270     8.7060     5.8650    12.6330    23.2240     2.3940 
   70.7500   -21.9230    66.5660    10.7120     7.1690    14.5820    23.1620     2.4760 
   70.8750   -22.2060    63.8820    12.7560     8.6600    15.8300    23.1490     2.5330 
   71.0000   -22.5730    65.5170    14.1520     9.9140    16.3130    23.1670     2.5430 
   71.1250   -23.0340    68.4800    14.3620    10.4710    16.2780    23.2110     2.4990 
   71.2500   -23.5960    66.5050    13.3490    10.1050    15.6590    23.2520     2.4140 
   71.3750   -24.2260    62.9050    12.0250     9.3390    14.3810    23.3340     2.3220 
   71.5000   -24.8940    61.7400    10.9370     8.5730    12.6240    23.4540     2.2470 
   71.6250   -25.5640    63.2210    10.2580     8.0040    10.7410    23.5660     2.1990 
   71.7500   -26.1840    62.7050     9.9140     7.6630     9.3090    23.6520     2.1800 
   71.8750   -26.7210    59.0640     9.6460     7.4060     8.5290    23.7400     2.1730 
   72.0000   -27.1480    56.7160     9.3110     7.1310     7.8110    23.7960     2.1680 
   72.1250   -27.4490    57.9710     8.8650     6.7820     7.3580    23.7900     2.1670 
   72.2500   -27.5930    61.2450     8.3700     6.3780     7.1540    23.7190     2.1710 
   72.3750   -27.6200    64.1950     7.9420     6.0050     7.0260    23.6870     2.1800 
   72.5000   -27.5620    66.3330     7.6460     5.7230     6.8790    23.6810     2.1900 
   72.6250   -27.4510    68.1080     7.5010     5.5570     6.7050    23.6870     2.2010 
   72.7500   -27.3360    68.1980     7.5030     5.5170     6.5080    23.6910     2.2110 
   72.8750   -27.2530    67.1480     7.5960     5.5570     6.3450    23.6670     2.2190 
   73.0000   -27.2280    66.9160     7.7680     5.6600     6.2810    23.6150     2.2240 
   73.1250   -27.2760    67.8960     8.0240     5.8210     6.4290    23.5110     2.2240 
   73.2500   -27.4180    67.1070     8.3930     6.0640     6.8670    23.3460     2.2160 
   73.3750   -27.6390    64.5510     8.8570     6.3820     7.3750    23.1840     2.2040 
   73.5000   -27.9260    63.4670     9.3730     6.7580     7.7700    23.0850     2.1930 
   73.6250   -28.2550    63.2220     9.8610     7.1400     8.0220    23.1080     2.1840 
   73.7500   -28.6140    60.4410    10.1810     7.4280     8.1940    23.4380     2.1830 
   73.8750   -28.9830    58.2120    10.2810     7.5630     8.3080    24.0430     2.1850 
   74.0000   -29.3510    59.5440    10.1700     7.5330     8.3400    24.7150     2.1890 
   74.1250   -29.7040    62.6620     9.9400     7.3860     8.2800    25.2430     2.1940 
   74.2500   -30.0320    64.3510     9.7610     7.2280     8.1060    25.4750     2.1990 
   74.3750   -30.3290    63.4370     9.7590     7.1710     7.8880    25.5420     2.2010 
   74.5000   -30.5900    61.2380     9.9680     7.2640     7.7700    25.5430     2.1960 
   74.6250   -30.8200    58.2050    10.3310     7.4940     7.8900    25.4460     2.1830 
   74.7500   -31.0040    55.2720    10.7020     7.7830     8.3340    25.1420     2.1670 
   74.8750   -31.1410    53.8260    10.9010     7.9880     8.9460    24.8930     2.1570 
   75.0000   -31.2250    54.9650    10.8310     8.0100     9.5260    24.9740     2.1570 
   75.1250   -31.2530    58.9760    10.4950     7.8180     9.8770    25.0880     2.1670 
   75.2500   -31.2100    61.6770     9.9880     7.4530     9.7640    25.1960     2.1760 
   75.3750   -31.1020    61.0130     9.4870     7.0600     9.3210    25.4210     2.1710 
   75.5000   -30.9320    59.5550     9.1170     6.7360     8.8100    25.6310     2.1500 
   75.6250   -30.7020    60.0640     9.0010     6.5710     8.4790    25.6540     2.1200 
   75.7500   -30.4110    61.0490     9.3760     6.7250     8.3220    25.3860     2.1070 
   75.8750   -30.0750    59.2270    10.3090     7.2620     8.4120    24.9870     2.1400 
   76.0000   -29.7070    57.5590    11.7860     8.2180     9.1360    24.5930     2.2230 
   76.1250   -29.3190    58.8700    13.5650     9.4990    10.4710    24.2860     2.3250 
   76.2500   -28.9400    59.6300    14.9840    10.7300    11.6980    24.0440     2.3800 
   76.3750   -28.5950    56.7540    15.3980    11.3750    12.4610    23.8570     2.3700 
   76.5000   -28.3040    53.6640    14.6270    11.1600    12.7210    23.7960     2.3150 
   76.6250   -28.0800    53.8420    13.0970    10.2550    12.3720    23.9030     2.2440 
   76.7500   -27.9520    56.0900    11.5420     9.1160    11.3280    24.3200     2.1840 
   76.8750   -27.9080    57.8140    10.4010     8.1470    10.1650    24.8820     2.1440 
   77.0000   -27.9440    57.8000     9.7590     7.4860     9.2630    25.2080     2.1190 
   77.1250   -28.0500    56.4190     9.5800     7.1740     8.7110    25.1670     2.1110 
   77.2500   -28.2200    55.4910     9.8270     7.2420     8.6220    24.8770     2.1380 
   77.3750   -28.4220    55.5330    10.3150     7.5570     8.8870    24.7630     2.2030 
   77.5000   -28.6370    55.9500    10.8990     8.0150     9.2800    24.8480     2.2890 
   77.6250   -28.8520    55.7360    11.3860     8.4730     9.6600    24.8920     2.3610 
   77.7500   -29.0510    54.6760    11.4810     8.7020     9.8040    24.7090     2.3680 
   77.8750   -29.2290    53.4550    11.1190     8.5930     9.6160    24.5070     2.3200 
   78.0000   -29.3780    54.8270    10.4070     8.1670     9.1630    24.3430     2.2500 
   78.1250   -29.4940    58.4380     9.5820     7.5730     8.6640    24.1780     2.1940 
   78.2500   -29.5600    60.4770     8.9260     7.0190     8.3170    24.0570     2.1720 
   78.3750   -29.5820    61.3460     8.5460     6.6350     8.1080    23.9950     2.1690 
   78.5000   -29.5630    63.6560     8.4440     6.4540     8.0510    23.9610     2.1730 
   78.6250   -29.5050    65.8590     8.5670     6.4630     8.0850    23.9430     2.1740 
   78.7500   -29.4070    64.7000     8.8530     6.6320     8.1000    23.9820     2.1670 
   78.8750   -29.2880    62.8330     9.1840     6.8710     8.1590    24.0670     2.1570 
   79.0000   -29.1620    62.4830     9.4780     7.1100     8.2960    24.1270     2.1470 
   79.1250   -29.0460    61.2190     9.6770     7.2940     8.4780    24.1000     2.1400 
   79.2500   -28.9500    59.4500     9.7550     7.3830     8.6290    24.1310     2.1380 
   79.3750   -28.8780    59.0950     9.7810     7.4160     8.7630    24.3110     2.1440 
