~V
VERS. 2.00: Ver 2.00
~W
STRT.M 55.0000:
STOP.M 197.0000:
STEP.M 0.1250:
NULL. -999.2500:
UWI. F10681:
~C
DEPT.M :
DEN.GM/CC :
GR.API :
RML.OHMM :
RI. :
RXO.OHMM :
CALI.CM :
SP.MV :
~A
# ...
  167.5000     2.3490    55.6920    11.0810     8.2090     8.3290    24.5990   -13.4440 
  167.6250     2.3470    56.5680    11.6870     8.8530     9.2060    24.4620   -13.3150 
  167.7500     2.3450    59.8790    11.8140     9.1540     9.7280    24.4020   -13.1910 
  167.8750     2.3450    65.9440    11.4730     9.0610     9.9330    24.4700   -13.0990 
  168.0000     2.3470    69.5500    10.8240     8.6580    10.4480    24.5060   -13.0540 
  168.1250     2.3460    65.9210    10.1360     8.1300     9.7050    24.6210   -13.0030 
  168.2500     2.3410    60.8560     9.6400     7.6810     8.6350    24.6390   -12.9350 
  168.3750     2.3330    61.0440     9.4180     7.3990     7.6110    24.5630   -12.8930 
  168.5000     2.3250    64.9910     9.4400     7.2950     7.0260    24.4400   -12.9130 
  168.6250     2.3200    65.9280     9.5740     7.3140     7.1520    24.3580   -12.9410 
  168.7500     2.3180    64.1540     9.6070     7.3130     7.8440    24.2680   -12.9530 
  168.8750     2.3160    63.0280     9.4090     7.1830     8.2880    24.2720   -12.9510 
  169.0000     2.3140    61.3030     8.9660     6.8860     7.9380    24.2720   -12.9320 
  169.1250     2.3140    57.7070     8.4250     6.4800     7.3960    24.2410   -12.9270 
  169.2500     2.3180    56.7500     8.0360     6.1290     7.0880    24.1050   -12.9160 
  169.3750     2.3300    60.0070     7.9600     5.9510     7.5610    24.0160   -12.8420 
  169.5000     2.3520    64.8890     8.2570     6.0160     8.1990    24.2480   -12.7060 
  169.6250     2.3800    66.5020     8.9300     6.3750     9.0960    24.5650   -12.5560 
  169.7500     2.4080    67.5650     9.7820     6.9300     9.9110    24.7060   -12.4190 
  169.8750     2.4290    68.6360    10.6390     7.5800    10.5300    24.7500   -12.2820 
  170.0000     2.4410    67.2690    11.3360     8.1950    10.7630    24.6490   -12.1630 
  170.1250     2.4450    64.0460    11.7410     8.6380    10.6740    24.5090   -12.0790 
  170.2500     2.4480    62.6160    11.9520     8.9180    10.6650    24.4110   -11.9980 
  170.3750     2.4510    63.0990    12.1160     9.1190    11.1610    24.4550   -11.9310 
  170.5000     2.4520    62.0540    12.3900     9.3580    11.8650    24.6360   -11.8940 
  170.6250     2.4490    61.7380    12.9080     9.7530    11.8880    24.7350   -11.9150 
  170.7500     2.4440    66.6580    13.5910    10.2880    11.9330    24.7340   -11.9760 
  170.8750     2.4390    72.4010    14.2490    10.8600    11.9960    24.6210   -12.0740 
  171.0000     2.4340    72.5000    14.6100    11.2780    12.1010    24.3420   -12.1750 
  171.1250     2.4270    67.9450    14.3290    11.2450    13.0250    24.3200   -12.2420 
  171.2500     2.4140    66.0330    13.4890    10.7470    14.1370    24.3510   -12.3180 
  171.3750     2.3960    65.9980    12.3280     9.9170    12.7350    24.4160   -12.4310 
  171.5000     2.3760    65.3360    11.1710     8.9890    10.0300    24.4970   -12.5470 
  171.6250     2.3560    62.8450    10.3270     8.2130     8.1240    24.4650   -12.6520 
  171.7500     2.3370    58.6900     9.8100     7.6650     7.0670    24.4020   -12.7390 
  171.8750     2.3140    55.5120     9.5460     7.3300     6.2950    24.2320   -12.8030 
  172.0000     2.2870    57.9780     9.4140     7.1480     5.8760    24.1910   -12.8710 
  172.1250     2.2660    64.9350     9.3040     7.0490     5.8460    23.9110   -12.9410 
  172.2500     2.2630    67.8180     9.1870     6.9760     5.8590    23.4190   -13.0140 
  172.3750     2.2840    66.2180     9.1310     6.9450     6.0670    22.6060   -13.0690 
  172.5000     2.3290    64.6520     9.2490     7.0160     6.8760    21.8390   -13.0900 
  172.6250     2.3810    64.6120     9.6680     7.2790     8.2010    21.9070   -13.0510 
  172.7500     2.4200    64.9820    10.3290     7.7260     9.4400    22.6160   -12.9590 
  172.8750     2.4370    66.4180    11.1240     8.3160    10.3730    23.6570   -12.8220 
  173.0000     2.4360    65.9660    11.8800     8.9470    11.4440    24.0780   -12.6510 
  173.1250     2.4240    62.9770    12.3660     9.4390    12.2310    23.8470   -12.4690 
  173.2500     2.4110    62.3360    12.5370     9.6970    11.5680    24.0070   -12.2970 
  173.3750     2.4000    65.2750    12.4670     9.7260    11.3440    24.4400   -12.1430 
  173.5000     2.3930    68.0410    12.3060     9.6240    12.1070    24.5980   -12.0220 
  173.6250     2.3910    67.2180    12.2350     9.5310    12.0810    24.5780   -11.9570 
  173.7500     2.3940    66.6730    12.3310     9.5430    10.2870    24.5470   -11.9520 
  173.8750     2.4000    67.3920    12.5820     9.6800     9.3590    24.6150   -11.9930 
  174.0000     2.4080    67.2250    12.9180     9.9100     9.5580    24.6130   -12.0710 
  174.1250     2.4170    65.5930    13.2260    10.1670    10.0050    24.5260   -12.1560 
  174.2500     2.4260    64.6450    13.4070    10.3640    10.5120    24.4470   -12.2110 
  174.3750     2.4340    66.0370    13.3950    10.4360    11.1760    24.5010   -12.2710 
  174.5000     2.4390    67.0970    13.1750    10.3460    11.8300    24.5960   -12.3640 
  174.6250     2.4390    65.3380    12.7850    10.1050    12.3690    24.6360   -12.4530 
  174.7500     2.4360    64.9240    12.3750     9.8180    12.3580    24.5340   -12.5230 
  174.8750     2.4340    66.4980    12.0720     9.5770    11.8850    24.3620   -12.5750 
  175.0000     2.4340    66.5250    11.9720     9.4620    11.7680    24.3370   -12.6330 
  175.1250     2.4350    65.3330    12.1340     9.5320    11.7620    24.2350   -12.7380 
  175.2500     2.4290    67.1400    12.4240     9.7200    11.1970    24.1260   -12.8680 
  175.3750     2.4150    70.3040    12.6850     9.9260    11.1300    24.1700   -12.9790 
  175.5000     2.3920    72.2060    12.7670    10.0350    11.4030    24.2580   -13.0410 
  175.6250     2.3710    71.4390    12.5820     9.9530    10.9700    24.2410   -13.0780 
  175.7500     2.3620    67.0890    12.2750     9.7600    10.7860    24.2500   -13.1150 
  175.8750     2.3700    61.3810    12.0120     9.5720    10.4600    24.1880   -13.1740 
  176.0000     2.3930    59.1670    11.9270     9.4960    10.1100    24.2210   -13.1940 
  176.1250     2.4190    62.3310    12.0920     9.6140    10.6860    24.2460   -13.1450 
  176.2500     2.4370    64.3930    12.4050     9.8800    11.3580    24.1680   -13.0840 
  176.3750     2.4450    63.6580    12.7610    10.2320    11.5030    24.0770   -13.0320 
  176.5000     2.4480    62.5680    13.0570    10.5910    12.0150    24.0740   -13.0230 
  176.6250     2.4540    60.8680    13.1970    10.8670    13.1470    24.2010   -13.0960 
  176.7500     2.4630    60.1330    13.1770    11.0190    13.6380    24.3010   -13.1940 
  176.8750     2.4650    61.9030    12.9910    11.0160    13.5350    24.3580   -13.3100 
  177.0000     2.4500    64.9130    12.6130    10.8170    13.9730    24.3010   -13.4750 
  177.1250     2.4130    66.1200    11.9670    10.3320    14.5220    24.3590   -13.7050 
  177.2500     2.3700    63.8340    11.1050     9.6070    13.2510    24.2830   -14.0000 
  177.3750     2.3330    60.0820    10.1190     8.7310    10.9130    23.9480   -14.3490 
  177.5000     2.3060    57.9530     9.1580     7.8440     8.4600    23.6520   -14.7080 
  177.6250     2.2870    58.9270     8.4350     7.1290     7.0720    23.3640   -15.0250 
  177.7500     2.2690    61.9870     8.0460     6.6640     6.4610    23.1790   -15.2750 
  177.8750     2.2510    64.2570     8.0220     6.4860     5.9850    23.1880   -15.4710 
  178.0000     2.2440    65.5750     8.3330     6.5830     5.8820    23.3160   -15.6050 
  178.1250     2.2630    65.1970     8.9390     6.9500     6.5600    23.1900   -15.6030 
  178.2500     2.3060    63.2720     9.7090     7.4860     7.7160    23.4160   -15.4580 
  178.3750     2.3620    62.6450    10.5910     8.1410     8.7880    23.6040   -15.2040 
  178.5000     2.4150    65.3020    11.5760     8.8850    11.0960    23.8900   -14.8790 
  178.6250     2.4470    68.1480    12.6960     9.7270    14.4180    24.1880   -14.5030 
