~V
VERS. 2.00: Ver 2.00
~W
STRT.M 50.0000:
STOP.M 209.0000:
STEP.M 0.1250:
NULL. -999.2500:
UWI. F10692:
~C
DEPT.M :
DEN.GM/CC :
GR.API :
RML.OHMM :
RI. :
RXO.OHMM :
CALI.CM :
SP.MV :
~A
# ...
  185.0000     2.3670    52.1780    35.5290    29.1230    32.5350    25.1060   -28.8610 
  185.1250     2.3680    49.8030    36.5860    30.0610    38.2970    25.1260   -28.9920 
  185.2500     2.3540    50.8490    37.1470    30.5700    36.9890    25.0810   -29.1190 
  185.3750     2.3380    52.0370    37.3150    30.7280    31.9440    25.0200   -29.2530 
  185.5000     2.3320    50.8610    37.3760    30.7560    28.6730    25.0350   -29.4000 
  185.6250     2.3290    50.1630    37.8030    31.0310    27.8970    25.0960   -29.5750 
  185.7500     2.3250    50.8550    38.8420    31.7950    28.6240    25.1380   -29.7640 
  185.8750     2.3270    50.2470    40.5570    33.1490    31.7160    25.1560   -29.9540 
  186.0000     2.3380    46.2540    42.8470    35.0550    36.6590    25.1870   -30.1320 
  186.1250     2.3440    43.6860    45.5560    37.4160    38.7470    25.2800   -30.2980 
  186.2500     2.3290    45.4450    48.4630    40.0170    36.5100    25.3540   -30.4700 
  186.3750     2.3030    48.5090    51.5450    42.8190    36.0060    25.3870   -30.6570 
  186.5000     2.2830    48.6800    54.7950    45.8310    38.2930    25.3120   -30.8590 
  186.6250     2.2790    47.1120    57.9010    48.8580    40.5790    25.0830   -31.0630 
  186.7500     2.2840    46.0550    60.2140    51.3200    40.8580    24.9330   -31.2500 
  186.8750     2.2920    44.1170    61.1450    52.6250    41.8270    25.0000   -31.4080 
  187.0000     2.2980    41.8280    60.5760    52.5440    45.0970    25.1980   -31.5290 
  187.1250     2.2980    43.7160    59.0700    51.4400    47.1130    25.3660   -31.6070 
  187.2500     2.2950    48.7310    57.8520    50.4240    44.3710    25.3930   -31.6540 
  187.3750     2.2910    52.0980    57.6280    50.2130    40.7460    25.3400   -31.6870 
  187.5000     2.2910    51.1180    58.6320    51.1190    43.6320    25.3080   -31.7260 
  187.6250     2.2950    48.0880    60.8890    53.2690    51.0060    25.3750   -31.7920 
  187.7500     2.3000    46.4220    63.9190    56.2760    58.7950    25.4630   -31.8780 
  187.8750     2.2980    46.2310    67.4330    59.9170    63.1220    25.4920   -31.9730 
  188.0000     2.2840    46.3720    71.1270    63.9370    64.3560    25.4610   -32.0520 
  188.1250     2.2570    45.6930    74.3560    67.8000    67.1000    25.4240   -32.0600 
  188.2500     2.2310    45.0850    75.9600    70.3770    72.3810    25.3890   -31.9600 
  188.3750     2.2120    45.3630    74.4910    70.2030    68.2070    25.3510   -31.7280 
  188.5000     2.2080    47.2800    69.2690    66.3750    52.9110    25.2600   -31.3780 
  188.6250     2.2220    50.1190    61.2890    59.3820    40.2960    25.0280   -30.9490 
  188.7500     2.2450    50.4490    53.6320    52.0920    32.2400    24.7390   -30.5230 
  188.8750     2.2680    47.6920    48.1670    46.4590    29.1210    24.5680   -30.1560 
  189.0000     2.2900    44.4040    45.7310    43.5210    31.5510    24.8100   -29.8760 
  189.1250     2.3130    44.5820    46.8990    44.0170    37.7620    25.2970   -29.7140 
  189.2500     2.3310    47.1720    50.8430    47.3380    45.8470    25.5350   -29.6450 
  189.3750     2.3350    49.9340    57.0130    53.1520    55.5300    25.5890   -29.6510 
  189.5000     2.3250    50.3700    64.3070    60.5570    65.7820    25.5920   -29.7050 
  189.6250     2.3030    49.1670    70.5120    67.5010    74.3930    25.5950   -29.7700 
  189.7500     2.2780    48.4390    73.8430    71.9250    79.6660    25.5950   -29.8120 
  189.8750     2.2580    47.0230    73.9560    73.1040    78.5890    25.5930   -29.8160 
  190.0000     2.2500    43.7980    71.9610    71.7630    72.2950    25.5860   -29.7910 
  190.1250     2.2570    42.3850    69.6580    69.5120    66.9650    25.5210   -29.7630 
  190.2500     2.2680    44.3140    68.3380    67.9190    65.8520    25.4130   -29.7650 
  190.3750     2.2790    46.1160    68.3120    67.4920    65.3880    25.3760   -29.8250 
  190.5000     2.2900    45.6640    69.3280    68.1300    65.1230    25.4500   -29.9530 
  190.6250     2.3020    44.9130    70.7280    69.3040    70.4570    25.5070   -30.1280 
  190.7500     2.3130    43.5580    71.7250    70.2570    71.4080    25.5120   -30.2880 
  190.8750     2.3240    41.5800    71.9110    70.5840    65.9540    25.4660   -30.3770 
  191.0000     2.3300    41.2600    71.0350    70.0100    59.6910    25.3780   -30.3450 
  191.1250     2.3180    44.8900    68.9320    68.2610    54.8160    25.3040   -30.1420 
  191.2500     2.2890    48.7580    66.3300    65.8780    53.1330    25.3180   -29.8160 
  191.3750     2.2630    50.7600    64.0380    63.5970    55.9520    25.3770   -29.4220 
  191.5000     2.2550    51.0590    62.7020    62.0990    54.8790    25.4250   -29.0120 
  191.6250     2.2630    49.5780    62.7790    61.8990    48.8340    25.4460   -28.6480 
  191.7500     2.2720    46.5200    63.9030    62.7000    45.8450    25.4330   -28.3630 
  191.8750     2.2800    43.9570    65.6250    64.1000    50.8860    25.3810   -28.1630 
  192.0000     2.2900    43.8040    67.3720    65.5810    54.2940    25.2960   -28.0280 
  192.1250     2.2840    44.5280    68.5420    66.6380    54.8170    25.3990   -27.9330 
  192.2500     2.2590    43.8160    68.8640    67.0550    50.9310    25.7570   -27.8350 
  192.3750     2.2360    42.8840    68.0870    66.5930    50.9700    26.2310   -27.6910 
  192.5000     2.2350    42.7410    66.1120    65.0810    53.3730    26.5840   -27.4550 
  192.6250     2.2540    41.6690    63.1530    62.5980    58.8460    26.6570   -27.0620 
  192.7500     2.2800    40.3150    60.2960    60.0760    58.2330    26.4930   -26.5190 
  192.8750     2.3190    40.8540    58.7000    58.6510    47.2390    26.1540   -25.8260 
  193.0000     2.3830    44.7120    59.2280    59.4450    37.1120    25.7660   -24.9940 
  193.1250     2.4660    50.4790    61.2130    62.2940    38.5750    25.4900   -24.0170 
  193.2500     2.5300    55.5180    60.4250    62.8780    49.8940    25.3020   -22.9380 
  193.3750     2.5520    59.1970    52.4580    55.9740    68.2660    25.2240   -21.7980 
  193.5000     2.5330    60.7810    38.0010    41.3490    84.3470    25.1930   -20.6570 
  193.6250     2.4810    57.8990    23.8700    26.2300    61.6640    25.1820   -19.5760 
  193.7500     2.4140    51.0460    13.8470    15.6680    29.2590    25.2170   -18.5720 
  193.8750     2.3520    42.4100     8.3700     9.4850    11.3230    25.3060   -17.6670 
  194.0000     2.3180    35.2730     5.5530     6.2230     5.5090    25.4230   -16.9040 
  194.1250     2.3190    30.6820     4.4780     4.8040     4.5310    25.5080   -16.3700 
  194.2500     2.3310    28.4510     4.2730     4.2890     4.6390    25.4920   -16.0420 
  194.3750     2.3520    27.4710     4.6760     4.4310     4.7260    25.4540   -15.8820 
  194.5000     2.3920    26.8000     5.5100     5.0700     4.8180    25.4250   -15.8300 
  194.6250     2.4570    25.7990     6.5600     6.0280     5.0270    25.3980   -15.8640 
  194.7500     2.5190    25.3780     7.4460     6.9330     5.2410    25.4010   -15.9660 
  194.8750     2.5470    25.8230     7.8610     7.4640     5.2120    25.4390   -16.1310 
  195.0000     2.5160    26.0860     7.6420     7.4220     4.9880    25.4890   -16.3250 
  195.1250     2.4410    26.4730     6.8480     6.8150     4.8260    25.5160   -16.4930 
  195.2500     2.3810    27.2430     5.9430     6.0390     4.7510    25.5560   -16.6130 
  195.3750     2.3620    27.6890     5.2150     5.3430     4.6950    25.6090   -16.6900 
  195.5000     2.3760    27.2200     4.7820     4.8440     4.6990    25.5790   -16.7430 
  195.6250     2.3930    26.2350     4.6770     4.5940     4.6170    25.3980   -16.7680 
  195.7500     2.3950    25.5920     4.7570     4.5070     4.6510    25.2750   -16.7500 
  195.8750     2.3900    24.8790     4.9140     4.5120     4.6100    25.2490   -16.6920 
  196.0000     2.3870    24.1100     5.0470     4.5430     4.6060    25.2800   -16.6180 
  196.1250     2.3850    24.0030     5.0710     4.5400     4.6790    25.2970   -16.5490 
