~V
VERS. 2.00: Ver 2.00
~W
STRT.M 50.0000:
STOP.M 263.0000:
STEP.M 0.1250:
NULL. -999.2500:
UWI. F10656:
~C
DEPT.M :
DEN.GM/CC :
GR.API :
RML.OHMM :
RI. :
RXO.OHMM :
CALI.CM :
SP.MV :
~A
# ...
  196.2500     2.2980    65.3320    26.0870    25.1190    26.5900    24.0990    -6.0910 
  196.3750     2.3010    66.1960    24.9070    24.2750    25.1480    24.0890    -6.1020 
  196.5000     2.3280    64.1000    23.9270    23.3330    24.2590    24.0910    -6.1340 
  196.6250     2.3620    59.8280    23.4120    22.6550    24.6620    24.0800    -6.1340 
  196.7500     2.3810    57.6590    23.2660    22.3000    26.0380    24.0670    -6.1070 
  196.8750     2.3740    58.2330    23.4300    22.2830    27.6450    24.0900    -6.0790 
  197.0000     2.3390    59.4330    23.8280    22.5750    29.1300    24.1580    -6.0670 
  197.1250     2.2900    60.8800    24.2800    23.0450    28.5930    24.2160    -6.0650 
  197.2500     2.2470    64.9380    24.4820    23.3850    26.3540    24.2140    -6.0550 
  197.3750     2.2230    70.2980    24.1750    23.3220    24.5890    24.1870    -6.0120 
  197.5000     2.2220    71.4970    23.2240    22.6750    23.9030    24.1780    -5.8960 
  197.6250     2.2420    67.1980    21.6620    21.4000    22.7340    24.1860    -5.7620 
  197.7500     2.2710    63.4230    19.9620    19.8970    20.6390    24.2280    -5.6490 
  197.8750     2.2980    63.1420    18.5730    18.5670    18.3100    24.2660    -5.5540 
  198.0000     2.3160    65.0730    17.9070    17.7950    16.6850    24.2600    -5.4570 
  198.1250     2.3170    66.1190    18.4590    18.0640    16.2890    24.2170    -5.3830 
  198.2500     2.3040    64.5910    20.1970    19.4350    17.3110    24.1600    -5.3380 
  198.3750     2.2870    60.4840    23.0270    21.9230    19.9510    24.1110    -5.3330 
  198.5000     2.2780    56.0570    26.5780    25.2840    24.0210    24.0790    -5.3340 
  198.6250     2.2960    53.6250    30.0500    28.8550    28.8400    24.0080    -5.3620 
  198.7500     2.3380    51.4490    32.5020    31.6430    31.9160    23.9360    -5.4230 
  198.8750     2.3890    50.5930    33.3160    32.9200    32.8350    23.9070    -5.5300 
  199.0000     2.4250    52.4780    32.4250    32.4560    32.5250    23.9430    -5.6580 
  199.1250     2.4190    57.8310    30.4390    30.6650    31.4590    24.0460    -5.7860 
  199.2500     2.3810    62.3410    28.7240    28.8570    30.1460    24.1360    -5.9080 
  199.3750     2.3320    63.3160    28.1810    27.9310    28.2700    24.1420    -6.0530 
  199.5000     2.2910    62.7490    29.3450    28.4780    27.4970    24.0820    -6.2440 
  199.6250     2.2700    62.7640    32.6170    31.0480    31.1260    23.9400    -6.4500 
  199.7500     2.2610    62.2870    37.2730    35.1510    39.3270    23.8050    -6.6410 
  199.8750     2.2580    59.3550    42.5180    40.1710    49.3450    23.7090    -6.7990 
  200.0000     2.2550    54.8880    47.3750    45.2000    56.0030    23.6830    -6.9520 
  200.1250     2.2520    53.0060    50.7640    49.0980    55.8730    23.7490    -7.1040 
  200.2500     2.2500    53.4850    52.7310    51.6290    55.1270    23.8040    -7.2750 
  200.3750     2.2490    55.1980    53.7920    53.1340    55.7460    23.8040    -7.4100 
  200.5000     2.2480    55.9130    54.5840    54.2080    57.6350    23.7800    -7.5380 
  200.6250     2.2450    54.4940    55.2480    55.0760    59.5460    23.7400    -7.6140 
  200.7500     2.2400    52.1280    55.1710    55.2580    59.9570    23.7210    -7.6480 
  200.8750     2.2320    50.0170    53.4060    53.8550    58.5070    23.7080    -7.6580 
  201.0000     2.2220    49.4010    49.1590    50.0350    56.2710    23.6950    -7.6660 
  201.1250     2.2160    51.5480    42.1000    43.3140    53.2770    23.6970    -7.6280 
  201.2500     2.2180    54.7980    34.0170    35.3460    47.9560    23.6920    -7.5070 
  201.3750     2.2340    57.3690    26.6360    27.8310    39.0110    23.7100    -7.3180 
  201.5000     2.2620    59.9920    21.1580    22.0170    26.9610    23.7990    -7.0680 
  201.6250     2.2940    63.0920    18.2830    18.6560    18.3830    23.9200    -6.8120 
  201.7500     2.3190    65.4980    17.3090    17.1550    15.3550    24.0280    -6.5730 
  201.8750     2.3380    66.8870    17.7320    17.1130    16.3250    24.1140    -6.3400 
  202.0000     2.3530    66.0340    19.0080    18.1000    18.9650    24.1910    -6.1040 
  202.1250     2.3630    63.2270    20.5950    19.6870    20.4250    24.2250    -5.8730 
  202.2500     2.3640    60.5240    21.9770    21.2910    21.3180    24.2060    -5.6790 
  202.3750     2.3520    60.5160    22.9380    22.6000    22.1150    24.1810    -5.5220 
  202.5000     2.3300    62.1300    23.4740    23.5000    22.1390    24.1560    -5.4140 
  202.6250     2.3080    63.3450    23.6880    23.9970    22.2610    24.0930    -5.3330 
  202.7500     2.2970    62.5710    23.7390    24.2190    22.7830    24.0940    -5.2400 
  202.8750     2.2960    60.1680    23.6210    24.1470    23.4450    24.1200    -5.1610 
  203.0000     2.3000    58.8580    23.2670    23.7160    23.6830    24.1330    -5.0720 
  203.1250     2.3030    59.8140    22.5550    22.8190    23.0520    24.0990    -4.9960 
  203.2500     2.3040    61.3420    21.5350    21.5630    22.0900    24.0560    -4.9320 
  203.3750     2.3050    62.6650    20.2890    20.0650    20.9630    24.0750    -4.9090 
  203.5000     2.3080    63.6470    18.9410    18.4770    19.5400    24.1570    -4.8950 
  203.6250     2.3170    63.9640    17.6430    16.9770    17.7560    24.2080    -4.8980 
  203.7500     2.3320    63.9510    16.5200    15.6940    16.1790    24.2400    -4.9290 
  203.8750     2.3500    65.7690    15.7020    14.7390    15.3800    24.2780    -5.0190 
  204.0000     2.3630    68.3620    15.3380    14.2230    15.1520    24.3140    -5.1510 
  204.1250     2.3590    68.2030    15.7240    14.3770    15.2610    24.3220    -5.2950 
  204.2500     2.3380    66.3340    16.9100    15.2410    15.7110    24.3260    -5.4380 
  204.3750     2.3080    64.6040    18.9680    16.9130    16.9810    24.3220    -5.5950 
  204.5000     2.2810    62.9460    21.8610    19.4200    19.5300    24.3090    -5.7560 
  204.6250     2.2640    60.2040    25.3620    22.6680    23.6460    24.2720    -5.9050 
  204.7500     2.2560    58.4720    28.7070    25.9820    28.4270    24.2140    -6.0670 
  204.8750     2.2500    59.6230    31.0360    28.5550    32.3050    24.1710    -6.2010 
  205.0000     2.2450    60.8450    31.4910    29.5000    34.0590    24.1660    -6.3290 
  205.1250     2.2500    59.0450    29.1980    27.8180    33.6210    24.0890    -6.4440 
  205.2500     2.2740    55.7450    24.9840    24.1440    32.0540    23.9940    -6.5430 
  205.3750     2.3200    55.0990    19.9520    19.5040    28.3260    23.9480    -6.6060 
  205.5000     2.3780    60.0690    15.2860    15.0750    22.4380    23.8780    -6.6650 
  205.6250     2.4270    68.8390    11.9650    11.8170    15.1020    23.8140    -6.6970 
  205.7500     2.4530    75.8860     9.9380     9.7140    10.1200    23.8340    -6.6830 
  205.8750     2.4570    78.3890     8.9890     8.5910     8.2980    23.8930    -6.6240 
  206.0000     2.4500    78.5830     8.7940     8.1890     8.1840    23.9260    -6.5610 
  206.1250     2.4410    78.5410     9.0360     8.2740     8.6150    23.9330    -6.4910 
  206.2500     2.4350    77.6890     9.3310     8.5030     8.9060    23.9430    -6.4090 
  206.3750     2.4280    75.7490     9.5050     8.6960     8.9560    23.9550    -6.3130 
  206.5000     2.4220    74.2310     9.5080     8.7710     8.7450    23.9690    -6.2190 
  206.6250     2.4170    76.0050     9.3950     8.7360     8.3950    23.9600    -6.1570 
  206.7500     2.4160    79.4100     9.2870     8.6810     8.1640    23.9330    -6.1000 
  206.8750     2.4190    81.3440     9.2390     8.6520     8.1160    23.8960    -6.0620 
  207.0000     2.4200    79.8450     9.2580     8.6570     8.1770    23.8580    -6.0060 
  207.1250     2.4200    75.4380     9.3010     8.6710     8.1780    23.7680    -5.9400 
  207.2500     2.4230    70.9590     9.3260     8.6600     8.1010    23.6070    -5.8470 
  207.3750     2.4340    68.5580     9.3110     8.6070     8.0250    23.3170    -5.7170 
