~V
VERS. 2.00: Ver 2.00
~W
STRT.M 58.0000:
STOP.M 240.0000:
STEP.M 0.1250:
NULL. -999.2500:
UWI. F10642:
~C
DEPT.M :
SP.MV :
GR.API :
RML.OHMM :
RI. :
RXO.OHMM :
CALI.CM :
DEN.GM/CC :
~A
# ...
  204.2500   -30.1420    67.6720    59.5260    51.7620    42.7820    24.1730     2.3300 
  204.3750   -30.1620    67.7230    64.6400    56.2090    49.5410    24.2540     2.4290 
  204.5000   -30.2060    67.3110    71.9750    62.5870    68.3650    24.1910     2.4770 
  204.6250   -30.3180    66.2940    80.5950    70.0830    90.6380    24.0310     2.4670 
  204.7500   -30.4530    65.0210    88.1270    76.6320    86.4280    23.9470     2.4490 
  204.8750   -30.6170    65.3250    92.5090    80.4430    88.0310    23.8960     2.4470 
  205.0000   -30.7860    66.7300    92.6950    80.6040    93.0380    23.8460     2.4550 
  205.1250   -30.9750    67.2030    88.9310    77.3310    79.8370    23.8200     2.4440 
  205.2500   -31.1580    65.4860    83.7400    72.8170    65.0440    23.8250     2.4140 
  205.3750   -31.3140    63.0920    78.5670    68.3200    54.3930    23.8550     2.3800 
  205.5000   -31.4210    62.6610    74.1240    64.4560    44.6740    23.9150     2.3570 
  205.6250   -31.4470    65.1420    70.5980    61.3900    39.5260    24.0080     2.3450 
  205.7500   -31.4060    68.2460    67.5050    58.7000    40.4360    24.0820     2.3250 
  205.8750   -31.2910    69.8170    64.6230    56.1940    44.7810    24.0040     2.2940 
  206.0000   -31.1160    69.4560    62.0810    53.9840    46.4110    23.6710     2.2650 
  206.1250   -30.8750    67.9460    60.4610    52.5750    39.2090    23.2740     2.2680 
  206.2500   -30.6030    66.8610    60.0050    52.1790    34.7260    23.0950     2.3090 
  206.3750   -30.3130    67.2560    60.7610    52.8350    37.2930    23.0580     2.3670 
  206.5000   -30.0050    68.0860    62.4730    54.3240    48.4870    23.1020     2.4090 
  206.6250   -29.6920    67.9920    64.5750    56.1520    58.2880    23.1860     2.4190 
  206.7500   -29.3820    67.6110    66.2590    57.6170    51.7850    23.1720     2.4190 
  206.8750   -29.1050    67.7280    67.0410    58.2970    46.5830    23.1380     2.4250 
  207.0000   -28.8510    66.0840    66.7940    58.0820    53.9980    23.2350     2.4380 
  207.1250   -28.6420    62.7870    65.8270    57.2410    70.5790    23.3100     2.4400 
  207.2500   -28.4700    62.6740    64.9430    56.4720    72.3500    23.4260     2.4310 
  207.3750   -28.3480    65.3080    64.5630    56.1410    58.5740    23.6720     2.4300 
  207.5000   -28.2780    67.1140    64.7770    56.3280    55.5990    24.0210     2.4530 
  207.6250   -28.2790    65.8410    65.6280    57.0680    56.3470    24.2080     2.5020 
  207.7500   -28.3420    63.0330    67.0330    58.2900    64.5470    24.2680     2.5480 
  207.8750   -28.4410    62.5250    68.9640    59.9690    66.2460    24.2840     2.5760 
  208.0000   -28.5700    65.1940    71.2850    61.9870    58.0290    24.3020     2.5820 
  208.1250   -28.7230    66.8450    73.7500    64.1310    59.1630    24.2480     2.5710 
  208.2500   -28.8760    63.8660    75.9800    66.0700    66.1560    24.2070     2.5520 
  208.3750   -29.0190    59.3550    77.6390    67.5120    71.9540    24.1850     2.5320 
  208.5000   -29.1630    57.9140    78.4830    68.2460    71.7840    24.1860     2.5230 
  208.6250   -29.2650    58.4300    78.3260    68.1100    64.3470    24.1780     2.5340 
  208.7500   -29.3300    59.2650    77.5330    67.4200    63.8740    24.1360     2.5530 
  208.8750   -29.3590    61.2650    76.4850    66.5090    66.8680    24.0560     2.5540 
  209.0000   -29.3640    63.6910    75.5710    65.7130    61.7950    23.8280     2.5230 
  209.1250   -29.3350    66.0890    75.0590    65.2690    50.2200    23.5990     2.4650 
  209.2500   -29.2750    68.4680    74.8890    65.1210    49.9730    23.6730     2.4190 
  209.3750   -29.1880    68.6030    74.9680    65.1900    54.2220    23.9900     2.4140 
  209.5000   -29.0650    64.7620    75.1960    65.3880    57.2660    24.1310     2.4570 
  209.6250   -28.9310    60.6350    75.5830    65.7250    68.4560    23.9910     2.5300 
  209.7500   -28.7900    59.6500    76.2420    66.2980    83.4980    23.8400     2.5950 
  209.8750   -28.6730    60.6130    77.3170    67.2320    77.2640    23.6570     2.6290 
  210.0000   -28.5830    60.5770    78.7610    68.4880    63.7940    23.5020     2.6360 
  210.1250   -28.5030    58.6360    80.1080    69.6590    60.6100    23.4370     2.6210 
  210.2500   -28.4610    57.6560    80.6470    70.1280    74.0960    23.4640     2.5920 
  210.3750   -28.4680    59.8410    79.8940    69.4730    94.0110    23.6060     2.5600 
  210.5000   -28.5460    65.5780    77.8920    67.7320    97.6990    23.8030     2.5360 
  210.6250   -28.6820    69.2030    75.3230    65.4980    77.5890    24.0340     2.5350 
  210.7500   -28.8880    68.3960    73.3900    63.8180    65.5070    24.2090     2.5450 
  210.8750   -29.1300    66.5220    72.7590    63.2690    60.7620    24.2470     2.5490 
  211.0000   -29.4130    66.3950    72.8230    63.3250    61.7770    24.1520     2.5350 
  211.1250   -29.7410    65.9980    69.9410    60.8180    66.5130    24.0540     2.5210 
  211.2500   -30.0960    64.3920    60.7840    52.8560    71.4950    23.9920     2.5260 
  211.3750   -30.4610    64.3170    46.2290    40.1990    70.0890    23.9680     2.5430 
  211.5000   -30.8350    66.1680    31.2540    27.1770    54.7290    23.8390     2.5440 
  211.6250   -31.2300    68.1960    21.0410    18.0210    29.3010    23.5890     2.5050 
  211.7500   -31.6070    70.6690    15.5240    12.5190    13.7030    23.3900     2.4430 
  211.8750   -31.9660    73.8740    11.9770     9.6590     7.7890    23.3710     2.3850 
  212.0000   -32.3120    74.7430    10.5160     8.4800     7.1000    23.5130     2.3590 
  212.1250   -32.6570    73.9510    10.5100     8.4760     8.9490    23.6880     2.3760 
  212.2500   -32.9710    75.8770    11.2470     9.0700    10.6950    23.8230     2.4070 
  212.3750   -33.2440    80.9650    12.3170     9.9330    11.4770    23.8860     2.4250 
  212.5000   -33.4720    85.9320    13.2660    10.6990    11.7650    23.9190     2.4170 
  212.6250   -33.6320    87.5040    13.6430    11.0030    11.3870    23.9710     2.3860 
  212.7500   -33.7490    87.8630    13.4680    10.8610    10.4100    24.0160     2.3490 
  212.8750   -33.8210    90.0740    12.8740    10.3820     9.7070    24.0170     2.3140 
  213.0000   -33.8440    94.7710    12.0190     9.6920     9.5460    24.0440     2.2890 
  213.1250   -33.7910    96.5230    11.0350     8.8990     8.9540    24.0370     2.2760 
  213.2500   -33.7340    93.0510    10.0820     8.1300     8.1640    23.9960     2.2720 
  213.3750   -33.6820    87.5010     9.2680     7.4750     7.3740    23.9490     2.2740 
  213.5000   -33.6610    83.3110     8.6890     7.0070     6.8640    23.9190     2.2810 
  213.6250   -33.7070    81.8640     8.4800     6.8390     6.8790    23.8430     2.2890 
  213.7500   -33.8410    83.2610     8.6360     6.9650     7.2560    23.7520     2.2990 
  213.8750   -34.0670    85.5520     9.1490     7.3780     7.8270    23.6680     2.3120 
  214.0000   -34.3630    85.8480     9.9380     8.0150     8.7420    23.6490     2.3310 
  214.1250   -34.7380    82.5520    10.8040     8.7130     9.4340    23.7300     2.3540 
  214.2500   -35.1130    80.4010    11.4400     9.2260    10.6970    23.8960     2.3700 
  214.3750   -35.4610    80.4180    11.6260     9.3760    12.0590    24.0590     2.3710 
  214.5000   -35.7240    80.3530    11.3080     9.1190    12.0600    24.1630     2.3580 
  214.6250   -35.8700    79.2740    10.6240     8.5680    10.2800    24.1950     2.3360 
  214.7500   -35.8950    78.1500     9.9250     8.0040     8.7930    24.1870     2.3130 
  214.8750   -35.8140    79.0570     9.4040     7.5840     8.2150    24.1850     2.2960 
  215.0000   -35.6510    81.7480     9.1320     7.3640     7.9640    24.2320     2.2880 
  215.1250   -35.4000    84.2180     9.1050     7.3430     8.4130    24.2610     2.2920 
  215.2500   -35.1100    85.4680     9.1900     7.4110     9.4410    24.2380     2.3030 
  215.3750   -34.8020    83.4030     9.3010     7.5010    10.1040    24.1830     2.3130 
