~V
VERS. 2.00: Ver 2.00
~W
STRT.M 51.0000:
STOP.M 221.0000:
STEP.M 0.1250:
NULL. -999.2500:
UWI. F10616:
~C
DEPT.M :
GR.API :
RML.OHMM :
RI. :
RXO.OHMM :
CALI.CM :
DEN.GM/CC :
SP.MV :
~A
# ...
   84.7500    80.6500     5.2800     3.8990     4.6640    25.2820     2.2970   -10.4710 
   84.8750    83.7030     5.3390     3.8370     4.2010    25.4190     2.3310   -10.4210 
   85.0000    86.5410     5.8580     4.0790     4.2150    25.4680     2.3640   -10.4510 
   85.1250    86.4450     6.8230     4.6280     4.8890    25.4320     2.3940   -10.5210 
   85.2500    81.0350     8.0870     5.4200     6.6380    25.2980     2.4170   -10.6200 
   85.3750    73.2930     9.2050     6.2280    10.0570    25.1020     2.4200   -10.6870 
   85.5000    69.6760     9.6440     6.6940    12.3650    25.0190     2.3970   -10.7000 
   85.6250    73.8440     9.2090     6.6290    10.0810    25.0810     2.3560   -10.6670 
   85.7500    82.7110     8.2050     6.1340     6.9100    25.1910     2.3140   -10.5730 
   85.8750    86.0670     7.2110     5.5130     5.7850    25.2470     2.2970   -10.4090 
   86.0000    83.6850     6.5860     5.0320     5.6400    25.2580     2.3090   -10.2050 
   86.1250    82.1550     6.3740     4.7640     5.6890    25.2310     2.3380    -9.9690 
   86.2500    85.4610     6.4710     4.6850     5.2990    25.2350     2.3620    -9.7450 
   86.3750    90.2730     6.7180     4.7320     4.9730    25.2940     2.3630    -9.4990 
   86.5000    91.5170     6.9660     4.8180     4.9820    25.3210     2.3420    -9.2770 
   86.6250    87.2580     7.1760     4.9120     5.2200    25.2750     2.3110    -9.0960 
   86.7500    79.4450     7.3360     4.9940     5.4350    25.1900     2.2870    -8.9540 
   86.8750    76.2170     7.4100     5.0350     5.3600    25.0890     2.2910    -8.8650 
   87.0000    77.7310     7.3750     5.0200     5.2180    24.9310     2.3170    -8.8210 
   87.1250    78.6660     7.2310     4.9450     5.2000    24.7180     2.3470    -8.8280 
   87.2500    78.2090     7.0560     4.8370     5.1620    24.5980     2.3570    -8.8650 
   87.3750    79.4390     7.0820     4.8070     5.2790    24.8810     2.3280    -8.9660 
   87.5000    80.9590     7.4750     4.9650     5.4590    25.0650     2.2830    -9.0980 
   87.6250    80.6220     8.2780     5.3690     5.8030    25.1160     2.2550    -9.2390 
   87.7500    78.5280     9.3720     5.9920     6.7560    25.0600     2.2740    -9.3740 
   87.8750    72.2550    10.3990     6.6720     9.8800    24.9400     2.3400    -9.4890 
   88.0000    65.5760    10.8760     7.1090    14.3800    24.7700     2.4070    -9.5770 
   88.1250    65.7080    10.5160     7.0820    14.1080    24.6060     2.4340    -9.6370 
   88.2500    73.7630     9.4520     6.5860     8.5510    24.4840     2.4120    -9.6750 
   88.3750    80.2470     8.1990     5.8480     6.0020    24.3110     2.3640    -9.6640 
   88.5000    80.6330     7.2420     5.1800     5.4310    24.0980     2.3260    -9.6280 
   88.6250    81.5750     6.7180     4.7150     5.3510    24.1860     2.3100    -9.5510 
   88.7500    86.4320     6.5700     4.4820     5.0840    24.5400     2.3100    -9.4520 
   88.8750    89.9520     6.6340     4.4440     4.9190    24.7310     2.3150    -9.3230 
   89.0000    88.7130     6.7070     4.4720     4.9040    24.7040     2.3140    -9.1850 
   89.1250    87.4080     6.7350     4.5090     5.0330    24.6730     2.3050    -9.0600 
   89.2500    91.3410     6.7400     4.5440     4.9900    24.7640     2.2930    -8.9110 
   89.3750    97.0140     6.7590     4.5890     4.7320    24.6480     2.2850    -8.8080 
   89.5000    96.1160     6.8070     4.6490     4.5720    24.1650     2.2840    -8.7080 
   89.6250    88.8360     6.8880     4.7240     4.6700    23.5550     2.2830    -8.6400 
   89.7500    81.1240     7.0100     4.8110     4.9910    23.1770     2.2770    -8.6140 
   89.8750    77.4460     7.1980     4.9210     5.4430    23.1330     2.2670    -8.6480 
   90.0000    77.1300     7.4500     5.0640     5.4420    23.2130     2.2570    -8.7220 
   90.1250    77.6250     7.7430     5.2420     5.3360    23.4470     2.2500    -8.8240 
   90.2500    77.2340     8.0210     5.4230     5.4010    23.8000     2.2440    -8.9580 
   90.3750    74.8240     8.1720     5.5420     6.0360    23.9700     2.2410    -9.1120 
   90.5000    72.0120     8.1270     5.5510     6.7250    24.0510     2.2410    -9.2770 
   90.6250    73.0690     7.8680     5.4370     6.6300    24.1780     2.2470    -9.4150 
   90.7500    78.3170     7.4700     5.2310     5.6660    24.3680     2.2610    -9.5280 
   90.8750    83.6860     7.0960     5.0070     5.2030    24.5410     2.2830    -9.6210 
   91.0000    86.3740     6.8990     4.8530     5.2500    24.5690     2.3100    -9.6940 
   91.1250    88.4580     6.9430     4.8230     5.4280    24.5100     2.3330    -9.7410 
   91.2500    91.5280     7.2010     4.9330     5.5180    24.3350     2.3520    -9.7630 
   91.3750    89.5860     7.5680     5.1510     5.8150    24.2280     2.3650    -9.7310 
   91.5000    83.5330     7.8550     5.3630     6.3490    24.1350     2.3730    -9.6630 
   91.6250    79.6620     7.9350     5.4760     6.9810    24.0310     2.3770    -9.6090 
   91.7500    80.9870     7.7600     5.4310     7.3350    24.0130     2.3750    -9.5580 
   91.8750    84.4480     7.3860     5.2260     5.8410    24.4820     2.3630    -9.5020 
   92.0000    86.5890     7.0100     4.9790     5.1670    24.8960     2.3410    -9.4490 
   92.1250    85.6850     6.7620     4.7820     5.1100    25.0680     2.3200    -9.3820 
   92.2500    81.1200     6.7060     4.6970     5.1830    25.0940     2.3060    -9.3460 
   92.3750    77.3060     6.8520     4.7510     5.2490    25.0700     2.3000    -9.3270 
   92.5000    78.5660     7.0810     4.8780     5.3120    25.0420     2.2950    -9.3570 
   92.6250    82.9220     7.2920     5.0110     5.4890    25.0370     2.2870    -9.4270 
   92.7500    84.2960     7.4050     5.0940     5.6500    25.0780     2.2770    -9.5380 
   92.8750    82.6710     7.3720     5.0920     5.5510    25.0790     2.2670    -9.7090 
   93.0000    83.4830     7.2590     5.0350     5.4200    24.8380     2.2620    -9.9360 
   93.1250    85.8360     7.1560     4.9690     5.2760    24.2480     2.2640   -10.2310 
   93.2500    85.9110     7.1750     4.9520     5.1090    23.5660     2.2730   -10.5960 
   93.3750    82.3600     7.4470     5.0590     5.1700    23.2140     2.2840   -11.0640 
   93.5000    78.8020     7.9530     5.2960     5.4730    23.2530     2.2810   -11.6130 
   93.6250    76.3640     8.6340     5.6510     5.9860    23.6540     2.2620   -12.2320 
   93.7500    71.9620     9.3980     6.0890     6.6930    24.3710     2.2340   -12.8870 
   93.8750    66.0390    10.1570     6.5740     7.4160    25.0360     2.2060   -13.5500 
   94.0000    61.2460    10.8910     7.0820     7.9330    25.5040     2.1760   -14.1730 
   94.1250    57.9490    11.6290     7.6190     8.2370    25.8780     2.1360   -14.7460 
   94.2500    55.5770    12.3920     8.1820     8.4350    26.1980     2.0780   -15.2330 
   94.3750    54.3980    13.1110     8.7330     9.7940    26.4140     2.0080   -15.6120 
   94.5000    55.2920    13.6330     9.1860    13.1520    26.4370     1.9490   -15.8780 
   94.6250    57.5420    13.7960     9.4390    15.7750    26.2340     1.9260   -16.0260 
   94.7500    59.7450    13.5380     9.4230    12.6840    25.8110     1.9550   -16.0840 
   94.8750    59.4290    12.9300     9.1380    10.1310    25.5540     2.0280   -16.0500 
   95.0000    56.6450    12.2690     8.7490     9.3340    25.6740     2.0940   -15.9780 
   95.1250    53.9020    11.7440     8.3790     9.2030    26.0180     2.1310   -15.8840 
   95.2500    52.3410    11.4380     8.1090     9.0820    26.3760     2.1400   -15.7450 
   95.3750    51.5970    11.3320     7.9770     9.0990    26.5780     2.1360   -15.6080 
   95.5000    51.4780    11.2910     7.9270     8.9680    26.6740     2.1310   -15.4590 
   95.6250    53.9580    11.2450     7.9190     8.6420    26.6620     2.1270   -15.3050 
   95.7500    56.2030    11.1760     7.9230     8.4840    26.6000     2.1220   -15.1550 
   95.8750    54.9450    11.0920     7.9230     8.6580    26.4510     2.1180   -15.0300 
