~V
VERS. 2.00: Ver 2.00
~W
STRT.M 50.0000:
STOP.M 216.0000:
STEP.M 0.1250:
NULL. -999.2500:
UWI. F10607:
~C
DEPT.M :
GR.API :
RML.OHMM :
RI. :
RXO.OHMM :
CALI.CM :
DEN.GM/CC :
SP.MV :
~A
# ...
  151.2500    44.0380    16.1030    13.9420    13.5050    22.7760     2.4500   -11.4470 
  151.3750    44.6330    15.7560    13.6190    13.4800    22.7790     2.4610   -11.5190 
  151.5000    44.0540    15.5010    13.3690    13.6440    22.8550     2.4790   -11.5870 
  151.6250    43.7280    15.3200    13.1950    13.7280    22.8950     2.4940   -11.6590 
  151.7500    44.6720    15.2000    13.0810    13.5460    22.9080     2.4940   -11.7550 
  151.8750    47.2100    15.1650    13.0380    13.1640    22.9150     2.4810   -11.8830 
  152.0000    49.9880    15.2410    13.0870    13.0270    22.9040     2.4610   -12.0260 
  152.1250    50.8400    15.4480    13.2570    13.1880    22.8650     2.4510   -12.1510 
  152.2500    50.0830    15.7300    13.5140    13.8070    22.8540     2.4540   -12.2610 
  152.3750    49.1500    16.0390    13.8170    14.2690    22.9290     2.4680   -12.3890 
  152.5000    47.2630    16.3250    14.1130    14.5490    23.0370     2.4830   -12.5140 
  152.6250    44.6750    16.5480    14.3530    14.3000    23.1400     2.4900   -12.5640 
  152.7500    44.4690    16.7420    14.5450    14.1190    23.2010     2.4860   -12.5680 
  152.8750    46.3470    16.9590    14.7300    14.1330    23.2010     2.4730   -12.5770 
  153.0000    47.5790    17.2490    14.9510    14.1790    23.1330     2.4550   -12.5980 
  153.1250    46.3960    17.6170    15.2230    14.4330    23.0000     2.4370   -12.6510 
  153.2500    44.6800    17.9600    15.4820    14.9680    22.8670     2.4250   -12.7320 
  153.3750    44.6230    18.1690    15.6450    15.8280    22.7010     2.4230   -12.7990 
  153.5000    48.1730    18.1950    15.6620    16.7290    22.5450     2.4310   -12.9090 
  153.6250    52.8750    18.1590    15.5990    16.6930    22.5610     2.4510   -13.1390 
  153.7500    53.8380    18.3480    15.6670    16.1030    22.7890     2.4750   -13.3910 
  153.8750    51.5470    18.9990    16.0580    16.1100    22.9740     2.4870   -13.5960 
  154.0000    50.7080    20.2240    16.9020    17.7550    23.0130     2.4700   -13.7990 
  154.1250    54.0680    22.0160    18.2790    21.0980    22.9940     2.4190   -13.9970 
  154.2500    57.2040    24.0080    19.9560    24.1860    23.0560     2.3540   -14.1530 
  154.3750    56.9870    25.8750    21.6700    25.7260    23.2490     2.2950   -14.2760 
  154.5000    55.3080    27.3580    23.1440    24.8670    23.5170     2.2540   -14.3600 
  154.6250    54.9590    28.2920    24.1310    23.7300    23.6390     2.2370   -14.4040 
  154.7500    56.0600    28.8460    24.7190    24.2050    23.6310     2.2290   -14.4480 
  154.8750    57.6180    29.1230    25.0190    26.1500    23.4980     2.2180   -14.5060 
  155.0000    58.7970    29.1940    25.1330    27.3620    23.2250     2.1990   -14.5670 
  155.1250    58.2200    29.0940    25.1220    26.7810    22.9490     2.1790   -14.6560 
  155.2500    56.0710    28.9440    25.0750    25.8760    22.9440     2.1690   -14.7860 
  155.3750    53.6050    28.8630    25.0630    25.9200    23.1700     2.1760   -14.9570 
  155.5000    51.2170    28.9650    25.1650    27.6180    23.3260     2.2020   -15.1640 
  155.6250    50.9460    29.3990    25.5040    28.8430    23.1220     2.2330   -15.4000 
  155.7500    53.4160    30.1550    26.1100    29.1030    22.9230     2.2510   -15.6310 
  155.8750    55.0500    31.1430    26.9610    28.2620    23.1270     2.2530   -15.8420 
  156.0000    52.5550    32.0920    27.8810    27.5590    23.4260     2.2460   -16.0600 
  156.1250    50.3470    32.4110    28.4100    29.7240    23.5560     2.2400   -16.2530 
  156.2500    52.7640    31.8020    28.2160    33.3730    23.5670     2.2400   -16.3620 
  156.3750    56.6180    30.3440    27.2700    34.7740    23.5600     2.2410   -16.4170 
  156.5000    57.3810    28.5220    25.9000    29.9940    23.5220     2.2410   -16.4380 
  156.6250    55.6440    27.1170    24.7010    23.4510    23.4560     2.2370   -16.3630 
  156.7500    53.3330    26.5380    24.0830    20.4360    23.4330     2.2310   -16.2210 
  156.8750    51.4340    26.7720    24.1390    22.7250    23.4380     2.2220   -16.0650 
  157.0000    51.6570    27.4480    24.6700    27.2750    23.4270     2.2080   -15.8880 
  157.1250    55.3880    27.9020    25.1940    28.9570    23.3980     2.1940   -15.6280 
  157.2500    58.2950    27.6970    25.2450    28.3860    23.3820     2.1890   -15.3440 
  157.3750    59.4360    26.8490    24.7150    26.7090    23.3780     2.1950   -15.0930 
  157.5000    59.7370    25.7420    23.8470    23.9340    23.3780     2.2100   -14.8800 
  157.6250    58.8070    24.9140    23.0790    21.1310    23.3710     2.2250   -14.6820 
  157.7500    55.9770    24.5340    22.6390    21.0160    23.3520     2.2300   -14.4890 
  157.8750    54.0950    24.5440    22.5310    22.1770    23.3250     2.2240   -14.3060 
  158.0000    54.7050    24.8470    22.7000    23.4130    23.2980     2.2120   -14.1350 
  158.1250    57.6250    25.4370    23.1440    24.3500    23.2780     2.2000   -14.0400 
  158.2500    61.3180    26.2840    23.8200    24.4810    23.2780     2.1920   -14.0030 
  158.3750    64.0260    27.4030    24.7360    24.1360    23.2960     2.1860   -13.9890 
  158.5000    62.4020    28.7350    25.8630    26.4870    23.3080     2.1820   -14.0120 
  158.6250    56.5570    30.0650    27.0560    29.2650    23.3070     2.1770   -14.1050 
  158.7500    52.5590    31.1310    28.0820    30.4310    23.2990     2.1680   -14.2470 
  158.8750    53.2520    31.8410    28.8190    29.7060    23.2860     2.1560   -14.4300 
  159.0000    57.1140    32.2910    29.2950    28.7850    23.2850     2.1430   -14.6340 
  159.1250    59.9100    32.7100    29.6590    28.5320    23.2650     2.1400   -14.7830 
  159.2500    60.3860    33.2450    30.0650    29.0670    23.2440     2.1490   -14.9330 
  159.3750    59.0920    33.7850    30.4590    30.7510    23.2280     2.1700   -15.0590 
  159.5000    56.6360    34.0330    30.6150    32.8720    23.2220     2.1920   -15.0480 
  159.6250    54.0440    33.6510    30.2150    33.4460    23.2130     2.2020   -14.9200 
  159.7500    52.7280    32.8390    29.3880    31.4830    23.1400     2.1990   -14.7580 
  159.8750    54.5230    31.9510    28.4240    28.4140    22.9260     2.1860   -14.5500 
  160.0000    59.0440    31.3180    27.6220    25.5310    22.6070     2.1720   -14.2720 
  160.1250    61.2690    31.1480    27.2020    24.4650    22.4400     2.1650   -14.0280 
  160.2500    58.7560    31.2950    27.0960    26.2350    22.4580     2.1640   -13.8600 
  160.3750    55.5270    31.6370    27.2300    28.7490    22.6070     2.1660   -13.7470 
  160.5000    55.4290    32.1570    27.5790    29.4950    22.7120     2.1640   -13.7040 
  160.6250    57.4150    33.0590    28.2730    27.7000    22.7230     2.1590   -13.7390 
  160.7500    57.7380    34.4980    29.3990    27.1010    22.7020     2.1520   -13.8470 
  160.8750    55.6650    36.5290    31.0140    29.4490    22.6680     2.1460   -14.0240 
  161.0000    53.4050    38.9810    33.0360    34.2120    22.5910     2.1430   -14.2520 
  161.1250    54.2220    41.3550    35.1500    36.1760    22.5040     2.1440   -14.4830 
  161.2500    56.6840    43.0530    36.8400    35.6070    22.4550     2.1480   -14.6700 
  161.3750    58.0300    43.7060    37.7210    34.4080    22.4190     2.1550   -14.7930 
  161.5000    58.7750    43.2640    37.6470    33.7110    22.3920     2.1620   -14.8680 
  161.6250    59.2080    41.8300    36.6220    33.4990    22.3800     2.1660   -14.9300 
  161.7500    58.2170    39.8430    35.0280    32.7100    22.3790     2.1670   -14.9320 
  161.8750    57.5390    37.4930    33.0520    31.2370    22.3800     2.1660   -14.8230 
  162.0000    58.3140    34.9400    30.8500    29.8970    22.3670     2.1660   -14.6660 
  162.1250    59.6720    32.3990    28.6080    27.6270    22.3470     2.1670   -14.4810 
  162.2500    61.1650    30.0970    26.5450    24.7390    22.3250     2.1690   -14.1990 
  162.3750    62.3920    28.2050    24.8180    22.6550    22.3040     2.1710   -13.8840 
