~V
VERS. 2.00: Ver 2.00
~W
STRT.M 58.0000:
STOP.M 221.0000:
STEP.M 0.1250:
NULL. -999.2500:
UWI. F10613:
~C
DEPT.M :
SP.MV :
GR.API :
RML.OHMM :
RI. :
RXO.OHMM :
CALI.CM :
DEN.GM/CC :
~A
# ...
  125.5000    -3.6560    46.3320    57.3130    47.9520    51.5700    24.3410     2.4910 
  125.6250    -3.6800    49.0980    58.3350    48.9240    48.9370    24.3250     2.5190 
  125.7500    -3.7230    51.9830    59.2850    49.8810    51.4610    24.2700     2.5540 
  125.8750    -3.7170    52.2580    59.7010    50.4800    60.4210    24.1600     2.5810 
  126.0000    -3.7370    51.8720    58.9560    50.2040    61.9380    24.0120     2.6020 
  126.1250    -3.7630    53.3920    57.2210    49.1010    60.1140    23.9160     2.6260 
  126.2500    -3.7480    54.9390    54.9140    47.4280    53.5630    23.9030     2.6470 
  126.3750    -3.7290    54.6870    52.5470    45.5680    45.1450    23.9800     2.6470 
  126.5000    -3.7520    53.1000    50.4680    43.8480    47.5430    23.9760     2.6100 
  126.6250    -3.7630    51.6260    48.5900    42.3020    55.8240    23.9270     2.5470 
  126.7500    -3.7510    51.0020    46.8270    40.8830    60.4000    24.0250     2.4790 
  126.8750    -3.7600    51.2470    45.2950    39.6510    51.6940    24.2670     2.4270 
  127.0000    -3.8160    52.1390    44.4670    38.9240    42.6290    24.4210     2.4140 
  127.1250    -3.8880    52.1920    44.5540    38.9000    39.7120    24.4850     2.4330 
  127.2500    -3.9960    51.6270    45.4840    39.6190    40.5140    24.4600     2.4700 
  127.3750    -4.1750    51.5040    46.7400    40.7860    45.3290    24.4260     2.5020 
  127.5000    -4.3820    52.2270    47.2380    41.5890    51.7510    24.4040     2.5040 
  127.6250    -4.5680    52.6300    46.2590    41.2680    54.0060    24.3950     2.4810 
  127.7500    -4.8000    52.8400    43.7590    39.5750    49.0150    24.3980     2.4460 
  127.8750    -5.0600    53.5500    40.3830    36.9040    38.5290    24.4420     2.4150 
  128.0000    -5.2660    54.7800    37.2090    34.1070    33.5280    24.4930     2.3980 
  128.1250    -5.4780    54.2070    35.0110    31.9680    33.7490    24.4730     2.3960 
  128.2500    -5.6760    51.8620    34.0900    30.8450    36.5310    24.3940     2.4110 
  128.3750    -5.8230    51.1300    34.4420    30.8330    35.4020    24.3440     2.4410 
  128.5000    -5.9660    52.2560    35.9760    31.9440    34.4240    24.2990     2.4750 
  128.6250    -6.1280    52.2210    38.1200    33.6970    36.0680    24.1700     2.4920 
  128.7500    -6.2480    49.6850    40.4590    35.7330    41.6280    23.9990     2.4900 
  128.8750    -6.3600    47.5330    42.5760    37.6760    45.2910    24.0190     2.4810 
  129.0000    -6.5340    48.1930    44.0440    39.1220    45.1900    24.1920     2.4940 
  129.1250    -6.6920    49.5600    44.8770    40.0090    44.0480    24.2430     2.5330 
  129.2500    -6.8560    49.5370    45.1620    40.3650    44.7020    24.2110     2.5760 
  129.3750    -7.0620    47.9770    44.9980    40.2590    44.2920    24.1990     2.5950 
  129.5000    -7.2810    47.3150    44.3530    39.6730    43.1500    24.2350     2.5790 
  129.6250    -7.4980    47.9990    43.3160    38.7140    41.6790    24.2880     2.5540 
  129.7500    -7.7470    47.8760    41.9970    37.4850    41.5970    24.3220     2.5370 
  129.8750    -8.0510    46.0510    40.6560    36.2030    38.1340    24.3300     2.5370 
  130.0000    -8.3430    45.2040    39.7260    35.2360    35.0480    24.3260     2.5530 
  130.1250    -8.6240    45.4710    39.3420    34.7350    33.6340    24.3240     2.5730 
  130.2500    -8.9420    46.0470    39.3890    34.6510    33.4740    24.3300     2.5910 
  130.3750    -9.2710    47.2920    39.5270    34.7450    33.9110    24.3330     2.6050 
  130.5000    -9.5170    49.2210    39.1750    34.5500    35.6880    24.3110     2.6150 
  130.6250    -9.7470    50.6830    38.0820    33.7710    36.4420    24.2690     2.6180 
  130.7500    -9.9640    50.4440    36.3900    32.4380    35.0740    24.2360     2.6110 
  130.8750   -10.0770    50.3830    34.6180    30.9240    30.4750    24.2450     2.5920 
  131.0000   -10.1320    50.7850    33.5550    29.8590    27.6520    24.2620     2.5650 
  131.1250   -10.1780    48.8460    33.4810    29.5440    26.6050    24.2380     2.5400 
  131.2500   -10.1410    45.9270    34.3280    29.9980    28.6410    24.2370     2.5240 
  131.3750   -10.0340    45.2580    35.7160    30.9830    33.9830    24.2990     2.5260 
  131.5000    -9.9560    46.3160    36.9750    32.0250    36.7730    24.2850     2.5490 
  131.6250    -9.8510    46.9900    37.5580    32.6250    36.0410    24.2130     2.5790 
  131.7500    -9.7180    48.3150    37.3010    32.5650    32.7970    24.2100     2.6010 
  131.8750    -9.6500    50.2170    36.4440    31.9510    29.8590    24.2780     2.6050 
  132.0000    -9.6110    50.0680    35.5090    31.1530    29.4280    24.3310     2.5940 
  132.1250    -9.5430    49.7920    34.9010    30.5550    29.8440    24.3360     2.5800 
  132.2500    -9.5060    50.7080    34.6470    30.2410    28.9530    24.3360     2.5710 
  132.3750    -9.5090    50.5640    34.5190    30.0670    28.8180    24.3390     2.5650 
  132.5000    -9.5110    49.3090    34.0950    29.6900    31.2450    24.3360     2.5550 
  132.6250    -9.5310    49.1190    33.2050    28.9190    32.5180    24.3080     2.5420 
  132.7500    -9.5920    49.1760    31.9870    27.8280    29.6380    24.2490     2.5300 
  132.8750    -9.6680    49.0700    30.7850    26.6910    25.4060    24.2160     2.5290 
  133.0000    -9.7210    50.9290    30.0300    25.8740    23.6070    24.2340     2.5370 
  133.1250    -9.7840    54.0220    29.8230    25.5000    24.0410    24.2640     2.5480 
  133.2500    -9.8690    55.4090    30.1130    25.5670    26.6190    24.2160     2.5590 
  133.3750    -9.9430    54.6660    30.7320    25.9730    29.3190    24.0790     2.5720 
  133.5000    -9.9840    51.6370    31.5140    26.5930    30.0570    23.9360     2.5860 
  133.6250   -10.0400    48.7780    32.4190    27.3290    29.9260    23.9160     2.5990 
  133.7500   -10.0600    50.4690    33.5940    28.2540    29.9410    24.0440     2.6050 
  133.8750   -10.0160    55.5810    35.1840    29.4810    30.4690    24.1630     2.6040 
  134.0000    -9.9850    57.7000    37.1040    31.0180    33.0640    24.2360     2.6040 
  134.1250    -9.9360    56.7520    38.6890    32.4110    36.2010    24.2890     2.6110 
  134.2500    -9.8460    56.2870    39.0590    32.9530    39.3110    24.3180     2.6260 
  134.3750    -9.7660    55.0190    37.5090    31.9630    39.9510    24.3160     2.6400 
  134.5000    -9.6800    49.9200    33.9150    29.1730    35.4940    24.3220     2.6420 
  134.6250    -9.5460    46.5710    29.6890    25.7100    29.0200    24.3310     2.6310 
  134.7500    -9.4160    49.3170    25.9090    22.4700    22.3580    24.3340     2.6150 
  134.8750    -9.3200    53.5610    23.1700    19.9720    18.0450    24.3320     2.6040 
  135.0000    -9.2000    53.7990    21.6840    18.4420    17.4010    24.3230     2.5970 
  135.1250    -9.1030    52.0810    20.9520    17.5620    18.5520    24.3110     2.5850 
  135.2500    -9.0620    49.7190    20.6340    17.1130    19.0940    24.2900     2.5620 
  135.3750    -9.0580    46.7840    20.4910    16.9230    17.9270    24.2690     2.5310 
  135.5000    -9.0820    45.2300    20.5000    16.9590    16.9660    24.2700     2.5070 
  135.6250    -9.1710    45.7880    20.8020    17.2600    17.0050    24.2930     2.5040 
  135.7500    -9.3140    45.5200    21.5400    17.9150    17.7710    24.3160     2.5220 
  135.8750    -9.4360    43.7500    22.6550    18.9060    19.2020    24.3240     2.5540 
  136.0000    -9.5440    44.0340    23.7240    19.9600    20.7850    24.3110     2.5840 
  136.1250    -9.7080    47.6270    24.1240    20.5470    23.3790    24.2940     2.5950 
  136.2500    -9.8660    52.1010    23.4450    20.2580    24.7270    24.2680     2.5820 
  136.3750    -9.9550    54.7430    21.7440    19.0500    22.2320    24.2450     2.5470 
  136.5000   -10.0650    54.4170    19.5610    17.3120    17.5320    24.2270     2.5040 
  136.6250   -10.1650    51.6010    17.6290    15.6750    14.7680    24.2430     2.4680 
