~V
VERS. 2.00: Ver 2.00
~W
STRT.M 50.0000:
STOP.M 212.0000:
STEP.M 0.1250:
NULL. -999.2500:
UWI. F10691:
~C
DEPT.M :
GR.API :
RML.OHMM :
RI. :
RXO.OHMM :
CALI.CM :
SP.MV :
DEN.GM/CC :
~A
# ...
  106.2500    63.6640    10.1140     9.2660     7.9700    24.0250   -15.1650     2.3020 
  106.3750    67.0190     9.4730     8.3570     7.3000    23.9770   -15.2210     2.2520 
  106.5000    69.8610     9.3770     8.1040     6.9750    23.8690   -15.2830     2.2340 
  106.6250    68.8180     9.3430     8.1500     6.9210    23.7340   -15.3430     2.2420 
  106.7500    68.8530     9.0700     8.1200     6.8750    23.7320   -15.3880     2.2610 
  106.8750    72.1020     8.5360     7.8810     6.5210    24.0340   -15.4100     2.2830 
  107.0000    76.2080     7.8700     7.4650     6.0620    24.2700   -15.4380     2.3010 
  107.1250    78.1030     7.2430     6.9890     5.6020    24.5130   -15.4830     2.3060 
  107.2500    77.4480     6.7460     6.5620     5.3120    24.5480   -15.5090     2.2980 
  107.3750    75.0950     6.3870     6.2200     5.1430    24.5560   -15.4990     2.2800 
  107.5000    72.1520     6.1300     5.9500     5.0890    24.5540   -15.4650     2.2630 
  107.6250    71.0720     5.9420     5.7290     5.0400    24.5370   -15.4170     2.2590 
  107.7500    72.8130     5.8070     5.5430     4.8990    24.4770   -15.3500     2.2720 
  107.8750    77.1140     5.7620     5.4220     4.7940    24.4060   -15.2700     2.2960 
  108.0000    82.4000     5.8570     5.4140     4.8610    24.3840   -15.1810     2.3240 
  108.1250    83.9000     6.1520     5.5800     5.0770    24.3800   -15.1010     2.3430 
  108.2500    80.1000     6.6040     5.8960     5.4020    24.3740   -15.0420     2.3460 
  108.3750    75.0650     7.1600     6.3240     5.9480    24.3370   -15.0060     2.3300 
  108.5000    73.5020     7.7420     6.7960     6.7070    24.3180   -14.9760     2.2980 
  108.6250    75.7920     8.2520     7.2150     7.2480    24.2950   -14.9310     2.2560 
  108.7500    74.3190     8.6700     7.5390     7.1490    24.2010   -14.8920     2.2170 
  108.8750    68.1030     9.0290     7.7870     6.8910    23.9820   -14.8620     2.1850 
  109.0000    62.5550     9.3600     8.0010     6.9220    23.7840   -14.8320     2.1630 
  109.1250    61.5720     9.6160     8.1800     7.2570    23.7040   -14.7880     2.1570 
  109.2500    62.0520     9.7070     8.2670     7.8940    23.7220   -14.7020     2.1660 
  109.3750    62.5090     9.5850     8.2090     8.4370    23.8240   -14.5750     2.1850 
  109.5000    64.9640     9.3380     8.0360     8.8180    23.9310   -14.4380     2.2040 
  109.6250    67.8340     9.2950     7.9200     7.8970    23.9800   -14.3230     2.2080 
  109.7500    67.6580     9.8450     8.1140     7.2910    23.9870   -14.2380     2.1950 
  109.8750    64.9860    11.3460     8.8840     7.8520    23.9620   -14.1670     2.1730 
  110.0000    60.0520    13.9830    10.4750    10.0050    23.8140   -14.1170     2.1500 
  110.1250    52.9550    16.6240    13.1100    13.9560    23.7060   -14.0930     2.1360 
  110.2500    46.1420    19.8160    16.1030    15.9490    23.6860   -14.1120     2.1370 
  110.3750    43.8420    21.2450    18.1760    18.9450    23.6880   -14.1680     2.1530 
  110.5000    46.6630    19.9620    18.0810    22.8890    23.7050   -14.2300     2.1800 
  110.6250    51.4080    16.8030    15.9390    20.8620    23.8070   -14.2900     2.2040 
  110.7500    57.5720    14.1650    13.7140    14.0370    23.8330   -14.3410     2.2140 
  110.8750    62.4080    13.1440    12.4100     9.9360    23.8030   -14.3870     2.2040 
  111.0000    62.3430    14.0550    12.4170    10.2830    23.6520   -14.4210     2.1800 
  111.1250    57.1060    17.3070    14.2720    15.3820    23.5590   -14.4360     2.1490 
  111.2500    54.1880    23.9120    18.1240    21.0380    23.5870   -14.4410     2.1190 
  111.3750    55.7820    33.0000    24.2950    24.2360    23.6770   -14.4510     2.0920 
  111.5000    58.3540    42.5650    32.5410    27.6000    23.7520   -14.4790     2.0670 
  111.6250    57.4950    51.5970    41.3210    31.3930    23.7920   -14.5100     2.0460 
  111.7500    53.7820    57.8440    48.1920    34.7960    23.8380   -14.5440     2.0290 
  111.8750    49.3280    60.1080    51.7080    37.7050    23.8460   -14.5880     2.0200 
  112.0000    46.1780    58.4770    51.5560    38.9720    23.8490   -14.6340     2.0280 
  112.1250    45.7490    54.0980    48.3100    34.7560    23.8680   -14.7080     2.0730 
  112.2500    48.2690    49.5460    44.2340    28.2090    23.9350   -14.8030     2.1650 
  112.3750    52.2520    46.3000    40.7660    23.2730    23.9800   -14.9080     2.2950 
  112.5000    54.8570    45.0870    38.7580    21.3710    23.9880   -15.0150     2.4320 
  112.6250    54.2810    46.4090    38.8570    23.3880    23.9900   -15.1270     2.5190 
  112.7500    53.2260    49.6700    40.7500    26.3010    24.0060   -15.2670     2.5250 
  112.8750    51.6670    54.4420    44.2040    29.2970    24.0730   -15.4150     2.4580 
  113.0000    48.8790    60.0700    48.7350    32.5240    24.1810   -15.5550     2.3510 
  113.1250    47.3910    65.4780    53.5140    34.7960    24.2290   -15.6750     2.2450 
  113.2500    50.0230    69.3960    57.3870    37.2240    24.2340   -15.7760     2.1620 
  113.3750    53.8980    70.6710    59.3050    38.3390    24.2120   -15.8360     2.1090 
  113.5000    53.8550    68.7660    58.6150    38.3160    24.1030   -15.8440     2.0830 
  113.6250    51.6270    64.1510    55.3530    36.2110    23.9550   -15.8390     2.0730 
  113.7500    52.6080    59.0760    51.2820    33.2220    23.7760   -15.7910     2.0680 
  113.8750    54.2740    55.0450    47.7340    28.5980    23.6000   -15.7060     2.0590 
  114.0000    51.9920    52.9230    45.6230    25.4010    23.5380   -15.6150     2.0470 
  114.1250    47.3920    53.1680    45.5860    26.3460    23.5310   -15.5300     2.0320 
  114.2500    47.1230    54.9600    47.0930    29.3560    23.5300   -15.4330     2.0190 
  114.3750    50.1470    57.6340    49.6560    30.8880    23.5310   -15.3410     2.0090 
  114.5000    50.8470    60.4510    52.6570    30.8800    23.5340   -15.2760     2.0060 
  114.6250    47.1550    62.4270    55.2080    30.7510    23.5500   -15.2140     2.0100 
  114.7500    43.9680    62.8340    56.5150    30.5060    23.5510   -15.1460     2.0220 
  114.8750    44.5380    60.9500    55.8340    30.6690    23.5220   -15.0830     2.0370 
  115.0000    48.4210    56.2990    52.5860    31.1830    23.4560   -15.0220     2.0540 
  115.1250    52.4270    48.9510    46.5130    31.1030    23.3830   -14.9270     2.0700 
  115.2500    54.2650    40.9860    39.3720    26.4310    23.2570   -14.8160     2.0820 
  115.3750    53.2150    34.1720    32.8290    19.2700    23.0780   -14.7150     2.0880 
  115.5000    51.4450    29.6540    28.0610    14.1020    22.9200   -14.6340     2.0850 
  115.6250    52.1770    28.2910    25.9210    12.1540    22.6930   -14.5920     2.0740 
  115.7500    54.7490    29.6330    26.1110    12.4660    22.5070   -14.6140     2.0630 
  115.8750    56.0580    33.6530    28.7440    14.9020    22.7640   -14.6730     2.0560 
  116.0000    55.5010    40.3210    34.0000    19.9900    23.2170   -14.7350     2.0590 
  116.1250    55.4100    49.7410    42.2730    26.2910    23.4030   -14.8130     2.0700 
  116.2500    55.6980    60.6850    52.4870    33.0500    23.5910   -14.8950     2.0810 
  116.3750    54.6800    71.7670    63.3650    39.6890    23.8000   -14.9620     2.0850 
  116.5000    51.5480    81.0030    73.0510    46.7100    24.2790   -14.9940     2.0800 
  116.6250    48.9660    84.9040    78.3320    51.3430    24.3560   -14.9670     2.0670 
  116.7500    48.1120    82.1570    77.5880    54.1780    24.3570   -14.8580     2.0540 
  116.8750    46.3130    73.2350    70.6550    53.4000    24.2190   -14.6710     2.0440 
  117.0000    42.4410    61.0910    59.8060    44.8870    23.8710   -14.4410     2.0370 
  117.1250    41.2010    49.8530    48.8990    31.4160    23.3950   -14.1640     2.0330 
  117.2500    43.5460    41.5400    40.4360    22.2210    23.0800   -13.8740     2.0320 
  117.3750    46.7170    36.2650    34.8040    18.0740    23.0210   -13.5850     2.0370 
