~V
VERS. 2.00: Ver 2.00
~W
STRT.M 50.0000:
STOP.M 217.0000:
STEP.M 0.1250:
NULL. -999.2500:
UWI. F10606:
~C
DEPT.M :
DEN.GM/CC :
GR.API :
RML.OHMM :
RI. :
RXO.OHMM :
CALI.CM :
SP.MV :
~A
# ...
  173.7500     2.3710    83.6600    14.8910    10.9080    16.2980    24.4720   -21.4390 
  173.8750     2.3680    80.5490    17.6940    12.7620    19.2050    24.4540   -21.5830 
  174.0000     2.3800    77.3630    21.8660    15.5930    25.1350    24.4260   -21.7960 
  174.1250     2.4070    73.1550    28.0130    19.9890    31.2700    24.4050   -22.0900 
  174.2500     2.4270    68.5620    35.7870    25.9060    44.2000    24.4290   -22.3750 
  174.3750     2.4240    65.0610    44.4450    32.9530    62.8600    24.4300   -22.6880 
  174.5000     2.3960    61.8060    52.5560    40.0320    82.0060    24.3960   -22.9980 
  174.6250     2.3550    59.3040    57.9600    45.2340    84.7630    24.3750   -23.2590 
  174.7500     2.3180    60.0830    60.3870    47.9370    75.4060    24.3970   -23.5380 
  174.8750     2.2920    62.0130    60.6960    48.5890    64.5270    24.4290   -23.8270 
  175.0000     2.2800    60.1750    60.3350    48.2980    64.7850    24.4320   -24.0840 
  175.1250     2.2750    55.9440    60.6130    48.2260    71.1610    24.4100   -24.3240 
  175.2500     2.2650    54.7640    61.8890    48.9070    73.7580    24.4020   -24.5300 
  175.3750     2.2440    55.2960    64.1800    50.4670    70.9020    24.4160   -24.7080 
  175.5000     2.2220    55.1640    67.4090    52.8830    68.6400    24.4210   -24.8780 
  175.6250     2.2170    55.3410    71.5150    56.1500    71.7310    24.3490   -25.0080 
  175.7500     2.2410    57.4410    75.8540    59.7950    82.4310    24.2330   -25.0880 
  175.8750     2.2820    59.1620    79.4900    63.1580    95.3580    24.1690   -25.1190 
  176.0000     2.3160    57.7400    81.2410    65.3300    96.0820    24.2000   -25.1100 
  176.1250     2.3210    54.6510    79.8810    65.1960    91.8550    24.2760   -25.0490 
  176.2500     2.3110    53.8200    76.3370    63.1650    85.8940    24.3550   -24.9450 
  176.3750     2.3070    55.8920    71.8600    60.0300    75.2320    24.3820   -24.8140 
  176.5000     2.3150    59.3670    67.6880    56.7500    64.1250    24.3530   -24.6890 
  176.6250     2.3220    60.1140    64.8430    54.2330    60.6200    24.3400   -24.5450 
  176.7500     2.3140    57.5420    63.4700    52.8000    62.5520    24.3430   -24.3930 
  176.8750     2.2900    55.1010    63.7460    52.6910    64.9710    24.3580   -24.2860 
  177.0000     2.2600    57.1630    65.8740    54.1290    64.9210    24.3610   -24.1700 
  177.1250     2.2340    60.8930    70.3610    57.5950    67.1410    24.3540   -24.0650 
  177.2500     2.2160    60.3560    76.8340    62.8360    75.8030    24.3430   -24.0420 
  177.3750     2.2040    58.1550    84.8940    69.5680    87.3800    24.3400   -24.0140 
  177.5000     2.1990    58.0830    93.5450    77.0150   100.3350    24.3110   -23.9560 
  177.6250     2.2040    58.8400   100.4500    83.3960    97.1860    24.2400   -23.9610 
  177.7500     2.2160    57.1090   103.4780    87.0160    93.6470    24.1530   -23.9680 
  177.8750     2.2280    54.2160   101.7060    87.0490    95.1220    24.1500   -23.9760 
  178.0000     2.2340    53.6110    96.1760    83.9800    98.4880    24.1940   -24.0480 
  178.1250     2.2280    56.4630    89.3250    79.2890    95.1770    24.2820   -24.1030 
  178.2500     2.2220    59.7140    83.4380    74.8450    85.3900    24.3140   -24.1390 
  178.3750     2.2330    61.9050    79.0310    71.2900    78.2960    24.3160   -24.1940 
  178.5000     2.2640    62.2040    75.7330    68.5810    79.1790    24.3290   -24.2800 
  178.6250     2.3000    59.0850    72.9360    66.3700    84.9190    24.3770   -24.3680 
  178.7500     2.3160    54.8860    70.2880    64.3290    83.5580    24.4310   -24.4630 
  178.8750     2.3080    52.8840    68.0700    62.6040    75.2740    24.5020   -24.5800 
  179.0000     2.2860    54.4410    66.8190    61.5950    67.2540    24.5880   -24.6520 
  179.1250     2.2760    57.3990    67.2950    61.9820    64.9600    24.6490   -24.7250 
  179.2500     2.2850    59.3350    69.4160    63.8200    68.4970    24.6030   -24.8140 
  179.3750     2.3000    59.2090    72.9130    66.9950    73.9340    24.5450   -24.8890 
  179.5000     2.3070    56.7940    77.2020    71.0730    82.2790    24.5430   -24.9330 
  179.6250     2.3000    56.5420    81.4660    75.3330    90.6660    24.5440   -24.9860 
  179.7500     2.2870    58.8360    85.2110    79.1800    94.3060    24.5280   -25.0550 
  179.8750     2.2730    58.9880    88.5690    82.6080   102.2240    24.5240   -25.0870 
  180.0000     2.2600    55.1640    92.0810    86.0600   103.7780    24.5560   -25.1710 
  180.1250     2.2440    52.3480    96.4370    90.1950   112.9070    24.5800   -25.2990 
  180.2500     2.2240    54.3330   101.5450    95.0110   117.3760    24.5650   -25.3910 
  180.3750     2.2050    56.9970   106.8490   100.0530   116.7340    24.5330   -25.5050 
  180.5000     2.1930    55.9890   111.4970   104.5970   129.0040    24.5380   -25.6100 
  180.6250     2.1940    52.0800   114.4230   107.7460   154.9600    24.5710   -25.6270 
  180.7500     2.2040    49.3740   115.7570   109.5610   163.0100    24.5910   -25.6220 
  180.8750     2.2230    49.7660   116.1150   110.4610   147.1630    24.5570   -25.5950 
  181.0000     2.2450    51.2060   116.3380   111.0640   136.0840    24.5040   -25.5070 
  181.1250     2.2600    49.7930   117.1130   111.8970   129.2510    24.4710   -25.3860 
  181.2500     2.2620    47.2560   118.3390   112.9960   137.5200    24.4600   -25.2320 
  181.3750     2.2490    45.9850   119.4160   113.9750   158.1580    24.4650   -25.0590 
  181.5000     2.2300    46.5060   119.5480   114.1840   169.1580    24.4750   -24.8840 
  181.6250     2.2150    47.8780   118.2620   113.0960   153.6420    24.4780   -24.7500 
  181.7500     2.2100    49.6980   116.7340   111.5780   142.3040    24.4750   -24.6180 
  181.8750     2.2140    51.0870   116.4600   110.9400   142.0150    24.4980   -24.4740 
  182.0000     2.2260    51.2580   118.6200   112.4010   139.0560    24.5090   -24.3160 
  182.1250     2.2460    49.1890   123.5330   116.5040   145.2670    24.4820   -24.1120 
  182.2500     2.2690    46.4870   128.7940   121.2090   166.6270    24.4370   -23.8710 
  182.3750     2.2860    46.1420   131.5580   123.9960   230.3870    24.3940   -23.6160 
  182.5000     2.2920    49.6940   129.7770   122.9310   325.9040    24.3040   -23.3760 
  182.6250     2.2810    55.9760   123.5140   117.6100   248.2350    24.1060   -23.1080 
  182.7500     2.2610    60.9950   116.5260   110.9760   148.5240    23.8460   -22.8520 
  182.8750     2.2440    63.6490   111.6130   105.5390    96.9920    23.7750   -22.6410 
  183.0000     2.2330    63.1020   110.3220   103.0520    89.9870    23.9800   -22.4300 
  183.1250     2.2240    59.5010   112.8460   104.3530   104.7080    24.1850   -22.2660 
  183.2500     2.2100    57.6630   116.1440   107.2500   114.9630    24.2870   -22.1830 
  183.3750     2.1910    60.4910   116.4560   108.6190   125.6100    24.3180   -22.0960 
  183.5000     2.1720    64.6350   110.1710   104.8590   150.5360    24.3770   -22.0210 
  183.6250     2.1640    63.7310    96.0040    93.4080   170.8900    24.3880   -21.9890 
  183.7500     2.1680    59.5750    79.3940    78.3290   122.9190    24.3660   -21.8960 
  183.8750     2.1860    58.2980    64.5880    63.8850    76.6990    24.3960   -21.7850 
  184.0000     2.2220    60.6470    53.8180    52.8760    55.4070    24.4650   -21.7040 
  184.1250     2.2830    61.4430    48.2450    46.7700    52.1890    24.4900   -21.6120 
  184.2500     2.3570    59.5800    46.5740    44.3800    58.6480    24.3930   -21.5150 
  184.3750     2.4260    57.5660    47.7770    44.8490    75.7590    24.1110   -21.4080 
  184.5000     2.4720    58.2680    50.0370    46.7090    91.6020    23.7410   -21.3010 
  184.6250     2.4890    63.2570    49.6230    46.6230    83.6220    23.8930   -21.1360 
  184.7500     2.4910    70.7140    44.0810    41.8490    82.3880    24.2170   -20.9590 
  184.8750     2.4850    77.6930    34.2910    32.8790    87.0190    24.3610   -20.7600 
