~V
VERS. 2.00: Ver 2.00
~W
STRT.M 59.0000:
STOP.M 270.0000:
STEP.M 0.1250:
NULL. -999.2500:
UWI. F10667:
~C
DEPT.M :
GR.API :
RML.OHMM :
RI. :
RXO.OHMM :
CALI.CM :
DEN.GM/CC :
SP.MV :
~A
# ...
  239.0000    28.6620     4.9140     4.0190     4.0880    23.2290     2.4350    -9.4790 
  239.1250    28.7270     4.9250     4.0640     4.2160    23.2190     2.4280    -9.5460 
  239.2500    29.0470     4.9180     4.0780     4.1730    23.3060     2.4160    -9.6190 
  239.3750    28.9900     4.8700     4.0540     4.1220    23.3910     2.4000    -9.7240 
  239.5000    28.5280     4.7930     4.0140     4.0760    23.4410     2.3840    -9.8020 
  239.6250    31.4530     4.7450     4.0040     4.0450    23.4700     2.3790    -9.8720 
  239.7500    38.5910     4.7700     4.0590     4.1830    23.5060     2.3840    -9.9670 
  239.8750    44.3090     4.9030     4.1850     4.4620    23.5690     2.3950   -10.0070 
  240.0000    45.6990     5.1300     4.3620     4.6980    23.6400     2.4020   -10.0340 
  240.1250    47.4690     5.3410     4.5390     4.8850    23.7270     2.3950   -10.1060 
  240.2500    50.5590     5.4580     4.6570     5.0740    23.7620     2.3770   -10.1440 
  240.3750    51.9360     5.4950     4.6890     5.2180    23.7710     2.3570   -10.1640 
  240.5000    50.8170     5.4970     4.6430     5.3570    23.7680     2.3440   -10.1930 
  240.6250    51.1330     5.5220     4.5630     5.1810    23.7630     2.3460   -10.2040 
  240.7500    53.0080     5.5950     4.5110     4.9890    23.7480     2.3590   -10.1960 
  240.8750    53.4560     5.7130     4.5170     4.8270    23.7280     2.3750   -10.1930 
  241.0000    51.2470     5.8520     4.5850     4.6200    23.7170     2.3890   -10.1750 
  241.1250    48.7420     5.9800     4.7000     4.5680    23.7150     2.3950   -10.1060 
  241.2500    49.3330     6.0740     4.8200     4.3910    23.7120     2.3940   -10.0430 
  241.3750    51.5680     6.1250     4.9150     4.4900    23.7010     2.3890    -9.9720 
  241.5000    52.2990     6.1250     4.9640     5.0860    23.6740     2.3810    -9.8690 
  241.6250    49.8380     6.0410     4.9440     5.6760    23.6520     2.3760    -9.7630 
  241.7500    45.2060     5.8580     4.8710     5.8770    23.6330     2.3770    -9.6530 
  241.8750    39.8780     5.5820     4.7590     5.4430    23.6240     2.3850    -9.5380 
  242.0000    36.4940     5.2690     4.6360     4.5150    23.6380     2.3930    -9.4360 
  242.1250    38.3490     5.0390     4.5340     4.1030    23.6480     2.3930    -9.3630 
  242.2500    43.2250     4.9710     4.4710     4.2200    23.6410     2.3810    -9.3020 
  242.3750    48.3830     5.0770     4.4510     4.7060    23.6000     2.3590    -9.2450 
  242.5000    50.2040     5.2850     4.4600     5.2630    23.5390     2.3360    -9.1980 
  242.6250    45.6790     5.4370     4.4710     5.5710    23.5080     2.3210    -9.1510 
  242.7500    39.8600     5.4230     4.4520     5.5570    23.5650     2.3180    -9.0940 
  242.8750    37.4140     5.2510     4.3980     5.0910    23.6270     2.3250    -9.0290 
  243.0000    37.7860     5.0270     4.3260     4.3270    23.6530     2.3390    -8.9600 
  243.1250    37.8010     4.9310     4.2840     3.9990    23.6530     2.3580    -8.8810 
  243.2500    38.0170     5.0460     4.3130     3.9100    23.6520     2.3770    -8.7890 
  243.3750    40.3480     5.3460     4.4270     3.9830    23.6350     2.3930    -8.7020 
  243.5000    44.0250     5.6960     4.5990     4.1380    23.5630     2.4010    -8.6120 
  243.6250    46.0990     5.8590     4.7460     4.5170    23.4000     2.3890    -8.5200 
  243.7500    45.6750     5.7420     4.7890     4.6720    23.2630     2.3590    -8.4720 
  243.8750    42.6740     5.3950     4.7020     4.6080    23.2190     2.3180    -8.4500 
  244.0000    37.2810     4.9770     4.5140     4.4580    23.2140     2.2800    -8.4470 
  244.1250    32.1460     4.6840     4.3010     4.2430    23.1920     2.2610    -8.4470 
  244.2500    29.7700     4.5900     4.1490     4.1000    23.1810     2.2650    -8.4500 
  244.3750    30.3770     4.6870     4.1050     4.0950    23.2740     2.2850    -8.4720 
  244.5000    32.4350     4.9060     4.1720     4.1760    23.4650     2.3130    -8.5200 
  244.6250    33.6980     5.1350     4.3160     4.3480    23.6370     2.3360    -8.5820 
  244.7500    33.5790     5.2690     4.4530     4.5760    23.7300     2.3520    -8.6490 
  244.8750    31.9670     5.2730     4.5240     4.8350    23.7870     2.3630    -8.7300 
  245.0000    29.3170     5.1800     4.5030     4.8760    23.8160     2.3720    -8.8010 
  245.1250    27.6330     5.0750     4.4060     4.5680    23.8250     2.3810    -8.8580 
  245.2500    27.9850     5.0220     4.3000     4.4680    23.8250     2.3870    -8.8740 
  245.3750    29.8490     5.0120     4.2260     4.4960    23.8250     2.3900    -8.8500 
  245.5000    31.2800     5.0010     4.2050     4.4040    23.8250     2.3930    -8.8320 
  245.6250    32.2410     4.9650     4.2330     4.2440    23.8250     2.3990    -8.7710 
  245.7500    33.7030     4.9400     4.2780     4.1590    23.8250     2.4080    -8.6820 
  245.8750    35.5990     4.9750     4.3180     4.1480    23.8250     2.4180    -8.5800 
  246.0000    37.4450     5.0880     4.3400     4.2070    23.8250     2.4250    -8.4290 
  246.1250    39.0320     5.2290     4.3390     4.3920    23.8250     2.4280    -8.3070 
  246.2500    39.4840     5.2930     4.3250     4.5180    23.8250     2.4280    -8.2120 
  246.3750    38.2870     5.2240     4.3100     4.5780    23.8250     2.4300    -8.1090 
  246.5000    37.2280     5.0410     4.3060     4.5290    23.8250     2.4350    -8.0080 
  246.6250    36.9510     4.8450     4.3280     4.4240    23.8190     2.4460    -7.9190 
  246.7500    36.0530     4.7450     4.3660     4.3020    23.8050     2.4570    -7.8490 
  246.8750    34.3840     4.7790     4.3990     4.3090    23.7880     2.4610    -7.8020 
  247.0000    32.2820     4.9090     4.3950     4.5030    23.7920     2.4530    -7.7940 
  247.1250    29.9160     5.0300     4.3200     4.7800    23.8250     2.4310    -7.8050 
  247.2500    27.2340     5.0410     4.1900     4.7170    23.8660     2.4080    -7.8400 
  247.3750    25.1820     4.9180     4.0400     4.2720    23.8760     2.3930    -7.9030 
  247.5000    24.5560     4.7100     3.9140     3.9060    23.8600     2.3890    -7.9770 
  247.6250    25.8260     4.5310     3.8620     3.8350    23.8350     2.3920    -8.0720 
  247.7500    28.5670     4.4770     3.8830     3.8700    23.8300     2.3940    -8.1820 
  247.8750    31.0390     4.5690     3.9610     3.8760    23.8380     2.3960    -8.3010 
  248.0000    32.2430     4.7570     4.0670     3.8960    23.8440     2.3970    -8.4110 
  248.1250    33.2790     4.9420     4.1730     3.9660    23.8450     2.3990    -8.5220 
  248.2500    35.0930     5.0610     4.2720     4.0620    23.8410     2.4010    -8.6520 
  248.3750    37.6930     5.1210     4.3760     4.1970    23.8380     2.4040    -8.7810 
  248.5000    40.7420     5.1730     4.4940     4.4170    23.8440     2.4070    -8.9110 
  248.6250    42.9550     5.2730     4.6160     4.8390    23.8620     2.4080    -9.0410 
  248.7500    43.6280     5.3970     4.7050     5.2390    23.8710     2.4070    -9.1610 
  248.8750    42.1180     5.4780     4.7250     5.1690    23.8740     2.4040    -9.2640 
  249.0000    38.0100     5.4540     4.6670     4.5750    23.8770     2.4000    -9.3810 
  249.1250    33.4590     5.3130     4.5500     4.3550    23.8690     2.4000    -9.5230 
  249.2500    32.2600     5.1510     4.4350     4.4240    23.8390     2.4000    -9.6560 
  249.3750    34.6280     5.0560     4.3620     4.6130    23.7980     2.3980    -9.8020 
  249.5000    37.2830     5.0720     4.3520     4.7430    23.7750     2.3920    -9.9360 
  249.6250    36.9080     5.1640     4.3930     4.6630    23.7700     2.3850   -10.0460 
  249.7500    35.1620     5.2110     4.4290     4.5570    23.7690     2.3800   -10.1380 
  249.8750    34.0470     5.1460     4.4190     4.4870    23.7580     2.3780   -10.2290 
  250.0000    35.2860     4.9890     4.3570     4.4740    23.7220     2.3750   -10.2900 
  250.1250    39.5120     4.8680     4.2880     4.4530    23.6520     2.3680   -10.3100 
