~V
VERS. 2.00: Ver 2.00
~W
STRT.M 52.0000:
STOP.M 238.0000:
STEP.M 0.1250:
NULL. -999.2500:
UWI. F10653:
~C
DEPT.M :
GR.API :
RML.OHMM :
RI. :
RXO.OHMM :
CALI.CM :
DEN.GM/CC :
SP.MV :
~A
# ...
  119.5000    86.9500     7.0490     6.0490     6.9540    24.4740     2.3500    -6.7260 
  119.6250    85.5530     7.1860     6.1860     7.4900    24.4560     2.3400    -6.4200 
  119.7500    84.2170     7.4240     6.4240     8.2180    24.4140     2.3270    -6.1480 
  119.8750    82.7840     7.7840     6.7840     8.5140    24.3310     2.3140    -5.8700 
  120.0000    81.1280     8.3430     7.3430     8.9200    24.1460     2.3060    -5.6180 
  120.1250    78.5200     9.2640     8.2640     9.8250    23.9310     2.3020    -5.4520 
  120.2500    75.4880    10.6040     9.6040    11.1000    23.8490     2.2940    -5.3020 
  120.3750    72.5690    12.3750    11.3750    13.2920    23.9930     2.2720    -5.1790 
  120.5000    69.5480    14.4700    11.7650    15.9100    24.2890     2.2370    -5.1080 
  120.6250    65.4640    16.5800    13.5660    19.7420    24.5130     2.1940    -5.1040 
  120.7500    61.1010    18.3080    15.0950    20.7970    24.5730     2.1530    -5.1610 
  120.8750    57.8220    19.4230    16.0300    20.7050    24.5500     2.1260    -5.2450 
  121.0000    58.2020    19.9310    16.3770    19.4800    24.5400     2.1180    -5.3670 
  121.1250    62.6530    20.0500    16.4220    18.6180    24.5600     2.1330    -5.5170 
  121.2500    67.2930    20.1390    16.5110    17.6060    24.5600     2.1640    -5.6520 
  121.3750    69.1210    20.3330    16.7360    17.0510    24.5560     2.2020    -5.7410 
  121.5000    68.3350    20.6750    17.0970    17.3400    24.5610     2.2320    -5.7720 
  121.6250    67.7900    21.2100    17.5410    19.3580    24.6330     2.2340    -5.7240 
  121.7500    67.1400    21.9100    18.0310    20.3010    24.6860     2.2100    -5.5530 
  121.8750    65.0110    22.7510    18.6150    20.2920    24.6770     2.1730    -5.3470 
  122.0000    62.5060    23.6690    19.3400    20.9970    24.6590     2.1420    -5.0790 
  122.1250    60.2050    24.5030    20.1230    23.9420    24.6540     2.1300    -4.7560 
  122.2500    58.9800    25.0690    20.7290    26.4100    24.5730     2.1310    -4.4510 
  122.3750    58.7730    25.2710    20.9890    26.3340    24.4590     2.1350    -4.1510 
  122.5000    58.3300    25.1880    20.9220    24.2380    24.4920     2.1340    -3.9090 
  122.6250    56.4020    25.0720    20.7890    24.1400    24.5420     2.1320    -3.7120 
  122.7500    55.3640    25.2100    20.8410    25.0970    24.5650     2.1370    -3.5690 
  122.8750    57.1730    25.6960    21.1340    25.1780    24.5460     2.1480    -3.4860 
  123.0000    60.1600    26.4090    21.6170    25.1510    24.5100     2.1570    -3.4790 
  123.1250    62.2950    26.9650    22.1260    27.1440    24.6240     2.1530    -3.5510 
  123.2500    63.4090    27.0070    22.4700    28.2160    24.8230     2.1380    -3.6970 
  123.3750    61.4160    26.3760    22.5730    27.3890    24.9470     2.1210    -3.9020 
  123.5000    58.0600    25.1150    22.3180    25.2400    24.8510     2.1110    -4.1650 
  123.6250    58.2990    23.4310    21.5340    22.9940    24.6700     2.1130    -4.5220 
  123.7500    60.9740    21.7300    20.3810    21.6610    24.5760     2.1230    -4.9050 
  123.8750    61.6490    20.2630    19.1250    19.8300    24.4880     2.1360    -5.2770 
  124.0000    59.2930    19.1630    17.9780    17.8600    24.3390     2.1490    -5.6380 
  124.1250    58.5040    18.5150    17.0960    16.5600    24.2650     2.1610    -5.9060 
  124.2500    60.2320    18.2160    16.4780    16.4070    24.2920     2.1730    -6.0910 
  124.3750    62.6700    18.2220    16.1020    16.5510    24.3640     2.1820    -6.1850 
  124.5000    64.3320    18.4910    15.9630    16.8060    24.4200     2.1840    -6.1780 
  124.6250    64.2750    19.0050    16.2070    17.5430    24.4740     2.1770    -6.0400 
  124.7500    63.3910    19.6800    16.8420    18.7940    24.4900     2.1650    -5.8220 
  124.8750    62.7270    20.5130    17.8570    20.2670    24.4170     2.1520    -5.5500 
  125.0000    63.2600    21.5270    19.1320    21.7680    24.2870     2.1460    -5.2470 
  125.1250    63.5280    22.7840    20.5090    23.6290    24.1920     2.1510    -4.9210 
  125.2500    61.2530    24.2130    21.7920    25.2010    24.3730     2.1630    -4.5980 
  125.3750    57.7990    25.7180    22.8820    27.4920    24.5350     2.1780    -4.3440 
  125.5000    55.2330    27.1950    23.8180    29.3470    24.6170     2.1870    -4.1080 
  125.6250    53.1400    28.5410    24.7340    31.2730    24.6960     2.1740    -3.9310 
  125.7500    51.3830    29.6140    25.6470    31.7620    24.7410     2.1430    -3.8830 
  125.8750    51.4070    30.0460    26.2840    31.6660    24.7720     2.1070    -3.9040 
  126.0000    52.7250    29.3460    26.1750    31.8250    24.8400     2.0820    -3.9700 
  126.1250    52.8450    27.0750    24.8010    31.4090    24.8640     2.0960    -4.1840 
  126.2500    54.7280    23.9230    22.5080    30.3210    24.8140     2.1460    -4.4690 
  126.3750    59.6960    20.6920    19.8450    26.0750    24.6810     2.2110    -4.7710 
  126.5000    64.3750    18.0900    17.3970    19.2410    24.5060     2.2550    -5.1380 
  126.6250    65.3600    16.6550    15.6680    14.7100    24.4090     2.2490    -5.5100 
  126.7500    63.8590    16.2320    14.7170    14.7570    24.4750     2.2170    -5.7870 
  126.8750    62.2240    16.6920    14.5750    15.6660    24.5480     2.1730    -6.0220 
  127.0000    62.1900    17.8600    15.1820    17.6290    24.5600     2.1350    -6.2270 
  127.1250    63.3180    19.5120    16.4020    19.8110    24.5350     2.1170    -6.3320 
  127.2500    62.4070    21.2160    17.8160    21.4060    24.5290     2.1160    -6.3810 
  127.3750    60.0340    22.7000    19.1830    22.4700    24.5160     2.1250    -6.3710 
  127.5000    59.1190    23.7820    20.3430    22.9900    24.4250     2.1400    -6.3030 
  127.6250    59.6730    24.3160    21.1160    22.7370    24.2950     2.1600    -6.1760 
  127.7500    60.3740    24.4430    21.4560    22.3140    24.3250     2.1760    -6.0300 
  127.8750    61.4520    24.3210    21.3650    22.0990    24.4540     2.1830    -5.8750 
  128.0000    62.3750    24.1490    21.0120    22.0670    24.5540     2.1810    -5.6890 
  128.1250    61.1170    24.1170    20.7090    23.0900    24.5950     2.1750    -5.4670 
  128.2500    58.9100    24.2950    20.6320    23.9630    24.6890     2.1720    -5.2630 
  128.3750    58.1200    24.6570    20.7660    24.5010    24.8860     2.1700    -5.0910 
  128.5000    59.0170    25.1020    21.0000    24.5190    25.0560     2.1600    -4.8980 
  128.6250    58.9240    25.4680    21.2130    24.6630    25.0620     2.1360    -4.7630 
  128.7500    56.6060    25.6580    21.4330    25.3000    25.0620     2.1070    -4.7160 
  128.8750    54.1430    25.6520    21.7040    26.1250    25.1260     2.0880    -4.6970 
  129.0000    53.1830    25.5000    22.0040    26.4400    25.1100     2.0900    -4.7360 
  129.1250    53.5040    25.3170    22.2220    25.8090    24.9020     2.1130    -4.8820 
  129.2500    53.7300    25.2450    22.3620    25.3210    24.7030     2.1340    -5.0270 
  129.3750    53.2560    25.3690    22.4760    25.4450    24.6440     2.1390    -5.2000 
  129.5000    52.3640    25.7130    22.6090    26.5190    24.5890     2.1260    -5.4770 
  129.6250    52.4090    26.2760    22.8130    27.2850    24.5190     2.1110    -5.8000 
  129.7500    53.8180    26.9240    23.1230    27.4980    24.4820     2.1090    -6.1190 
  129.8750    55.0820    27.3620    23.4120    26.6860    24.4970     2.1230    -6.4800 
  130.0000    55.8970    26.9870    23.2610    24.7880    24.4180     2.1390    -6.8350 
  130.1250    56.3930    24.7430    21.7500    22.5520    24.3090     2.1420    -7.1740 
  130.2500    57.1620    20.8110    18.7680    21.4570    24.3950     2.1350    -7.4890 
  130.3750    59.9360    16.1410    14.9420    19.9590    24.6070     2.1350    -7.7670 
  130.5000    68.5110    12.0100    11.3220    14.6220    24.6570     2.1570    -7.9790 
  130.6250    82.3920     9.5150     8.8260     8.4310    24.5550     2.2070    -8.0630 
