~V
VERS. 2.00: Ver 2.00
~W
STRT.M 57.0000:
STOP.M 248.0000:
STEP.M 0.1250:
NULL. -999.2500:
UWI. F10637:
~C
DEPT.M :
SP.MV :
GR.API :
RML.OHMM :
RI. :
RXO.OHMM :
CALI.CM :
DEN.GM/CC :
~A
# ...
  192.0000   -16.8830    65.7340     8.7160     7.7350     7.7550    25.2240     2.3800 
  192.1250   -16.8830    65.8200     8.9380     7.9010     8.4850    25.2340     2.4120 
  192.2500   -16.8710    65.1980     9.1470     8.0520     9.0480    25.2440     2.4430 
  192.3750   -16.8490    63.6970     9.2700     8.1230     9.1330    25.2490     2.4700 
  192.5000   -16.8170    62.2750     9.3110     8.1100     8.6570    25.2340     2.4940 
  192.6250   -16.7760    63.6080     9.3450     8.0710     8.1700    25.1700     2.5170 
  192.7500   -16.7240    65.9790     9.4840     8.1210     8.2410    25.0880     2.5280 
  192.8750   -16.6690    67.3600     9.7480     8.3060     8.4690    25.1180     2.5210 
  193.0000   -16.6130    66.6140    10.0840     8.6020     9.0130    25.1940     2.5000 
  193.1250   -16.5550    62.5590    10.3880     8.9210    10.0350    25.2330     2.4740 
  193.2500   -16.5030    57.3670    10.5690     9.1440    11.4440    25.2300     2.4530 
  193.3750   -16.4590    56.1590    10.7190     9.2910    11.9360    25.2380     2.4370 
  193.5000   -16.4220    59.9170    11.0470     9.4980    10.6620    25.2520     2.4190 
  193.6250   -16.3910    62.9100    11.8220     9.9720     9.7490    25.2600     2.3960 
  193.7500   -16.3650    61.7870    13.3700    10.9960    10.8800    25.2600     2.3680 
  193.8750   -16.3440    60.8190    15.4970    12.5320    13.8190    25.2600     2.3450 
  194.0000   -16.3230    61.1270    17.6740    14.2890    17.3070    25.2540     2.3320 
  194.1250   -16.3000    60.0800    18.9430    15.5500    19.8160    25.2280     2.3330 
  194.2500   -16.2730    58.0400    18.1500    15.2600    19.4760    25.1590     2.3440 
  194.3750   -16.2470    58.1160    16.0150    13.7740    16.8120    25.1140     2.3580 
  194.5000   -16.2200    60.3040    13.7700    11.9860    13.0720    25.1530     2.3700 
  194.6250   -16.1940    64.2630    12.3930    10.6690     9.8940    25.2000     2.3760 
  194.7500   -16.1780    66.3750    12.4790    10.3370     8.8320    25.1650     2.3700 
  194.8750   -16.1730    64.6220    13.7740    10.9310    10.6080    25.1080     2.3540 
  195.0000   -16.1910    60.5330    16.0580    12.4080    15.0680    25.1420     2.3310 
  195.1250   -16.2410    57.6800    18.9260    14.5820    19.0840    25.2280     2.3070 
  195.2500   -16.3270    57.1290    21.6310    16.9770    21.3120    25.2940     2.2900 
  195.3750   -16.4390    56.2570    23.4880    18.8900    22.2660    25.3440     2.2800 
  195.5000   -16.5790    54.3910    24.3250    19.9880    22.7870    25.3970     2.2740 
  195.6250   -16.7440    53.0780    24.4580    20.3810    22.7630    25.4460     2.2730 
  195.7500   -16.9260    54.1790    24.3900    20.4120    22.4960    25.4450     2.2730 
  195.8750   -17.1180    55.3390    24.4590    20.4260    22.6440    25.4380     2.2730 
  196.0000   -17.3100    55.4860    24.7250    20.5180    22.6520    25.4520     2.2690 
  196.1250   -17.4870    55.0710    25.1630    20.7040    22.7580    25.4740     2.2640 
  196.2500   -17.6420    54.5690    25.7030    20.9630    23.0920    25.4660     2.2600 
  196.3750   -17.7780    54.1470    26.2260    21.2280    23.5340    25.4410     2.2610 
  196.5000   -17.8920    55.2210    26.6610    21.4540    23.6390    25.4260     2.2660 
  196.6250   -17.9810    57.9550    26.9740    21.6220    23.5310    25.4150     2.2710 
  196.7500   -18.0500    57.8520    27.1560    21.7210    23.9140    25.4130     2.2750 
  196.8750   -18.1010    55.3880    27.2770    21.7830    24.0600    25.4080     2.2760 
  197.0000   -18.1380    54.7280    27.3960    21.8450    23.9410    25.3880     2.2780 
  197.1250   -18.1730    56.5270    27.5680    21.9540    23.8200    25.3700     2.2790 
  197.2500   -18.2130    56.6350    27.8610    22.1750    23.9100    25.3660     2.2820 
  197.3750   -18.2590    54.8510    28.2920    22.5380    24.1470    25.3670     2.2850 
  197.5000   -18.3110    54.3590    28.8690    23.0740    24.8360    25.3680     2.2860 
  197.6250   -18.3740    54.8700    29.5590    23.7860    26.0160    25.3680     2.2850 
  197.7500   -18.4530    53.1530    30.3410    24.6600    27.5060    25.3670     2.2760 
  197.8750   -18.5390    51.0330    31.2340    25.6400    28.8040    25.3590     2.2580 
  198.0000   -18.6250    51.3450    32.3030    26.7050    29.8190    25.3320     2.2420 
  198.1250   -18.7040    53.6450    33.5900    27.8240    30.4410    25.2890     2.2500 
  198.2500   -18.7610    55.0270    35.0400    28.9600    31.3280    25.2560     2.3250 
  198.3750   -18.7920    55.3210    36.0470    29.8270    32.8160    25.2280     2.4680 
  198.5000   -18.7890    54.4700    35.3930    29.6200    34.0840    25.2060     2.6350 
  198.6250   -18.7450    52.6860    31.7760    27.2580    32.0300    25.1960     2.7390 
  198.7500   -18.6340    53.5480    25.0040    22.2790    28.5770    25.1720     2.7170 
  198.8750   -18.4620    56.2230    17.7950    16.6150    26.3440    25.0510     2.6250 
  199.0000   -18.2340    57.4950    12.0190    11.7320    16.8910    24.7580     2.5150 
  199.1250   -17.9510    55.5880     8.2660     8.2300     7.0300    24.4160     2.4240 
  199.2500   -17.6160    51.1120     6.3440     6.1700     4.4990    24.3360     2.3720 
  199.3750   -17.2580    47.1710     5.3290     4.9490     4.1470    24.4730     2.3450 
  199.5000   -16.9010    45.8280     4.8560     4.2970     4.4280    24.8480     2.3220 
  199.6250   -16.5730    48.7970     4.7550     4.0600     4.6430    25.2360     2.2950 
  199.7500   -16.3070    52.9230     5.0020     4.2070     4.5360    25.3290     2.2710 
  199.8750   -16.1170    56.4170     5.5300     4.6440     4.5360    25.2460     2.2660 
  200.0000   -16.0080    62.6900     6.3130     5.3450     5.2640    25.1950     2.2900 
  200.1250   -15.9790    72.2890     7.2560     6.2520     7.4610    25.2400     2.3360 
  200.2500   -16.0280    81.2070     8.1070     7.1920     9.3130    25.2610     2.3820 
  200.3750   -16.1280    87.4580     8.6060     7.8960    10.0750    25.2570     2.4110 
  200.5000   -16.2510    89.8000     8.6630     8.1940     9.5740    25.2590     2.4240 
  200.6250   -16.3570    87.8570     8.4040     8.1020     8.6190    25.2640     2.4260 
  200.7500   -16.4280    86.2900     8.0820     7.7930     8.0830    25.2690     2.4190 
  200.8750   -16.4600    89.4630     7.8830     7.5010     7.9610    25.2760     2.4060 
  201.0000   -16.4560    95.4020     7.8270     7.3020     8.0550    25.2850     2.3950 
  201.1250   -16.4280    99.0940     7.8550     7.1920     8.0900    25.2950     2.3870 
  201.2500   -16.3890    96.1220     7.8840     7.1260     8.0640    25.2940     2.3840 
  201.3750   -16.3370    90.1310     7.8650     7.0520     7.9670    25.2870     2.3800 
  201.5000   -16.2870    86.7740     7.7880     6.9550     7.7480    25.2830     2.3740 
  201.6250   -16.2590    89.0410     7.6710     6.8420     7.4440    25.2790     2.3690 
  201.7500   -16.2590    91.3010     7.5470     6.7340     7.3260    25.2660     2.3700 
  201.8750   -16.2790    89.6720     7.4600     6.6630     7.3080    25.2620     2.3750 
  202.0000   -16.3130    87.6110     7.4450     6.6510     7.2060    25.2650     2.3840 
  202.1250   -16.3520    89.2530     7.5250     6.7160     7.1060    25.2740     2.3930 
  202.2500   -16.3900    94.8130     7.7110     6.8680     7.1550    25.2770     2.4010 
  202.3750   -16.4320    97.0220     7.9400     7.0580     7.3620    25.2840     2.4060 
  202.5000   -16.4790    93.7230     8.1390     7.2260     7.6960    25.3070     2.4090 
  202.6250   -16.5230    89.5520     8.2350     7.3010     8.0600    25.3200     2.4090 
  202.7500   -16.5640    90.2560     8.1690     7.2170     8.2810    25.3140     2.4040 
  202.8750   -16.6100    93.2590     7.9980     7.0160     8.2560    25.2800     2.3940 
  203.0000   -16.6580    93.5390     7.8220     6.7760     7.9140    25.2550     2.3820 
  203.1250   -16.7120    92.8080     7.8090     6.6300     7.6430    25.2460     2.3710 
