~V
VERS. 2.00: Ver 2.00
~W
STRT.M 55.0000:
STOP.M 253.0000:
STEP.M 0.1250:
NULL. -999.2500:
UWI. F10665:
~C
DEPT.M :
SP.MV :
DEN.GM/CC :
GR.API :
RML.OHMM :
RI. :
RXO.OHMM :
CALI.CM :
~A
# ...
  178.7500   -10.1340     2.4500    70.1860    13.7980    10.0050    13.0210    23.8830 
  178.8750   -10.1160     2.4360    68.6830    17.0970    12.4130    16.5630    23.8750 
  179.0000   -10.0610     2.4200    65.9540    20.4930    15.1380    23.3590    23.8040 
  179.1250    -9.9770     2.3990    63.9930    22.7860    17.3360    26.5850    23.7020 
  179.2500    -9.8600     2.3700    63.0480    23.3440    18.3120    25.5110    23.8210 
  179.3750    -9.7380     2.3350    62.3210    22.2910    17.9670    22.0820    23.8960 
  179.5000    -9.6030     2.3050    62.4370    20.4030    16.7810    20.1600    23.9160 
  179.6250    -9.4580     2.2930    66.0510    18.6970    15.4820    19.0090    23.9240 
  179.7500    -9.3070     2.2980    70.5200    17.7620    14.6060    18.2450    23.9430 
  179.8750    -9.1520     2.3120    70.9060    17.7800    14.3580    18.2770    23.9880 
  180.0000    -9.0300     2.3210    66.2970    18.7640    14.8120    18.9280    24.0530 
  180.1250    -8.9260     2.3140    61.3230    20.7770    16.0990    20.7250    24.0540 
  180.2500    -8.8920     2.2900    58.7100    23.5010    18.0480    23.8490    24.0100 
  180.3750    -8.9040     2.2600    57.9990    26.6640    20.5120    25.6070    24.0000 
  180.5000    -8.9750     2.2400    57.9350    29.8670    23.2220    26.5530    24.0710 
  180.6250    -9.1040     2.2560    56.3940    32.4260    25.6560    29.1100    24.1190 
  180.7500    -9.2520     2.3010    52.8480    33.8450    27.2940    34.2200    24.0790 
  180.8750    -9.4230     2.3480    48.9870    33.8160    27.7780    38.5760    23.9880 
  181.0000    -9.5970     2.3590    47.7410    32.3950    27.0630    36.2160    23.9540 
  181.1250    -9.7770     2.3240    49.7090    29.9580    25.3720    30.1020    24.0210 
  181.2500    -9.9020     2.2790    52.3410    27.3580    23.4000    26.5480    24.1150 
  181.3750    -9.9950     2.2530    54.9500    25.0810    21.5610    24.0570    24.1540 
  181.5000   -10.0370     2.2530    58.3560    23.3750    20.1020    22.6630    24.1330 
  181.6250   -10.0270     2.2630    60.7560    22.3790    19.2050    21.7750    24.0680 
  181.7500    -9.9940     2.2650    61.4040    21.9120    18.7860    21.2420    24.0400 
  181.8750    -9.9100     2.2530    61.0880    21.9050    18.8000    20.6850    24.0750 
  182.0000    -9.7920     2.2370    60.0610    22.3170    19.2070    20.7270    24.0990 
  182.1250    -9.6220     2.2260    59.5450    23.1260    19.9890    22.1170    24.1010 
  182.2500    -9.4350     2.2260    59.4820    24.0920    20.9470    24.3570    24.0840 
  182.3750    -9.2310     2.2370    59.0970    25.0220    21.9080    25.6940    24.0810 
  182.5000    -9.0230     2.2540    58.7040    25.7780    22.7240    26.1180    24.1390 
  182.6250    -8.8630     2.2680    58.2950    26.1890    23.2120    25.4260    24.2010 
  182.7500    -8.7240     2.2720    57.0990    26.0660    23.1960    24.2540    24.1530 
  182.8750    -8.6540     2.2640    54.7310    25.0980    22.3920    23.0270    24.1330 
  183.0000    -8.6270     2.2500    53.8150    23.1220    20.6490    23.2380    24.1450 
  183.1250    -8.7150     2.2480    57.5020    20.4300    18.2350    23.2070    24.1720 
  183.2500    -8.8740     2.2760    61.0160    18.0440    16.0220    20.0750    24.1550 
  183.3750    -9.1100     2.3330    61.4960    16.7990    14.6310    14.9910    24.1150 
  183.5000    -9.3900     2.3930    59.5220    17.3000    14.4680    12.9470    24.0720 
  183.6250    -9.6990     2.4110    57.3390    20.3490    16.1620    16.6910    24.0090 
  183.7500   -10.0210     2.3740    55.3730    25.7690    19.8250    28.9780    23.9660 
  183.8750   -10.3390     2.3020    53.4920    33.2060    25.5700    46.6480    23.9380 
  184.0000   -10.6350     2.2270    53.7950    41.3560    32.7560    54.8680    23.8820 
  184.1250   -10.8710     2.1890    55.2270    47.4420    39.2420    49.4540    23.7620 
  184.2500   -11.0500     2.1950    54.9990    50.1150    43.1420    45.7230    23.6560 
  184.3750   -11.1640     2.2330    54.2560    49.9830    44.3690    46.0260    23.6580 
  184.5000   -11.2330     2.2730    54.5710    48.6460    44.0210    49.3620    23.7260 
  184.6250   -11.2240     2.2780    54.6190    47.3940    43.2000    48.7060    23.8450 
  184.7500   -11.1690     2.2520    53.4700    46.5620    42.4830    45.3460    23.9890 
  184.8750   -11.0820     2.2180    52.5020    46.0580    41.9460    44.0070    24.0880 
  185.0000   -10.9770     2.1930    52.0070    45.7270    41.5560    44.0690    24.0910 
  185.1250   -10.8580     2.1830    51.1970    45.3980    41.2240    44.9890    24.0450 
  185.2500   -10.7200     2.1780    51.5880    44.9240    40.8260    44.5860    24.0570 
  185.3750   -10.5830     2.1710    53.4540    44.2010    40.2570    42.8260    24.0780 
  185.5000   -10.4460     2.1620    55.1050    43.1780    39.4460    43.1990    24.0350 
  185.6250   -10.3310     2.1530    54.1540    41.9000    38.4100    44.2160    24.0360 
  185.7500   -10.2470     2.1520    52.5450    40.6880    37.4180    40.7140    24.1240 
  185.8750   -10.1820     2.1610    53.5830    39.9530    36.8010    38.4890    24.2130 
  186.0000   -10.1530     2.1720    57.9540    40.1760    36.9500    38.0260    24.2580 
  186.1250   -10.1450     2.1710    59.2570    42.0360    38.4600    39.0310    24.2610 
  186.2500   -10.2040     2.1550    56.1280    45.4020    41.3060    43.6440    24.2820 
  186.3750   -10.2730     2.1370    53.5370    49.9320    45.2790    52.9520    24.3190 
  186.5000   -10.3970     2.1340    53.2540    54.8970    49.8150    63.3110    24.3180 
  186.6250   -10.5360     2.1680    52.4210    59.1730    53.9390    70.2750    24.2480 
  186.7500   -10.6930     2.2230    50.3690    62.1230    56.9500    64.4360    24.1760 
  186.8750   -10.8410     2.2690    49.9630    63.6410    58.6190    57.9940    24.1070 
  187.0000   -10.9700     2.2860    50.1880    63.9540    59.0580    59.6160    24.0010 
  187.1250   -11.0830     2.2760    49.0130    63.2520    58.3900    67.5910    23.9530 
  187.2500   -11.1540     2.2640    48.4060    62.0030    57.1050    67.6450    23.9510 
  187.3750   -11.2050     2.2600    49.0740    60.5490    55.5610    64.5190    23.9630 
  187.5000   -11.2210     2.2610    50.5760    59.2820    54.1390    58.6330    23.9470 
  187.6250   -11.2040     2.2530    52.1770    58.7200    53.3210    54.5980    23.9410 
  187.7500   -11.1660     2.2320    53.3560    58.9670    53.2540    54.6440    23.9740 
  187.8750   -11.1090     2.2050    53.6520    59.8740    53.8900    60.4810    24.0840 
  188.0000   -11.0500     2.1820    52.8370    61.0400    54.9350    65.2740    24.2310 
  188.1250   -10.9660     2.1720    51.2560    61.9290    55.9400    65.1500    24.3870 
  188.2500   -10.8850     2.1710    50.1500    62.3130    56.5950    62.9690    24.4730 
  188.3750   -10.8040     2.1730    50.0800    62.2050    56.8140    60.7100    24.4090 
  188.5000   -10.7260     2.1750    50.9320    61.6890    56.6080    58.2120    24.0460 
  188.6250   -10.6420     2.1750    51.1530    60.6020    55.8190    57.5030    23.5290 
  188.7500   -10.5370     2.1820    51.2370    58.7180    54.2980    57.5600    23.2280 
  188.8750   -10.4460     2.1990    51.7580    55.8090    51.8600    58.0920    23.1380 
  189.0000   -10.3600     2.2230    51.9730    51.9800    48.5790    52.0920    23.1240 
  189.1250   -10.3220     2.2400    51.2820    47.7710    44.8820    44.5110    23.1290 
  189.2500   -10.3050     2.2430    51.7080    43.9570    41.4460    37.3670    23.1190 
  189.3750   -10.3480     2.2350    53.4710    40.9420    38.6330    33.3940    23.0970 
  189.5000   -10.4030     2.2280    55.0280    38.8180    36.5470    30.2300    23.0830 
  189.6250   -10.5160     2.2330    54.6630    37.4660    35.1340    30.9080    23.0830 
  189.7500   -10.6560     2.2500    53.4770    36.3440    33.9780    31.1130    23.0890 
  189.8750   -10.8150     2.2700    52.3970    35.0730    32.7760    30.9750    23.1010 
