~V
VERS. 2.00: Ver 2.00
~W
STRT.M 52.0000:
STOP.M 240.0000:
STEP.M 0.1250:
NULL. -999.2500:
UWI. F10646:
~C
DEPT.M :
GR.API :
RML.OHMM :
RI. :
RXO.OHMM :
CALI.CM :
DEN.GM/CC :
SP.MV :
~A
# ...
   97.0000    80.1250     7.6710     5.6610     6.3050    24.4710     2.4030   -20.8770 
   97.1250    78.3240     8.0100     5.8540     6.4010    24.5560     2.3570   -20.8880 
   97.2500    76.4590     8.3530     6.0660     6.9540    24.6080     2.2980   -20.8990 
   97.3750    76.8750     8.5680     6.2280     7.2090    24.6060     2.2460   -20.9380 
   97.5000    79.3400     8.4880     6.2420     7.0630    24.5400     2.2150   -21.0180 
   97.6250    80.2300     8.1240     6.0860     7.0560    24.4510     2.2080   -21.1250 
   97.7500    80.6670     7.5860     5.7880     6.8140    24.4110     2.2250   -21.2550 
   97.8750    81.5480     7.1100     5.4630     6.4340    24.4130     2.2560   -21.3980 
   98.0000    83.7120     7.0370     5.3150     6.0300    24.4650     2.2750   -21.5340 
   98.1250    83.8670     7.4680     5.4560     6.1020    24.5200     2.2810   -21.6790 
   98.2500    79.6000     8.4170     5.9330     7.1890    24.5480     2.2870   -21.8430 
   98.3750    72.2100     9.7540     6.7100    10.4770    24.4630     2.3040   -21.9730 
   98.5000    67.7120    11.0300     7.5760    17.8510    24.2290     2.3280   -22.0680 
   98.6250    68.6540    11.6060     8.1110    18.7760    24.1270     2.3380   -22.1820 
   98.7500    70.7790    11.1520     8.0300    13.0760    24.2100     2.3240   -22.2490 
   98.8750    70.2190     9.8820     7.3660     9.1220    24.3820     2.2950   -22.2070 
   99.0000    71.2420     8.4280     6.4440     7.2780    24.4480     2.2710   -22.0880 
   99.1250    75.7230     7.3550     5.6670     6.1230    24.4100     2.2580   -21.9330 
   99.2500    79.9990     6.8230     5.1970     5.6690    24.3430     2.2500   -21.6870 
   99.3750    80.0480     6.7750     5.0530     5.7990    24.2560     2.2440   -21.4090 
   99.5000    78.5770     7.0710     5.1810     6.0330    24.0620     2.2450   -21.1640 
   99.6250    79.5640     7.4230     5.3880     6.4040    23.8250     2.2500   -20.8700 
   99.7500    81.1420     7.6030     5.5190     6.7610    23.6420     2.2550   -20.5620 
   99.8750    81.1880     7.4390     5.4490     6.9140    23.5390     2.2560   -20.3190 
  100.0000    82.7240     6.8850     5.1280     6.5260    23.6260     2.2600   -20.1540 
  100.1250    88.9980     6.2000     4.7000     5.5800    23.9070     2.2780   -20.0270 
  100.2500    95.7870     5.5970     4.2880     4.5830    24.1490     2.3100   -19.9810 
  100.3750    97.9660     5.2150     3.9820     4.1400    24.0430     2.3440   -20.0210 
  100.5000    93.8830     5.1470     3.8510     4.3020    23.8230     2.3650   -20.1130 
  100.6250    87.1710     5.3240     3.8790     4.6960    23.6170     2.3670   -20.2630 
  100.7500    81.6250     5.6860     4.0530     5.1060    23.4510     2.3530   -20.4780 
  100.8750    79.8360     6.1530     4.3370     5.4370    23.3830     2.3270   -20.7500 
  101.0000    81.8980     6.6300     4.6730     5.7710    23.3880     2.2970   -21.0770 
  101.1250    83.4220     7.0290     4.9790     6.1350    23.4400     2.2750   -21.4340 
  101.2500    82.8270     7.3020     5.2070     6.4750    23.5710     2.2660   -21.7780 
  101.3750    81.2830     7.4230     5.3360     6.7180    23.7390     2.2720   -22.1000 
  101.5000    81.0440     7.3960     5.3640     7.0500    23.8860     2.2870   -22.3760 
  101.6250    83.4970     7.3050     5.3430     6.6400    24.0030     2.2990   -22.6290 
  101.7500    86.7710     7.2160     5.3040     6.2570    24.0540     2.3050   -22.8650 
  101.8750    87.6170     7.1640     5.2640     5.9710    24.0040     2.3050   -23.0120 
  102.0000    85.6160     7.1450     5.2220     5.9890    23.7890     2.3070   -23.0590 
  102.1250    83.3700     7.1090     5.1690     6.3370    23.5160     2.3160   -23.0950 
  102.2500    81.6610     7.0230     5.0990     6.7150    23.3130     2.3270   -23.1170 
  102.3750    80.8780     6.8920     5.0240     6.5630    23.3030     2.3370   -23.0690 
  102.5000    81.4970     6.7970     4.9800     5.9800    23.3510     2.3320   -23.0380 
  102.6250    82.9420     6.8410     5.0060     5.7730    23.3590     2.3110   -23.0390 
  102.7500    84.2690     7.0900     5.1310     6.0160    23.3160     2.2780   -23.0300 
  102.8750    84.1110     7.5510     5.3660     6.5480    23.2430     2.2410   -23.0580 
  103.0000    81.3260     8.1610     5.7000     7.2470    23.1830     2.2130   -23.1460 
  103.1250    76.1990     8.7380     6.0540     7.7470    23.1790     2.1950   -23.2640 
  103.2500    71.0720     9.1280     6.3430     7.9160    23.2840     2.1950   -23.4140 
  103.3750    68.7240     9.2090     6.4760     8.0480    23.4120     2.2190   -23.5790 
  103.5000    70.8600     8.8850     6.3470     8.1310    23.5340     2.2600   -23.7640 
  103.6250    77.1120     8.2970     6.0020     8.0890    23.7430     2.2960   -23.9700 
  103.7500    85.6890     7.6100     5.5280     7.4630    24.0240     2.3130   -24.2090 
  103.8750    93.9580     7.0320     5.0630     6.7320    24.2290     2.3090   -24.4840 
  104.0000    98.3600     6.8270     4.7990     5.9010    24.2650     2.3000   -24.8190 
  104.1250    96.4670     7.0650     4.8170     5.6010    24.2120     2.3080   -25.1810 
  104.2500    89.9200     7.7580     5.1450     5.8190    24.0790     2.3360   -25.5520 
  104.3750    80.9510     8.8210     5.7530     6.8870    23.8180     2.3690   -25.9810 
  104.5000    72.7840    10.0240     6.5430     8.9640    23.4150     2.3830   -26.3980 
  104.6250    67.7050    10.9950     7.2840    10.5840    23.1610     2.3710   -26.7820 
  104.7500    65.2530    11.5060     7.8020    10.4190    23.2110     2.3410   -27.1840 
  104.8750    64.2870    11.5470     8.0210     9.3620    23.5810     2.3000   -27.5760 
  105.0000    63.8850    11.3130     7.9780     8.8340    24.1450     2.2510   -27.8530 
  105.1250    64.3050    11.0960     7.8580     8.7190    24.5120     2.2010   -28.0410 
  105.2500    64.5760    10.9810     7.7610     8.9510    24.7320     2.1540   -28.2150 
  105.3750    63.1160    10.9270     7.7120     9.1780    24.8280     2.1130   -28.3290 
  105.5000    60.8710    10.8440     7.6770     9.0210    24.8000     2.0910   -28.3460 
  105.6250    58.5390    10.7140     7.6170     8.9170    24.8460     2.0900   -28.3270 
  105.7500    55.3810    10.5730     7.5290     8.9740    24.9350     2.1010   -28.2480 
  105.8750    52.0440    10.4600     7.4300     8.8890    25.0520     2.1120   -28.1170 
  106.0000    51.3440    10.3920     7.3550     8.9340    25.1760     2.1130   -27.9380 
  106.1250    53.3210    10.3450     7.3180     9.0440    25.1850     2.1100   -27.7400 
  106.2500    56.9800    10.3040     7.3170     9.2290    25.0610     2.1130   -27.5230 
  106.3750    60.4610    10.2730     7.3410     9.3330    24.8730     2.1300   -27.3070 
  106.5000    60.3780    10.2570     7.3820     9.5020    24.8370     2.1610   -27.0650 
  106.6250    57.2630    10.2280     7.4180     9.6490    24.9560     2.1840   -26.8110 
  106.7500    53.0340    10.1410     7.4330     9.7890    25.1560     2.1830   -26.5660 
  106.8750    50.6740     9.9640     7.4080     9.8360    25.2950     2.1590   -26.3200 
  107.0000    51.1770     9.7050     7.3360     9.8920    25.2840     2.1310   -26.0770 
  107.1250    54.7730     9.4560     7.2510     9.6570    25.1150     2.1190   -25.7870 
  107.2500    60.4130     9.3110     7.2090     9.1540    24.7760     2.1320   -25.4520 
  107.3750    63.0490     9.3380     7.2700     8.8020    24.4550     2.1600   -25.0950 
  107.5000    61.2170     9.5350     7.4670     9.1880    24.4550     2.1800   -24.7250 
  107.6250    60.8340     9.7110     7.6820     9.5560    24.5140     2.1850   -24.3270 
  107.7500    64.7020     9.6610     7.7580     9.8720    24.5450     2.1900   -23.8790 
  107.8750    70.0660     9.2310     7.5530    10.1050    24.5860     2.2130   -23.3580 
  108.0000    74.7240     8.3830     6.9880     9.3990    24.5320     2.2630   -22.7890 
  108.1250    80.5320     7.3900     6.2440     7.4530    24.4880     2.3190   -22.2540 
