~V
VERS. 2.00: Ver 2.00
~W
STRT.M 58.0000:
STOP.M 272.0000:
STEP.M 0.1250:
NULL. -999.2500:
UWI. F10670:
~C
DEPT.M :
DEN.GM/CC :
GR.API :
RML.OHMM :
RI. :
RXO.OHMM :
CALI.CM :
SP.MV :
~A
# ...
  103.0000     2.1770    72.3150    10.7740     9.5130     9.9880    23.6110   -23.0930 
  103.1250     2.1510    69.8560    10.7010     9.5120    10.1710    23.6400   -22.9890 
  103.2500     2.1330    68.5040    10.6170     9.4890    10.1100    23.5510   -22.8580 
  103.3750     2.1280    68.0170    10.5150     9.4550     9.8480    23.4070   -22.5890 
  103.5000     2.1390    67.3520    10.4030     9.4210     9.5230    23.2840   -22.2850 
  103.6250     2.1590    65.4030    10.3090     9.3940     9.1680    23.1020   -22.0120 
  103.7500     2.1810    65.5210    10.2580     9.3880     8.8470    22.8290   -21.7530 
  103.8750     2.1950    69.1120    10.2680     9.4090     8.7560    22.6690   -21.3870 
  104.0000     2.1910    72.3870    10.3380     9.4530     8.8320    22.7970   -21.0940 
  104.1250     2.1720    72.9610    10.4100     9.4780     8.9270    23.0190   -20.7120 
  104.2500     2.1440    72.1850    10.4250     9.4390     8.9800    23.1230   -20.2710 
  104.3750     2.1160    72.9270    10.3310     9.3000     9.0010    23.0760   -19.9460 
  104.5000     2.1020    73.4380    10.0830     9.0330     8.8740    22.8250   -19.6090 
  104.6250     2.1020    72.1490     9.7170     8.6700     8.4460    22.2960   -19.2660 
  104.7500     2.1150    72.3170     9.2610     8.2340     7.8030    21.4340   -18.9500 
  104.8750     2.1380    75.8930     8.7530     7.7550     7.4020    20.5260   -18.6650 
  105.0000     2.1680    80.8400     8.2440     7.2870     7.3450    19.6330   -18.2220 
  105.1250     2.2020    83.8170     7.7830     6.8810     6.8420    18.8520   -17.7700 
  105.2500     2.2360    84.2290     7.3970     6.5650     6.1750    18.2470   -17.4150 
  105.3750     2.2640    83.5650     7.0850     6.3380     5.9020    17.9550   -16.9980 
  105.5000     2.2790    83.5230     6.8190     6.1670     5.9890    17.8560   -16.5940 
  105.6250     2.2850    85.5470     6.5510     5.9990     6.1740    17.7430   -16.3600 
  105.7500     2.2900    89.1270     6.2720     5.8180     5.9170    17.6390   -16.2280 
  105.8750     2.2980    90.8250     6.0040     5.6360     5.6170    17.7040   -16.1620 
  106.0000     2.3110    88.5640     5.8180     5.5000     5.5240    17.9930   -16.2320 
  106.1250     2.3240    85.2180     5.7630     5.4440     5.6560    18.3010   -16.3910 
  106.2500     2.3340    83.8220     5.8710     5.4970     5.7980    18.5950   -16.4580 
  106.3750     2.3370    84.3690     6.1370     5.6650     5.9230    18.8690   -16.4980 
  106.5000     2.3300    83.7610     6.5290     5.9440     5.8190    19.1250   -16.6610 
  106.6250     2.3110    81.6000     6.9420     6.2650     5.7770    19.3520   -16.6780 
  106.7500     2.2850    80.4030     7.2840     6.5570     6.1170    19.5740   -16.6030 
  106.8750     2.2590    80.7640     7.4730     6.7390     6.9070    19.7850   -16.6020 
  107.0000     2.2460    81.4700     7.4390     6.7230     6.9060    19.9460   -16.6430 
  107.1250     2.2490    82.6470     7.2570     6.5460     6.5190    20.0910   -16.6750 
  107.2500     2.2660    85.1010     7.0210     6.2770     6.1430    20.3090   -16.7620 
  107.3750     2.2880    88.1280     6.8250     6.0050     5.7290    20.5890   -16.8520 
  107.5000     2.3080    91.1390     6.7510     5.8190     5.4070    20.8810   -16.7920 
  107.6250     2.3190    92.0370     6.7770     5.7340     5.4570    21.0650   -16.8090 
  107.7500     2.3220    88.2800     6.8540     5.7260     5.9000    21.2040   -16.9130 
  107.8750     2.3190    83.3310     6.9150     5.7500     6.4130    21.4200   -16.8580 
  108.0000     2.3160    84.8000     6.8890     5.7500     6.4110    21.7880   -16.7340 
  108.1250     2.3140    89.0810     6.7920     5.7160     6.2340    22.1110   -16.6410 
  108.2500     2.3080    89.4240     6.7000     5.6950     6.2350    22.2360   -16.5800 
  108.3750     2.2910    84.2760     6.7480     5.7880     6.4120    22.1780   -16.6080 
  108.5000     2.2700    78.2490     7.1750     6.2030     6.6600    21.9820   -16.7590 
  108.6250     2.2660    73.3020     8.0780     7.0490     7.2890    21.6490   -16.9010 
  108.7500     2.3000    70.2810     9.4930     8.3920     9.0660    21.3630   -16.9460 
  108.8750     2.3760    70.5140    11.2970    10.1550    13.4340    21.3150   -17.0470 
  109.0000     2.4730    70.9530    13.0950    12.0260    21.3490    21.6280   -17.2380 
  109.1250     2.5440    69.5320    14.3760    13.5150    27.3470    22.1750   -17.3030 
  109.2500     2.5570    67.9400    14.8480    14.2940    25.0000    22.8020   -17.3460 
  109.3750     2.5050    67.5760    14.5130    14.2650    17.7850    23.3100   -17.4190 
  109.5000     2.4050    66.6620    13.5400    13.4790    14.4630    23.6270   -17.4320 
  109.6250     2.3000    65.6270    12.2950    12.2940    15.0720    23.7680   -17.3980 
  109.7500     2.2140    68.7110    10.9350    10.9020    16.2460    23.7940   -17.3690 
  109.8750     2.1550    77.3460     9.5840     9.4690    10.8870    23.7730   -17.2850 
  110.0000     2.1320    86.0270     8.4270     8.1930     7.9580    23.7280   -17.1100 
  110.1250     2.1380    90.1080     7.5730     7.1890     6.6800    23.6360   -17.1140 
  110.2500     2.1680    91.5130     7.0590     6.5050     6.4150    23.4860   -17.1100 
  110.3750     2.2150    92.5790     6.8290     6.1190     5.9350    23.2710   -16.9250 
  110.5000     2.2620    92.4390     6.7440     5.9700     5.8040    23.1730   -16.7270 
  110.6250     2.2960    89.2780     6.6030     5.8920     5.9340    23.0980   -16.5620 
  110.7500     2.3160    86.7200     6.3320     5.7970     5.7680    22.9660   -16.4700 
  110.8750     2.3270    90.4490     5.9730     5.6650     5.5250    22.7850   -16.5280 
  111.0000     2.3360    96.1120     5.6850     5.5520     5.2460    22.6590   -16.6880 
  111.1250     2.3440    96.0160     5.5900     5.5390     5.0930    22.5550   -16.7480 
  111.2500     2.3460    91.2960     5.7310     5.6760     5.3730    22.4490   -16.7750 
  111.3750     2.3340    87.6490     6.0650     5.9560     6.2510    22.3870   -17.0100 
  111.5000     2.3070    86.3280     6.4570     6.2960     7.1260    22.4280   -17.2580 
  111.6250     2.2750    85.6180     6.7190     6.5430     7.1650    22.5080   -17.4100 
  111.7500     2.2490    86.4770     6.7440     6.5880     6.7260    22.5880   -17.5260 
  111.8750     2.2360    90.1130     6.5300     6.3980     6.1640    22.7640   -17.5900 
  112.0000     2.2390    92.4740     6.1850     6.0330     5.7500    23.1540   -17.5720 
  112.1250     2.2530    92.0120     5.9060     5.6660     5.6080    23.5890   -17.5630 
  112.2500     2.2720    90.1260     5.8240     5.4240     5.6120    23.8450   -17.6770 
  112.3750     2.2910    89.5670     6.0240     5.3890     5.4380    23.8800   -17.7370 
  112.5000     2.3030    90.1940     6.5840     5.6460     5.5590    23.7340   -17.7460 
  112.6250     2.3020    87.8320     7.3950     6.1280     6.6800    23.5320   -17.9410 
  112.7500     2.2850    81.5240     8.2950     6.7360     8.3080    23.3750   -18.2190 
  112.8750     2.2530    75.4200     9.0310     7.3070     9.1650    23.3100   -18.4750 
  113.0000     2.2180    75.1080     9.2540     7.5980     8.9170    23.3100   -18.7220 
  113.1250     2.1960    79.3170     8.9790     7.5580     8.3560    23.3740   -18.9480 
  113.2500     2.1990    84.1240     8.4040     7.2710     7.4500    23.5100   -19.0050 
  113.3750     2.2230    85.9580     7.8350     6.9220     6.2510    23.5990   -18.9570 
  113.5000     2.2520    81.7320     7.5830     6.7430     6.4230    23.5400   -19.0580 
  113.6250     2.2630    73.9030     7.6750     6.8070     7.3760    23.3260   -19.0250 
  113.7500     2.2490    67.8550     8.0060     7.0750     8.5880    22.9710   -18.8860 
  113.8750     2.2150    67.3130     8.3650     7.4140     9.1980    22.6790   -18.7870 
  114.0000     2.1800    71.2880     8.4520     7.6010     9.0500    22.5680   -18.6550 
  114.1250     2.1660    76.9120     8.1880     7.5250     8.2220    22.5270   -18.4720 
