~V
VERS. 2.00: Ver 2.00
~W
STRT.M 51.0000:
STOP.M 221.0000:
STEP.M 0.1250:
NULL. -999.2500:
UWI. F10616:
~C
DEPT.M :
GR.API :
RML.OHMM :
RI. :
RXO.OHMM :
CALI.CM :
DEN.GM/CC :
SP.MV :
~A
# ...
  186.0000    47.6750   134.4890   131.5440   137.6800    25.1730     2.2490   -20.7610 
  186.1250    46.5460   124.1090   122.8270   135.7220    25.1930     2.2510   -20.5930 
  186.2500    49.0270   114.8540   114.8080   127.4590    25.2270     2.2520   -20.4140 
  186.3750    52.0230   108.0430   108.6630   115.5970    25.2280     2.2510   -20.1720 
  186.5000    52.4820   104.5490   105.4540    98.7170    25.1740     2.2500   -19.9270 
  186.6250    51.4310   105.3200   106.3510    84.3980    25.0450     2.2450   -19.6500 
  186.7500    50.4800   110.8810   112.1630    78.6720    24.8520     2.2380   -19.3660 
  186.8750    50.7340   128.0970   123.6970    84.9460    24.6420     2.2270   -19.0660 
  187.0000    50.7200   162.0110   138.5770   117.2340    24.6300     2.2150   -18.7570 
  187.1250    50.0680   177.5850   153.7870   159.0110    24.8370     2.2020   -18.4710 
  187.2500    48.5870   188.2290   165.4690   175.3200    25.0710     2.1890   -18.1660 
  187.3750    49.1710   189.0720   169.1190   174.4190    25.1310     2.1810   -17.9200 
  187.5000    51.2720   181.8880   165.5350   164.2270    25.0920     2.1770   -17.6730 
  187.6250    51.0730   169.8100   156.9320   153.3870    25.0370     2.1800   -17.4720 
  187.7500    47.9340   156.2550   146.1780   150.0540    25.0250     2.1880   -17.3200 
  187.8750    46.6920   143.7680   135.6380   137.4150    25.0590     2.1980   -17.1880 
  188.0000    51.1990   133.0190   126.2660   120.8940    25.0990     2.2020   -17.1230 
  188.1250    58.3300   124.0000   118.2060   108.1280    25.1110     2.2000   -17.0530 
  188.2500    60.6230   116.4930   111.3720   101.1600    25.0110     2.1940   -17.0050 
  188.3750    56.7990   110.8000   106.0670    86.7510    24.7470     2.1910   -16.8990 
  188.5000    54.7540   107.3250   102.6740    74.3680    24.4400     2.1940   -16.7780 
  188.6250    57.0610   106.9940   102.0380    68.9160    24.2640     2.2020   -16.6240 
  188.7500    59.6370   110.7590   105.0420    70.7950    24.2340     2.2140   -16.4460 
  188.8750    58.2700   120.3830   113.3570    76.3510    24.4260     2.2230   -16.2450 
  189.0000    56.0400   135.5720   126.8350    94.4170    24.8760     2.2130   -16.0140 
  189.1250    54.8810   155.9480   145.1610   139.2170    25.3450     2.1740   -15.7600 
  189.2500    54.1510   179.7830   166.6370   172.3600    25.6840     2.1220   -15.5020 
  189.3750    51.6910   203.3500   187.5890   159.4250    25.8250     2.0970   -15.2590 
  189.5000    46.8930   222.6390   204.2660   135.7250    25.7100     2.1260   -15.0240 
  189.6250    41.6980   235.5920   214.8220   118.6900    25.2800     2.2020   -14.8130 
  189.7500    38.8030   242.1050   219.2850   114.5720    24.6790     2.2820   -14.5950 
  189.8750    40.1120   242.6870   218.4040   136.0860    24.4540     2.3020   -14.4710 
  190.0000    43.0150   240.0620   214.7510   156.5200    24.7220     2.2670   -14.3650 
  190.1250    45.5360   236.1060   209.7760   160.3900    25.1090     2.2150   -14.3320 
  190.2500    47.7900   232.8610   205.0090   154.0410    25.3120     2.1800   -14.3470 
  190.3750    49.0380   232.4400   202.2500   175.2230    25.3300     2.1710   -14.4040 
  190.5000    48.4520   234.9090   201.9610   196.3580    25.3160     2.1750   -14.5260 
  190.6250    47.4040   239.9940   204.1950   202.8480    25.2810     2.1860   -14.6600 
  190.7500    47.6920   247.4750   208.8730   180.6100    25.2450     2.1960   -14.8260 
  190.8750    49.5870   257.8130   216.3770   180.6240    25.2320     2.1950   -14.9230 
  191.0000    50.3490   270.1580   225.7750   199.4720    25.2730     2.1830   -15.0070 
  191.1250    50.0410   282.6100   235.5340   230.3900    25.3060     2.1690   -15.0690 
  191.2500    49.5790   291.8040   243.1330   235.4410    25.2700     2.1630   -15.0720 
  191.3750    48.6720   292.8740   244.8560   208.1410    25.1240     2.1680   -15.0450 
  191.5000    46.9480   286.4280   240.7560   178.0450    24.9780     2.1680   -14.9480 
  191.6250    45.7440   275.3540   232.5440   175.3560    25.0000     2.1530   -14.8280 
  191.7500    46.5290   263.6680   222.9980   193.7590    25.1840     2.1290   -14.6840 
  191.8750    49.6880   255.7530   216.0260   196.4430    25.3550     2.1120   -14.5380 
  192.0000    52.1680   250.9360   213.6010   188.5370    25.3740     2.1130   -14.3590 
  192.1250    52.4650   239.0610   210.8320   172.1270    25.2010     2.1350   -14.1430 
  192.2500    51.9230   201.2660   191.8410   158.7700    24.9470     2.1790   -13.9110 
  192.3750    52.9630   135.1110   140.9960   158.9740    24.9160     2.2500   -13.7100 
  192.5000    53.8570    76.4240    84.4750   147.5690    24.8920     2.3220   -13.5160 
  192.6250    51.7690    39.2900    43.7520   105.1240    24.7490     2.3630   -13.3390 
  192.7500    46.7110    19.8290    21.2040    43.6900    24.4760     2.3620   -13.1870 
  192.8750    40.0960    11.6650    11.7460    16.6670    24.3430     2.3450   -13.0830 
  193.0000    32.1290     7.9840     7.5700     6.4070    24.3150     2.3650   -13.0510 
  193.1250    24.8880     6.4520     5.7830     4.1260    24.2650     2.4360   -13.0700 
  193.2500    21.1100     4.9000     5.0180     5.2230    24.1610     2.5100   -13.1410 
  193.3750    21.2790     4.7370     4.7440     7.9720    24.0970     2.5010   -13.2210 
  193.5000    22.9420     4.5970     4.6000     8.5330    24.1150     2.4310   -13.3370 
  193.6250    24.6780     4.4180     4.4560     5.6370    24.1570     2.3440   -13.4680 
  193.7500    26.1020     4.2270     4.2840     3.8920    24.2550     2.2730   -13.6070 
  193.8750    28.7490     4.0690     4.1160     3.7480    24.3490     2.2330   -13.7250 
  194.0000    31.3220     3.9390     3.9750     3.8110    24.2920     2.2170   -13.8280 
  194.1250    32.3970     3.8370     3.8640     3.7240    24.0510     2.2160   -13.9120 
  194.2500    32.1160     3.7790     3.7840     3.6400    23.6990     2.2220   -13.9880 
  194.3750    31.8080     3.7890     3.7390     3.5510    23.4530     2.2340   -14.0510 
  194.5000    31.6630     3.8420     3.7180     3.5590    23.4360     2.2480   -14.0900 
  194.6250    30.9630     3.9070     3.7120     3.6190    23.5770     2.2620   -14.0830 
  194.7500    30.7340     3.9640     3.7180     3.7320    23.7230     2.2760   -14.0510 
  194.8750    31.0210     4.0150     3.7380     3.8150    23.8460     2.2900   -14.0180 
  195.0000    30.8500     4.0760     3.7610     3.8320    23.9870     2.3050   -13.9610 
  195.1250    30.6770     4.1370     3.7690     3.8250    24.0940     2.3170   -13.9080 
  195.2500    30.4360     4.1680     3.7460     3.8720    24.1000     2.3220   -13.8460 
  195.3750    30.6560     4.1250     3.6800     4.0280    23.9570     2.3230   -13.7400 
  195.5000    31.3630     4.0250     3.5910     4.1070    23.7050     2.3270   -13.6340 
  195.6250    31.5650     3.8960     3.4950     4.0070    23.4780     2.3360   -13.5550 
  195.7500    31.2800     3.7700     3.3970     3.8190    23.3950     2.3460   -13.4880 
  195.8750    31.1720     3.6920     3.3000     3.7080    23.4720     2.3450   -13.4170 
  196.0000    31.6030     3.6880     3.2190     3.7010    23.4700     2.3330   -13.3640 
  196.1250    31.4290     3.7730     3.1840     3.7540    23.3770     2.3170   -13.3250 
  196.2500    29.9500     3.9450     3.2220     3.6900    23.3320     2.3150   -13.2890 
  196.3750    27.6470     4.1890     3.3480     3.6600    23.4010     2.3420   -13.3320 
  196.5000    25.9710     4.4390     3.5130     3.9830    23.5320     2.3810   -13.3850 
  196.6250    26.1150     4.6140     3.6620     5.2130    23.6720     2.4070   -13.4650 
  196.7500    28.3270     4.6400     3.7390     7.3410    23.7780     2.4030   -13.5420 
  196.8750    29.9280     4.4960     3.6920     7.0950    23.6700     2.3720   -13.6380 
  197.0000    29.1530     4.2960     3.5570     4.8580    23.4290     2.3420   -13.7290 
  197.1250    28.4220     4.1250     3.3830     3.8100    23.0950     2.3290   -13.8010 
