~V
VERS. 2.00: Ver 2.00
~W
STRT.M 55.0000:
STOP.M 242.0000:
STEP.M 0.1250:
NULL. -999.2500:
UWI. F10652:
~C
DEPT.M :
SP.MV :
GR.API :
RML.OHMM :
RI. :
RXO.OHMM :
CALI.CM :
DEN.GM/CC :
~A
# ...
  212.5000    -6.3780    60.8690    55.4510    48.2180    47.5590    23.4400     2.4960 
  212.6250    -6.1000    59.9970    55.1480    47.9550    46.9510    23.5260     2.4970 
  212.7500    -5.8380    59.1610    54.7330    47.5940    46.6210    23.6350     2.5030 
  212.8750    -5.6120    57.7390    52.5610    45.7050    44.7240    23.7310     2.5230 
  213.0000    -5.3890    54.7880    47.5030    41.3070    34.6540    23.8460     2.5670 
  213.1250    -5.2340    52.5050    39.4900    34.3390    29.8910    23.9130     2.6330 
  213.2500    -5.0810    48.9540    30.6830    26.6810    26.4130    23.8560     2.6810 
  213.3750    -4.9840    41.1190    22.6550    19.7000    22.0790    23.6790     2.6790 
  213.5000    -4.8890    31.1870    16.2230    14.1070    16.5930    23.3600     2.6190 
  213.6250    -4.8420    25.3260    11.8450    10.2090    11.8800    22.9600     2.5210 
  213.7500    -4.8160    24.0910     8.9970     7.4970     8.7310    22.7100     2.4240 
  213.8750    -4.7990    25.6740     6.8470     5.7060     6.5610    22.6150     2.3480 
  214.0000    -4.8030    27.6980     5.5340     4.6110     5.1770    22.5910     2.3000 
  214.1250    -4.8230    28.2070     4.9110     4.0920     4.7990    22.5760     2.2820 
  214.2500    -4.8740    28.0840     4.6810     3.9010     4.5100    22.5840     2.2810 
  214.3750    -4.9610    29.0350     4.6970     3.9140     4.2530    22.6500     2.2900 
  214.5000    -5.0780    31.1060     4.8320     4.0260     4.1210    22.7280     2.3040 
  214.6250    -5.2230    31.7620     4.9810     4.1510     4.1080    22.7880     2.3230 
  214.7500    -5.4020    30.8340     5.0960     4.2460     4.1150    22.8560     2.3560 
  214.8750    -5.6170    29.9050     5.1730     4.3110     4.1150    22.9110     2.4100 
  215.0000    -5.8900    29.8070     5.2360     4.3630     4.1140    22.8660     2.4790 
  215.1250    -6.1950    31.2890     5.3010     4.4180     4.1140    22.6720     2.5230 
  215.2500    -6.5670    34.6590     5.3900     4.4920     4.1200    22.5960     2.5190 
  215.3750    -6.9630    40.8920     5.5180     4.5980     4.1950    22.9050     2.4710 
  215.5000    -7.4220    50.7070     5.7000     4.7500     4.4140    23.2560     2.4040 
  215.6250    -7.9020    63.2730     5.9620     4.9680     4.7710    23.4890     2.3480 
  215.7500    -8.4440    74.2840     6.2800     5.2330     5.1170    23.6300     2.3120 
  215.8750    -9.0220    80.0650     6.6140     5.5120     5.3800    23.6900     2.2920 
  216.0000    -9.5950    79.9800     6.9150     5.7620     5.3640    23.7000     2.2770 
  216.1250   -10.1700    77.2360     7.1110     5.9260     5.4370    23.7020     2.2630 
  216.2500   -10.6900    76.8200     7.2070     6.0060     5.6160    23.7190     2.2500 
  216.3750   -11.1790    79.8250     7.2320     6.0260     5.8330    23.7670     2.2390 
  216.5000   -11.5970    83.3670     7.2350     6.0290     5.9780    23.8310     2.2340 
  216.6250   -11.9900    83.5520     7.2790     6.0660     6.0350    23.8780     2.2420 
  216.7500   -12.3200    82.8470     7.3820     6.1520     6.0380    23.8970     2.2590 
  216.8750   -12.6040    84.9660     7.5340     6.2780     6.0230    23.8610     2.2800 
  217.0000   -12.8420    88.9900     7.6970     6.4140     5.9930    23.7800     2.2950 
  217.1250   -13.0430    88.6930     7.8190     6.5160     6.0760    23.7180     2.2980 
  217.2500   -13.2200    83.9330     7.8790     6.5660     6.7450    23.7030     2.2910 
  217.3750   -13.3790    78.7690     7.8760     6.5630     7.3710    23.7250     2.2790 
  217.5000   -13.5130    75.8810     7.8360     6.5300     7.4480    23.7760     2.2650 
  217.6250   -13.6230    77.1230     7.8090     6.5070     7.3540    23.8030     2.2500 
  217.7500   -13.6960    81.0660     7.8140     6.5110     7.4890    23.8010     2.2400 
  217.8750   -13.7470    86.0710     7.8330     6.5280     8.1860    23.7380     2.2410 
  218.0000   -13.7940    88.9690     7.8250     6.5210     8.5790    23.6800     2.2570 
  218.1250   -13.8240    87.3120     7.7250     6.4380     8.5480    23.7180     2.2820 
  218.2500   -13.8730    83.3910     7.5470     6.2890     7.9490    23.8130     2.3070 
  218.3750   -13.8990    79.6020     7.3500     6.1250     7.5060    23.9180     2.3220 
  218.5000   -13.9710    78.7800     7.2300     6.0250     7.7880    23.9790     2.3280 
  218.6250   -14.0700    80.7300     7.2910     6.0760     8.2190    23.9940     2.3250 
  218.7500   -14.2300    81.5500     7.5080     6.2570     8.5040    23.9800     2.3190 
  218.8750   -14.4320    80.4680     7.8180     6.5150     8.4910    23.9390     2.3110 
  219.0000   -14.6420    80.5460     8.1190     6.7660     8.4160    23.9040     2.3040 
  219.1250   -14.8590    83.8370     8.2880     6.9060     8.4650    23.9450     2.3030 
  219.2500   -15.0300    86.7790     8.2970     6.9140     8.4760    24.0280     2.3080 
  219.3750   -15.2010    87.1300     8.1730     6.8110     8.3040    24.0600     2.3130 
  219.5000   -15.3140    85.1550     7.9770     6.6470     7.9810    24.0490     2.3100 
  219.6250   -15.3870    84.2490     7.7790     6.4830     7.6500    24.0080     2.2930 
  219.7500   -15.3900    83.4580     7.6330     6.3610     7.3010    23.9860     2.2710 
  219.8750   -15.3470    81.1480     7.5630     6.3030     7.1720    24.0010     2.2530 
  220.0000   -15.2950    78.7430     7.5720     6.3100     7.3200    24.0500     2.2480 
  220.1250   -15.2820    79.4610     7.6450     6.3710     7.5370    24.1150     2.2550 
  220.2500   -15.3010    80.8280     7.7380     6.4480     7.8050    24.2180     2.2600 
  220.3750   -15.3300    79.8000     7.8220     6.5180     7.9430    24.3390     2.2570 
  220.5000   -15.3630    77.9090     7.8790     6.5650     8.0420    24.4270     2.2460 
  220.6250   -15.3440    76.8830     7.8980     6.5820     8.1370    24.4420     2.2340 
  220.7500   -15.3320    75.6520     7.9110     6.5920     8.0870    24.4180     2.2260 
  220.8750   -15.2830    72.9940     7.9340     6.6120     7.9800    24.3900     2.2220 
  221.0000   -15.2340    71.8300     7.9650     6.6380     8.0070    24.4030     2.2220 
  221.1250   -15.1060    74.7560     7.9890     6.6570     8.2240    24.4340     2.2250 
  221.2500   -14.9630    77.6180     7.9880     6.6570     8.2780    24.3920     2.2320 
  221.3750   -14.8100    78.2140     7.9510     6.6260     8.0080    24.2710     2.2420 
  221.5000   -14.6670    77.0040     7.8780     6.5650     7.4500    24.1770     2.2480 
  221.6250   -14.5690    76.6120     7.7710     6.4750     7.0160    24.1100     2.2450 
  221.7500   -14.4620    76.9820     7.6420     6.3680     6.5190    24.0270     2.2380 
  221.8750   -14.3970    78.3570     7.4950     6.2460     6.0610    23.9430     2.2340 
  222.0000   -14.3070    80.0210     7.3410     6.1180     5.7720    23.9020     2.2340 
  222.1250   -14.2330    78.3470     7.2070     6.0060     5.6050    23.8990     2.2380 
  222.2500   -14.1570    74.9990     7.1120     5.9270     5.6350    23.9100     2.2440 
  222.3750   -14.0810    72.1050     7.0580     5.8820     5.7900    23.9150     2.2510 
  222.5000   -14.0200    71.9370     7.0320     5.8600     5.8550    23.9180     2.2640 
  222.6250   -13.9620    73.4110     7.0140     5.8450     5.8450    23.9140     2.2810 
  222.7500   -13.9430    73.3760     7.0010     5.8340     5.8990    23.8320     2.2970 
  222.8750   -13.9300    71.5460     7.0090     5.8410     5.9240    23.6530     2.3020 
  223.0000   -13.9590    69.2310     7.0690     5.8900     6.0350    23.5520     2.2990 
  223.1250   -14.0200    68.3620     7.2260     6.0220     6.2070    23.6660     2.2900 
  223.2500   -14.1200    68.0500     7.4600     6.2170     6.4310    23.7860     2.2830 
  223.3750   -14.2350    69.5810     7.7260     6.4380     7.0650    23.8450     2.2780 
  223.5000   -14.3680    72.7710     7.9640     6.6370     7.9310    23.9110     2.2740 
  223.6250   -14.4790    74.2190     8.1080     6.7560     8.3090    24.0530     2.2690 
