~V
VERS. 2.00: Ver 2.00
~W
STRT.M 55.0000:
STOP.M 228.0000:
STEP.M 0.1250:
NULL. -999.2500:
UWI. F10621:
~C
DEPT.M :
GR.API :
RML.OHMM :
RI. :
RXO.OHMM :
CALI.CM :
DEN.GM/CC :
SP.MV :
~A
# ...
  111.2500    65.9630    25.7040    22.9530    20.0470    25.5780     2.1410     2.9690 
  111.3750    61.7220    26.8170    23.5810    21.1850    25.6210     2.1290     3.1380 
  111.5000    59.6740    28.7520    24.8980    23.6670    25.6740     2.1260     3.3140 
  111.6250    61.2090    31.0410    26.6580    27.5260    25.6850     2.1390     3.5040 
  111.7500    61.5340    32.9630    28.2980    30.8150    25.6530     2.1610     3.6480 
  111.8750    59.5980    34.0460    29.3890    31.9520    25.6000     2.1770     3.7900 
  112.0000    57.5170    34.1200    29.6910    30.7750    25.5710     2.1730     3.9700 
  112.1250    57.9990    33.3200    29.1950    28.2810    25.5790     2.1460     4.1360 
  112.2500    60.4120    32.2990    28.4000    25.5460    25.6050     2.1110     4.2830 
  112.3750    63.5010    31.4890    27.6780    23.1150    25.6190     2.0870     4.4360 
  112.5000    65.4870    31.1280    27.2700    21.8000    25.5900     2.0880     4.5770 
  112.6250    63.6390    31.3160    27.3110    21.5340    25.4050     2.1170     4.7530 
  112.7500    60.5760    31.8470    27.6680    21.1470    25.0320     2.1570     4.9720 
  112.8750    59.6630    32.5570    28.2170    20.7810    24.5930     2.1900     5.1850 
  113.0000    61.2690    33.2880    28.8230    20.4120    24.3440     2.2030     5.4030 
  113.1250    62.7960    33.8970    29.3610    19.9090    24.3760     2.1940     5.5920 
  113.2500    63.5420    34.3450    29.7770    20.7640    24.6030     2.1770     5.7650 
  113.3750    65.4290    34.6240    30.0570    23.5390    24.8980     2.1600     5.9620 
  113.5000    66.4900    34.7480    30.2120    27.2210    25.0840     2.1480     6.1420 
  113.6250    63.0210    34.7310    30.2600    30.3820    25.1290     2.1410     6.2430 
  113.7500    61.0620    34.6420    30.2700    32.0660    25.1340     2.1380     6.3210 
  113.8750    63.5570    34.5350    30.2970    32.2450    25.1340     2.1380     6.3800 
  114.0000    66.8960    34.4540    30.3890    31.9350    25.1340     2.1390     6.3780 
  114.1250    65.7600    34.4350    30.5870    32.1530    25.1340     2.1390     6.3590 
  114.2500    62.5990    34.4710    30.8740    32.7290    25.1340     2.1360     6.3460 
  114.3750    60.3640    34.5320    31.2180    33.2030    25.1340     2.1320     6.3030 
  114.5000    59.9760    34.5390    31.5340    33.3900    25.1340     2.1270     6.2010 
  114.6250    61.1010    34.2570    31.5930    32.8700    25.1340     2.1250     6.0750 
  114.7500    61.5440    33.4260    31.1360    32.2080    25.1340     2.1270     5.8870 
  114.8750    60.3170    31.7680    29.8850    31.3730    25.1340     2.1340     5.6220 
  115.0000    59.3340    29.1570    27.7030    29.9370    25.1340     2.1480     5.3250 
  115.1250    60.5440    25.7190    24.6750    27.3210    25.1300     2.1650     4.9900 
  115.2500    63.7440    22.1560    21.4610    23.1970    25.1070     2.1810     4.6280 
  115.3750    67.5330    19.0480    18.5980    18.0120    25.0670     2.1900     4.2570 
  115.5000    70.2700    16.8070    16.4630    13.4060    25.0570     2.1910     3.9660 
  115.6250    72.2360    15.7350    15.3500    11.3540    25.0960     2.1850     3.7600 
  115.7500    74.0660    15.5270    15.0380    11.2360    25.1180     2.1800     3.6070 
  115.8750    75.1130    15.9480    15.3640    11.7870    25.1220     2.1800     3.5540 
  116.0000    74.2180    16.7470    16.1260    12.6370    25.1180     2.1850     3.5760 
  116.1250    71.7120    17.6900    17.1150    13.7320    25.1130     2.1920     3.6680 
  116.2500    69.6180    18.5610    18.0770    14.8130    25.1190     2.1940     3.8130 
  116.3750    69.4740    19.2320    18.8540    15.8030    25.1350     2.1880     3.9600 
  116.5000    71.8150    19.6090    19.3290    16.7680    25.1790     2.1770     4.0810 
  116.6250    73.1000    19.6060    19.3820    17.7950    25.2800     2.1680     4.1230 
  116.7500    70.7640    19.3930    19.1510    18.7270    25.3890     2.1680     4.1210 
  116.8750    66.6120    19.2160    18.8400    19.3460    25.4970     2.1800     4.0960 
  117.0000    63.3680    19.3690    18.7150    19.9930    25.4570     2.1970     4.0250 
  117.1250    61.8310    20.1950    19.1050    20.6420    25.2060     2.2120     3.9160 
  117.2500    61.6700    21.6100    20.0320    21.7940    24.9720     2.2250     3.8140 
  117.3750    60.9550    23.3670    21.3730    23.5000    24.9220     2.2420     3.7260 
  117.5000    59.2580    25.0540    22.8350    24.4500    24.9000     2.2720     3.6250 
  117.6250    59.7820    26.1430    23.9770    23.9180    24.7760     2.3100     3.6190 
  117.7500    62.2800    26.5340    24.5840    23.4650    24.6270     2.3320     3.7060 
  117.8750    63.9080    26.3550    24.6660    23.8900    24.5060     2.3240     3.8240 
  118.0000    63.2630    25.9060    24.4160    24.1380    24.5450     2.2830     3.9930 
  118.1250    62.2700    25.5290    24.0990    24.1220    24.7680     2.2280     4.2450 
  118.2500    61.5570    25.3630    23.8880    24.4860    25.0060     2.1840     4.4980 
  118.3750    60.2680    25.3890    23.8040    25.0450    25.1090     2.1620     4.7530 
  118.5000    58.9870    25.5480    23.8180    24.4530    25.1300     2.1580     5.0190 
  118.6250    58.1700    25.8330    23.9360    23.5110    25.1290     2.1650     5.2240 
  118.7500    56.4150    26.2570    24.1650    23.1130    25.1170     2.1700     5.3990 
  118.8750    54.6740    26.8670    24.5400    23.2050    25.0730     2.1720     5.5440 
  119.0000    55.2110    27.6720    25.0730    23.4330    24.9600     2.1710     5.6360 
  119.1250    58.6700    28.5830    25.6990    23.2910    24.8150     2.1720     5.6640 
  119.2500    59.7860    29.3900    26.2460    23.0050    24.6750     2.1790     5.6390 
  119.3750    57.0430    29.9330    26.5720    22.9850    24.5920     2.1910     5.5630 
  119.5000    53.5530    30.1400    26.6030    23.2790    24.5770     2.2050     5.4500 
  119.6250    54.1650    30.0160    26.3280    23.8640    24.6550     2.2150     5.3000 
  119.7500    56.1680    29.7420    25.9040    24.6460    24.8460     2.2180     5.0770 
  119.8750    56.0550    29.4330    25.4430    25.4320    25.1720     2.2150     4.8210 
  120.0000    54.0400    29.1620    25.0260    25.2490    25.4400     2.2060     4.5670 
  120.1250    53.7690    28.9710    24.7180    24.6820    25.4710     2.1900     4.2570 
  120.2500    56.4020    28.8860    24.5420    24.4250    25.4830     2.1710     3.9060 
  120.3750    58.5850    29.0130    24.5780    24.6220    25.6450     2.1590     3.5190 
  120.5000    58.2540    29.5360    24.9620    24.6400    26.0850     2.1710     3.1100 
  120.6250    55.1000    30.7390    25.9310    23.7260    26.6340     2.2260     2.6440 
  120.7500    51.5160    32.4410    27.3600    22.4230    26.8250     2.3160     2.1270 
  120.8750    50.4800    34.1480    28.8800    21.3250    26.2790     2.4200     1.5970 
  121.0000    50.5770    35.0210    29.8140    20.2710    25.5240     2.5060     1.0250 
  121.1250    49.3640    33.7590    29.0430    19.2870    25.1610     2.5350     0.4030 
  121.2500    49.5910    30.2880    26.3820    18.3330    25.0250     2.5100    -0.2050 
  121.3750    55.7900    25.2060    22.2630    17.2600    24.9490     2.4510    -0.7800 
  121.5000    67.8790    19.7410    17.7070    15.6500    24.8860     2.3840    -1.3590 
  121.6250    79.9560    15.3660    13.9430    12.9210    24.7370     2.3290    -1.8580 
  121.7500    88.3210    12.5260    11.3550    10.0540    24.5160     2.2890    -2.2600 
  121.8750    92.2060    11.1210     9.8950     8.5270    24.3440     2.2600    -2.6190 
  122.0000    91.0620    10.7530     9.3050     8.5040    24.2950     2.2430    -2.9260 
  122.1250    84.5910    10.9270     9.2830     9.2540    24.4730     2.2410    -3.1600 
  122.2500    78.2440    11.0520     9.3630     9.9600    24.7880     2.2540    -3.3400 
  122.3750    77.1620    10.8330     9.2730    10.1090    24.8780     2.2750    -3.4940 
