~V
VERS. 2.00: Ver 2.00
~W
STRT.M 52.0000:
STOP.M 239.0000:
STEP.M 0.1250:
NULL. -999.2500:
UWI. F10645:
~C
DEPT.M :
SP.MV :
GR.API :
RML.OHMM :
RI. :
RXO.OHMM :
CALI.CM :
DEN.GM/CC :
~A
# ...
  153.2500   -23.3940    57.5060    17.1840    13.8750    11.9520    24.2260     2.5080 
  153.3750   -23.4370    55.0860    17.2010    13.8300    12.0200    24.3300     2.5060 
  153.5000   -23.5030    51.9360    17.4520    13.9680    12.3310    24.2780     2.4990 
  153.6250   -23.5330    51.4060    17.8770    14.2600    12.2170    24.0680     2.4920 
  153.7500   -23.5710    52.1890    18.2900    14.5930    12.6280    23.6140     2.4900 
  153.8750   -23.5860    50.7130    18.4600    14.7860    12.8330    23.2080     2.4920 
  154.0000   -23.6040    47.2300    18.2630    14.7190    11.6130    22.9210     2.4900 
  154.1250   -23.6080    44.7650    17.7370    14.3780    10.1740    22.7700     2.4810 
  154.2500   -23.5780    44.6750    17.0520    13.8540     9.5390    22.7580     2.4630 
  154.3750   -23.5140    45.9090    16.4400    13.3370     9.1530    22.8140     2.4450 
  154.5000   -23.4280    48.4310    16.0270    12.9440     8.8490    22.8700     2.4320 
  154.6250   -23.3230    51.4390    15.8520    12.7320     8.7600    22.8820     2.4310 
  154.7500   -23.1620    51.7200    15.8990    12.7110     8.9950    22.9340     2.4380 
  154.8750   -22.9950    50.0750    16.0600    12.8020     8.8590    22.9600     2.4480 
  155.0000   -22.8000    48.8280    16.2810    12.9560     8.8400    22.9580     2.4560 
  155.1250   -22.6230    48.5890    16.5210    13.1320     8.8520    22.9310     2.4580 
  155.2500   -22.4280    48.2210    16.7550    13.3020     8.8810    22.8830     2.4560 
  155.3750   -22.2730    47.7370    16.9880    13.4650     8.8910    22.9130     2.4530 
  155.5000   -22.1270    48.6970    17.2380    13.6350     8.9350    23.1800     2.4540 
  155.6250   -22.0150    50.1490    17.5120    13.8200     9.0140    23.6650     2.4580 
  155.7500   -21.9820    48.7080    17.8030    14.0210     9.6540    24.1330     2.4630 
  155.8750   -21.9700    45.7270    18.0820    14.2190    10.5500    24.3510     2.4650 
  156.0000   -22.0220    44.3240    18.3070    14.3860    11.4790    24.4100     2.4660 
  156.1250   -22.0900    46.2710    18.4300    14.4920    12.0360    24.4140     2.4740 
  156.2500   -22.2250    48.0360    18.3990    14.5000    12.0210    24.4140     2.4920 
  156.3750   -22.3810    46.8570    18.2550    14.4230    12.3210    24.4160     2.5140 
  156.5000   -22.5550    45.6290    18.0530    14.2950    12.6200    24.4460     2.5290 
  156.6250   -22.7570    46.7450    17.8750    14.1770    12.5790    24.5440     2.5280 
  156.7500   -22.9440    48.4180    17.8190    14.1360    12.0530    24.7000     2.5150 
  156.8750   -23.1430    48.4800    17.8910    14.1820    11.9060    24.7240     2.4990 
  157.0000   -23.3140    48.2940    18.0510    14.2890    12.4500    24.6200     2.4860 
  157.1250   -23.4860    48.7520    18.2290    14.4150    13.3530    24.5810     2.4790 
  157.2500   -23.6070    49.1780    18.3420    14.5140    14.0410    24.5890     2.4760 
  157.3750   -23.6970    49.4190    18.3600    14.5630    13.8250    24.6200     2.4770 
  157.5000   -23.7600    49.3980    18.3100    14.5630    12.7810    24.6300     2.4810 
  157.6250   -23.8050    48.6420    18.2910    14.5610    12.0500    24.6120     2.4880 
  157.7500   -23.7950    47.2010    18.4780    14.6650    12.4160    24.5150     2.4960 
  157.8750   -23.7570    45.9190    18.9540    14.9560    12.6460    24.5000     2.5000 
  158.0000   -23.6830    45.6170    19.7400    15.4760    13.1470    24.5720     2.4990 
  158.1250   -23.5570    46.7430    20.7740    16.2070    13.9770    24.6160     2.4950 
  158.2500   -23.4220    48.8130    21.8660    17.0450    16.1040    24.4300     2.4930 
  158.3750   -23.2470    49.8520    22.7220    17.7750    17.9970    24.2530     2.4940 
  158.5000   -23.0760    51.4770    23.1100    18.2140    18.7730    24.0730     2.4920 
  158.6250   -22.8570    54.2560    22.9400    18.2470    17.2250    23.9160     2.4820 
  158.7500   -22.6510    54.5930    22.2700    17.8520    15.7170    23.8260     2.4620 
  158.8750   -22.4550    51.9070    21.4650    17.2700    14.3850    23.8910     2.4430 
  159.0000   -22.2950    49.1000    20.7740    16.6930    13.6500    23.9700     2.4340 
  159.1250   -22.1880    47.8960    20.3350    16.2530    13.4070    24.0040     2.4380 
  159.2500   -22.1000    47.7970    20.1840    16.0240    13.3670    24.0400     2.4530 
  159.3750   -22.0730    49.0630    20.1740    15.9310    13.7240    24.1600     2.4680 
  159.5000   -22.0550    50.8820    20.2040    15.9070    13.8220    24.3060     2.4790 
  159.6250   -22.0800    50.1390    20.2180    15.9000    13.9640    24.3880     2.4850 
  159.7500   -22.1020    47.7830    20.2150    15.8920    13.9420    24.4040     2.4930 
  159.8750   -22.1260    46.5940    20.2460    15.8920    13.8220    24.4050     2.5010 
  160.0000   -22.1280    46.0990    20.3510    15.9180    14.0820    24.4050     2.5080 
  160.1250   -22.1310    45.0520    20.5530    15.9910    14.7510    24.4050     2.5100 
  160.2500   -22.1070    45.4830    20.8540    16.1380    15.6020    24.4040     2.5090 
  160.3750   -22.0610    48.4070    21.1820    16.3250    15.5890    24.4000     2.5120 
  160.5000   -21.9980    49.9460    21.4620    16.5050    14.7120    24.3940     2.5260 
  160.6250   -21.9010    48.4340    21.6150    16.6160    14.5910    24.3990     2.5500 
  160.7500   -21.8200    47.3990    21.5440    16.5740    15.5480    24.4020     2.5640 
  160.8750   -21.7090    48.1830    21.2610    16.3780    16.1270    24.4050     2.5570 
  161.0000   -21.6260    48.1010    20.8090    16.0540    15.1630    24.4000     2.5340 
  161.1250   -21.5180    45.9960    20.2740    15.6530    13.9900    24.3780     2.5120 
  161.2500   -21.4350    45.3840    19.7610    15.2460    13.3440    24.2980     2.5050 
  161.3750   -21.3510    46.4400    19.3280    14.8880    13.0330    24.1810     2.5070 
  161.5000   -21.2910    45.9240    18.9760    14.5960    12.8420    24.0720     2.5090 
  161.6250   -21.2940    44.0660    18.6610    14.3550    13.0750    24.0050     2.5060 
  161.7500   -21.3020    43.8580    18.3340    14.1430    13.2500    24.0200     2.4920 
  161.8750   -21.3560    45.3050    17.9900    13.9410    13.2390    24.1430     2.4740 
  162.0000   -21.3960    46.6470    17.6520    13.7470    13.0360    24.3070     2.4570 
  162.1250   -21.4790    47.5870    17.3380    13.5600    12.7630    24.3990     2.4480 
  162.2500   -21.6020    49.5750    17.0800    13.3840    12.7220    24.4250     2.4510 
  162.3750   -21.7210    51.3180    16.8950    13.2360    12.7940    24.4300     2.4640 
  162.5000   -21.8410    50.1860    16.8070    13.1380    12.5870    24.4060     2.4830 
  162.6250   -21.9150    47.4220    16.8030    13.1050    12.2020    24.3200     2.5050 
  162.7500   -21.9960    47.3380    16.8340    13.1260    12.4790    24.2730     2.5280 
  162.8750   -22.0440    48.2120    16.8290    13.1550    13.5450    24.2430     2.5460 
  163.0000   -22.0780    47.0850    16.7520    13.1590    14.5290    24.2190     2.5530 
  163.1250   -22.0570    44.1790    16.6030    13.1210    14.2650    24.1780     2.5390 
  163.2500   -21.9690    41.7910    16.4320    13.0460    12.6790    24.2670     2.5060 
  163.3750   -21.8320    40.6940    16.3280    12.9890    11.8650    24.2900     2.4680 
  163.5000   -21.6770    41.6390    16.3560    13.0000    12.1900    24.2560     2.4390 
  163.6250   -21.5040    44.0150    16.5380    13.1110    12.9800    24.2290     2.4290 
  163.7500   -21.3300    44.8730    16.8440    13.3220    13.0400    24.1720     2.4380 
  163.8750   -21.1660    44.5750    17.1320    13.5480    13.1180    24.0700     2.4550 
  164.0000   -21.0060    44.9350    17.2500    13.6840    13.1770    23.9030     2.4710 
  164.1250   -20.8710    44.9300    17.0770    13.6280    12.9080    23.8310     2.4820 
  164.2500   -20.7550    44.0280    16.5700    13.2990    12.6580    23.9750     2.4820 
  164.3750   -20.7190    44.0060    15.9390    12.8150    12.1540    24.1170     2.4760 
