~V
VERS. 2.00: Ver 2.00
~W
STRT.M 57.0000:
STOP.M 242.0000:
STEP.M 0.1250:
NULL. -999.2500:
UWI. F10636:
~C
DEPT.M :
GR.API :
RML.OHMM :
RI. :
RXO.OHMM :
CALI.CM :
DEN.GM/CC :
SP.MV :
~A
# ...
  180.7500    48.1570    15.5780    14.5350    15.9200    24.3100     2.5270   -10.1070 
  180.8750    46.6960    16.0210    14.9720    15.4500    24.2560     2.5210   -10.3610 
  181.0000    47.9690    16.3980    15.3170    15.7960    24.2150     2.5150   -10.6200 
  181.1250    51.7580    16.4170    15.2630    16.8800    24.2110     2.5140   -10.8750 
  181.2500    58.5970    16.0240    14.7590    17.8710    24.2380     2.5160   -11.1510 
  181.3750    67.6300    15.3000    13.9100    16.4400    24.2840     2.5150   -11.4550 
  181.5000    74.5400    14.4250    12.9420    13.4940    24.3320     2.5000   -11.7550 
  181.6250    76.0270    13.6090    12.1230    11.3010    24.3670     2.4670   -12.0190 
  181.7500    75.0490    12.9680    11.5510    12.5300    24.3880     2.4230   -12.2710 
  181.8750    74.4260    12.5410    11.2210    14.3610    24.4040     2.3810   -12.5140 
  182.0000    73.6020    12.3510    11.0930    14.5740    24.4210     2.3540   -12.7320 
  182.1250    71.3670    12.4860    11.1910    13.3450    24.4360     2.3450   -12.9170 
  182.2500    67.9000    12.9580    11.5340    12.6640    24.4310     2.3440   -13.0710 
  182.3750    64.9200    13.8120    12.1910    14.0050    24.3890     2.3430   -13.2020 
  182.5000    64.6470    15.0270    13.1910    15.6830    24.3190     2.3360   -13.2870 
  182.6250    67.6240    16.4260    14.4410    18.4720    24.2700     2.3250   -13.2750 
  182.7500    70.6700    17.6040    15.5850    19.2890    24.2780     2.3140   -13.1350 
  182.8750    70.5920    18.2310    16.2810    18.9580    24.3310     2.3070   -12.8660 
  183.0000    67.4240    18.1770    16.3170    17.6910    24.3820     2.3060   -12.5300 
  183.1250    66.3980    17.5300    15.6780    16.2250    24.3900     2.3140   -12.1780 
  183.2500    66.6580    16.7190    14.7860    15.2740    24.3750     2.3240   -11.8190 
  183.3750    64.8730    16.0270    13.9620    14.5010    24.3600     2.3330   -11.4650 
  183.5000    60.3360    15.6430    13.4310    13.5620    24.3430     2.3380   -11.1270 
  183.6250    57.6190    15.7330    13.3640    13.6040    24.3010     2.3410   -10.8600 
  183.7500    58.6330    16.2200    13.6690    14.6180    24.2770     2.3550   -10.6930 
  183.8750    60.6570    16.9980    14.2390    15.5110    24.2670     2.3850   -10.6410 
  184.0000    60.5860    17.8830    14.9160    15.5030    24.2630     2.4290   -10.6510 
  184.1250    58.2170    18.6130    15.4990    16.5280    24.2400     2.4740   -10.6570 
  184.2500    56.5580    19.0480    15.8860    18.1720    24.1890     2.5040   -10.6450 
  184.3750    56.2610    19.1700    16.0830    17.9670    24.1170     2.5100   -10.5960 
  184.5000    57.4770    19.0290    16.1520    16.3940    24.0300     2.4930   -10.5350 
  184.6250    59.5130    18.6110    16.0970    15.5640    23.9600     2.4550   -10.4630 
  184.7500    62.6340    17.9000    15.8490    17.0450    23.9040     2.4130   -10.3730 
  184.8750    66.0910    16.8310    15.2790    18.9770    23.9030     2.3750   -10.2650 
  185.0000    68.8990    15.4180    14.3210    18.4840    23.9570     2.3510   -10.1500 
  185.1250    72.3500    13.8200    13.0210    16.1380    24.0580     2.3420   -10.0540 
  185.2500    76.8970    12.3590    11.6680    12.5850    24.1230     2.3440    -9.9820 
  185.3750    80.8560    11.2580    10.4930    10.6680    24.1690     2.3530    -9.9380 
  185.5000    81.0140    10.6280     9.6640    10.3400    24.2210     2.3670    -9.9180 
  185.6250    77.5520    10.4980     9.3120    10.5810    24.2450     2.3880    -9.9490 
  185.7500    74.4170    10.6160     9.2940    10.9030    24.2300     2.4100   -10.0220 
  185.8750    73.4360    10.7500     9.4440    11.1750    24.1690     2.4270   -10.1230 
  186.0000    76.7400    10.6910     9.5550    11.3790    24.0700     2.4320   -10.2420 
  186.1250    83.6710    10.2950     9.4100    11.5570    23.9290     2.4240   -10.3820 
  186.2500    88.5050     9.7040     9.0140    10.7470    23.8070     2.4100   -10.5350 
  186.3750    88.6950     9.1020     8.4750     9.2180    23.7490     2.3970   -10.7060 
  186.5000    86.8380     8.6600     7.9530     8.1260    23.7360     2.3910   -10.8890 
  186.6250    85.4240     8.5150     7.6300     7.9020    23.7480     2.3950   -11.0410 
  186.7500    84.2470     8.6070     7.5420     8.1800    23.7960     2.4070   -11.1970 
  186.8750    81.9310     8.8430     7.6670     8.8800    23.8890     2.4230   -11.3660 
  187.0000    77.6930     9.1050     7.9250     9.7410    23.9670     2.4380   -11.5540 
  187.1250    73.6080     9.2660     8.1960     9.7570    24.0190     2.4470   -11.7250 
  187.2500    74.1370     9.2930     8.3770     9.2350    24.0660     2.4470   -11.8710 
  187.3750    80.5970     9.2180     8.4410     9.0140    24.1100     2.4360   -11.9860 
  187.5000    87.2430     9.1250     8.4180     9.0110    24.1670     2.4180   -12.0670 
  187.6250    85.7540     9.1480     8.3930     8.9470    24.2700     2.3990   -12.1180 
  187.7500    80.1220     9.3480     8.4490     9.1020    24.3940     2.3870   -12.1150 
  187.8750    77.0450     9.7160     8.6180     9.4110    24.4390     2.3860   -12.0620 
  188.0000    79.0940    10.1800     8.8810    10.0050    24.4120     2.3960   -11.9510 
  188.1250    79.8730    10.5990     9.1660    10.7520    24.3270     2.4100   -11.7950 
  188.2500    75.8520    10.8570     9.3880    11.2170    24.2120     2.4220   -11.6210 
  188.3750    70.5290    10.9340     9.5210    11.0780    24.1500     2.4290   -11.4290 
  188.5000    68.1150    10.9270     9.6070    10.4970    24.1350     2.4350   -11.2180 
  188.6250    69.7470    11.0400     9.7590    10.0000    24.1330     2.4410   -11.0180 
  188.7500    72.2970    11.3880    10.0590     9.7990    24.1350     2.4440   -10.8580 
  188.8750    73.6350    11.9650    10.5260    10.6890    24.1480     2.4400   -10.7440 
  189.0000    73.3570    12.6590    11.1120    13.3120    24.1830     2.4250   -10.6990 
  189.1250    72.3460    13.2830    11.7270    15.4670    24.2670     2.4030   -10.7380 
  189.2500    72.4760    13.7670    12.3140    15.9860    24.3810     2.3810   -10.8220 
  189.3750    72.5700    14.2100    12.9130    14.3770    24.4950     2.3660   -10.9470 
  189.5000    70.6860    14.8260    13.6340    13.4040    24.5010     2.3600   -11.1020 
  189.6250    68.5060    15.9080    14.6600    14.7680    24.3590     2.3600   -11.2700 
  189.7500    66.2090    17.4450    16.0040    18.4530    24.2170     2.3590   -11.4380 
  189.8750    62.3780    19.2760    17.5850    22.8440    24.1500     2.3520   -11.6100 
  190.0000    58.6940    21.0810    19.2090    25.6720    24.1310     2.3370   -11.7800 
  190.1250    59.0660    22.4320    20.5820    25.4280    24.1090     2.3150   -11.9280 
  190.2500    62.1510    23.2900    21.6090    24.1790    24.0670     2.2900   -12.0390 
  190.3750    64.1380    23.8440    22.3570    23.7330    24.0250     2.2670   -12.1000 
  190.5000    62.8310    24.3690    22.9790    24.0690    24.0030     2.2570   -12.1280 
  190.6250    59.2810    25.0730    23.6130    24.2850    24.0030     2.2780   -12.1030 
  190.7500    56.9750    25.9150    24.2880    25.0760    24.0220     2.3300   -12.0270 
  190.8750    57.4050    26.7650    24.9600    27.4510    24.0760     2.3960   -11.9050 
  191.0000    58.2850    27.4840    25.5680    28.6140    24.1760     2.4480   -11.7550 
  191.1250    57.4530    27.9220    26.0280    27.8090    24.2310     2.4530   -11.6070 
  191.2500    57.9070    28.0670    26.3030    26.7530    24.2310     2.4160   -11.4930 
  191.3750    60.7250    27.8850    26.3380    28.0000    24.1880     2.3600   -11.4150 
  191.5000    63.2200    27.3490    26.0880    29.5590    24.1470     2.3090   -11.3530 
  191.6250    63.5270    26.4630    25.4980    28.2310    24.0970     2.2800   -11.3280 
  191.7500    63.5920    25.4460    24.6900    25.4780    23.9930     2.2690   -11.3340 
  191.8750    64.0390    24.4970    23.7850    23.3650    23.8260     2.2670   -11.3540 
