~V
VERS. 2.00: Ver 2.00
~W
STRT.M 55.0000:
STOP.M 242.0000:
STEP.M 0.1250:
NULL. -999.2500:
UWI. F10652:
~C
DEPT.M :
SP.MV :
GR.API :
RML.OHMM :
RI. :
RXO.OHMM :
CALI.CM :
DEN.GM/CC :
~A
# ...
  167.5000    -5.7430    59.6480    12.2900    10.1990    12.1750    23.5020     2.4590 
  167.6250    -5.6400    63.7170    11.2330     9.4370    11.7900    23.6050     2.4290 
  167.7500    -5.4440    67.2930     9.8710     8.4610    11.0520    23.7600     2.4080 
  167.8750    -5.1070    71.3090     8.4170     7.3910     9.5050    23.8720     2.3960 
  168.0000    -4.6690    72.3550     7.0940     6.3770     7.4450    23.9280     2.3890 
  168.1250    -4.1370    66.4390     6.1140     5.5940     6.0140    23.8950     2.3810 
  168.2500    -3.5400    58.2290     5.4900     5.0760     5.4770    23.7490     2.3710 
  168.3750    -2.9430    50.9410     5.1950     4.8150     5.4010    23.6360     2.3550 
  168.5000    -2.4050    43.9650     5.1510     4.7620     5.4550    23.6690     2.3370 
  168.6250    -1.9700    38.0270     5.2610     4.8480     5.4460    23.7340     2.3240 
  168.7500    -1.7460    35.5540     5.3930     4.9600     5.4530    23.7620     2.3220 
  168.8750    -1.5810    35.9010     5.4900     5.0410     5.4570    23.8010     2.3300 
  169.0000    -1.3790    36.2890     5.5460     5.0660     5.4500    23.8290     2.3410 
  169.1250    -1.2710    36.4220     5.5680     5.0440     5.4590    23.8010     2.3480 
  169.2500    -1.2360    37.4750     5.5630     5.0150     5.4260    23.7650     2.3530 
  169.3750    -1.2510    38.9560     5.5280     4.9990     5.3700    23.7600     2.3600 
  169.5000    -1.2820    39.6410     5.4820     4.9980     5.2810    23.7670     2.3720 
  169.6250    -1.2890    39.8870     5.4840     5.0020     5.2200    23.7660     2.3850 
  169.7500    -1.3240    40.1030     5.5600     5.0020     5.1910    23.7520     2.3930 
  169.8750    -1.3280    40.3080     5.6960     4.9970     5.2570    23.7410     2.3910 
  170.0000    -1.3490    41.8810     5.8400     4.9890     5.2860    23.7630     2.3800 
  170.1250    -1.3780    45.4790     5.9220     4.9760     5.2830    23.8250     2.3640 
  170.2500    -1.3890    49.3660     5.9180     4.9470     5.2770    23.8680     2.3500 
  170.3750    -1.4400    52.8370     5.8240     4.8930     5.3390    23.9030     2.3430 
  170.5000    -1.4770    57.1050     5.6640     4.8150     5.4320    23.9240     2.3460 
  170.6250    -1.5590    62.3700     5.4830     4.7280     5.4180    23.9350     2.3550 
  170.7500    -1.6630    65.3790     5.3370     4.6570     5.2850    23.9370     2.3570 
  170.8750    -1.7810    65.8240     5.2580     4.6130     5.1970    23.9370     2.3490 
  171.0000    -1.9290    65.1720     5.2570     4.6000     5.3440    23.9400     2.3360 
  171.1250    -2.1030    64.4200     5.3370     4.6160     5.6400    23.9410     2.3260 
  171.2500    -2.3130    63.9460     5.4600     4.6500     5.7730    23.9290     2.3270 
  171.3750    -2.5560    63.6260     5.6070     4.7020     5.5560    23.8940     2.3380 
  171.5000    -2.8440    63.0870     5.7770     4.7740     5.4020    23.8860     2.3540 
  171.6250    -3.1950    63.5860     5.9670     4.8730     5.4950    23.9420     2.3650 
  171.7500    -3.5550    65.3970     6.1730     4.9980     5.8370    24.0380     2.3700 
  171.8750    -3.9660    67.4280     6.4070     5.1540     6.4390    24.1000     2.3670 
  172.0000    -4.4130    67.7300     6.7250     5.3740     6.9200    24.1170     2.3580 
  172.1250    -4.8690    68.6040     7.2990     5.7740     7.2140    24.0900     2.3480 
  172.2500    -5.3500    69.4850     8.2890     6.4780     7.7470    24.0220     2.3410 
  172.3750    -5.8210    68.1600     9.9460     7.6870     8.9400    23.9100     2.3340 
  172.5000    -6.3050    65.2510    12.5570     9.6580    10.9180    23.6840     2.3150 
  172.6250    -6.7610    62.5510    16.5690    12.7920    14.7650    23.2700     2.2740 
  172.7500    -7.1780    61.0810    21.5920    16.7850    18.8700    22.9110     2.2200 
  172.8750    -7.5390    60.5000    26.5730    20.8980    21.9030    22.7610     2.1680 
  173.0000    -7.7760    61.0610    29.9470    24.0320    22.7950    22.7590     2.1340 
  173.1250    -7.9410    61.4700    30.8410    25.4020    21.4970    22.8220     2.1280 
  173.2500    -7.9800    58.8270    30.9940    26.0290    18.8240    22.8550     2.1390 
  173.3750    -7.9100    54.7090    31.9070    27.0320    17.2850    22.8690     2.1580 
  173.5000    -7.7390    51.3970    34.3980    29.2080    21.6280    22.8860     2.1690 
  173.6250    -7.4310    50.1990    38.8250    32.9780    32.6950    23.0170     2.1640 
  173.7500    -7.0980    50.7910    43.9820    37.4630    42.9910    23.3220     2.1570 
  173.8750    -6.7200    52.5230    47.8780    41.2710    47.3130    23.7460     2.1650 
  174.0000    -6.3350    54.4140    48.3800    42.7810    47.4530    24.0320     2.1950 
  174.1250    -5.9720    54.8820    44.6910    40.8440    46.6010    24.0410     2.2330 
  174.2500    -5.6370    54.0060    39.3750    36.9560    45.6610    23.9290     2.2500 
  174.3750    -5.3510    55.0450    34.0610    32.4630    38.9420    23.9080     2.2390 
  174.5000    -5.1150    58.3530    29.5230    28.2900    29.6990    23.9670     2.2090 
  174.6250    -4.9120    60.3510    26.0870    24.9420    24.3490    23.9940     2.1870 
  174.7500    -4.7360    59.3110    23.3010    22.1790    21.8650    23.9790     2.1820 
  174.8750    -4.6070    55.5970    20.7180    19.6540    21.1240    23.9790     2.1870 
  175.0000    -4.5040    52.0000    17.9820    17.0640    20.3900    24.0250     2.1960 
  175.1250    -4.4310    51.8640    15.0140    14.3240    18.4380    24.0570     2.2140 
  175.2500    -4.3760    57.5180    12.2030    11.7040    14.7410    24.0740     2.2430 
  175.3750    -4.3260    67.9060     9.9140     9.4970    10.4290    24.1000     2.2790 
  175.5000    -4.2540    77.2800     8.3320     7.8770     7.7630    24.1460     2.3120 
  175.6250    -4.2160    79.8580     7.5690     6.9570     6.9350    24.1710     2.3310 
  175.7500    -4.1560    77.6460     7.3770     6.5510     6.9510    24.1390     2.3360 
  175.8750    -4.0740    74.3620     7.6060     6.5620     7.3830    24.1010     2.3310 
  176.0000    -3.9980    70.6290     8.0910     6.8840     8.2840    24.0790     2.3190 
  176.1250    -3.8730    65.9260     8.6420     7.4010     9.1760    24.0680     2.3060 
  176.2500    -3.7660    62.5930     9.0860     7.9360     9.4020    24.0690     2.3030 
  176.3750    -3.6320    62.3810     9.3440     8.3730     9.6520    24.0690     2.3170 
  176.5000    -3.5160    63.4900     9.3900     8.6070     9.8320    24.0650     2.3470 
  176.6250    -3.4160    63.1520     9.1800     8.5300     9.9600    24.0760     2.3790 
  176.7500    -3.2900    63.4290     8.7600     8.2060    10.0810    24.0840     2.3970 
  176.8750    -3.1810    66.1390     8.1770     7.7140     9.5190    24.0860     2.3970 
  177.0000    -3.0880    69.5800     7.5190     7.1550     8.3930    24.0870     2.3840 
  177.1250    -3.0170    71.9230     6.9250     6.6520     7.3530    24.0880     2.3690 
  177.2500    -2.9720    73.7950     6.4970     6.2780     6.9800    24.0880     2.3580 
  177.3750    -2.9600    74.9850     6.2910     6.0530     6.9330    24.0910     2.3500 
  177.5000    -2.9720    74.1520     6.3140     5.9660     6.9740    24.0940     2.3440 
  177.6250    -2.9850    70.5150     6.5270     5.9960     7.0200    24.0940     2.3370 
  177.7500    -3.0330    67.8890     6.8070     6.0830     7.0440    24.0940     2.3350 
  177.8750    -3.1050    66.8930     7.0690     6.1940     7.0470    24.0920     2.3410 
  178.0000    -3.1620    66.5710     7.2590     6.3060     7.1070    24.0880     2.3580 
  178.1250    -3.2440    65.2020     7.3450     6.4010     7.3020    24.0960     2.3820 
  178.2500    -3.3080    62.1330     7.3550     6.4590     7.5910    24.1230     2.4010 
  178.3750    -3.3630    61.0690     7.3180     6.4590     7.6140    24.1560     2.4070 
  178.5000    -3.4060    65.0100     7.2530     6.3870     7.3890    24.1820     2.4000 
  178.6250    -3.4190    71.8070     7.1240     6.2400     7.1710    24.2080     2.3860 
