~V
VERS. 2.00: Ver 2.00
~W
STRT.M 50.0000:
STOP.M 263.0000:
STEP.M 0.1250:
NULL. -999.2500:
UWI. F10656:
~C
DEPT.M :
DEN.GM/CC :
GR.API :
RML.OHMM :
RI. :
RXO.OHMM :
CALI.CM :
SP.MV :
~A
# ...
  230.0000     2.4100    71.0950    27.9320    27.9710    20.1260    23.9360    -6.0850 
  230.1250     2.3840    68.4050    25.4740    24.9970    20.3360    24.0240    -5.9250 
  230.2500     2.3550    69.2920    24.5290    23.5260    20.7940    24.1220    -5.7710 
  230.3750     2.3310    73.2010    24.9090    23.4000    21.3570    24.2250    -5.6260 
  230.5000     2.3090    77.2940    26.8170    24.9060    22.4320    24.3150    -5.4690 
  230.6250     2.2930    79.2140    31.6770    29.5820    26.0740    24.3760    -5.3500 
  230.7500     2.2910    76.0190    40.8530    38.6590    36.1890    24.4110    -5.2340 
  230.8750     2.3170    68.2220    55.9820    53.4440    61.3540    24.4220    -5.1090 
  231.0000     2.3760    59.6190    77.5390    74.0150   103.6780    24.4130    -5.0110 
  231.1250     2.4620    54.1620   103.3230    97.9330   155.0890    24.3890    -4.9040 
  231.2500     2.5470    53.5910   125.6680   118.6370   201.1120    24.3540    -4.7640 
  231.3750     2.6100    55.7540   136.9650   129.8970   209.0390    24.2940    -4.6420 
  231.5000     2.6440    58.6650   132.2900   127.6370   170.1870    24.2110    -4.5350 
  231.6250     2.6550    59.5450   110.9910   110.2260   144.9370    24.1040    -4.3900 
  231.7500     2.6570    59.8650    84.0000    84.9950   138.1260    24.0060    -4.2510 
  231.8750     2.6500    59.1140    58.7150    58.4510   129.8790    23.9480    -4.1210 
  232.0000     2.6240    53.1170    38.7050    36.2480   114.9180    23.9020    -3.9730 
  232.1250     2.5680    43.1040    25.8120    22.0050    79.6510    23.8250    -3.8210 
  232.2500     2.4940    35.9380    14.8440    13.4660    41.1100    23.7530    -3.7110 
  232.3750     2.4190    34.3850     9.6830     8.6880    15.9330    23.7500    -3.6010 
  232.5000     2.3610    36.7190     6.9320     6.1410     6.7030    23.8760    -3.4850 
  232.6250     2.3290    37.8250     5.7010     5.0010     4.8110    23.9360    -3.4150 
  232.7500     2.3170    37.1220     5.1660     4.5060     4.3410    23.9390    -3.3780 
  232.8750     2.3130    37.3910     5.0100     4.3610     4.3140    23.9040    -3.3650 
  233.0000     2.3130    39.0630     5.0140     4.3650     4.2970    23.8650    -3.3690 
  233.1250     2.3150    37.7790     5.0300     4.3800     4.2570    23.8430    -3.4130 
  233.2500     2.3230    33.6430     5.0030     4.3540     4.1570    23.8620    -3.4790 
  233.3750     2.3340    30.7410     4.9500     4.3050     4.0880    23.8800    -3.5720 
  233.5000     2.3470    29.8050     4.9090     4.2680     4.0750    23.8200    -3.7290 
  233.6250     2.3570    27.8970     4.9100     4.2680     4.2190    23.7050    -3.8940 
  233.7500     2.3640    25.8230     4.9260     4.2840     4.4340    23.6170    -4.0310 
  233.8750     2.3680    25.5360     4.9150     4.2730     4.6320    23.5700    -4.1230 
  234.0000     2.3720    25.9580     4.8370     4.2010     4.6860    23.5680    -4.1750 
  234.1250     2.3750    25.1110     4.6720     4.0490     4.6710    23.6580    -4.1820 
  234.2500     2.3810    24.2780     4.4690     3.8610     4.6450    23.7850    -4.1440 
  234.3750     2.3880    24.7320     4.2760     3.6820     4.6020    23.8800    -4.0700 
  234.5000     2.3940    26.0130     4.1320     3.5480     4.5230    23.8980    -3.9670 
  234.6250     2.3970    25.5280     4.0630     3.4840     4.2640    23.8790    -3.8380 
  234.7500     2.3960    24.2210     4.0480     3.4700     4.2100    23.8580    -3.7230 
  234.8750     2.3950    23.4080     4.0620     3.4840     4.2690    23.8470    -3.6590 
  235.0000     2.3950    22.8650     4.0830     3.5030     4.3220    23.8340    -3.6440 
  235.1250     2.3970    22.2290     4.0880     3.5070     4.2990    23.8000    -3.6620 
  235.2500     2.3980    22.2560     4.0710     3.4910     4.2540    23.7370    -3.7020 
  235.3750     2.3970    22.2940     4.0380     3.4580     4.2010    23.6600    -3.7460 
  235.5000     2.3980    21.5410     3.9980     3.4220     4.1550    23.6470    -3.7720 
  235.6250     2.4040    20.9290     3.9650     3.3980     4.1700    23.7570    -3.7900 
  235.7500     2.4160    21.4150     3.9350     3.3890     4.2520    23.9250    -3.7780 
  235.8750     2.4300    22.3310     3.9010     3.3890     4.3740    24.0370    -3.7380 
  236.0000     2.4410    22.7620     3.8620     3.3890     4.5060    24.0830    -3.6870 
  236.1250     2.4470    22.6790     3.8240     3.3810     4.5350    24.0680    -3.6330 
  236.2500     2.4470    22.6060     3.8130     3.3670     4.4240    24.0070    -3.5860 
  236.3750     2.4420    22.9940     3.8270     3.3550     4.2240    23.8850    -3.5520 
  236.5000     2.4330    23.5260     3.8650     3.3550     4.1110    23.7220    -3.5160 
  236.6250     2.4220    23.2840     3.9200     3.3740     4.1040    23.5360    -3.4730 
  236.7500     2.4140    23.4330     3.9740     3.4010     4.1250    23.3430    -3.4120 
  236.8750     2.4120    25.6660     4.0030     3.4270     4.1580    23.2840    -3.3550 
  237.0000     2.4190    28.6760     4.0240     3.4460     4.2120    23.4110    -3.3080 
  237.1250     2.4290    29.0530     4.0320     3.4570     4.2600    23.5510    -3.2610 
  237.2500     2.4330    26.9430     4.0300     3.4620     4.2940    23.6470    -3.2010 
  237.3750     2.4260    25.6050     4.0080     3.4560     4.2560    23.7350    -3.1190 
  237.5000     2.4070    26.0610     3.9560     3.4340     4.0950    23.7970    -3.0270 
  237.6250     2.3840    25.9400     3.8750     3.3920     3.9690    23.7990    -2.9480 
  237.7500     2.3650    23.9290     3.7640     3.3380     3.9180    23.7700    -2.8840 
  237.8750     2.3550    21.4140     3.6420     3.2810     3.9080    23.7470    -2.7920 
  238.0000     2.3560    20.2730     3.5330     3.2280     3.8870    23.7230    -2.6730 
  238.1250     2.3650    21.2530     3.4880     3.1860     3.8690    23.6730    -2.5530 
  238.2500     2.3760    22.9020     3.4750     3.1590     3.8690    23.6080    -2.4630 
  238.3750     2.3850    23.7160     3.4920     3.1530     3.8900    23.5900    -2.4460 
  238.5000     2.3900    23.2400     3.5520     3.1730     3.9400    23.6560    -2.4230 
  238.6250     2.3890    23.3160     3.6600     3.2320     4.0100    23.7130    -2.3740 
  238.7500     2.3850    24.9560     3.8150     3.3240     4.0950    23.7290    -2.4080 
  238.8750     2.3800    27.8980     4.0080     3.4460     4.1570    23.7100    -2.5150 
  239.0000     2.3780    31.5850     4.1690     3.5830     4.1770    23.6940    -2.6370 
  239.1250     2.3830    34.7520     4.3030     3.7050     4.2720    23.6940    -2.7970 
  239.2500     2.3920    35.5410     4.3910     3.7860     4.4170    23.7180    -2.9720 
  239.3750     2.4000    35.1860     4.4200     3.8100     4.5550    23.7470    -3.0700 
  239.5000     2.4000    36.8290     4.3760     3.7770     4.5960    23.7610    -3.1250 
  239.6250     2.3900    40.1520     4.2770     3.7000     4.4880    23.7480    -3.2460 
  239.7500     2.3730    40.5160     4.1430     3.6110     4.3480    23.7140    -3.3290 
  239.8750     2.3540    36.4410     4.0110     3.5310     4.2860    23.6710    -3.3630 
  240.0000     2.3350    31.1680     3.9250     3.4740     4.2320    23.6260    -3.4420 
  240.1250     2.3160    29.7060     3.8830     3.4490     4.1930    23.5790    -3.4880 
  240.2500     2.2990    31.7180     3.9040     3.4510     4.2140    23.5930    -3.4760 
  240.3750     2.2880    34.7050     3.9730     3.4810     4.2640    23.6470    -3.5000 
  240.5000     2.2850    35.9520     4.0520     3.5350     4.2930    23.6860    -3.6010 
  240.6250     2.2910    36.1840     4.1510     3.6070     4.2750    23.6870    -3.6740 
  240.7500     2.3010    37.7670     4.2590     3.6780     4.3030    23.6580    -3.7690 
  240.8750     2.3130    41.0940     4.3280     3.7300     4.4050    23.6070    -3.9090 
  241.0000     2.3250    43.5630     4.3490     3.7490     4.5520    23.5380    -4.0280 
  241.1250     2.3410    42.9430     4.3340     3.7350     4.6420    23.4610    -4.2110 
