~V
VERS. 2.00: Ver 2.00
~W
STRT.M 56.0000:
STOP.M 256.0000:
STEP.M 0.1250:
NULL. -999.2500:
UWI. F10668:
~C
DEPT.M :
SP.MV :
GR.API :
RML.OHMM :
RI. :
RXO.OHMM :
CALI.CM :
DEN.GM/CC :
~A
# ...
  157.2500   -18.7380    43.4960    29.3560    24.9180    26.9390    24.4690     2.6060 
  157.3750   -18.6740    45.2130    28.7530    24.5560    27.3880    24.4740     2.6010 
  157.5000   -18.5710    46.9830    28.1730    24.1290    26.7770    24.4500     2.5950 
  157.6250   -18.4130    47.6560    28.1740    24.0660    24.6270    24.3980     2.5970 
  157.7500   -18.2090    46.6520    29.0640    24.6420    24.4440    24.3470     2.6110 
  157.8750   -17.9670    45.2270    30.8140    25.9190    27.6030    24.3340     2.6290 
  158.0000   -17.7160    45.4190    32.6320    27.3390    35.6510    24.3710     2.6460 
  158.1250   -17.4690    46.9550    33.7190    28.2600    40.3410    24.3990     2.6570 
  158.2500   -17.2530    47.8710    33.5060    28.1750    36.2770    24.3980     2.6610 
  158.3750   -17.0710    48.1990    31.8890    26.9290    31.4630    24.3920     2.6530 
  158.5000   -16.9280    49.8760    29.7820    25.2190    27.6050    24.3970     2.6380 
  158.6250   -16.8450    50.8730    27.9110    23.6030    24.3480    24.4030     2.6200 
  158.7500   -16.8040    48.1850    26.7600    22.4680    23.2030    24.4100     2.6060 
  158.8750   -16.7960    45.8210    26.6740    22.1030    26.0810    24.4250     2.6040 
  159.0000   -16.8180    47.7540    27.4960    22.4300    25.9160    24.4460     2.6100 
  159.1250   -16.8810    50.2460    29.1100    23.4110    26.3000    24.4560     2.6240 
  159.2500   -16.9710    50.4440    31.2080    24.8800    28.7820    24.4500     2.6420 
  159.3750   -17.0740    49.9210    33.1270    26.3960    35.8310    24.4310     2.6570 
  159.5000   -17.1920    48.6060    34.1890    27.3650    39.1230    24.4370     2.6570 
  159.6250   -17.3100    45.6930    34.0600    27.4220    37.7050    24.4510     2.6390 
  159.7500   -17.4440    44.0470    32.9040    26.5980    32.3580    24.4590     2.6090 
  159.8750   -17.5940    47.1950    31.3730    25.3230    27.7690    24.4450     2.5860 
  160.0000   -17.7230    50.8630    30.2220    24.2270    24.8500    24.4330     2.5860 
  160.1250   -17.8150    52.2030    29.6560    23.5310    23.6410    24.4200     2.6090 
  160.2500   -17.8610    52.0000    29.4990    23.1760    25.2840    24.3710     2.6370 
  160.3750   -17.8510    51.4310    29.3230    22.9170    30.0050    24.3300     2.6500 
  160.5000   -17.8040    50.8170    28.7790    22.4830    31.0870    24.3370     2.6510 
  160.6250   -17.7210    48.8750    27.8320    21.8030    28.0390    24.3740     2.6490 
  160.7500   -17.6070    45.7600    26.7170    20.9840    22.8740    24.3780     2.6580 
  160.8750   -17.4430    43.7960    25.8750    20.3020    21.1010    24.4110     2.6810 
  161.0000   -17.2760    43.9970    25.5610    19.9760    22.6290    24.4900     2.7090 
  161.1250   -17.0990    45.9810    25.8340    20.1020    23.9600    24.5450     2.7280 
  161.2500   -16.9320    47.7920    26.5750    20.6430    23.7390    24.5310     2.7310 
  161.3750   -16.7920    46.7100    27.4400    21.4000    24.3880    24.5320     2.7170 
  161.5000   -16.6770    44.1710    27.8720    21.9380    27.2930    24.5590     2.6940 
  161.6250   -16.5890    42.9190    27.4060    21.8700    27.9930    24.5810     2.6680 
  161.7500   -16.5200    43.9250    25.8210    20.9720    25.9920    24.5960     2.6340 
  161.8750   -16.5220    45.2870    23.2240    19.2490    22.6540    24.5730     2.5880 
  162.0000   -16.5390    46.1420    20.4050    17.2560    19.6500    24.6040     2.5370 
  162.1250   -16.5930    47.6270    17.9600    15.4320    17.0670    24.6570     2.4940 
  162.2500   -16.6680    48.6880    16.2470    14.0750    14.7810    24.6340     2.4700 
  162.3750   -16.7610    49.2310    15.4470    13.3760    13.2290    24.5880     2.4760 
  162.5000   -16.8500    51.0000    15.2580    13.1640    12.3590    24.5900     2.4960 
  162.6250   -16.9390    52.5570    15.4450    13.2860    13.3230    24.6070     2.5110 
  162.7500   -17.0490    50.9230    15.7580    13.5540    15.6540    24.6290     2.5070 
  162.8750   -17.1350    47.2080    15.9540    13.7640    17.1840    24.5910     2.4800 
  163.0000   -17.2150    46.2850    15.9690    13.8290    16.1090    24.5510     2.4480 
  163.1250   -17.2720    48.3380    15.8670    13.7810    14.7480    24.6020     2.4230 
  163.2500   -17.3140    50.8070    15.7710    13.7080    14.0370    24.6820     2.4120 
  163.3750   -17.3390    51.8040    15.8270    13.7260    13.8490    24.7680     2.4150 
  163.5000   -17.3550    51.4250    16.0630    13.8770    14.4920    24.7610     2.4240 
  163.6250   -17.3620    49.0700    16.4320    14.1390    15.3150    24.6660     2.4400 
  163.7500   -17.3350    46.2810    16.8070    14.4230    15.3670    24.4000     2.4630 
  163.8750   -17.2880    45.4470    16.9790    14.5690    15.2320    23.9870     2.4870 
  164.0000   -17.2170    45.8650    16.8590    14.4850    14.7690    23.6330     2.4960 
  164.1250   -17.1370    46.8260    16.4670    14.1630    14.4430    23.4320     2.4800 
  164.2500   -17.0630    46.9560    15.9330    13.6890    13.9650    23.4560     2.4460 
  164.3750   -17.0050    46.8440    15.4730    13.2260    13.0620    23.6220     2.4060 
  164.5000   -16.9600    46.7720    15.2350    12.9160    12.7270    23.9140     2.3770 
  164.6250   -16.9290    47.8990    15.2810    12.8250    13.3170    24.2680     2.3700 
  164.7500   -16.9190    49.9720    15.5860    12.9580    14.0220    24.4330     2.3840 
  164.8750   -16.9540    51.3610    16.0820    13.2790    15.0890    24.2180     2.4100 
  165.0000   -17.0170    50.9020    16.6270    13.6780    14.9870    23.8560     2.4350 
  165.1250   -17.1130    48.3000    17.1430    14.0890    14.5880    23.6420     2.4570 
  165.2500   -17.2200    45.3140    17.5790    14.4650    14.4650    23.6020     2.4710 
  165.3750   -17.3280    44.5900    17.8980    14.7670    14.9330    23.7720     2.4750 
  165.5000   -17.4260    45.8970    18.1250    15.0000    15.9800    24.0910     2.4690 
  165.6250   -17.5150    48.1380    18.2770    15.1700    17.4930    24.3230     2.4630 
  165.7500   -17.6070    50.5440    18.3760    15.2830    17.1670    24.3240     2.4630 
  165.8750   -17.6490    51.3750    18.4610    15.3610    16.3130    24.0770     2.4670 
  166.0000   -17.6970    50.3120    18.5740    15.4420    15.9670    23.8340     2.4720 
  166.1250   -17.7170    49.4050    18.7270    15.5420    17.0520    23.6490     2.4770 
  166.2500   -17.7130    51.0000    18.8990    15.6590    17.4540    23.6440     2.4790 
  166.3750   -17.6680    52.4390    19.0030    15.7390    17.2330    23.8210     2.4690 
  166.5000   -17.6080    51.1010    18.9190    15.6940    16.2640    24.0460     2.4470 
  166.6250   -17.5200    48.3150    18.5620    15.4450    15.6180    24.2540     2.4180 
  166.7500   -17.4110    45.5470    17.9370    14.9780    15.6660    24.4090     2.3950 
  166.8750   -17.2740    44.5430    17.1490    14.3520    15.4010    24.5070     2.3900 
  167.0000   -17.1340    45.8120    16.4130    13.7350    14.3850    24.4400     2.3960 
  167.1250   -16.9990    48.2340    15.9120    13.2720    13.5730    24.1670     2.4030 
  167.2500   -16.8760    48.5350    15.7900    13.0860    13.5340    24.0410     2.4030 
  167.3750   -16.7990    44.9860    16.1910    13.3080    13.5300    24.1930     2.4000 
  167.5000   -16.7550    42.2900    16.9880    13.8660    13.9260    24.2790     2.4050 
  167.6250   -16.7530    42.1520    18.0250    14.6580    15.8410    24.1300     2.4210 
  167.7500   -16.7930    43.6480    19.0720    15.5130    18.2960    23.9330     2.4410 
  167.8750   -16.8860    44.6530    19.8430    16.1980    18.9830    23.7370     2.4540 
  168.0000   -17.0260    44.9710    20.2470    16.6040    17.9370    23.5530     2.4570 
  168.1250   -17.1970    45.3200    20.2890    16.7150    16.9030    23.4840     2.4520 
  168.2500   -17.3870    46.0380    20.0390    16.5780    16.5550    23.7600     2.4440 
  168.3750   -17.5790    46.7290    19.5720    16.2520    16.6850    24.1990     2.4420 
