~V
VERS. 2.00: Ver 2.00
~W
STRT.M 50.0000:
STOP.M 209.0000:
STEP.M 0.1250:
NULL. -999.2500:
UWI. F10692:
~C
DEPT.M :
DEN.GM/CC :
GR.API :
RML.OHMM :
RI. :
RXO.OHMM :
CALI.CM :
SP.MV :
~A
# ...
  162.5000     2.3560    55.2980    12.1700    11.1290    14.3310    24.7530   -22.4560 
  162.6250     2.3510    54.0250    11.6290    10.8170    14.7940    24.2750   -22.0440 
  162.7500     2.3410    55.1050    11.0000    10.3940    12.1510    23.9440   -21.5280 
  162.8750     2.3340    59.6130    10.4870    10.0230     9.9030    24.0120   -20.9450 
  163.0000     2.3300    64.1250    10.2480     9.8350     9.7200    24.4730   -20.3510 
  163.1250     2.3200    60.6930    10.3990     9.9340    10.9390    24.9080   -19.8290 
  163.2500     2.3020    51.5800    10.7930    10.2360    11.9100    25.0860   -19.4310 
  163.3750     2.2830    44.7510    11.2200    10.6010    11.9750    25.1620   -19.1850 
  163.5000     2.2700    45.7030    11.4290    10.8290    11.2480    25.2300   -19.0950 
  163.6250     2.2720    50.0960    11.1790    10.6950    10.7110    25.3140   -19.1650 
  163.7500     2.2870    51.8680    10.5730    10.2450    10.4400    25.3220   -19.3370 
  163.8750     2.3100    51.8360     9.7690     9.5890    10.0840    25.2780   -19.5730 
  164.0000     2.3330    52.6270     8.9300     8.8690     9.5620    25.2230   -19.8210 
  164.1250     2.3480    53.9760     8.2230     8.2350     9.3190    25.1710   -20.0130 
  164.2500     2.3560    53.0450     7.7780     7.8010     9.0850    25.1490   -20.1080 
  164.3750     2.3610    49.6370     7.7550     7.6880     9.1360    25.1690   -20.0900 
  164.5000     2.3730    47.3550     8.3370     8.0390    10.0660    25.2020   -19.9680 
  164.6250     2.3930    47.9090     9.7920     9.1120    12.4360    25.1920   -19.7600 
  164.7500     2.4140    49.5430    11.9580    10.8710    15.9860    25.1790   -19.5170 
  164.8750     2.4340    49.8190    14.4750    13.1340    21.3030    25.2470   -19.2700 
  165.0000     2.4540    48.4030    16.5720    15.3030    25.9480    25.3710   -19.0480 
  165.1250     2.4500    47.6460    16.9300    16.0970    25.7420    25.4210   -18.8850 
  165.2500     2.4130    48.6920    15.5100    15.1950    20.2750    25.4480   -18.7950 
  165.3750     2.3650    50.5730    13.1580    13.2430    14.3830    25.4930   -18.7970 
  165.5000     2.3370    51.4950    11.0020    11.2440    11.2100    25.5260   -18.9070 
  165.6250     2.3340    51.6870     9.9560    10.0220    10.8600    25.5330   -19.1480 
  165.7500     2.3400    52.2600    10.1200     9.7480    11.9090    25.5330   -19.4830 
  165.8750     2.3450    52.5110    11.5600    10.5470    14.8010    25.5330   -19.8810 
  166.0000     2.3340    51.4430    14.3140    12.5600    21.4460    25.5330   -20.2980 
  166.1250     2.2880    49.8120    18.5340    16.1410    33.1940    25.5440   -20.6850 
  166.2500     2.2330    48.5920    23.6520    20.9610    37.9530    25.5690   -20.9970 
  166.3750     2.1900    47.6370    28.9830    26.4980    37.1370    25.5950   -21.2050 
  166.5000     2.1660    46.7230    33.6520    31.8600    37.7250    25.6150   -21.2930 
  166.6250     2.1620    44.6750    36.6510    35.8180    39.7490    25.6370   -21.2490 
  166.7500     2.1740    42.5360    38.0020    38.0340    42.2600    25.6610   -21.1190 
  166.8750     2.2070    42.0770    37.8710    38.4990    46.1600    25.6620   -20.9320 
  167.0000     2.2620    44.0170    36.5660    37.4790    47.2010    25.6400   -20.7110 
  167.1250     2.3240    45.7080    34.4480    35.3540    42.3820    25.6170   -20.4810 
  167.2500     2.3720    45.8490    32.1560    32.9100    35.3160    25.6070   -20.2740 
  167.3750     2.3940    46.7280    30.0570    30.5990    31.6000    25.6030   -20.1210 
  167.5000     2.3860    47.8920    28.3580    28.6870    29.9440    25.5960   -20.0490 
  167.6250     2.3460    45.8650    27.1780    27.3560    29.4620    25.5860   -20.0860 
  167.7500     2.2940    42.5530    26.3470    26.4690    28.1680    25.5910   -20.2070 
  167.8750     2.2470    41.5550    25.7300    25.8920    26.2330    25.6000   -20.3810 
  168.0000     2.2210    43.4820    25.2160    25.4840    25.3460    25.6030   -20.5700 
  168.1250     2.2200    45.1860    24.7540    25.1390    25.9700    25.6030   -20.7280 
  168.2500     2.2330    44.4820    24.3310    24.8020    26.2020    25.6040   -20.8220 
  168.3750     2.2510    43.7310    23.9650    24.4730    24.7320    25.6050   -20.8330 
  168.5000     2.2670    44.8710    23.6650    24.1620    22.9790    25.5970   -20.7570 
  168.6250     2.2810    46.8450    23.4260    23.8590    22.3590    25.5750   -20.6000 
  168.7500     2.2950    47.1750    23.2140    23.5330    22.3460    25.5460   -20.4060 
  168.8750     2.3120    46.3180    23.0300    23.1860    22.1640    25.5280   -20.2070 
  169.0000     2.3320    45.4520    22.9330    22.8890    21.9360    25.5100   -20.0280 
  169.1250     2.3480    44.0720    23.1150    22.8620    21.0950    25.4800   -19.8980 
  169.2500     2.3590    43.5250    23.7090    23.2700    20.9180    25.4660   -19.8190 
  169.3750     2.3590    44.4550    24.7750    24.2080    21.6530    25.4570   -19.7870 
  169.5000     2.3410    44.8950    26.2090    25.6030    23.7130    25.4390   -19.7880 
  169.6250     2.3090    43.4080    27.6740    27.1480    26.9140    25.4170   -19.8030 
  169.7500     2.2860    42.4570    28.7590    28.3760    29.9170    25.4430   -19.8160 
  169.8750     2.2940    42.7400    29.2770    29.0390    29.2310    25.4960   -19.8310 
  170.0000     2.3350    42.4910    29.3170    29.1700    26.1470    25.5000   -19.8620 
  170.1250     2.3760    40.1120    29.1990    29.0310    24.7990    25.3950   -19.9260 
  170.2500     2.3800    38.1840    29.2350    28.9610    27.5560    25.3170   -20.0150 
  170.3750     2.3620    38.6210    29.4120    28.9980    31.8020    25.3100   -20.1170 
  170.5000     2.3540    40.6890    29.4450    28.9170    30.7870    25.3510   -20.2180 
  170.6250     2.3570    42.4700    28.7930    28.2410    27.5890    25.4140   -20.2970 
  170.7500     2.3580    42.4170    27.3530    26.8640    25.4850    25.4510   -20.3490 
  170.8750     2.3560    41.5520    25.3680    25.0060    23.1810    25.4680   -20.3680 
  171.0000     2.3510    41.6410    23.3570    23.1420    20.5150    25.4840   -20.3520 
  171.1250     2.3380    43.8770    21.9600    21.8560    18.7420    25.5150   -20.2920 
  171.2500     2.3210    46.1350    21.3530    21.3110    18.8460    25.5290   -20.1900 
  171.3750     2.3070    46.5090    21.4770    21.4890    20.7630    25.5330   -20.0440 
  171.5000     2.2980    45.8390    22.0490    22.1770    23.4720    25.5330   -19.8500 
  171.6250     2.2940    45.3140    22.5410    22.9100    25.1280    25.5330   -19.6050 
  171.7500     2.2930    44.7960    22.4790    23.1480    24.6100    25.5330   -19.3230 
  171.8750     2.2920    44.3530    21.7200    22.6480    23.6880    25.5330   -19.0170 
  172.0000     2.2890    44.4960    20.4750    21.5450    22.0800    25.5330   -18.7020 
  172.1250     2.2820    46.7910    19.2160    20.2740    19.8160    25.5330   -18.4060 
  172.2500     2.2710    47.5750    18.2770    19.2320    17.8520    25.5360   -18.1530 
  172.3750     2.2560    46.2140    17.6920    18.5030    17.5990    25.5560   -17.9660 
  172.5000     2.2380    44.3460    17.3570    18.0250    18.2110    25.6040   -17.8610 
  172.6250     2.2300    42.4430    17.1570    17.7310    19.8100    25.6550   -17.8640 
  172.7500     2.2360    41.3760    16.9870    17.5280    20.3060    25.6870   -17.9550 
  172.8750     2.2480    41.6440    16.8530    17.4070    18.1580    25.7220   -18.1250 
  173.0000     2.2520    43.1830    16.8670    17.4350    16.9250    25.7570   -18.3600 
  173.1250     2.2550    44.2650    17.3040    17.8250    18.7350    25.7710   -18.6440 
  173.2500     2.2730    44.0180    18.3200    18.7210    20.8720    25.7040   -18.9420 
  173.3750     2.3000    43.1090    19.9920    20.2530    20.9410    25.4940   -19.2210 
  173.5000     2.3220    41.3040    22.1380    22.3550    20.7480    25.2050   -19.4470 
  173.6250     2.3440    39.4880    24.0790    24.4740    24.0270    25.1870   -19.5750 
