~V
VERS. 2.00: Ver 2.00
~W
STRT.M 58.0000:
STOP.M 244.0000:
STEP.M 0.1250:
NULL. -999.2500:
UWI. F10638:
~C
DEPT.M :
SP.MV :
GR.API :
RML.OHMM :
RI. :
RXO.OHMM :
CALI.CM :
DEN.GM/CC :
~A
# ...
  193.0000   -15.1570    71.0090    10.6890     9.4290    13.2550    23.9780     2.4700 
  193.1250   -14.9860    65.2670    10.9490     9.5770    16.0180    23.9270     2.4700 
  193.2500   -14.7910    60.9540    10.8010     9.4120    14.8430    23.9060     2.4520 
  193.3750   -14.5920    62.2110    10.4590     9.0720    12.0750    23.9200     2.4280 
  193.5000   -14.4150    65.2820    10.4080     8.9130    10.3790    23.9910     2.4110 
  193.6250   -14.2740    65.7090    10.9980     9.1880    11.0720    24.0910     2.4000 
  193.7500   -14.1790    62.6130    12.4490    10.0750    14.3550    24.1830     2.3930 
  193.8750   -14.1490    59.4350    14.9450    11.7990    20.2560    24.2300     2.3830 
  194.0000   -14.1760    58.5200    18.0140    14.1300    23.5980    24.2660     2.3650 
  194.1250   -14.2350    58.9710    20.9330    16.6160    23.7690    24.3060     2.3450 
  194.2500   -14.3000    59.9200    22.6810    18.4490    23.4060    24.3810     2.3310 
  194.3750   -14.3960    59.2220    22.0860    18.5090    24.1830    24.4590     2.3340 
  194.5000   -14.5260    58.2240    19.7110    16.9890    23.9380    24.5120     2.3480 
  194.6250   -14.6460    59.9910    16.5590    14.6130    20.9250    24.5420     2.3660 
  194.7500   -14.7450    64.4590    13.6630    12.2300    15.2470    24.5490     2.3770 
  194.8750   -14.8520    67.4300    11.8240    10.5170    11.6440    24.5620     2.3740 
  195.0000   -14.9550    67.3580    11.0490     9.5700    10.7190    24.5720     2.3600 
  195.1250   -15.0040    66.9150    11.2560     9.3880    12.1520    24.5930     2.3390 
  195.2500   -15.0430    66.5660    12.3070     9.9320    13.9350    24.6260     2.3140 
  195.3750   -15.0830    64.3290    14.1000    11.2250    15.9300    24.6570     2.2890 
  195.5000   -15.0580    61.8810    16.2300    12.9750    19.0170    24.6880     2.2700 
  195.6250   -15.0010    60.6660    18.3780    14.9130    21.7500    24.7130     2.2590 
  195.7500   -14.9570    59.2780    20.2720    16.7500    22.8550    24.7190     2.2560 
  195.8750   -14.8880    57.4050    21.6010    18.1530    23.1310    24.7080     2.2610 
  196.0000   -14.7580    56.7830    22.1510    18.8960    24.1000    24.6970     2.2720 
  196.1250   -14.6280    57.0570    21.6230    18.7000    24.5820    24.6710     2.2850 
  196.2500   -14.5110    57.2450    19.9640    17.4920    24.2600    24.6450     2.2960 
  196.3750   -14.4000    58.9810    17.5480    15.5570    21.7230    24.6210     2.3000 
  196.5000   -14.3330    63.0460    15.2630    13.6200    17.4440    24.6060     2.2980 
  196.6250   -14.2930    65.4960    13.6680    12.1170    13.3900    24.5890     2.2930 
  196.7500   -14.2900    63.6580    13.0460    11.2780    12.5190    24.5750     2.2870 
  196.8750   -14.3750    61.1820    13.5960    11.3030    14.4540    24.5720     2.2820 
  197.0000   -14.5310    60.4180    14.9850    12.0290    16.5150    24.5900     2.2780 
  197.1250   -14.7500    59.7170    16.9190    13.3220    17.6420    24.6200     2.2730 
  197.2500   -15.0280    57.4640    18.9520    14.9180    19.5090    24.6410     2.2640 
  197.3750   -15.3480    56.6380    20.4000    16.3250    21.8160    24.6560     2.2540 
  197.5000   -15.6920    58.5560    20.9110    17.1310    23.1640    24.6770     2.2550 
  197.6250   -16.0830    61.0380    20.4370    17.1600    22.3690    24.6930     2.2780 
  197.7500   -16.4980    61.9680    19.2480    16.5150    19.8370    24.6940     2.3160 
  197.8750   -16.8450    60.9380    17.9160    15.5460    19.8930    24.6770     2.3380 
  198.0000   -17.1560    59.8940    17.1900    14.8260    19.5650    24.6530     2.3320 
  198.1250   -17.4080    59.8010    17.7000    14.8070    17.6080    24.6410     2.3140 
  198.2500   -17.5220    59.6960    19.8860    15.8910    14.9190    24.6250     2.3190 
  198.3750   -17.5200    58.1840    23.8720    18.4850    19.4020    24.6230     2.3780 
  198.5000   -17.4640    56.3940    28.0340    21.7780    23.7170    24.5840     2.4540 
  198.6250   -17.2830    56.5370    29.8170    23.9850    29.4800    24.5550     2.4950 
  198.7500   -16.9720    58.7300    26.8640    22.8620    37.8100    24.4900     2.4840 
  198.8750   -16.6330    60.5790    19.7940    18.0200    38.6260    24.4270     2.4470 
  199.0000   -16.2760    59.9590    13.1290    12.7890    23.6450    24.3440     2.4200 
  199.1250   -15.8910    56.6020     8.6770     8.8270    10.6380    24.1810     2.4110 
  199.2500   -15.5610    51.5590     6.2880     6.3490     5.9860    23.9210     2.4100 
  199.3750   -15.3320    47.7810     5.3650     5.1300     5.0300    23.7320     2.4030 
  199.5000   -15.1640    45.7370     5.0990     4.5950     5.1190    23.7440     2.3880 
  199.6250   -15.0650    44.9650     5.1500     4.4850     5.2020    23.8600     2.3700 
  199.7500   -15.0410    45.9780     5.2590     4.5580     5.2060    23.9470     2.3550 
  199.8750   -15.0670    49.4740     5.2450     4.6040     5.0150    24.0170     2.3550 
  200.0000   -15.1360    52.2500     5.1590     4.5830     5.1990    24.0410     2.3700 
  200.1250   -15.2640    52.9950     5.1400     4.5830     5.4170    23.9920     2.3920 
  200.2500   -15.4370    53.3520     5.3170     4.7210     5.5990    23.9040     2.4070 
  200.3750   -15.6140    54.8300     5.8410     5.1420     6.1670    23.8570     2.4010 
  200.5000   -15.7760    59.7200     6.6630     5.8440     8.2030    23.8290     2.3840 
  200.6250   -15.9050    68.5370     7.6500     6.7490    11.2830    23.9010     2.3690 
  200.7500   -15.9550    78.9890     8.5400     7.6480    11.9730    24.1620     2.3650 
  200.8750   -15.9240    87.2560     8.9530     8.1750    11.2570    24.3800     2.3700 
  201.0000   -15.8110    91.2270     8.8640     8.2220     9.9370    24.4800     2.3770 
  201.1250   -15.6020    91.0740     8.4510     7.9020     9.0990    24.5130     2.3810 
  201.2500   -15.3130    89.1690     7.9740     7.4460     8.7540    24.5340     2.3790 
  201.3750   -14.9680    90.0330     7.6320     7.0600     8.5790    24.5290     2.3730 
  201.5000   -14.5990    92.7350     7.4380     6.8020     8.3840    24.5440     2.3660 
  201.6250   -14.2570    94.6770     7.3630     6.6650     8.1910    24.5500     2.3610 
  201.7500   -13.9820    95.3800     7.3770     6.6260     8.1140    24.5290     2.3600 
  201.8750   -13.7800    93.8710     7.4590     6.6640     8.1080    24.5280     2.3650 
  202.0000   -13.6370    92.6820     7.5670     6.7360     8.1590    24.5400     2.3700 
  202.1250   -13.5660    94.7960     7.6810     6.8200     8.2290    24.5510     2.3730 
  202.2500   -13.5420    99.0060     7.7920     6.9060     8.2710    24.5430     2.3740 
  202.3750   -13.5600    99.7410     7.9040     6.9940     8.3790    24.5230     2.3770 
  202.5000   -13.6050    96.2990     8.0150     7.0740     8.4640    24.5340     2.3860 
  202.6250   -13.6320    91.3780     8.1150     7.1350     8.7670    24.5540     2.3940 
  202.7500   -13.6260    86.7290     8.2120     7.1760     9.3210    24.5690     2.3940 
  202.8750   -13.6350    85.8430     8.3340     7.2170     9.6500    24.5750     2.3780 
  203.0000   -13.6620    87.6050     8.4760     7.2690     9.3590    24.5800     2.3530 
  203.1250   -13.6990    88.6200     8.6080     7.3190     9.1630    24.5820     2.3380 
  203.2500   -13.7600    86.6340     8.7190     7.3580     9.6800    24.5840     2.3510 
  203.3750   -13.8140    84.7860     8.9110     7.4470    11.0410    24.5830     2.4080 
  203.5000   -13.8570    85.8050     9.4210     7.7320    11.4960    24.5860     2.4940 
  203.6250   -13.9270    87.9510    10.5920     8.4210    10.3550    24.5910     2.5720 
  203.7500   -14.0640    87.4740    12.7900     9.7710    10.2470    24.5810     2.5950 
  203.8750   -14.2390    79.8320    16.5060    12.2490    14.0220    24.5380     2.5330 
  204.0000   -14.4300    67.1920    21.4080    15.8590    20.9770    24.4520     2.4280 
  204.1250   -14.6110    57.6260    26.7660    20.3140    29.4430    24.4140     2.3180 
