~V
VERS. 2.00: Ver 2.00
~W
STRT.M 52.0000:
STOP.M 239.0000:
STEP.M 0.1250:
NULL. -999.2500:
UWI. F10645:
~C
DEPT.M :
SP.MV :
GR.API :
RML.OHMM :
RI. :
RXO.OHMM :
CALI.CM :
DEN.GM/CC :
~A
# ...
  108.2500   -27.7200    69.8410     7.1550     6.1950     4.6870    24.5150     2.1510 
  108.3750   -26.8830    74.4630     6.3800     5.5270     4.0110    24.4740     2.1310 
  108.5000   -26.0960    80.9120     5.7410     4.9180     3.8490    24.4330     2.1330 
  108.6250   -25.4040    86.4140     5.2570     4.4150     3.7560    24.3650     2.1670 
  108.7500   -24.8320    86.6870     4.9250     4.0520     3.7140    24.2480     2.2280 
  108.8750   -24.3730    82.8290     4.7290     3.8250     3.6800    24.1630     2.2810 
  109.0000   -24.0200    78.7550     4.7300     3.7660     3.6280    24.2070     2.3080 
  109.1250   -23.7520    79.0220     5.0250     3.9290     3.6590    24.3110     2.3160 
  109.2500   -23.5750    81.4770     5.8130     4.4380     4.2630    24.3430     2.3290 
  109.3750   -23.4470    79.1600     7.1080     5.3180     5.9410    24.3000     2.3550 
  109.5000   -23.3200    71.6650     8.8730     6.5900     8.8770    24.1830     2.3770 
  109.6250   -23.1490    63.5530    10.9150     8.1710     9.8630    24.1600     2.3690 
  109.7500   -22.9610    60.1350    12.8250     9.8070     9.6600    24.3860     2.3150 
  109.8750   -22.7290    59.3820    14.2620    11.1680     9.5770    24.6890     2.2420 
  110.0000   -22.4890    57.1790    15.1500    12.1020    10.2070    24.9880     2.1740 
  110.1250   -22.2420    52.7710    15.6540    12.6610    10.6730    25.2820     2.1260 
  110.2500   -21.9840    48.2810    16.0110    13.0060    10.7680    25.4950     2.1000 
  110.3750   -21.7270    45.0060    16.3640    13.3100    10.8510    25.5570     2.0870 
  110.5000   -21.4930    44.5250    16.7130    13.6050    11.0150    25.5710     2.0840 
  110.6250   -21.2980    46.5610    17.0460    13.8950    11.0260    25.5900     2.0850 
  110.7500   -21.1410    48.7350    17.3730    14.1850    11.1730    25.6710     2.0880 
  110.8750   -21.0240    48.5960    17.7130    14.4730    11.3520    25.7680     2.0880 
  111.0000   -20.9530    48.2080    18.0960    14.7690    11.3150    25.7300     2.0870 
  111.1250   -20.9270    50.8230    18.5600    15.1010    10.9260    25.5240     2.0870 
  111.2500   -20.9480    55.5420    19.0820    15.4690    10.6860    25.2270     2.0960 
  111.3750   -21.0080    58.2490    19.4220    15.7240    10.8750    25.0610     2.1150 
  111.5000   -21.1090    57.3100    19.1890    15.5980    11.5210    25.0650     2.1340 
  111.6250   -21.2710    54.5560    18.0240    14.8110    12.0890    25.2350     2.1420 
  111.7500   -21.4840    54.1040    15.8540    13.2330    11.4660    25.3150     2.1370 
  111.8750   -21.7450    57.4190    13.4530    11.3730     9.2690    24.9710     2.1360 
  112.0000   -22.0200    63.1560    11.4610     9.7000     7.0710    24.2680     2.1600 
  112.1250   -22.2800    69.9610    10.2630     8.5510     5.5440    23.7060     2.2190 
  112.2500   -22.5200    73.7980    10.1310     8.2050     5.5740    23.5310     2.2960 
  112.3750   -22.7420    72.7010    10.8740     8.5790     6.4670    23.4940     2.3320 
  112.5000   -22.9320    68.3960    12.4010     9.6330     7.6460    23.4680     2.3070 
  112.6250   -23.0880    64.3700    14.5350    11.2480     9.2270    23.4970     2.2320 
  112.7500   -23.2090    62.3820    16.9080    13.1590    13.6310    23.8240     2.1360 
  112.8750   -23.2750    61.7840    18.8360    14.8230    19.8240    24.1040     2.0530 
  113.0000   -23.2960    61.1630    19.6650    15.7170    18.2770    24.0410     2.0010 
  113.1250   -23.3100    60.7490    19.0050    15.4850    11.8160    23.7690     1.9870 
  113.2500   -23.3270    59.4910    16.8880    14.0480     9.1240    23.6310     2.0090 
  113.3750   -23.3320    58.6790    14.2730    12.0860     8.3190    23.6160     2.0400 
  113.5000   -23.3420    60.0800    11.8230    10.1090     7.3660    23.6250     2.0700 
  113.6250   -23.3120    62.7820     9.9350     8.4730     5.8510    23.6020     2.1030 
  113.7500   -23.2760    66.7310     8.8410     7.4210     5.5100    23.5840     2.1520 
  113.8750   -23.2270    71.4670     8.3560     6.8630     5.7040    23.5780     2.2180 
  114.0000   -23.1840    75.8620     8.3790     6.7450     5.9280    23.5780     2.2950 
  114.1250   -23.1310    77.9620     8.8080     7.0000     6.2790    23.5780     2.3740 
  114.2500   -23.0850    76.4090     9.5050     7.5450     6.8270    23.6010     2.4410 
  114.3750   -23.0520    74.9060    10.1860     8.1480     7.0300    23.6760     2.4780 
  114.5000   -23.0330    73.5290    10.6200     8.6160     7.2350    23.8090     2.4700 
  114.6250   -23.0410    71.2810    10.6310     8.7890     7.5890    23.9910     2.4170 
  114.7500   -23.0600    69.3590    10.0910     8.5240     7.6350    24.3230     2.3340 
  114.8750   -23.1090    69.5340     9.2150     7.9470     6.7690    24.6520     2.2530 
  115.0000   -23.1720    73.9590     8.2160     7.2080     5.9510    24.7190     2.2020 
  115.1250   -23.2570    81.2510     7.2880     6.4580     5.3720    24.5700     2.1980 
  115.2500   -23.3520    85.9390     6.5960     5.8400     4.9940    24.4620     2.2380 
  115.3750   -23.4440    86.8510     6.1440     5.3940     4.6830    24.4150     2.2860 
  115.5000   -23.5220    87.0820     5.9060     5.1210     4.4860    24.3790     2.3170 
  115.6250   -23.5820    88.9270     5.8150     4.9810     4.3460    24.3220     2.3240 
  115.7500   -23.6270    90.6640     5.8050     4.9300     4.4180    24.2960     2.3150 
  115.8750   -23.6470    90.4630     5.8090     4.9110     4.4700    24.2910     2.3050 
  116.0000   -23.6400    90.0590     5.8190     4.9060     4.5520    24.2930     2.3020 
  116.1250   -23.6030    90.9500     5.8520     4.9230     4.6120    24.2870     2.3070 
  116.2500   -23.5130    91.5530     5.9590     4.9970     4.6360    24.2740     2.3150 
  116.3750   -23.4020    89.8670     6.1590     5.1480     4.7780    24.2680     2.3210 
  116.5000   -23.2640    88.5170     6.4470     5.3770     5.0200    24.2670     2.3240 
  116.6250   -23.1160    89.7340     6.7800     5.6520     5.1110    24.2590     2.3250 
  116.7500   -22.9240    89.0870     7.0760     5.9050     5.4170    24.1830     2.3190 
  116.8750   -22.7360    84.0120     7.2910     6.0880     5.8520    24.0120     2.3040 
  117.0000   -22.5290    79.8040     7.4520     6.2110     5.8570    23.8110     2.2870 
  117.1250   -22.3130    81.2520     7.6460     6.3310     5.7070    23.6140     2.2800 
  117.2500   -22.0840    84.1910     7.9830     6.5380     5.4680    23.4320     2.2910 
  117.3750   -21.8440    82.8600     8.4330     6.8330     5.5910    23.2950     2.3020 
  117.5000   -21.6080    79.6000     8.8700     7.1490     6.2430    23.2800     2.2960 
  117.6250   -21.3750    76.8600     9.1060     7.3600     6.9120    23.3320     2.2660 
  117.7500   -21.1890    75.6680     8.9650     7.3190     7.0560    23.3950     2.2210 
  117.8750   -20.9610    76.1190     8.6380     7.1120     6.7860    23.5320     2.1840 
  118.0000   -20.7370    78.3170     8.4230     6.9210     6.2730    23.7910     2.1700 
  118.1250   -20.4980    81.2520     8.6150     6.9610     5.8980    24.0880     2.1800 
  118.2500   -20.2600    83.4360     9.4850     7.4690     6.3550    24.2970     2.1920 
  118.3750   -20.0130    81.5790    10.9150     8.4270     8.0270    24.5630     2.1780 
  118.5000   -19.7580    74.2840    12.7240     9.7550    10.9020    24.9370     2.1420 
  118.6250   -19.4870    65.0890    14.6400    11.2730    12.8010    25.2030     2.0990 
  118.7500   -19.1880    63.4600    16.3930    12.7600    11.8360    25.1120     2.0720 
  118.8750   -18.8890    66.5090    18.0300    14.1570    10.3030    24.8510     2.0790 
  119.0000   -18.5590    66.8670    19.7950    15.6080    10.3780    24.5400     2.1290 
  119.1250   -18.1950    63.7240    21.9330    17.3260    13.5120    24.1770     2.2140 
  119.2500   -17.8060    61.2690    24.4790    19.4300    19.6440    24.0780     2.2930 
  119.3750   -17.4020    60.0600    26.9510    21.5920    22.4900    24.4070     2.3180 
