~V
VERS. 2.00: Ver 2.00
~W
STRT.M 55.0000:
STOP.M 228.0000:
STEP.M 0.1250:
NULL. -999.2500:
UWI. F10621:
~C
DEPT.M :
GR.API :
RML.OHMM :
RI. :
RXO.OHMM :
CALI.CM :
DEN.GM/CC :
SP.MV :
~A
# ...
   88.7500    90.5850     7.1040     6.4570     5.9470    17.8960     2.2870   -11.1900 
   88.8750    91.9900     7.2230     6.3160     5.9570    18.3640     2.3080   -11.3180 
   89.0000    93.2660     7.7740     6.5830     6.2570    19.1410     2.3400   -11.4570 
   89.1250    92.6350     8.4900     7.0950     6.8180    20.1370     2.3710   -11.5620 
   89.2500    89.6990     9.0460     7.5780     7.6030    21.1510     2.3890   -11.6200 
   89.3750    84.3280     9.2500     7.8450     8.3800    22.0940     2.3900   -11.6740 
   89.5000    80.3140     9.0440     7.7990     8.9500    22.8040     2.3790   -11.6830 
   89.6250    83.8350     8.4960     7.4350     8.7800    23.1430     2.3630   -11.5810 
   89.7500    91.5410     7.8760     6.9570     7.7380    23.2990     2.3510   -11.4450 
   89.8750    96.1120     7.3700     6.5170     6.6800    23.3910     2.3430   -11.2960 
   90.0000    94.5640     7.0830     6.2200     6.4060    23.4920     2.3340   -11.0910 
   90.1250    91.0530     7.0870     6.1500     6.5950    23.6490     2.3230   -10.8290 
   90.2500    88.9400     7.3020     6.2660     6.8020    23.8010     2.3110   -10.5800 
   90.3750    87.5250     7.6430     6.5130     6.8360    23.9600     2.3040   -10.3460 
   90.5000    85.8520     7.9950     6.8020     6.8850    24.1270     2.3030   -10.0930 
   90.6250    83.2110     8.1990     7.0060     7.0570    24.2480     2.3090    -9.8880 
   90.7500    80.8760     8.1810     7.0470     7.2350    24.3330     2.3160    -9.7370 
   90.8750    81.2900     7.9310     6.8990     7.2080    24.4390     2.3220    -9.5850 
   91.0000    84.7450     7.5090     6.5930     6.8190    24.5340     2.3260    -9.4480 
   91.1250    87.9700     7.0320     6.2030     6.3110    24.5700     2.3280    -9.3870 
   91.2500    89.3750     6.6180     5.8330     6.0450    24.5750     2.3300    -9.3550 
   91.3750    89.8480     6.3200     5.5350     5.8810    24.5750     2.3330    -9.3030 
   91.5000    91.0830     6.1440     5.3330     5.7840    24.5750     2.3360    -9.2920 
   91.6250    95.1000     6.0870     5.2410     5.5970    24.5750     2.3390    -9.3170 
   91.7500    99.8490     6.1080     5.2320     5.3830    24.5750     2.3370    -9.3300 
   91.8750   101.2020     6.1900     5.2920     5.2910    24.5750     2.3310    -9.3760 
   92.0000    97.6940     6.3210     5.4040     5.3540    24.5750     2.3220    -9.4640 
   92.1250    94.3540     6.4770     5.5480     5.5120    24.5750     2.3130    -9.5180 
   92.2500    93.7340     6.6200     5.6860     5.7180    24.5750     2.3090    -9.5500 
   92.3750    93.9890     6.7190     5.7920     5.9270    24.5750     2.3140    -9.6010 
   92.5000    93.4990     6.7600     5.8480     6.1330    24.5750     2.3280    -9.6350 
   92.6250    92.8950     6.7380     5.8460     6.2180    24.5740     2.3490    -9.6540 
   92.7500    92.7700     6.6860     5.8070     6.2100    24.5710     2.3690    -9.6470 
   92.8750    95.1750     6.6360     5.7520     6.1260    24.5820     2.3810    -9.6210 
   93.0000   101.3480     6.6190     5.7040     6.1060    24.6340     2.3780    -9.6040 
   93.1250   105.5600     6.6670     5.6940     6.1050    24.7440     2.3570    -9.5760 
   93.2500   103.8210     6.7820     5.7330     6.1400    24.8100     2.3300    -9.5400 
   93.3750    99.4320     6.9610     5.8280     6.2530    24.7910     2.3050    -9.5130 
   93.5000    97.2880     7.2000     5.9830     6.4450    24.6790     2.2880    -9.4880 
   93.6250    98.3760     7.5000     6.2060     6.6320    24.5090     2.2790    -9.4300 
   93.7500    99.6160     7.8410     6.4810     6.7700    24.3410     2.2720    -9.3880 
   93.8750    97.8550     8.2080     6.7940     6.9770    24.1950     2.2630    -9.3510 
   94.0000    91.1780     8.5800     7.1300     7.4750    24.0360     2.2570    -9.2450 
   94.1250    82.7550     8.9260     7.4640     8.4160    23.8690     2.2690    -9.1190 
   94.2500    78.3200     9.2040     7.7600     9.5220    23.8000     2.3030    -9.0000 
   94.3750    78.9370     9.3630     7.9700    10.5200    23.8270     2.3510    -8.8460 
   94.5000    82.2780     9.3700     8.0560    11.0960    23.9850     2.3920    -8.6500 
   94.6250    85.0460     9.2060     7.9850    11.3110    24.3250     2.3990    -8.4780 
   94.7500    86.3950     8.9550     7.8150    11.5620    24.5870     2.3710    -8.3410 
   94.8750    85.5740     8.6950     7.6050    10.5870    24.7260     2.3250    -8.1950 
   95.0000    83.4720     8.5030     7.4190     8.3210    24.7760     2.2810    -8.0840 
   95.1250    82.5990     8.4330     7.3050     7.6120    24.7890     2.2570    -8.0150 
   95.2500    84.4190     8.4250     7.2370     7.5740    24.7890     2.2510    -7.9420 
   95.3750    86.6810     8.3880     7.1640     7.6390    24.7890     2.2570    -7.8740 
   95.5000    86.1940     8.2300     7.0220     7.6160    24.7890     2.2730    -7.8630 
   95.6250    84.5680     7.8860     6.7560     7.3900    24.7840     2.2950    -7.8660 
   95.7500    86.8060     7.4590     6.4210     7.0100    24.7680     2.3180    -7.8440 
   95.8750    93.7710     7.1030     6.1170     6.5880    24.7400     2.3340    -7.8580 
   96.0000    99.6830     6.9820     5.9620     6.3030    24.7200     2.3370    -7.9260 
   96.1250    99.2430     7.2810     6.1020     6.3840    24.7100     2.3240    -8.0450 
   96.2500    93.9570     7.9610     6.5420     6.8920    24.7080     2.3000    -8.2020 
   96.3750    85.4400     8.9450     7.2580     7.7470    24.7090     2.2710    -8.3840 
   96.5000    76.6110    10.0830     8.1660     8.7430    24.7230     2.2390    -8.5910 
   96.6250    71.2960    11.1600     9.1260     9.6730    24.7640     2.2110    -8.8390 
   96.7500    68.8140    12.0200     9.9760    10.3720    24.8150     2.1890    -9.0980 
   96.8750    65.4780    12.6120    10.6310    10.7900    24.8410     2.1780    -9.3400 
   97.0000    61.8550    12.9700    11.0750    10.9870    24.8460     2.1780    -9.5430 
   97.1250    63.1910    13.1600    11.3220    11.1070    24.8500     2.1870    -9.6810 
   97.2500    66.8420    13.2670    11.4540    11.1520    24.8530     2.1980    -9.8130 
   97.3750    67.7990    13.2930    11.4920    11.1100    24.8560     2.2050    -9.9590 
   97.5000    65.3140    13.2140    11.4410    11.0770    24.8620     2.2060   -10.0610 
   97.6250    63.9530    13.0060    11.2910    10.9060    24.9910     2.2010   -10.1240 
   97.7500    66.4510    12.7270    11.0900    11.0180    25.0970     2.1940   -10.2120 
   97.8750    68.6610    12.4450    10.8860    11.3500    25.1400     2.1870   -10.2800 
   98.0000    67.2250    12.2190    10.7280    11.7220    25.1440     2.1810   -10.3130 
   98.1250    64.5280    12.0930    10.6660    11.9540    25.1440     2.1760   -10.3610 
   98.2500    63.9350    12.0440    10.6950    12.1740    25.1440     2.1720   -10.3790 
   98.3750    62.9950    12.0510    10.8070    12.3780    25.1440     2.1680   -10.3320 
   98.5000    60.0830    12.1110    10.9950    12.5360    25.1440     2.1630   -10.2620 
   98.6250    59.1330    12.2680    11.2720    12.6520    25.1800     2.1580   -10.1640 
   98.7500    58.7740    12.5150    11.6190    12.7290    25.2990     2.1530    -9.9700 
   98.8750    56.8800    12.8030    11.9900    12.6360    25.5010     2.1520    -9.6860 
   99.0000    56.6660    13.0150    12.2670    12.3990    25.6820     2.1590    -9.3630 
   99.1250    60.4060    12.8580    12.1880    12.2300    25.7840     2.1810    -8.9630 
   99.2500    62.1650    12.2550    11.6130    12.0190    25.7910     2.2150    -8.4750 
   99.3750    61.9620    11.1980    10.5190    11.5270    25.6200     2.2590    -7.9490 
   99.5000    67.6060     9.8290     9.0600    10.8210    25.2100     2.3050    -7.4020 
   99.6250    81.2200     8.4360     7.5400     8.9530    24.7950     2.3420    -6.8200 
   99.7500    94.1670     7.0260     6.2500     6.7780    24.6440     2.3700    -6.2400 
   99.8750   100.4350     6.1190     5.3360     5.5010    24.6330     2.3890    -5.7260 
