~V
VERS. 2.00: Ver 2.00
~W
STRT.M 61.0000:
STOP.M 247.0000:
STEP.M 0.1250:
NULL. -999.2500:
UWI. F10600:
~C
DEPT.M :
GR.API :
RML.OHMM :
RI. :
RXO.OHMM :
CALI.CM :
DEN.GM/CC :
SP.MV :
~A
# ...
  207.2500    91.0510    12.3130     9.3390    15.7500    25.1750     2.4530   -26.9500 
  207.3750    87.8660    13.4900    10.4270    14.9700    25.1370     2.4520   -26.5210 
  207.5000    83.0010    15.1830    12.0040    13.0300    25.0940     2.4490   -26.1760 
  207.6250    79.4310    17.9460    14.5360    12.8770    25.0750     2.4430   -25.8960 
  207.7500    79.4620    22.0060    18.2520    16.6530    25.0710     2.4250   -25.7280 
  207.8750    79.2810    27.4850    23.3060    26.7160    25.0770     2.3900   -25.6660 
  208.0000    74.8530    34.1160    29.4990    35.5160    25.1170     2.3410   -25.6760 
  208.1250    69.0030    41.0580    36.1100    40.9270    25.2210     2.2930   -25.6960 
  208.2500    67.9530    47.1800    42.0730    45.3600    25.3330     2.2590   -25.7240 
  208.3750    70.7570    51.9710    46.8430    50.1160    25.3850     2.2430   -25.7580 
  208.5000    72.0660    55.6050    50.4660    55.7200    25.3880     2.2370   -25.7710 
  208.6250    70.2980    58.7510    53.4330    59.5780    25.3390     2.2380   -25.7670 
  208.7500    68.6680    62.2470    56.5240    58.9820    25.2530     2.2400   -25.7360 
  208.8750    67.4270    66.5860    60.2050    55.6390    25.2080     2.2410   -25.6920 
  209.0000    65.6780    72.0280    64.7640    57.1600    25.2440     2.2420   -25.6440 
  209.1250    64.4820    78.6320    70.3800    65.5710    25.2930     2.2450   -25.5530 
  209.2500    64.6790    85.5710    76.5210    84.0510    25.3100     2.2490   -25.4500 
  209.3750    65.4340    91.7610    82.4340    93.1990    25.2740     2.2520   -25.3290 
  209.5000    65.7010    96.8510    87.0860    89.0610    25.1560     2.2510   -25.1920 
  209.6250    65.6710   100.1290    89.0410    85.8980    24.9420     2.2490   -25.0490 
  209.7500    64.8410   101.0330    88.3230   100.9670    24.8100     2.2490   -24.8750 
  209.8750    64.9020    97.3250    85.4270   104.2920    24.7630     2.2580   -24.6410 
  210.0000    66.5580    91.0840    81.2990    89.5310    24.7610     2.2750   -24.3670 
  210.1250    66.7290    84.7240    76.9080    80.9580    24.7640     2.2960   -24.1310 
  210.2500    64.9160    79.0200    72.8640    85.0700    24.7640     2.3180   -23.8870 
  210.3750    62.9310    74.1410    69.3430    79.9700    24.7640     2.3390   -23.6310 
  210.5000    62.0300    70.2000    66.4340    78.5140    24.7650     2.3560   -23.4390 
  210.6250    61.0070    67.5810    64.4350    63.0780    24.7690     2.3670   -23.2700 
  210.7500    60.2330    66.3980    63.5490    48.9780    24.7710     2.3650   -23.1810 
  210.8750    60.9550    67.0040    64.2140    44.1420    24.7940     2.3490   -23.1870 
  211.0000    63.1400    69.7560    66.8950    51.2990    24.8740     2.3190   -23.2640 
  211.1250    64.3590    75.3140    72.3350    64.6540    25.0480     2.2820   -23.3990 
  211.2500    63.1160    83.1680    80.0360    67.7530    25.2150     2.2550   -23.5890 
  211.3750    60.0460    92.6950    89.3140    75.1910    25.3270     2.2500   -23.8390 
  211.5000    59.0530   102.7420    98.9580    94.1790    25.3740     2.2690   -24.0420 
  211.6250    63.9370   111.4180   107.1120   117.6940    25.3830     2.3010   -24.1770 
  211.7500    69.1140   117.4150   112.6820   135.5770    25.3850     2.3240   -24.2200 
  211.8750    70.1810   120.0640   115.1950   131.5880    25.3850     2.3280   -24.1570 
  212.0000    68.0390   119.4860   114.8590   116.1940    25.3850     2.3120   -23.9540 
  212.1250    66.1470   116.3740   112.2940   115.9900    25.3830     2.2910   -23.6690 
  212.2500    64.5300   112.6690   109.1660   110.2080    25.3810     2.2760   -23.3550 
  212.3750    62.4090   109.7280   106.6950   115.7650    25.3830     2.2690   -22.9350 
  212.5000    61.8030   108.5880   105.9020   118.8350    25.3860     2.2670   -22.5420 
  212.6250    63.7610   110.4070   108.0400   118.9670    25.3880     2.2630   -22.2370 
  212.7500    64.0070   115.0900   113.1450   112.0330    25.3920     2.2550   -21.9870 
  212.8750    61.6370   122.3310   120.9740   117.0950    25.3880     2.2500   -21.8970 
  213.0000    59.2120   130.8350   130.2720   121.4610    25.3720     2.2530   -21.9230 
  213.1250    59.2380   137.4160   137.9920   122.0730    25.3320     2.2740   -22.0340 
  213.2500    59.6600   139.3140   141.2630   138.7960    25.3200     2.3040   -22.2090 
  213.3750    60.7040   135.6790   138.8010   178.3140    25.3240     2.3370   -22.4490 
  213.5000    66.2290   127.9720   131.4610   214.0470    25.3440     2.3700   -22.7560 
  213.6250    74.1600   119.0130   121.7090   159.8320    25.4020     2.4050   -23.0900 
  213.7500    80.6080   111.3060   112.6850   126.5170    25.4450     2.4410   -23.4550 
  213.8750    88.1880   105.6670   105.7630   111.2990    25.4030     2.4700   -23.8310 
  214.0000    97.8710   102.0750   101.2960   106.7810    25.3100     2.4780   -24.2240 
  214.1250   101.6780   100.1950    99.1840   104.1030    25.2650     2.4530   -24.6230 
  214.2500    97.8880    98.6900    98.2590   100.5780    25.2560     2.4100   -24.9820 
  214.3750    92.5820    97.3470    97.7650    93.7160    25.2550     2.3630   -25.3230 
  214.5000    89.3650    96.2650    97.1550    98.7970    25.2450     2.3200   -25.6440 
  214.6250    87.0860    95.5930    96.0730    92.2350    25.1910     2.2820   -25.9340 
  214.7500    87.0220    94.7400    94.4380    88.0640    25.1100     2.2470   -26.1760 
  214.8750    90.2880    93.3690    92.1430    82.3640    25.1330     2.2180   -26.3820 
  215.0000    95.1770    91.1130    89.1920    82.5450    25.3590     2.2020   -26.5890 
  215.1250    97.9060    88.4450    85.8490    77.4920    25.7250     2.2100   -26.7770 
  215.2500    99.9500    86.3330    82.8810    74.2870    25.8540     2.2370   -26.9180 
  215.3750   102.0870    85.2150    81.1790    72.5120    25.6830     2.2740   -27.0530 
  215.5000   101.7720    85.8880    81.7150    71.3420    25.2230     2.3060   -27.1760 
  215.6250    94.9080    87.2720    86.0120    69.5110    24.7910     2.3160   -27.2710 
  215.7500    84.4280    93.8940    94.1230    69.5710    24.5820     2.3050   -27.3380 
  215.8750    74.3930   104.7240   105.8280    70.0860    24.4550     2.2810   -27.3820 
  216.0000    66.4860   117.9850   119.8130    69.5710    24.2650     2.2570   -27.4060 
  216.1250    62.9490   129.9240   132.7260    70.6410    24.1140     2.2410   -27.3560 
  216.2500    63.8750   135.4350   140.0550    75.9380    24.1940     2.2320   -27.3350 
  216.3750    65.7100   129.2820   137.3910    75.1650    24.6090     2.2320   -27.3310 
  216.5000    65.5730   109.4280   122.0730   168.3060    25.2020     2.2510   -27.2470 
  216.6250    64.3390    80.2200    94.9580   186.1390    25.4290     2.3010   -27.1880 
  216.7500    63.8810    52.7890    65.6640   144.9600    25.4100     2.3730   -27.1640 
  216.8750    63.2500    32.3950    41.1030    75.0240    25.3210     2.4480   -27.1460 
  217.0000    60.7670    19.5600    24.2810    32.4040    25.2730     2.5020   -27.1520 
  217.1250    57.6330    12.9530    15.3090    13.4950    25.2530     2.5170   -27.2210 
  217.2500    56.5690     9.4520    10.5770     7.3740    25.2450     2.5040   -27.3820 
  217.3750    58.0100     7.8000     8.3040     5.7340    25.2520     2.4780   -27.5900 
  217.5000    59.6430     7.2320     7.3870     5.7100    25.2870     2.4490   -27.9060 
  217.6250    59.5920     7.3430     7.2720     5.8790    25.3530     2.4260   -28.2590 
  217.7500    60.6120     7.7450     7.4710     6.0190    25.4190     2.4080   -28.6560 
  217.8750    63.4660     8.3030     7.7660     6.2500    25.4480     2.3960   -29.0580 
  218.0000    65.8200     8.8380     8.0080     6.5650    25.4550     2.3910   -29.4370 
  218.1250    64.6680     9.1480     8.0830     6.7370    25.4620     2.3970   -29.8020 
  218.2500    62.7360     9.1770     7.9920     6.7640    25.4700     2.4080   -30.0280 
  218.3750    63.5780     9.0960     7.7540     6.7730    25.4740     2.4190   -30.1350 
