~V
VERS. 2.00: Ver 2.00
~W
STRT.M 48.0000:
STOP.M 229.0000:
STEP.M 0.1250:
NULL. -999.2500:
UWI. F10623:
~C
DEPT.M :
GR.API :
RML.OHMM :
RI. :
RXO.OHMM :
CALI.CM :
DEN.GM/CC :
SP.MV :
~A
   48.0000    35.5040     2.4200     0.2730     0.6150    25.3910  -999.2500  -999.2500 
   48.1250    38.5430     2.4570     0.2730     0.5890    25.3970  -999.2500  -999.2500 
   48.2500    40.1780     2.3990     0.2850     0.5370    25.3690  -999.2500  -999.2500 
   48.3750    39.6030     2.2260     0.3060     0.4930    25.3410  -999.2500  -999.2500 
   48.5000    38.3740     1.9800     0.3310     0.4830    25.3670  -999.2500  -999.2500 
   48.6250    38.5940     1.7480     0.3500     0.4870    25.4300  -999.2500  -999.2500 
   48.7500    39.3890     1.5880     0.3590     0.4840    25.4960  -999.2500  -999.2500 
   48.8750    39.3950     1.5080     0.3590     0.4780    25.5220  -999.2500  -999.2500 
   49.0000    38.7830     1.4880     0.3550     0.4790    25.5270     0.0000  -999.2500 
   49.1250    38.9880     1.5080     0.3530     0.4840    25.5250     0.0000  -999.2500 
   49.2500    39.9530     1.5410     0.3510     0.4890    25.5220     0.0000  -999.2500 
   49.3750    40.9670     1.5710     0.3500     0.4930    25.5180     0.2360  -999.2500 
   49.5000    42.9110     1.5890     0.3490     0.4920    25.5120     0.4870  -999.2500 
   49.6250    45.4050     1.5900     0.3460     0.4930    25.4920     1.5300  -999.2500 
   49.7500    46.9710     1.5890     0.3430     0.4910    25.4390     1.6070  -999.2500 
   49.8750    47.2030     1.6020     0.3420     0.4890    25.3380     1.7060  -999.2500 
   50.0000    46.2520     1.6380     0.3460     0.4860    25.1550     1.8160  -999.2500 
   50.1250    44.4040     1.6830     0.3570     0.4870    24.8390     1.9070  -999.2500 
   50.2500    42.5140     1.7030     0.3720     0.4920    24.5600     1.9470  -999.2500 
   50.3750    42.1120     1.6720     0.3890     0.5060    24.6140     1.9220  -999.2500 
   50.5000    42.8260     1.5900     0.4000     0.5300    24.9420     1.8410  -999.2500 
   50.6250    41.8460     1.4850     0.3980     0.5600    25.1160     1.7300  -999.2500 
   50.7500    38.9310     1.4040     0.3850     0.5920    25.1400     1.6200  -999.2500 
   50.8750    36.6020     1.3680     0.3660     0.6220    25.0990     1.5240  -999.2500 
   51.0000    37.3630     1.3760     0.3490     0.6460    25.0450     1.4450  -999.2500 
   51.1250    40.2530     1.4040     0.3380     0.6420    24.9830     1.3830  -999.2500 
   51.2500    41.8740     1.4200     0.3340     0.6130    24.9430     1.3320  -999.2500 
   51.3750    42.1990     1.4050     0.3330     0.5700    24.9550     1.2950  -999.2500 
   51.5000    42.6240     1.3590     0.3330     0.5150    25.0440     1.2780  -999.2500 
   51.6250    43.0690     1.2990     0.3320     0.4770    25.2050     1.2980  -999.2500 
   51.7500    42.2850     1.2540     0.3320     0.4580    25.3110     1.3590  -999.2500 
   51.8750    40.5620     1.2380     0.3320     0.4550    25.3480     1.4600  -999.2500 
   52.0000    40.1020     1.2500     0.3330     0.4630    25.3550     1.5910  -999.2500 
   52.1250    41.8090     1.2900     0.3330     0.4820    25.3600     1.7280  -999.2500 
   52.2500    43.1690     1.3420     0.3310     0.5100    25.3660     1.8430  -999.2500 
   52.3750    43.8740     1.3870     0.3280     0.5380    25.3730     1.9220  -999.2500 
   52.5000    44.6130     1.4030     0.3250     0.5630    25.3790     1.9670  -999.2500 
   52.6250    44.7040     1.3670     0.3240     0.5860    25.3810     1.9910  -999.2500 
   52.7500    43.1050     1.3020     0.3260     0.6130    25.3810     2.0130  -999.2500 
   52.8750    42.0990     1.2400     0.3310     0.6460    25.3790     2.0410  -999.2500 
   53.0000    43.4180     1.2100     0.3400     0.6850    25.3700     2.0760  -999.2500 
   53.1250    45.3360     1.2120     0.3520     0.7320    25.3370     2.1130  -999.2500 
   53.2500    45.6210     1.2170     0.3610     0.7810    25.2590     2.1470  -999.2500 
   53.3750    45.0220     1.1990     0.3660     0.8260    25.0980     2.1760     0.0000 
   53.5000    45.1700     1.1520     0.3650     0.8590    24.8190     2.2000     0.0000 
   53.6250    45.7270     1.0900     0.3570     0.8600    24.4440     2.2200   122.9980 
   53.7500    46.4020     1.0400     0.3490     0.8260    24.1870     2.2370   125.1240 
   53.8750    47.5430     1.0210     0.3430     0.7710    24.0450     2.2520   127.0200 
   54.0000    48.8870     1.0340     0.3440     0.6800    23.9650     2.2650   128.5430 
   54.1250    49.3520     1.0730     0.3490     0.5680    23.9420     2.2770   129.4770 
   54.2500    49.9180     1.1110     0.3570     0.5100    23.9520     2.2850   129.8710 
   54.3750    51.6580     1.1270     0.3620     0.5370    23.9780     2.2880   129.8100 
   54.5000    53.9180     1.1080     0.3640     0.6190    23.9930     2.2810   129.4360 
   54.6250    55.4680     1.0480     0.3630     0.7190    23.9900     2.2630   128.8420 
   54.7500    56.9010     0.9710     0.3620     0.7640    23.9700     2.2360   128.0660 
   54.8750    57.9360     0.9000     0.3640     0.7250    23.9320     2.2040   127.0600 
   55.0000    58.4290     0.8580     0.3690     0.7110    23.8850     2.1680   125.8090 
   55.1250    57.4600     0.8640     0.3770     0.8080    23.8940     2.1340   124.3590 
   55.2500    55.0100     0.9050     0.3830     0.9630    24.0380     2.1100   122.8540 
   55.3750    52.4340     0.9620     0.3840     1.0620    24.3760     2.1050   121.3420 
   55.5000    50.7900     1.0080     0.3810     0.9650    24.8720     2.1250   119.8210 
   55.6250    49.5530     1.0080     0.3750     0.7910    25.1850     2.1700   118.3180 
   55.7500    47.7180     0.9670     0.3710     0.6600    25.1310     2.2280   116.9390 
   55.8750    47.2690     0.9050     0.3690     0.5670    24.8590     2.2860   115.8280 
   56.0000    49.8120     0.8480     0.3700     0.5310    24.7020     2.3370   115.1020 
   56.1250    52.8520     0.8190     0.3720     0.5510    24.5920     2.3780   114.8300 
   56.2500    54.6290     0.8190     0.3720     0.5980    24.3060     2.4090   114.8540 
   56.3750    55.3110     0.8400     0.3690     0.6700    24.0190     2.4300   115.1430 
   56.5000    54.2980     0.8700     0.3610     0.7770    24.0450     2.4440   115.7380 
   56.6250    50.7980     0.8840     0.3520     0.9530    24.3200     2.4520   116.7440 
   56.7500    47.1910     0.8720     0.3460     1.1830    24.4370     2.4640   118.0290 
   56.8750    46.9670     0.8360     0.3450     1.4500    24.2270     2.4860   119.4250 
   57.0000    49.0240     0.7920     0.3460     1.7460    24.0510     2.5170   120.7070 
   57.1250    48.1810     0.7610     0.3410     2.0110    24.1130     2.5510   121.4700 
   57.2500    44.8510     0.7300     0.3210     2.1430    24.1330     2.5750   121.3590 
   57.3750    42.2600     0.6730     0.2820     2.1280    24.0400     2.5850   119.8610 
   57.5000    41.5760     0.5700     0.2290     1.9760    23.8850     2.5850   116.3930 
   57.6250    40.9390     0.4270     0.1740     1.7090    23.8580     2.5940   110.0240 
   57.7500    40.9730     0.2930     0.1280     1.3660    24.0430     2.6210   101.0180 
   57.8750    44.8890     0.1950     0.0930     1.1030    24.2720     2.6550    89.6210 
   58.0000    51.5280     0.1450     0.0750     0.9640    24.4570     2.6690    76.3820 
   58.1250    57.3030     0.1750     0.1060     0.9690    24.6510     2.6190    62.0490 
   58.2500    62.2350     0.3440     0.2550     1.2730    24.8540     2.5180    47.7950 
   58.3750    66.8460     0.7410     0.6190     1.9850    24.9380     2.3890    34.4740 
   58.5000    68.2010     1.4320     1.2850     3.0190    24.8650     2.2660    22.8000 
   58.6250    64.8640     2.4180     2.3060     4.2150    24.7770     2.1780    13.6710 
   58.7500    62.9760     3.4440     3.4760     4.9950    24.7940     2.1330     6.9100 
   58.8750    66.6160     4.2130     4.5430     5.3590    24.9120     2.1280     2.3640 
   59.0000    74.5870     4.5190     5.2730     5.6810    24.9890     2.1490    -0.3540 
   59.1250    82.5410     4.4210     5.5500     5.9920    24.5320     2.1810    -1.6280 
