~V
VERS. 2.00: Ver 2.00
~W
STRT.M 49.0000:
STOP.M 217.0000:
STEP.M 0.1250:
NULL. -999.2500:
UWI. F10685:
~C
DEPT.M :
SP.MV :
DEN.GM/CC :
GR.API :
RML.OHMM :
RI. :
RXO.OHMM :
CALI.CM :
~A
# ...
   71.5000   -11.3220     2.4850    63.0300    33.9610    28.3000    42.3060    22.8180 
   71.6250   -11.8960     2.3710    59.7340    33.0360    27.5300    32.6490    22.6780 
   71.7500   -12.5150     2.2690    57.9700    29.6860    24.7380    23.1820    23.0450 
   71.8750   -13.1160     2.1980    57.6320    26.0290    21.6910    19.0320    23.8520 
   72.0000   -13.6600     2.1620    58.1710    23.0110    19.1760    18.5760    24.5430 
   72.1250   -14.1340     2.1570    60.4270    20.8410    17.3680    18.7620    24.6710 
   72.2500   -14.5290     2.1630    63.7160    19.2750    16.0630    17.9050    24.6840 
   72.3750   -14.8650     2.1690    65.6690    18.3010    15.2510    16.0470    24.6830 
   72.5000   -15.1310     2.1660    64.5190    17.9900    14.9920    13.9500    24.6580 
   72.6250   -15.3010     2.1550    61.6750    18.5130    15.4270    13.5570    24.6290 
   72.7500   -15.4020     2.1450    59.2750    19.6030    16.3360    16.0020    24.7100 
   72.8750   -15.4710     2.1430    58.1320    20.8500    17.3750    19.6850    24.7350 
   73.0000   -15.5700     2.1520    58.8000    21.6740    18.0620    21.6760    24.7020 
   73.1250   -15.7240     2.1720    60.2910    21.4480    17.8730    20.1910    24.4550 
   73.2500   -15.8840     2.1890    61.1730    20.3850    16.9880    17.0850    24.1230 
   73.3750   -16.0310     2.1980    60.3390    18.9450    15.7870    14.0650    24.0530 
   73.5000   -16.1440     2.1960    58.9710    17.5890    14.6580    12.7830    24.2540 
   73.6250   -16.2200     2.1860    57.7410    16.6210    13.8510    12.4210    24.0760 
   73.7500   -16.2660     2.1740    57.5470    15.9820    13.3180    12.1010    24.1200 
   73.8750   -16.2890     2.1660    60.1900    15.5730    12.9780    11.4970    24.1430 
   74.0000   -16.2050     2.1630    64.9340    15.3100    12.7580    10.9270    24.1450 
   74.1250   -16.0170     2.1720    67.3120    15.1930    12.6610    10.5380    24.1650 
   74.2500   -15.7530     2.1930    65.4030    15.1980    12.6650    10.4550    24.1620 
   74.3750   -15.4160     2.2320    61.4170    15.2560    12.7130    10.6910    24.0340 
   74.5000   -15.0150     2.2830    59.4920    15.1980    12.6650    11.3060    23.9050 
   74.6250   -14.5770     2.3310    61.2280    14.7160    12.2640    11.7900    23.8580 
   74.7500   -14.0750     2.3550    64.3200    13.7570    11.4640    11.7290    23.8230 
   74.8750   -13.5540     2.3490    66.2820    12.4400    10.3670    11.0140    23.7020 
   75.0000   -13.0860     2.3210    65.9530    11.0300     9.1920     8.9110    23.7510 
   75.1250   -12.6600     2.2890    66.0730     9.8560     8.2130     8.1430    23.6810 
   75.2500   -12.2960     2.2650    68.6630     9.0340     7.5290     7.8630    23.6300 
   75.3750   -12.0130     2.2530    72.2060     8.5870     7.1560     7.5450    23.6070 
   75.5000   -11.8590     2.2510    75.8310     8.4560     7.0460     7.3290    23.5390 
   75.6250   -11.8030     2.2570    77.7910     8.5380     7.1150     7.3300    23.4970 
   75.7500   -11.8190     2.2640    76.9180     8.6840     7.2370     7.5160    23.5400 
   75.8750   -11.8820     2.2720    73.6780     8.8050     7.3370     7.4680    23.5670 
   76.0000   -11.9690     2.2760    70.0520     8.8400     7.3670     7.4010    23.4010 
   76.1250   -12.0410     2.2760    68.8990     8.7890     7.3240     7.1130    23.3720 
   76.2500   -12.1060     2.2710    72.3950     8.7350     7.2790     6.9190    23.2830 
   76.3750   -12.1810     2.2620    80.4430     8.7410     7.2840     6.9600    23.1550 
   76.5000   -12.1950     2.2530    86.1050     8.8200     7.3500     6.9020    23.1020 
   76.6250   -12.2070     2.2470    81.6920     8.9510     7.4590     6.8110    23.0660 
   76.7500   -12.2380     2.2490    73.7230     9.0680     7.5560     7.1760    22.9780 
   76.8750   -12.2820     2.2620    67.6070     9.0860     7.5720     7.7460    22.8600 
   77.0000   -12.2920     2.2830    64.2500     8.9210     7.4340     7.6600    22.8880 
   77.1250   -12.3090     2.3030    65.4920     8.4970     7.0810     7.3570    23.3550 
   77.2500   -12.3660     2.3100    71.5680     7.9400     6.6160     6.7640    23.7170 
   77.3750   -12.4770     2.2960    78.0780     7.4460     6.2050     6.2500    23.7020 
   77.5000   -12.6770     2.2640    81.4750     7.2440     6.0370     5.8350    23.6100 
   77.6250   -12.9710     2.2280    80.5520     7.6330     6.3610     6.1600    23.4930 
   77.7500   -13.3670     2.2120    76.2750     8.6980     7.2480     7.3090    23.3460 
   77.8750   -13.8170     2.2280    70.7830    10.5480     8.7900     9.7610    23.2520 
   78.0000   -14.3310     2.2760    65.0630    13.1610    10.9670    12.5360    23.2900 
   78.1250   -14.8830     2.3310    60.0520    16.1490    13.4580    14.1480    23.0110 
   78.2500   -15.4020     2.3620    58.1830    18.5980    15.4980    14.9040    22.1480 
   78.3750   -15.8890     2.3520    63.4590    19.8970    16.5810    15.0770    20.6520 
   78.5000   -16.3390     2.3040    72.2490    20.0490    16.7080    14.0160    18.8070 
   78.6250   -16.6960     2.2440    74.3590    19.5580    16.2990    12.2850    18.1250 
   78.7500   -16.9460     2.1960    70.9310    19.1170    15.9300    10.7740    17.8480 
   78.8750   -17.0960     2.1680    67.0670    19.0000    15.8330    10.2410    17.7730 
   79.0000   -17.1940     2.1520    64.8780    19.3020    16.0850    10.7260    17.8700 
   79.1250   -17.2030     2.1360    64.6500    20.0330    16.6940    11.6350    17.8480 
   79.2500   -17.1690     2.1160    65.2930    20.9580    17.4650    12.2050    17.6660 
   79.3750   -17.0490     2.1000    65.6800    21.9730    18.3110    12.4570    17.4020 
   79.5000   -16.8520     2.1050    64.1320    23.2610    19.3840    12.7700    17.4430 
   79.6250   -16.5300     2.1520    61.2350    25.5990    21.3320    13.6960    17.3200 
   79.7500   -16.1280     2.2380    59.1590    29.4960    24.5800    15.8730    17.6920 
   79.8750   -15.6540     2.3460    59.1830    34.8220    29.0180    20.8810    18.8010 
   80.0000   -15.0940     2.4480    61.4780    39.8490    33.2080    31.3550    20.4250 
   80.1250   -14.5420     2.4990    65.3240    39.7860    33.1550    41.8510    21.1650 
   80.2500   -14.0200     2.4910    70.6540    33.5770    27.9810    38.4620    21.3860 
   80.3750   -13.5300     2.4380    76.5940    24.6310    20.5260    22.9130    21.6030 
   80.5000   -13.0980     2.3680    80.5440    16.9370    14.1140    11.2240    21.7220 
   80.6250   -12.8110     2.3060    80.6590    12.3830    10.3190     7.5270    21.7330 
   80.7500   -12.6800     2.2630    78.4760    10.0530     8.3780     7.0350    21.7070 
   80.8750   -12.7040     2.2410    76.0890     9.2960     7.7470     7.4590    21.5530 
   81.0000   -12.8300     2.2400    74.5110     9.6220     8.0180     8.0760    21.5560 
   81.1250   -12.9620     2.2570    73.4410    10.5870     8.8230     8.3590    21.5200 
   81.2500   -13.0580     2.2800    72.0120    11.4340     9.5290     8.3820    21.7420 
   81.3750   -13.1230     2.2990    70.3690    11.6660     9.7220     8.0890    21.9250 
   81.5000   -13.1840     2.3080    69.5830    11.1670     9.3060     7.8950    21.9850 
   81.6250   -13.1960     2.3070    69.8000    10.1370     8.4480     7.6270    21.9310 
   81.7500   -13.1010     2.3060    71.6000     9.0090     7.5080     7.2190    21.7310 
   81.8750   -12.9470     2.3080    75.1680     8.0300     6.6920     6.7320    21.4870 
   82.0000   -12.8360     2.3090    78.0960     7.3660     6.1380     6.2660    21.3970 
   82.1250   -12.8420     2.2940    79.6590     7.2230     6.0190     6.0930    21.6410 
   82.2500   -12.9910     2.2620    79.2230     7.6680     6.3900     6.6110    22.1010 
   82.3750   -13.2640     2.2150    76.2260     8.8640     7.3870     7.8880    22.8540 
   82.5000   -13.5560     2.1630    70.7410    11.0020     9.1690     9.8910    23.6970 
   82.6250   -13.8790     2.1210    64.6580    14.3380    11.9480    13.0590    23.8220 
