~V
VERS. 2.00: Ver 2.00
~W
STRT.M 57.0000:
STOP.M 204.0000:
STEP.M 0.1250:
NULL. -999.2500:
UWI. F10604:
~C
DEPT.M :
SP.MV :
GR.API :
RML.OHMM :
RI. :
RXO.OHMM :
CALI.CM :
DEN.GM/CC :
~A
# ...
  113.2500     9.0450    56.0180    38.0050    32.2680    31.1680    25.1370     2.3530 
  113.3750     8.2300    54.1090    41.5170    35.1320    38.5470    24.7240     2.4260 
  113.5000     7.4210    55.3580    44.5370    37.9100    48.4890    24.5160     2.4630 
  113.6250     6.7460    55.9780    45.6990    39.3880    54.1360    24.5340     2.4470 
  113.7500     6.3260    56.3290    44.7250    39.0890    51.7480    24.6000     2.4010 
  113.8750     6.1100    58.9500    41.8890    37.1150    44.9910    24.7110     2.3470 
  114.0000     5.9950    62.4840    37.9850    34.1160    39.9020    24.8380     2.3020 
  114.1250     6.0230    64.3450    34.1030    31.0320    37.6280    24.8660     2.2740 
  114.2500     6.1890    65.7080    31.1370    28.6330    34.0220    24.8520     2.2590 
  114.3750     6.3730    67.6210    29.5880    27.3200    29.2210    24.8580     2.2530 
  114.5000     6.4710    69.7760    29.6670    27.3150    26.3210    24.8720     2.2580 
  114.6250     6.4100    69.8130    31.2770    28.7920    27.5930    24.8520     2.2720 
  114.7500     6.1170    68.5700    33.1200    30.8680    30.5910    24.8480     2.2900 
  114.8750     5.6500    65.9510    33.7500    32.1270    33.4660    24.8370     2.3050 
  115.0000     5.0790    63.2020    31.9710    30.9100    35.4260    24.8270     2.3150 
  115.1250     4.3890    66.4760    27.3420    26.4070    33.9770    24.8210     2.3180 
  115.2500     3.6260    75.9230    21.6270    20.8430    27.5280    24.8230     2.3150 
  115.3750     2.8810    85.9510    16.3560    15.9720    18.2820    24.7520     2.2990 
  115.5000     2.2260    91.9360    12.5190    12.5790    11.1950    24.6350     2.2650 
  115.6250     1.6710    96.3360    10.6490    10.8920     9.2810    24.5100     2.2130 
  115.7500     1.1820   101.0970    10.2610    10.4310     9.7220    24.4040     2.1640 
  115.8750     0.7810   101.4770    11.1250    11.0760    10.7660    24.2940     2.1420 
  116.0000     0.4690    96.7310    13.0340    12.7860    12.1050    24.1540     2.1650 
  116.1250     0.2610    92.7180    15.7090    15.5820    14.1040    23.9810     2.2430 
  116.2500     0.1390    90.5690    18.3020    18.7180    16.4440    23.8150     2.3470 
  116.3750     0.0740    86.3050    19.9180    21.0490    18.2910    23.8200     2.4460 
  116.5000     0.0460    80.8910    19.8310    21.3100    19.1270    24.0680     2.5120 
  116.6250     0.0020    78.9570    17.7290    18.9200    18.5270    24.3860     2.5200 
  116.7500    -0.0900    79.4450    14.7570    15.5540    16.2940    24.4810     2.4790 
  116.8750    -0.2270    81.7320    11.9660    12.5140    12.8110    24.4040     2.4130 
  117.0000    -0.3430    87.5410    10.1680    10.4890     9.7700    24.3120     2.3550 
  117.1250    -0.4050    91.3530    10.0260     9.8300     9.4090    24.3860     2.3510 
  117.2500    -0.4560    86.8840    11.4260    10.3510    11.7860    24.5860     2.4020 
  117.3750    -0.5150    77.2880    14.3640    12.1790    16.6200    24.7380     2.4900 
  117.5000    -0.6090    68.9000    18.6790    15.4780    23.0240    24.7880     2.5820 
  117.6250    -0.7120    63.5410    23.9240    20.3050    28.7030    24.7800     2.6450 
  117.7500    -0.7800    59.6220    29.0260    25.5890    32.4500    24.7720     2.6750 
  117.8750    -0.8350    57.7750    33.1750    30.2350    35.1300    24.7770     2.6770 
  118.0000    -0.9050    58.1750    35.9400    33.5100    37.8530    24.7800     2.6550 
  118.1250    -0.9590    59.7200    37.2490    35.1710    39.7560    24.7800     2.6130 
  118.2500    -0.9860    61.2280    37.8310    35.9240    39.6580    24.7930     2.5660 
  118.3750    -0.9830    60.7890    38.1580    36.2000    38.4990    24.8310     2.5290 
  118.5000    -0.9510    58.9370    38.5580    36.3050    38.5200    24.8550     2.5100 
  118.6250    -0.9010    57.9190    39.2370    36.4870    40.4020    24.8690     2.5060 
  118.7500    -0.8440    58.3670    40.1550    36.8590    41.9150    24.8790     2.5020 
  118.8750    -0.7530    59.3980    41.1970    37.4220    42.4620    24.8870     2.4920 
  119.0000    -0.6440    59.4390    42.2050    38.0870    42.7210    24.9240     2.4760 
  119.1250    -0.6010    58.4440    43.0000    38.7080    42.9710    24.9520     2.4600 
  119.2500    -0.5920    57.2360    43.5610    39.2120    43.1370    24.9320     2.4450 
  119.3750    -0.6050    56.6210    43.9270    39.6130    43.7400    24.8790     2.4300 
  119.5000    -0.6270    56.4310    44.1710    39.9490    44.4430    24.8710     2.4180 
  119.6250    -0.6340    57.0270    44.4290    40.2830    43.5160    24.8770     2.4180 
  119.7500    -0.6530    59.0020    44.8850    40.7550    41.3500    24.8880     2.4310 
  119.8750    -0.7150    61.3960    45.7140    41.5370    39.7630    24.8800     2.4540 
  120.0000    -0.8010    61.8180    47.0140    42.7450    40.1650    24.8430     2.4820 
  120.1250    -0.8660    59.8420    48.7860    44.4300    43.5310    24.8270     2.5110 
  120.2500    -0.9370    57.2130    50.6860    46.3300    48.6280    24.8440     2.5430 
  120.3750    -1.0120    55.5560    52.3230    48.1160    52.8380    24.8510     2.5770 
  120.5000    -1.0670    55.2300    53.2830    49.3690    53.6570    24.8280     2.6060 
  120.6250    -1.1150    56.1770    53.1030    49.5550    51.6460    24.7880     2.6200 
  120.7500    -1.1340    57.8360    51.9900    48.7670    50.5080    24.7990     2.6160 
  120.8750    -1.0960    59.1970    50.2980    47.2960    50.5260    24.8190     2.5960 
  121.0000    -1.0150    59.4740    48.5380    45.6400    49.5840    24.8180     2.5660 
  121.1250    -0.9480    58.4850    47.3250    44.4170    47.2410    24.8000     2.5380 
  121.2500    -0.9170    58.1940    46.9040    43.9060    46.0080    24.8040     2.5190 
  121.3750    -0.9190    59.1070    47.3220    44.1750    46.6550    24.8220     2.5140 
  121.5000    -0.9460    60.7630    48.4410    45.1470    47.5960    24.8310     2.5230 
  121.6250    -0.9750    62.2000    49.9740    46.6310    47.6070    24.8170     2.5410 
  121.7500    -1.0620    62.9820    51.3910    48.1260    48.0570    24.8150     2.5590 
  121.8750    -1.2310    63.4420    52.3100    49.2090    50.2980    24.8160     2.5700 
  122.0000    -1.4620    62.7530    52.5050    49.6100    53.5850    24.8310     2.5740 
  122.1250    -1.6620    59.8730    51.8500    49.2010    54.2040    24.8250     2.5770 
  122.2500    -1.8070    56.3490    50.6240    48.2400    50.6960    24.7960     2.5790 
  122.3750    -1.9080    54.3390    49.0240    46.8710    45.7400    24.7520     2.5780 
  122.5000    -1.9890    55.8210    47.2880    45.2840    43.1520    24.7260     2.5690 
  122.6250    -2.0600    60.6240    45.7760    43.8180    43.1550    24.7260     2.5510 
  122.7500    -2.0790    65.6410    44.7700    42.8010    42.2310    24.7450     2.5350 
  122.8750    -2.0500    67.9400    44.4100    42.4160    40.3460    24.7760     2.5280 
  123.0000    -1.9600    65.4430    44.6410    42.6480    40.3420    24.7850     2.5330 
  123.1250    -1.8520    61.5820    45.2000    43.2960    43.6510    24.7370     2.5390 
  123.2500    -1.7860    61.2440    45.6040    43.8920    46.3550    24.6960     2.5370 
  123.3750    -1.7600    61.9110    45.5340    44.0840    45.7370    24.6880     2.5260 
  123.5000    -1.7570    59.6240    44.8780    43.6870    42.6600    24.7200     2.5130 
  123.6250    -1.7730    56.2390    43.7890    42.7710    40.5610    24.7530     2.5100 
  123.7500    -1.7890    57.1250    42.7320    41.8350    40.3940    24.7520     2.5200 
  123.8750    -1.7960    60.1470    41.9690    41.2070    40.6810    24.7310     2.5390 
  124.0000    -1.8210    61.3760    41.4930    40.9230    40.6530    24.7250     2.5600 
  124.1250    -1.8600    60.7620    40.9840    40.6370    41.4150    24.7610     2.5730 
  124.2500    -1.8670    60.3960    40.1050    39.9090    42.7860    24.8000     2.5690 
  124.3750    -1.8440    60.1410    38.8060    38.6290    42.7290    24.8030     2.5480 
