~V
VERS. 2.00: Ver 2.00
~W
STRT.M 55.0000:
STOP.M 253.0000:
STEP.M 0.1250:
NULL. -999.2500:
UWI. F10665:
~C
DEPT.M :
SP.MV :
DEN.GM/CC :
GR.API :
RML.OHMM :
RI. :
RXO.OHMM :
CALI.CM :
~A
# ...
  133.7500    -4.4370     2.2260    75.2840    11.5550    11.5180    11.1870    24.0290 
  133.8750    -4.4780     2.2150    71.6540    13.2150    12.8660    14.4190    23.9690 
  134.0000    -4.5130     2.1930    69.9890    14.9800    14.5020    17.9500    23.9490 
  134.1250    -4.5300     2.1720    71.1410    15.6910    15.3400    20.2790    23.9590 
  134.2500    -4.5370     2.1720    73.0230    14.7260    14.5870    20.3340    23.9790 
  134.3750    -4.5080     2.2040    75.7150    12.4220    12.4620    14.9140    23.9730 
  134.5000    -4.4340     2.2660    79.0510     9.8700     9.9760     9.7480    23.9540 
  134.6250    -4.2780     2.3280    84.3210     8.1400     8.1150     7.6410    23.9450 
  134.7500    -4.0550     2.3560    89.3080     7.4030     7.0700     7.0070    23.9490 
  134.8750    -3.7410     2.3420    90.3330     7.6940     6.8620     7.1570    23.9890 
  135.0000    -3.3230     2.2990    85.3580     9.1170     7.5460     9.0480    24.0600 
  135.1250    -2.8160     2.2420    76.4910    12.1010     9.4870    12.4360    24.1170 
  135.2500    -2.2640     2.1890    68.8380    16.5700    12.7660    17.9580    24.1090 
  135.3750    -1.7210     2.1440    63.0740    22.3180    17.4550    27.7520    24.2400 
  135.5000    -1.2170     2.1090    59.3640    28.5790    23.1240    36.5130    24.4820 
  135.6250    -0.7990     2.0850    55.4900    33.7780    28.4390    40.7670    24.7540 
  135.7500    -0.4690     2.0720    50.2020    37.0790    32.2210    39.0310    24.9520 
  135.8750    -0.2360     2.0690    46.3030    38.6680    34.2920    37.6100    25.0610 
  136.0000    -0.1490     2.0730    46.6290    39.3170    35.1420    37.2150    25.0960 
  136.1250    -0.1790     2.0810    49.4360    39.7780    35.3450    40.2050    25.1510 
  136.2500    -0.3260     2.0890    49.6990    40.2880    35.3280    41.5760    25.1710 
  136.3750    -0.5370     2.0940    48.1720    40.4850    34.9650    42.2940    25.1040 
  136.5000    -0.8260     2.0950    47.5820    39.8210    33.9330    42.3260    25.0200 
  136.6250    -1.1190     2.0940    49.3030    37.9030    31.9940    41.4630    24.9550 
  136.7500    -1.4400     2.0970    51.7440    35.4230    29.6760    37.4300    24.8660 
  136.8750    -1.7470     2.1060    53.8180    33.2150    27.5890    31.5160    24.7510 
  137.0000    -2.0110     2.1190    54.5040    32.0190    26.2680    27.4600    24.6470 
  137.1250    -2.2380     2.1260    54.1080    32.4670    26.2290    28.0300    24.6740 
  137.2500    -2.4230     2.1220    53.3980    34.1970    27.3370    32.7760    24.7690 
  137.3750    -2.5710     2.1110    51.5850    36.6940    29.3870    39.0260    24.8660 
  137.5000    -2.6700     2.0990    48.7080    39.1620    31.9000    43.7760    24.8860 
  137.6250    -2.7700     2.0920    47.2250    40.4870    33.9840    45.5610    24.8520 
  137.7500    -2.8680     2.0930    48.0920    40.4420    35.0370    45.9120    24.8150 
  137.8750    -2.9750     2.1020    49.2440    39.4560    35.0810    45.3060    24.8110 
  138.0000    -3.1090     2.1200    50.0100    38.2750    34.6180    43.6880    24.8260 
  138.1250    -3.2330     2.1370    51.8940    37.2190    34.0510    41.3750    24.7540 
  138.2500    -3.3650     2.1370    54.1960    35.6330    33.0730    38.4590    24.6410 
  138.3750    -3.5120     2.1150    56.2290    32.5150    30.8080    37.4590    24.5600 
  138.5000    -3.6890     2.0850    58.3550    27.3380    26.6070    38.8460    24.5340 
  138.6250    -3.8610     2.0760    63.3080    20.8250    20.9200    35.6870    24.4730 
  138.7500    -3.9970     2.1060    72.9450    14.9330    15.5320    25.3720    24.3250 
  138.8750    -4.1280     2.1720    83.8770    10.6500    11.3790    13.7850    24.0800 
  139.0000    -4.2320     2.2480    89.4740     8.0480     8.6230     8.0630    23.7890 
  139.1250    -4.3620     2.2970    88.6450     6.8480     7.1430     6.5520    23.4850 
  139.2500    -4.4550     2.3210    88.6610     6.3570     6.3970     6.3270    23.3430 
  139.3750    -4.5250     2.3380    91.4750     6.2580     6.1270     6.2260    23.4040 
  139.5000    -4.5310     2.3580    92.4610     6.3170     6.1110     6.2000    23.6400 
  139.6250    -4.5240     2.3780    89.3940     6.3450     6.1390     6.2410    23.8700 
  139.7500    -4.5040     2.3920    86.7860     6.2560     6.0670     6.2790    23.9750 
  139.8750    -4.4750     2.3980    85.1990     6.0500     5.8680     6.2760    24.0140 
  140.0000    -4.4210     2.3850    84.8330     5.7920     5.5940     6.2310    24.0480 
  140.1250    -4.3010     2.3410    86.8810     5.6750     5.4090     6.1470    24.0730 
  140.2500    -4.1350     2.2900    89.5480     5.9380     5.5110     6.2800    24.0880 
  140.3750    -3.9130     2.2660    89.9890     6.8540     6.0960     7.1620    24.1150 
  140.5000    -3.6400     2.2980    85.6050     8.7320     7.3800     9.3310    24.1780 
  140.6250    -3.2940     2.3690    76.1810    12.0690     9.7920    15.4190    24.2000 
  140.7500    -2.8920     2.4000    66.5230    16.5670    13.2820    26.8640    24.1420 
  140.8750    -2.4550     2.3540    59.8870    21.4240    17.4120    35.8140    24.1270 
  141.0000    -2.0040     2.2540    57.2930    25.2640    21.0800    34.1410    24.3070 
  141.1250    -1.5890     2.1560    57.1490    26.7010    22.8630    29.7650    24.5040 
  141.2500    -1.2080     2.1070    57.7050    26.5020    23.1000    29.0840    24.4810 
  141.3750    -0.8770     2.1100    58.2460    25.7760    22.6200    29.2450    24.3960 
  141.5000    -0.6010     2.1370    58.0230    25.4400    22.1940    28.5470    24.3670 
  141.6250    -0.4180     2.1520    58.8130    26.1100    22.3810    28.0740    24.3510 
  141.7500    -0.3110     2.1450    59.6150    27.6960    23.2380    28.9540    24.3410 
  141.8750    -0.2590     2.1280    58.9900    30.0190    24.7240    30.9890    24.4080 
  142.0000    -0.2650     2.1180    57.9470    32.6920    26.6570    33.8390    24.5040 
  142.1250    -0.3310     2.1280    57.8420    34.8340    28.5100    40.5150    24.5240 
  142.2500    -0.4510     2.1490    57.2730    35.5740    29.5260    51.4860    24.3900 
  142.3750    -0.6080     2.1690    56.2790    34.4920    29.2000    52.3330    24.2720 
  142.5000    -0.8200     2.1760    57.5670    31.9060    27.5790    40.3530    24.1860 
  142.6250    -1.0220     2.1670    60.9140    28.7730    25.2560    31.0870    24.1440 
  142.7500    -1.2290     2.1560    62.1550    26.1740    23.1300    25.3990    24.1610 
  142.8750    -1.4090     2.1480    60.6570    24.5640    21.6300    22.1520    24.2210 
  143.0000    -1.5770     2.1410    58.4350    23.9940    20.8910    21.5660    24.2160 
  143.1250    -1.7010     2.1320    58.6810    24.2800    20.8870    22.1970    24.1720 
  143.2500    -1.7880     2.1230    61.2690    24.7960    21.1970    24.0350    24.1900 
  143.3750    -1.8200     2.1180    63.6340    25.0720    21.4580    27.7430    24.1960 
  143.5000    -1.7790     2.1220    64.0810    24.8090    21.3790    35.3080    24.1840 
  143.6250    -1.6810     2.1380    64.7150    24.0120    20.8630    41.6550    24.0690 
  143.7500    -1.5100     2.1550    67.4180    23.2170    20.2640    33.7450    24.0270 
  143.8750    -1.2890     2.1630    69.4110    22.9020    19.9430    24.4770    24.0840 
  144.0000    -0.9910     2.1610    66.1120    23.4080    20.1850    21.0570    24.2280 
  144.1250    -0.6420     2.1520    60.4180    24.9780    21.2410    23.4740    24.3660 
  144.2500    -0.2560     2.1430    58.3510    27.2470    22.9180    28.0350    24.4790 
  144.3750     0.1390     2.1370    58.9270    29.7950    24.9530    32.5050    24.5960 
  144.5000     0.5040     2.1360    58.8780    32.0860    26.9350    35.2810    24.6490 
  144.6250     0.8600     2.1370    57.0770    33.5000    28.3010    34.2760    24.5960 
  144.7500     1.1480     2.1330    55.4790    34.0370    28.9220    32.6520    24.5190 
  144.8750     1.3770     2.1220    55.2240    33.9370    28.9210    32.2090    24.5410 
