~V
VERS. 2.00: Ver 2.00
~W
STRT.M 55.0000:
STOP.M 192.0000:
STEP.M 0.1250:
NULL. -999.2500:
UWI. F10682:
~C
DEPT.M :
DEN.GM/CC :
GR.API :
RML.OHMM :
RI. :
RXO.OHMM :
CALI.CM :
SP.MV :
~A
# ...
  145.0000     2.2060    43.8270    46.2470    45.2410    59.9420    24.6640   -21.5330 
  145.1250     2.1970    43.7680    45.9930    45.5490    70.9610    24.6410   -21.5180 
  145.2500     2.1710    45.5840    44.3440    44.3870    70.3190    24.5090   -21.5030 
  145.3750     2.1360    47.4380    41.8150    42.1310    56.1260    24.3400   -21.4600 
  145.5000     2.1090    47.5590    39.1480    39.4650    43.0850    24.2920   -21.3680 
  145.6250     2.1090    45.2250    37.0550    37.1080    37.7560    24.2970   -21.2710 
  145.7500     2.1380    43.7870    35.6330    35.3140    36.6230    24.3570   -21.1520 
  145.8750     2.1900    45.0670    34.6880    34.0050    36.0820    24.5330   -21.0560 
  146.0000     2.2450    47.4700    33.9000    32.9440    35.4470    24.6320   -20.9530 
  146.1250     2.2830    47.0960    33.0670    31.9480    33.8830    24.5550   -20.8880 
  146.2500     2.2970    45.2470    32.3770    31.1060    32.5190    24.4170   -20.8430 
  146.3750     2.2920    44.0800    32.2050    30.7130    31.2040    24.2660   -20.8540 
  146.5000     2.2720    42.9030    32.8720    31.0620    30.6790    24.2110   -20.8680 
  146.6250     2.2410    42.6720    34.6230    32.4550    31.7980    24.1770   -20.8510 
  146.7500     2.2110    44.5400    37.0400    34.6340    34.8590    24.1440   -20.8430 
  146.8750     2.1910    47.7330    39.6150    37.2340    39.8160    24.1870   -20.7990 
  147.0000     2.1900    49.1870    41.7520    39.7080    43.6120    24.2240   -20.7400 
  147.1250     2.2090    48.2840    42.8490    41.3590    45.2440    24.3770   -20.6500 
  147.2500     2.2290    46.0830    43.0160    42.0430    45.9270    24.6200   -20.5570 
  147.3750     2.2350    44.4460    42.5020    41.8590    45.6010    24.7980   -20.4360 
  147.5000     2.2230    45.3900    41.6230    41.0710    44.3770    24.9090   -20.3490 
  147.6250     2.2030    45.8450    40.6230    39.9490    43.3330    25.1460   -20.3120 
  147.7500     2.1940    42.9430    39.6140    38.7570    40.7590    25.1670   -20.3400 
  147.8750     2.2030    39.9890    38.6100    37.5830    38.3870    25.1460   -20.4270 
  148.0000     2.2300    41.6920    37.6330    36.4660    36.6920    25.1400   -20.5750 
  148.1250     2.2610    45.1470    36.7430    35.4420    36.3930    25.1380   -20.7440 
  148.2500     2.2830    45.5600    35.9670    34.5230    37.0910    25.1150   -20.8980 
  148.3750     2.2890    45.4400    35.3250    33.7380    36.4530    24.9840   -21.0660 
  148.5000     2.2790    46.6940    34.8560    33.1400    34.1530    24.7190   -21.1910 
  148.6250     2.2550    47.5080    34.7030    32.8830    32.7800    24.6380   -21.3010 
  148.7500     2.2320    45.9730    34.9840    33.0470    33.0580    24.5530   -21.3650 
  148.8750     2.2190    45.1590    35.8340    33.7210    34.2210    24.5220   -21.3740 
  149.0000     2.2220    46.5080    37.2790    34.9140    35.3700    24.5170   -21.3620 
  149.1250     2.2360    46.7180    39.1990    36.5390    37.7890    24.5270   -21.3360 
  149.2500     2.2510    44.2110    41.1300    38.2140    41.0710    24.5840   -21.3230 
  149.3750     2.2590    41.5550    42.6400    39.5920    43.2210    24.6980   -21.2950 
  149.5000     2.2590    42.2460    43.3740    40.3810    44.7900    24.7400   -21.2950 
  149.6250     2.2600    44.2400    42.9910    40.2730    43.9370    24.7500   -21.2690 
  149.7500     2.2700    44.3260    41.7170    39.3650    41.2770    24.7680   -21.2430 
  149.8750     2.2910    44.3200    39.7900    37.7790    39.7570    24.8140   -21.2310 
  150.0000     2.3140    45.2640    37.5440    35.7530    40.0940    24.8610   -21.2280 
  150.1250     2.3250    46.5050    35.4120    33.6470    38.6210    25.0030   -21.2400 
  150.2500     2.3180    46.3870    33.7870    31.8630    34.5480    25.0300   -21.2490 
  150.3750     2.2980    46.3820    33.0270    30.7380    31.0320    24.9430   -21.2680 
  150.5000     2.2740    47.4070    33.4460    30.5690    30.3390    24.8300   -21.2770 
  150.6250     2.2610    47.7060    35.4110    31.7560    32.1240    24.9150   -21.2940 
  150.7500     2.2620    46.8080    38.5470    34.0980    34.8210    24.9690   -21.2920 
  150.8750     2.2710    45.7610    42.3840    37.2980    39.2090    24.9720   -21.3040 
  151.0000     2.2820    45.7820    46.1620    40.7390    44.9020    24.9620   -21.2580 
  151.1250     2.2880    46.2180    48.8380    43.4570    48.8510    24.8710   -21.1940 
  151.2500     2.2910    43.9990    50.1700    45.0150    47.6520    24.6410   -21.1300 
  151.3750     2.2980    40.9750    50.4240    45.4600    44.2090    24.4790   -21.0390 
  151.5000     2.3150    40.5710    50.2410    45.2150    42.4930    24.4270   -20.9410 
  151.6250     2.3460    42.5780    50.5670    45.0060    44.6970    24.4860   -20.8340 
  151.7500     2.3850    43.1030    52.0580    45.5590    49.7620    24.5980   -20.7490 
  151.8750     2.4230    42.2770    55.0570    47.3350    56.9940    24.8760   -20.6270 
  152.0000     2.4540    41.7720    59.5930    50.5480    59.6620    24.9710   -20.5320 
  152.1250     2.4680    41.4240    65.2540    55.1730    59.6190    24.8880   -20.4500 
  152.2500     2.4640    40.9030    70.3880    60.0040    73.7050    24.9840   -20.3640 
  152.3750     2.4440    42.0870    73.0860    63.5130   103.8200    25.1850   -20.3160 
  152.5000     2.4190    43.7020    72.0280    64.3390   119.9890    24.8570   -20.2760 
  152.6250     2.4130    43.0640    67.5760    62.0720    95.2180    24.9750   -20.2820 
  152.7500     2.4370    43.1610    63.0200    58.9870    67.9030    25.3060   -20.2880 
  152.8750     2.4890    45.3760    60.5770    57.0970    53.0010    25.4280   -20.3580 
  153.0000     2.5550    47.8900    60.8330    57.4820    47.5690    25.2740   -20.4890 
  153.1250     2.6130    47.0990    62.0700    59.4560    51.6670    24.8210   -20.6680 
  153.2500     2.6440    44.3690    60.3430    59.5080    61.9110    24.7340   -20.8800 
  153.3750     2.6410    43.5770    52.7630    54.1230    76.3150    24.6310   -21.0920 
  153.5000     2.6050    46.3950    40.0020    42.8040    90.1510    24.4660   -21.3440 
  153.6250     2.5470    52.1610    28.4970    29.8690    73.7810    24.4430   -21.5830 
  153.7500     2.4870    58.1660    18.8630    19.8400    39.1460    24.4180   -21.8020 
  153.8750     2.4350    61.8770    12.9960    13.4140    17.2550    24.3290   -21.9880 
  154.0000     2.3970    62.2530     9.8770     9.7870     8.3880    24.2330   -22.1010 
  154.1250     2.3750    60.4110     8.5870     8.1690     6.9750    24.2770   -22.1680 
  154.2500     2.3680    59.8380     8.1250     7.5500     6.5400    24.3990   -22.2260 
  154.3750     2.3700    59.9210     8.1080     7.5310     6.6410    24.4340   -22.2660 
  154.5000     2.3730    57.7530     8.2790     7.8050     6.8000    24.4500   -22.2960 
  154.6250     2.3690    55.4510     8.4600     8.1300     6.6630    24.5320   -22.3190 
  154.7500     2.3550    56.4260     8.5860     8.3760     6.6410    24.7580   -22.3450 
  154.8750     2.3390    59.3010     8.6770     8.5370     6.6840    24.7310   -22.3530 
  155.0000     2.3320    61.2030     8.7710     8.6330     6.6720    24.3840   -22.3630 
  155.1250     2.3440    62.5130     8.8620     8.6470     6.5640    24.4080   -22.3620 
  155.2500     2.3660    65.4490     8.9040     8.5640     6.5540    24.6260   -22.3420 
  155.3750     2.3870    68.9830     8.8950     8.3820     6.6610    24.7440   -22.3590 
  155.5000     2.3980    72.0210     8.9220     8.1800     6.9530    24.8280   -22.3450 
  155.6250     2.3960    76.0680     9.2490     8.1700     7.3090    25.0400   -22.3630 
  155.7500     2.3890    79.2090    10.1240     8.5580     7.5880    25.1240   -22.4210 
  155.8750     2.3800    76.6890    11.8190     9.5640     8.1940    25.1370   -22.5110 
  156.0000     2.3700    67.5710    14.5560    11.4130    10.2800    25.1310   -22.6680 
  156.1250     2.3580    57.6680    18.6040    14.4950    15.8430    25.0910   -22.8700 
