~V
VERS. 2.00: Ver 2.00
~W
STRT.M 50.0000:
STOP.M 217.0000:
STEP.M 0.1250:
NULL. -999.2500:
UWI. F10606:
~C
DEPT.M :
DEN.GM/CC :
GR.API :
RML.OHMM :
RI. :
RXO.OHMM :
CALI.CM :
SP.MV :
~A
# ...
  162.5000     2.2360    59.8160    21.5140    20.8760    23.5020    24.4160   -16.4860 
  162.6250     2.2330    58.9860    21.7230    20.8300    23.5340    24.3900   -16.4860 
  162.7500     2.2250    59.7630    22.7840    21.6240    24.5830    24.3820   -16.4980 
  162.8750     2.2160    60.8830    24.4680    23.1100    27.7270    24.4080   -16.5830 
  163.0000     2.2080    59.4630    26.4120    25.0030    31.0100    24.4400   -16.7300 
  163.1250     2.2030    56.5100    28.0500    26.8040    33.1620    24.4260   -16.8640 
  163.2500     2.2020    55.9610    28.9280    27.9850    34.6640    24.3950   -17.0440 
  163.3750     2.2030    57.1900    28.8080    28.2090    34.9230    24.3910   -17.2700 
  163.5000     2.2070    56.9190    27.7800    27.4620    34.0580    24.4180   -17.4560 
  163.6250     2.2140    56.0200    26.2370    26.0480    33.3090    24.4140   -17.6250 
  163.7500     2.2220    57.3000    24.8440    24.6270    30.4790    24.3150   -17.7890 
  163.8750     2.2280    59.8390    24.0290    23.6240    26.9560    24.1220   -17.9150 
  164.0000     2.2310    59.7300    24.0590    23.3210    27.3070    23.9660   -18.0110 
  164.1250     2.2320    58.1770    25.1200    23.9740    30.7870    23.9220   -18.0660 
  164.2500     2.2340    58.0080    26.8390    25.3540    32.8450    23.9180   -18.0850 
  164.3750     2.2350    57.8010    28.8230    27.1800    34.1870    23.8980   -18.0710 
  164.5000     2.2330    56.7130    30.5820    29.0160    35.6210    23.8110   -18.0180 
  164.6250     2.2240    57.1180    31.5700    30.2700    36.4090    23.6730   -17.9230 
  164.7500     2.2100    58.3020    31.8020    30.7890    36.3250    23.6140   -17.8530 
  164.8750     2.1990    56.9060    31.4810    30.6740    36.4010    23.6710   -17.7640 
  165.0000     2.1970    54.4980    30.8720    30.1460    34.8010    23.8150   -17.6760 
  165.1250     2.2080    55.2130    30.1840    29.4030    33.8460    23.9730   -17.6820 
  165.2500     2.2260    56.9300    29.5300    28.6200    33.7070    24.0860   -17.7060 
  165.3750     2.2470    57.1910    28.9510    27.8720    32.9470    24.1570   -17.7350 
  165.5000     2.2680    57.1780    28.5130    27.2410    31.5250    24.2390   -17.8530 
  165.6250     2.2820    58.6190    28.3940    26.8880    29.5140    24.2580   -18.0470 
  165.7500     2.2840    59.9760    28.6740    26.8890    29.4430    24.2130   -18.2250 
  165.8750     2.2720    59.7990    29.3790    27.2850    29.2540    24.1450   -18.4400 
  166.0000     2.2500    58.8530    30.4240    28.0330    29.4200    24.0640   -18.6520 
  166.1250     2.2340    57.7510    31.5840    28.9940    29.8780    23.9920   -18.7700 
  166.2500     2.2330    56.1890    32.5220    29.8730    31.0630    23.9480   -18.8750 
  166.3750     2.2460    56.0810    33.0150    30.4410    32.1300    23.9620   -18.9670 
  166.5000     2.2610    58.9630    32.9930    30.5790    32.9780    24.0070   -18.9940 
  166.6250     2.2610    60.9190    32.5740    30.3020    34.0110    24.0850   -18.9610 
  166.7500     2.2480    58.2710    32.1870    29.9430    35.4660    24.1920   -18.8690 
  166.8750     2.2370    54.7180    32.2160    29.8200    36.1130    24.2690   -18.7320 
  167.0000     2.2390    55.0310    32.9780    30.2290    36.0680    24.3120   -18.5550 
  167.1250     2.2610    57.8740    34.7110    31.4560    37.4300    24.3470   -18.3880 
  167.2500     2.2850    57.9070    36.9650    33.2290    40.5560    24.3560   -18.2190 
  167.3750     2.2980    56.0980    39.0750    35.0530    45.3210    24.3250   -18.0270 
  167.5000     2.2950    55.3100    40.2120    36.2080    49.7970    24.2970   -17.8160 
  167.6250     2.2780    56.0150    39.5830    35.9030    50.2810    24.3160   -17.6390 
  167.7500     2.2580    56.8300    37.8150    34.5120    46.6100    24.3610   -17.5260 
  167.8750     2.2380    57.3450    35.9030    32.7920    39.2290    24.3950   -17.4540 
  168.0000     2.2190    56.9550    34.8660    31.5910    36.0450    24.3960   -17.4800 
  168.1250     2.2030    56.1220    35.5890    31.7010    37.2000    24.3790   -17.5720 
  168.2500     2.1910    56.7990    37.8280    33.0860    44.4320    24.3750   -17.6880 
  168.3750     2.1860    58.2130    41.1480    35.5280    52.8460    24.3790   -17.9050 
  168.5000     2.1850    58.8230    44.8460    38.5510    57.8820    24.3780   -18.2010 
  168.6250     2.1850    58.2720    47.9940    41.4310    59.6280    24.3650   -18.5240 
  168.7500     2.1820    59.4040    50.1680    43.6440    58.6230    24.3930   -18.9060 
  168.8750     2.1770    60.6860    51.3900    45.0850    58.5100    24.4440   -19.2820 
  169.0000     2.1760    58.7280    51.9170    45.9070    62.2890    24.4430   -19.6170 
  169.1250     2.1850    54.6580    51.8840    46.2520    66.7160    24.4170   -19.9540 
  169.2500     2.2000    52.7810    51.4160    46.2670    65.8600    24.4180   -20.2390 
  169.3750     2.2120    53.8020    50.5750    45.9640    63.4160    24.4240   -20.4740 
  169.5000     2.2250    56.2480    49.6600    45.4790    60.3920    24.4210   -20.6910 
  169.6250     2.2560    57.6070    49.4480    45.2780    58.4390    24.3760   -20.8390 
  169.7500     2.3170    56.1610    50.5450    45.8830    55.9870    24.2640   -20.9140 
  169.8750     2.4100    52.6870    53.1270    47.6050    52.5120    24.0550   -20.9330 
  170.0000     2.5150    50.4140    56.4370    50.1570    52.7290    23.8220   -20.9170 
  170.1250     2.5960    51.0630    57.4330    51.4660    62.6430    23.8370   -20.8330 
  170.2500     2.6370    50.9830    52.9210    48.5210    69.4040    23.9500   -20.7030 
  170.3750     2.6400    48.1790    42.3590    40.1270    60.4290    24.1020   -20.5090 
  170.5000     2.6130    47.5180    29.1930    28.8550    43.8470    24.1590   -20.2450 
  170.6250     2.5690    52.3090    19.0850    19.2030    27.4000    24.0730   -19.9310 
  170.7500     2.5240    56.4420    13.7370    12.6290    13.9830    23.9440   -19.6380 
  170.8750     2.4890    55.1560     9.5480     8.7020     8.0270    23.8200   -19.4230 
  171.0000     2.4670    50.6020     7.5800     6.6030     6.7950    23.6950   -19.2380 
  171.1250     2.4530    50.2100     7.0560     5.8140     7.1400    23.6430   -19.1240 
  171.2500     2.4360    53.9920     7.2680     5.7700     6.5740    23.6290   -19.1340 
  171.3750     2.4160    58.8200     7.9880     6.2880     7.1230    23.6540   -19.2050 
  171.5000     2.3970    62.7460     9.0020     7.2030     8.9620    23.7860   -19.3300 
  171.6250     2.3890    65.4300    10.0250     8.3110    10.7680    24.0850   -19.5480 
  171.7500     2.3960    68.2660    10.7960     9.3230    12.0700    24.2760   -19.7300 
  171.8750     2.4120    69.6790    11.1930    10.0420    13.2070    24.3470   -19.8750 
  172.0000     2.4250    69.5640    11.2290    10.3760    13.2300    24.3390   -20.0380 
  172.1250     2.4200    70.7750    11.0350    10.3440    11.6400    24.3120   -20.1690 
  172.2500     2.4040    74.1190    10.8360    10.1620    10.9860    24.3040   -20.2790 
  172.3750     2.3880    77.6020    10.7310     9.9470    10.9600    24.3390   -20.3980 
  172.5000     2.3840    79.3540    10.7420     9.7550    11.2100    24.3890   -20.5260 
  172.6250     2.3950    80.7010    10.8470     9.5990    11.2570    24.4020   -20.6470 
  172.7500     2.4070    85.4160    10.9720     9.4540    11.2910    24.3800   -20.7700 
  172.8750     2.4090    92.2940    11.0710     9.2970    11.2380    24.3760   -20.9030 
  173.0000     2.3990    96.5790    11.1250     9.1180    11.0940    24.3960   -20.9900 
  173.1250     2.3860    97.1440    11.1590     8.9400    10.9510    24.4460   -21.0450 
  173.2500     2.3790    97.7930    11.2550     8.8250    11.1310    24.4850   -21.1030 
  173.3750     2.3790    97.2040    11.5100     8.8510    11.7520    24.4890   -21.1560 
  173.5000     2.3820    92.8800    12.0420     9.1040    13.2070    24.4500   -21.2040 
  173.6250     2.3790    87.3950    13.1080     9.7560    14.0980    24.4600   -21.2940 
