~V
VERS. 2.00: Ver 2.00
~W
STRT.M 55.0000:
STOP.M 226.0000:
STEP.M 0.1250:
NULL. -999.2500:
UWI. F10689:
~C
DEPT.M :
DEN.GM/CC :
GR.API :
RML.OHMM :
RI. :
RXO.OHMM :
CALI.CM :
SP.MV :
~A
# ...
  212.5000     2.4280    38.2960     5.6590     5.1440     6.1190    23.2360   -10.5000 
  212.6250     2.4130    38.9770     5.6440     5.1310     6.4810    23.2510   -10.5520 
  212.7500     2.3910    41.0650     5.4900     4.9910     6.6380    23.2820   -10.5890 
  212.8750     2.3660    41.4860     5.2140     4.7400     6.2730    23.2540   -10.5980 
  213.0000     2.3420    40.6570     4.8730     4.4300     5.4980    23.2610   -10.5980 
  213.1250     2.3210    39.6780     4.5540     4.1400     4.8350    23.2230   -10.6290 
  213.2500     2.3040    38.0190     4.3180     3.9250     4.4420    23.2130   -10.7050 
  213.3750     2.2930    35.0740     4.1840     3.8040     4.3180    23.1970   -10.8180 
  213.5000     2.2920    32.9150     4.1460     3.7690     4.3580    23.1750   -10.9400 
  213.6250     2.3050    34.2320     4.1910     3.8100     4.5230    23.0900   -11.0850 
  213.7500     2.3290    36.6060     4.2850     3.8960     4.6700    22.9180   -11.2630 
  213.8750     2.3560    36.1450     4.4100     4.0090     4.6580    22.8220   -11.4370 
  214.0000     2.3770    32.3290     4.5440     4.1310     4.6620    22.9740   -11.5930 
  214.1250     2.3790    30.7810     4.6480     4.2250     4.8630    23.1260   -11.6920 
  214.2500     2.3650    33.6050     4.6900     4.2640     5.0030    23.0880   -11.7360 
  214.3750     2.3410    36.9470     4.6550     4.2320     4.7610    23.0500   -11.7120 
  214.5000     2.3190    37.3790     4.5560     4.1410     4.4700    23.0340   -11.6420 
  214.6250     2.3070    36.4600     4.4210     4.0190     4.4250    22.9810   -11.5140 
  214.7500     2.3060    37.4830     4.2900     3.9000     4.4870    22.8700   -11.3670 
  214.8750     2.3130    39.1990     4.1790     3.7990     4.3310    22.8510   -11.2390 
  215.0000     2.3240    39.3080     4.0990     3.7270     4.1390    22.9890   -11.1170 
  215.1250     2.3390    37.4930     4.0640     3.6950     4.0300    23.3190   -11.0500 
  215.2500     2.3540    36.6800     4.0670     3.6970     4.0590    23.5540   -11.0310 
  215.3750     2.3670    36.7410     4.0970     3.7240     4.1250    23.5800   -11.0040 
  215.5000     2.3770    36.9000     4.1370     3.7610     4.2380    23.4340   -11.0190 
  215.6250     2.3810    36.6900     4.1760     3.7960     4.3090    23.2880   -11.0800 
  215.7500     2.3790    36.4250     4.2160     3.8320     4.3410    23.1240   -11.1930 
  215.8750     2.3730    36.4250     4.2700     3.8820     4.3760    23.0050   -11.3520 
  216.0000     2.3670    36.4250     4.3480     3.9520     4.4230    22.9790   -11.5380 
  216.1250     2.3620    36.4250     4.4300     4.0270     4.5820    23.0430   -11.7290 
  216.2500     2.3590    36.4250     4.4770     4.0700     4.7850    23.2770   -11.8650 
  216.3750     2.3580    36.4250     4.4590     4.0540     4.7960    23.5000   -11.9500 
  216.5000     2.3580    36.4250     4.3760     3.9780     4.6640    23.5350   -11.9960 
  216.6250     2.3570    36.4250     4.2450     3.8590     4.5170    23.4880   -11.9260 
  216.7500     2.3530    36.4250     4.1090     3.7350     4.4480    23.4320   -11.7580 
  216.8750     2.3450    36.4250     3.9880     3.6260     4.4100    23.4050   -11.5120 
  217.0000     2.3330    36.4250     3.8960     3.5410     4.3520    23.4530   -11.2450 
  217.1250     2.3210    36.4250     3.8460     3.4970     4.3260    23.5300   -11.0100 
  217.2500     2.3150    36.4250     3.8490     3.4990     4.3240    23.6180   -10.8420 
  217.3750     2.3190    36.4250     3.9170     3.5610     4.3560    23.6560   -10.7570 
  217.5000     2.3320    36.4250     4.0610     3.6920     4.5290    23.6870   -10.7690 
  217.6250     2.3520    36.4250     4.3040     3.9120     4.9450    23.7430   -10.9600 
  217.7500     2.3660    36.4250     4.6310     4.2100     5.4780    23.7470   -11.2600 
  217.8750     2.3690    36.4250     5.0290     4.5720     6.0930    23.7420   -11.6070 
  218.0000     2.3580    36.4250     5.4560     4.9600     7.2810    23.7330   -11.9590 
  218.1250     2.3310    36.4250     5.8070     5.2790     8.7650    23.6830   -12.2660 
  218.2500     2.2970    36.4250     5.9940     5.4490     8.7650    23.6690   -12.5300 
  218.3750     2.2600    36.4250     5.9700     5.4270     7.5500    23.6610   -12.7020 
  218.5000     2.2260    36.4250     5.7490     5.2260     6.7950    23.6700   -12.7340 
  218.6250     2.2050    36.4250     5.3940     4.9040     6.6650    23.7100   -12.6260 
  218.7500     2.2030    36.4250     5.0230     4.5670     6.6910    23.8580   -12.4260 
  218.8750     2.2190    36.4250     4.6960     4.2690     6.3160    24.0170   -12.1530 
  219.0000     2.2460    36.4250     4.4390     4.0350     5.6940    24.2390   -11.8310 
  219.1250     2.2690    36.4250     4.2650     3.8780     5.0790    24.7240   -11.4790 
  219.2500     2.2850    36.4250     4.1520     3.7750     4.8010    25.0720   -11.1260 
  219.3750     2.2970    36.4250     4.0840     3.7130     4.6550    25.5020   -10.8010 
  219.5000     2.3110    36.4250     4.0520     3.6830     4.4920    25.6650   -10.5190 
  219.6250     2.3250    36.4250     4.0570     3.6880     4.3620    25.6890   -10.2980 
  219.7500     2.3240    36.4250     4.0930     3.7210     4.3800    25.6760   -10.1340 
  219.8750     2.3020    36.4250     4.1610     3.7820     4.5390    25.6510   -10.0670 
  220.0000     2.2630    36.4250     4.2600     3.8720     4.7560    25.5390   -10.0670 
  220.1250     2.2290    36.4250     4.3880     3.9890     5.0460    25.6760   -10.1360 
  220.2500     2.2170    36.4250     4.5230     4.1120     5.1810    25.8240   -10.2380 
  220.3750     2.2280    36.4250     4.6380     4.2160     4.9630    25.7730   -10.3680 
  220.5000     2.2560    36.4250     4.7150     4.2870     4.7200    25.6940   -10.5310 
  220.6250     2.2800    36.4250     4.7470     4.3160     4.7750    26.5880   -10.7080 
  220.7500     2.2900    36.4250     4.7550     4.3220     4.9280    28.0240   -10.8790 
  220.8750     2.2820    36.4250     4.7540     4.3220     4.8840    29.4830   -10.9900 
  221.0000     2.2610    36.4250     4.7570     4.3240     4.7520    30.3690   -11.0440 
  221.1250     2.2390    36.4250     4.7620     4.3290     4.6370    30.6630   -11.0960 
  221.2500     2.2290    36.4250     4.7680     4.3340     4.5860    30.8280   -11.1290 
  221.3750     2.2350    36.4250     4.7720     4.3380     4.5260    30.2970   -11.1490 
  221.5000     2.2550    36.4250     4.7730     4.3390     4.4610    29.6160   -11.1660 
  221.6250     2.2860    36.4250     4.7730     4.3390     4.4380    29.1490   -11.1630 
  221.7500     2.3160    36.4250     4.7730     4.3390     4.4710    28.8380   -11.1470 
  221.8750     2.3340    36.4250     4.7730     4.3390     4.5740    28.6260   -11.1550 
  222.0000     2.3330    36.4250     4.7730     4.3390     4.6830    28.3100   -11.1840 
  222.1250     2.3120    36.4250     4.7730     4.3390     4.7250    27.9730   -11.1840 
  222.2500     2.2880    36.4250     4.7730     4.3390     4.6750    28.0530   -11.1840 
  222.3750     2.2760    36.4250     4.7730     4.3390     4.5500    28.0560  -999.2500 
  222.5000     2.2870    36.4250     4.7730     4.3390     4.3580    27.5410  -999.2500 
  222.6250     2.3140    36.4250     4.7730     4.3390     4.2420    26.6110  -999.2500 
  222.7500     2.3400    36.4250     4.7730     4.3390     4.2630    26.8380  -999.2500 
  222.8750     2.3510    36.4250     4.7730     4.3390     4.3390    27.4590  -999.2500 
  223.0000     2.3490    36.4250     4.7730     4.3390     4.4020    27.7180  -999.2500 
  223.1250     2.3350    36.4250     4.7730     4.3390     4.4110    27.8270  -999.2500 
  223.2500     2.3180    36.4250     4.7730     4.3390     4.4170    27.4820  -999.2500 
  223.3750     2.3020    36.4250     4.7730     4.3390     4.4560    26.7980  -999.2500 
  223.5000     2.2890    36.4250     4.7730     4.3390     4.5290    26.3840  -999.2500 
  223.6250     2.2800    36.4250     4.7730     4.3390     4.5510    26.6700  -999.2500 
