~V
VERS. 2.00: Ver 2.00
~W
STRT.M 50.0000:
STOP.M 265.0000:
STEP.M 0.1250:
NULL. -999.2500:
UWI. F10671:
~C
DEPT.M :
GR.API :
RML.OHMM :
RI. :
RXO.OHMM :
CALI.CM :
DEN.GM/CC :
SP.MV :
~A
# ...
  207.5000    64.9070    30.7070    31.2170    38.1200    24.3510     2.2960    -8.0420 
  207.6250    60.6000    27.5000    28.2350    34.0840    24.3540     2.3060    -7.8820 
  207.7500    59.6790    24.3540    25.2150    29.2590    24.3640     2.3110    -7.7270 
  207.8750    61.8880    21.4750    22.3740    25.0000    24.3850     2.3130    -7.6370 
  208.0000    62.5510    18.9970    19.8610    21.3360    24.4150     2.3110    -7.5220 
  208.1250    62.8510    17.0520    17.8190    17.7200    24.4300     2.3020    -7.3540 
  208.2500    65.4210    15.5530    16.1860    14.1660    24.4340     2.2920    -7.2490 
  208.3750    69.6250    14.4570    14.9330    11.5950    24.4290     2.2900    -7.1450 
  208.5000    73.1680    13.7000    14.0080    10.6380    24.4170     2.3030    -7.0080 
  208.6250    73.6240    13.2300    13.3780    10.5860    24.3910     2.3320    -6.9680 
  208.7500    72.0510    12.9050    12.9100    11.3780    24.3520     2.3670    -6.9490 
  208.8750    70.2450    12.6360    12.5240    12.2040    24.3240     2.3940    -6.9120 
  209.0000    70.6330    12.3720    12.1660    12.7360    24.3250     2.4060    -6.9270 
  209.1250    72.2070    12.1400    11.8460    12.6860    24.3500     2.4000    -6.9690 
  209.2500    73.0500    12.0490    11.6470    12.3750    24.3610     2.3850    -6.9810 
  209.3750    73.5030    12.2620    11.7080    12.0350    24.3640     2.3710    -7.0480 
  209.5000    72.9090    12.9420    12.1830    12.2160    24.3640     2.3650    -7.1630 
  209.6250    71.9280    14.2920    13.2940    13.5170    24.3640     2.3720    -7.1910 
  209.7500    71.3540    16.1940    14.9790    15.7920    24.3640     2.3850    -7.2540 
  209.8750    69.8770    18.4900    17.1390    18.9370    24.3660     2.3940    -7.3640 
  210.0000    67.2880    20.9360    19.5600    22.6770    24.3710     2.3900    -7.4060 
  210.1250    63.9110    23.1970    21.9030    25.1620    24.3850     2.3710    -7.4530 
  210.2500    60.4360    25.0570    23.8650    26.1160    24.4120     2.3510    -7.5550 
  210.3750    57.7560    26.3980    25.2620    26.5380    24.4400     2.3410    -7.6060 
  210.5000    57.3140    27.1440    25.9850    27.3080    24.4450     2.3500    -7.5510 
  210.6250    60.2720    27.0620    25.8170    27.8880    24.4320     2.3810    -7.5640 
  210.7500    62.9540    26.1550    24.8310    27.0310    24.4240     2.4180    -7.5410 
  210.8750    63.2610    24.4390    23.0910    24.7430    24.4230     2.4480    -7.4680 
  211.0000    61.8250    22.1650    20.8530    22.3030    24.4240     2.4580    -7.4760 
  211.1250    61.6150    19.8990    18.6220    19.6270    24.4270     2.4380    -7.4680 
  211.2500    64.1470    18.2780    16.9280    17.1840    24.4310     2.4020    -7.4210 
  211.3750    68.8030    17.7050    16.1010    15.7460    24.4330     2.3610    -7.4420 
  211.5000    71.0900    18.3420    16.3060    15.7350    24.4370     2.3230    -7.5420 
  211.6250    66.2240    20.2110    17.6710    18.0860    24.4440     2.2940    -7.5860 
  211.7500    60.6850    22.6610    19.7420    21.4440    24.4580     2.2770    -7.6540 
  211.8750    58.9910    25.0860    22.0580    24.4330    24.4780     2.2760    -7.7270 
  212.0000    59.3360    26.9010    24.0660    25.6360    24.4890     2.2890    -7.7660 
  212.1250    58.4330    27.5870    25.1650    25.3570    24.4500     2.3100    -7.8640 
  212.2500    59.2710    27.3980    25.4010    24.9780    24.3850     2.3240    -7.9700 
  212.3750    63.9160    26.6810    25.0100    24.7620    24.3450     2.3250    -7.9990 
  212.5000    67.7860    25.7730    24.2960    24.5940    24.3440     2.3180    -8.0270 
  212.6250    67.5040    24.8740    23.4620    24.1550    24.3450     2.3130    -8.0620 
  212.7500    64.6560    24.0220    22.6070    23.7130    24.3110     2.3160    -8.0690 
  212.8750    61.1780    23.2160    21.7600    22.1380    24.2240     2.3230    -8.0900 
  213.0000    59.8220    22.4760    20.9620    19.8620    24.1180     2.3270    -8.0870 
  213.1250    59.8000    21.8880    20.3130    18.5710    24.0740     2.3240    -7.9720 
  213.2500    59.1500    21.5100    19.8750    18.4200    24.0790     2.3180    -7.8450 
  213.3750    58.5820    21.3980    19.6970    18.5220    24.1290     2.3140    -7.8000 
  213.5000    60.0350    21.5630    19.7870    18.6000    24.1830     2.3150    -7.7010 
  213.6250    63.4720    21.9920    20.1360    18.8840    24.2060     2.3220    -7.5800 
  213.7500    65.6210    22.5560    20.6290    19.6780    24.2150     2.3310    -7.5260 
  213.8750    65.9600    23.1650    21.1880    20.5440    24.2250     2.3360    -7.4910 
  214.0000    64.9660    23.7440    21.7470    21.1340    24.2490     2.3360    -7.4250 
  214.1250    62.5610    24.2320    22.2340    21.5440    24.2920     2.3260    -7.4180 
  214.2500    60.2560    24.6340    22.6290    22.0660    24.3440     2.3120    -7.4330 
  214.3750    60.5430    24.9700    22.9320    22.6730    24.3790     2.2990    -7.3890 
  214.5000    64.4300    25.2640    23.1610    23.2100    24.4000     2.2900    -7.3990 
  214.6250    67.5430    25.5210    23.3340    23.4990    24.4040     2.2880    -7.4530 
  214.7500    65.4880    25.7510    23.4810    23.6440    24.3970     2.2930    -7.4380 
  214.8750    60.6600    25.9630    23.6210    23.8540    24.3810     2.3010    -7.4080 
  215.0000    59.0020    26.1710    23.7720    23.9820    24.3580     2.3090    -7.4580 
  215.1250    60.6610    26.3930    23.9520    24.0620    24.3450     2.3110    -7.4750 
  215.2500    60.8330    26.6420    24.1650    24.3090    24.3350     2.3100    -7.4760 
  215.3750    59.2410    26.9440    24.4310    24.7580    24.3180     2.3060    -7.5500 
  215.5000    58.2500    27.3390    24.7780    25.1380    24.2790     2.3010    -7.6030 
  215.6250    59.5010    27.9040    25.2720    25.5330    24.2110     2.2980    -7.6370 
  215.7500    61.0220    28.6450    25.9200    26.2290    24.1300     2.2980    -7.7400 
  215.8750    61.3280    29.5350    26.7110    27.2800    24.0640     2.3010    -7.8300 
  216.0000    59.6620    30.4970    27.5900    28.5960    23.9980     2.3060    -7.8830 
  216.1250    57.3780    31.4040    28.4610    29.5480    23.9120     2.3090    -8.0320 
  216.2500    57.2110    32.1700    29.2340    30.0260    23.8260     2.3070    -8.1750 
  216.3750    58.0380    32.7810    29.8730    30.2710    23.7770     2.2980    -8.2360 
  216.5000    58.0900    33.2750    30.3890    30.3850    23.7670     2.2860    -8.3330 
  216.6250    57.7920    33.7010    30.8050    30.8240    23.7880     2.2780    -8.4390 
  216.7500    58.5310    34.0600    31.1310    31.5440    23.8210     2.2780    -8.5030 
  216.8750    60.8650    34.2540    31.3020    32.0550    23.8510     2.2850    -8.6130 
  217.0000    64.9370    34.1450    31.2110    31.8930    23.8870     2.2970    -8.7340 
  217.1250    67.6290    33.5640    30.7150    31.2750    23.8890     2.3080    -8.7900 
  217.2500    66.3070    32.6490    29.9180    30.4460    23.8840     2.3160    -8.8680 
  217.3750    63.0610    31.6220    28.9920    28.9240    23.8720     2.3230    -9.0000 
  217.5000    61.2890    30.7650    28.1770    27.4460    23.8840     2.3260    -9.0810 
  217.6250    60.7700    30.3970    27.7540    25.8890    23.8820     2.3220    -9.1490 
  217.7500    59.5480    30.5130    27.7560    25.4890    23.8790     2.3090    -9.2540 
  217.8750    58.9600    30.9930    28.1150    26.3930    23.9040     2.2880    -9.2900 
  218.0000    60.1110    31.6230    28.6640    27.2820    23.9540     2.2640    -9.2500 
  218.1250    62.1300    32.1390    29.1780    28.1380    24.0480     2.2430    -9.2330 
  218.2500    63.5070    32.4060    29.5010    28.2700    24.1100     2.2280    -9.1580 
  218.3750    62.9330    32.4140    29.5900    27.9230    24.0930     2.2150    -9.0370 
  218.5000    61.3070    32.2210    29.4780    27.3150    23.9560     2.2060    -8.9680 
  218.6250    62.1210    31.8930    29.2170    26.7480    23.7070     2.2010    -8.8590 
