~V
VERS. 2.00: Ver 2.00
~W
STRT.M 48.0000:
STOP.M 229.0000:
STEP.M 0.1250:
NULL. -999.2500:
UWI. F10623:
~C
DEPT.M :
GR.API :
RML.OHMM :
RI. :
RXO.OHMM :
CALI.CM :
DEN.GM/CC :
SP.MV :
~A
# ...
  126.7500    59.0530    47.3320    43.6940    50.0690    24.2900     2.5370     4.3090 
  126.8750    60.9450    48.7940    45.5210    55.3590    24.2340     2.5640     4.3740 
  127.0000    61.5290    49.1450    46.4270    56.5950    24.1840     2.5740     4.4400 
  127.1250    60.7570    48.1880    45.9750    50.9850    24.1480     2.5610     4.5160 
  127.2500    60.3770    46.7150    44.6530    44.3570    24.0830     2.5340     4.6010 
  127.3750    59.5100    45.4850    42.9970    40.3320    24.0390     2.5000     4.6720 
  127.5000    58.6270    44.7310    41.4980    39.7430    24.0830     2.4700     4.7280 
  127.6250    60.8260    44.0230    40.5430    40.7630    24.2140     2.4550     4.8020 
  127.7500    63.1510    43.6090    40.0920    41.0340    24.3170     2.4520     4.8940 
  127.8750    62.3840    43.3440    40.0210    41.9120    24.3260     2.4540     4.9800 
  128.0000    58.3030    43.2130    40.1330    43.9000    24.3200     2.4540     5.0650 
  128.1250    54.0130    42.9090    40.1710    44.4110    24.3180     2.4490     5.1460 
  128.2500    52.6240    42.2450    39.9290    44.6850    24.3220     2.4460     5.2100 
  128.3750    54.8670    41.1740    39.3160    43.9150    24.2970     2.4510     5.2810 
  128.5000    59.2320    39.8100    38.3720    42.8990    24.2580     2.4670     5.3830 
  128.6250    59.9400    38.4200    37.2730    42.8900    24.2240     2.4860     5.5040 
  128.7500    57.8510    37.2580    36.2690    43.2910    24.2120     2.5000     5.6240 
  128.8750    57.3640    36.4340    35.4920    43.4470    24.2420     2.5040     5.7260 
  129.0000    59.2610    35.9440    34.9810    42.9930    24.2710     2.4980     5.7650 
  129.1250    59.7660    35.7670    34.7480    41.2860    24.2720     2.4870     5.7100 
  129.2500    58.7460    35.8150    34.7280    39.2710    24.2410     2.4740     5.5840 
  129.3750    57.3360    36.1110    34.9510    37.9130    24.1710     2.4640     5.3740 
  129.5000    56.0470    36.6950    35.4660    36.3230    24.0600     2.4610     5.0710 
  129.6250    57.4410    37.5750    36.3120    36.0060    23.9670     2.4670     4.6840 
  129.7500    60.1910    38.5080    37.2700    37.6040    23.9050     2.4810     4.2410 
  129.8750    60.8660    39.1940    38.0510    40.3550    23.8490     2.4940     3.7670 
  130.0000    57.7990    39.3380    38.3460    43.2940    23.7980     2.5000     3.2910 
  130.1250    54.6150    38.6920    37.8560    45.7180    23.8510     2.4980     2.8150 
  130.2500    54.2100    37.5520    36.8160    44.3300    23.9180     2.4940     2.3400 
  130.3750    55.9290    36.3030    35.5760    39.8720    23.9570     2.4960     1.8950 
  130.5000    59.2650    35.3540    34.5460    36.5580    23.9460     2.5070     1.4920 
  130.6250    61.6500    35.0580    34.1100    35.5550    23.9250     2.5260     1.1260 
  130.7500    60.2590    35.2910    34.2100    35.0490    23.8600     2.5440     0.7720 
  130.8750    55.6300    35.8270    34.6670    36.9430    23.7840     2.5570     0.4120 
  131.0000    52.3150    36.3840    35.2190    38.7810    23.7310     2.5630     0.0490 
  131.1250    52.7160    36.6580    35.5650    39.0670    23.7100     2.5630    -0.2870 
  131.2500    53.6470    36.5420    35.5640    37.6450    23.6790     2.5600    -0.5940 
  131.3750    54.3760    36.0090    35.1590    36.4730    23.6880     2.5560    -0.8790 
  131.5000    56.7980    35.1030    34.3670    35.0180    23.7440     2.5500    -1.1460 
  131.6250    59.6180    33.9030    33.2320    34.8140    23.7950     2.5400    -1.4030 
  131.7500    59.1140    32.6000    31.9430    33.4560    23.7920     2.5290    -1.6520 
  131.8750    54.9020    31.3150    30.6210    29.6160    23.7380     2.5200    -1.8870 
  132.0000    50.7630    30.1360    29.3650    25.1030    23.6820     2.5130    -2.1170 
  132.1250    50.2040    29.1510    28.2650    23.7850    23.6940     2.5100    -2.3450 
  132.2500    53.0740    28.3770    27.3500    23.5580    23.6190     2.5070    -2.5500 
  132.3750    56.8010    27.8620    26.6730    23.2860    23.4820     2.5070    -2.7310 
  132.5000    58.0140    27.6700    26.2990    22.5700    23.3070     2.5100    -2.9010 
  132.6250    56.9420    27.9580    26.3720    22.7100    23.1730     2.5210    -3.0680 
  132.7500    56.7370    28.7240    26.8780    24.1280    23.1410     2.5380    -3.2350 
  132.8750    56.0670    29.9510    27.8030    25.8880    23.2300     2.5560    -3.3960 
  133.0000    53.8630    31.5160    29.0480    27.2650    23.4940     2.5760    -3.5370 
  133.1250    52.0520    33.1600    30.4130    28.3190    23.7430     2.5940    -3.6470 
  133.2500    50.5090    34.5530    31.6150    29.2360    23.9510     2.6120    -3.7480 
  133.3750    48.8300    35.4690    32.4570    30.1530    24.0450     2.6270    -3.8650 
  133.5000    47.9180    35.7950    32.8270    30.4470    24.0540     2.6390    -4.0040 
  133.6250    49.8490    35.4700    32.6170    30.4150    24.0170     2.6450    -4.1500 
  133.7500    52.1770    34.7130    31.9380    29.7580    23.9710     2.6470    -4.3010 
  133.8750    53.5640    33.5880    30.8490    28.7690    23.9430     2.6460    -4.4520 
  134.0000    54.6910    32.2430    29.4580    28.4990    23.9130     2.6440    -4.5930 
  134.1250    54.2460    30.6080    27.9460    28.6770    23.8470     2.6420    -4.7450 
  134.2500    53.3460    28.9990    26.5600    28.2700    23.7470     2.6400    -4.9050 
  134.3750    53.1820    27.4960    25.4850    26.3090    23.6430     2.6340    -5.0750 
  134.5000    53.1880    26.2680    24.8390    24.3970    23.5690     2.6260    -5.2530 
  134.6250    52.5930    26.2530    24.6910    24.2550    23.5180     2.6200    -5.4150 
  134.7500    50.7430    26.4970    24.8300    24.5910    23.5010     2.6200    -5.5350 
  134.8750    49.8380    26.8210    25.0660    24.3770    23.5100     2.6290    -5.6170 
  135.0000    50.8210    27.0360    25.2030    24.1290    23.5290     2.6440    -5.6820 
  135.1250    50.9480    26.9570    25.0410    24.6780    23.5950     2.6580    -5.7370 
  135.2500    49.3300    26.5940    24.5930    25.1600    23.6900     2.6680    -5.7900 
  135.3750    47.1810    26.0040    23.9330    25.0210    23.7840     2.6730    -5.8330 
  135.5000    46.2840    25.2730    23.1770    24.4460    23.8640     2.6780    -5.8460 
  135.6250    47.0850    24.4690    22.4530    23.1290    23.8660     2.6810    -5.8370 
  135.7500    49.4220    23.7120    21.8610    21.4500    23.8470     2.6830    -5.8320 
  135.8750    52.5460    23.0530    21.4600    20.0970    23.8260     2.6790    -5.8250 
  136.0000    53.7400    22.5840    21.2620    19.3400    23.8110     2.6690    -5.8110 
  136.1250    52.7180    22.4660    21.2420    19.3040    23.7880     2.6540    -5.7980 
  136.2500    53.8720    22.4050    21.2850    19.3870    23.7380     2.6360    -5.7850 
  136.3750    57.5800    22.3640    21.3110    19.5160    23.6500     2.6180    -5.7710 
  136.5000    60.3540    22.2340    21.2720    19.3750    23.5070     2.6000    -5.7630 
  136.6250    57.9970    22.0790    21.1790    18.8870    23.3530     2.5860    -5.7550 
  136.7500    54.2140    22.1200    21.1230    18.6540    23.3290     2.5770    -5.7550 
  136.8750    54.0940    22.2320    21.1770    19.0090    23.5110     2.5770    -5.7840 
  137.0000    56.2760    22.3300    21.3640    19.8710    23.7330     2.5850    -5.8450 
  137.1250    56.8870    22.5060    21.6410    20.3100    23.8540     2.6000    -5.9210 
  137.2500    56.1440    22.7370    21.8880    20.9970    23.9010     2.6170    -5.9940 
  137.3750    55.4580    22.9470    22.0130    21.9570    23.8870     2.6340    -6.0460 
  137.5000    54.4880    23.0600    21.9740    22.3130    23.8360     2.6490    -6.0690 
  137.6250    52.9720    22.9740    21.7820    21.7110    23.7890     2.6550    -6.0920 
  137.7500    52.4300    22.7820    21.5460    20.4740    23.7620     2.6510    -6.1180 
  137.8750    52.4120    22.5630    21.3380    19.4460    23.7180     2.6380    -6.1380 
