~V
VERS. 2.00: Ver 2.00
~W
STRT.M 58.0000:
STOP.M 272.0000:
STEP.M 0.1250:
NULL. -999.2500:
UWI. F10670:
~C
DEPT.M :
DEN.GM/CC :
GR.API :
RML.OHMM :
RI. :
RXO.OHMM :
CALI.CM :
SP.MV :
~A
# ...
  238.0000     2.3560    27.6380     8.3930     8.9860     4.8160    22.4890   -11.2460 
  238.1250     2.2890    24.8650     7.1110     6.5250     4.0210    22.4160   -11.0530 
  238.2500     2.2740    23.0260     6.6620     5.7240     4.0570    22.3960   -10.8930 
  238.3750     2.3050    21.9720     6.5110     5.7320     4.7950    22.3940   -10.7790 
  238.5000     2.3620    21.4800     6.4860     5.9950     7.5960    22.4040   -10.6860 
  238.6250     2.4130    21.2700     6.5010     6.0680    10.7120    22.4620   -10.5930 
  238.7500     2.4380    21.5940     6.5050     5.8180     8.5390    22.6350   -10.5270 
  238.8750     2.4270    22.7330     6.4460     5.3380     5.1630    22.9470   -10.4550 
  239.0000     2.3870    24.6050     6.1440     4.8530     4.0630    23.1820   -10.3620 
  239.1250     2.3430    27.1770     5.5970     4.5310     3.8590    23.2680   -10.3030 
  239.2500     2.3110    31.2470     5.0640     4.4110     3.9350    23.2810   -10.2750 
  239.3750     2.2950    36.4170     4.7660     4.4530     4.1930    23.2810   -10.2970 
  239.5000     2.2910    39.4140     4.7710     4.5730     4.2890    23.2810   -10.3360 
  239.6250     2.2880    39.0050     4.8630     4.6630     4.4140    23.2750   -10.3760 
  239.7500     2.2870    37.0630     4.9140     4.6710     4.5400    23.2430   -10.3790 
  239.8750     2.2860    35.7890     4.8800     4.5850     4.4940    23.1650   -10.3640 
  240.0000     2.2890    35.0790     4.7670     4.4240     4.2790    23.0910   -10.3550 
  240.1250     2.2940    33.1270     4.6170     4.2490     4.0740    23.0830   -10.3420 
  240.2500     2.3000    30.6270     4.4620     4.0910     4.0370    23.1490   -10.3300 
  240.3750     2.3020    28.6270     4.2760     3.9670     4.0350    23.2680   -10.3150 
  240.5000     2.3000    28.2140     4.1720     3.8850     3.9950    23.3260   -10.3420 
  240.6250     2.2950    27.7470     4.1420     3.8390     3.9380    23.3520   -10.4030 
  240.7500     2.2920    26.0740     4.1690     3.8250     3.9240    23.3710   -10.5100 
  240.8750     2.2950    24.2860     4.2280     3.8410     4.0240    23.3840   -10.6570 
  241.0000     2.3050    23.6520     4.3040     3.8770     4.1250    23.3880   -10.8410 
  241.1250     2.3160    24.3350     4.3700     3.9100     4.1870    23.3910   -11.0380 
  241.2500     2.3240    26.2310     4.4110     3.9240     4.1380    23.4040   -11.2400 
  241.3750     2.3260    28.2840     4.4240     3.9140     4.0340    23.4350   -11.4200 
  241.5000     2.3230    28.6390     4.4170     3.8850     3.9650    23.4500   -11.5870 
  241.6250     2.3190    27.8870     4.4020     3.8530     3.9380    23.4520   -11.7550 
  241.7500     2.3160    28.1400     4.3840     3.8290     3.9630    23.4400   -11.9230 
  241.8750     2.3120    29.2380     4.3660     3.8140     4.0430    23.4140   -12.0730 
  242.0000     2.3020    28.8800     4.3510     3.8110     4.0920    23.3980   -12.1930 
  242.1250     2.2870    28.4910     4.3510     3.8190     4.0710    23.3940   -12.3020 
  242.2500     2.2690    29.7340     4.3850     3.8410     4.0160    23.3940   -12.3920 
  242.3750     2.2580    31.8710     4.4660     3.8830     4.0200    23.3930   -12.4760 
  242.5000     2.2640    33.5100     4.5920     3.9510     4.1610    23.3740   -12.5500 
  242.6250     2.2880    33.7820     4.7310     4.0370     4.3790    23.3340   -12.6130 
  242.7500     2.3220    32.8470     4.8590     4.1280     4.6020    23.2960   -12.6530 
  242.8750     2.3560    30.7970     4.9520     4.2120     4.8180    23.2800   -12.6770 
  243.0000     2.3750    29.9010     4.9800     4.2670     5.3450    23.2530   -12.6820 
  243.1250     2.3820    30.4780     4.9500     4.2890     5.6780    23.1700   -12.6190 
  243.2500     2.3850    30.0520     4.8750     4.2800     5.2970    23.0770   -12.4880 
  243.3750     2.3940    28.5180     4.7750     4.2470     4.7320    23.0910   -12.2680 
  243.5000     2.4110    26.8270     4.6810     4.2000     4.4180    23.2620   -11.9870 
  243.6250     2.4290    24.9870     4.6190     4.1520     4.3380    23.3670   -11.7280 
  243.7500     2.4400    23.2260     4.5990     4.1090     4.3030    23.3990   -11.5370 
  243.8750     2.4380    23.6320     4.6180     4.0750     4.2070    23.4010   -11.4010 
  244.0000     2.4240    27.0620     4.6750     4.0590     4.1530    23.4000   -11.1890 
  244.1250     2.4060    30.0330     4.7550     4.0630     4.1910    23.3980   -11.0660 
  244.2500     2.3890    31.3980     4.8470     4.0880     4.2420    23.3960   -11.0110 
  244.3750     2.3740    32.7490     4.9410     4.1320     4.2600    23.3960   -10.9860 
  244.5000     2.3650    33.4670     5.0260     4.1920     4.4120    23.3990   -11.0930 
  244.6250     2.3590    32.7050     5.0850     4.2580     4.6180    23.3990   -11.1210 
  244.7500     2.3580    30.9050     5.1060     4.3190     4.6830    23.3990   -11.0790 
  244.8750     2.3600    28.8600     5.0910     4.3670     4.4470    23.4000   -11.0410 
  245.0000     2.3650    28.3340     5.0540     4.3920     4.3000    23.4000   -11.0310 
  245.1250     2.3680    29.9540     5.0130     4.3990     4.2740    23.3990   -11.0530 
  245.2500     2.3640    32.1590     4.9760     4.3990     4.3620    23.3990   -11.0440 
  245.3750     2.3550    32.8580     4.9490     4.4020     4.4460    23.4000   -11.0410 
  245.5000     2.3460    31.7490     4.9340     4.4140     4.4400    23.4010   -11.0430 
  245.6250     2.3430    29.5540     4.9290     4.4260     4.3360    23.4010   -11.0600 
  245.7500     2.3460    26.3650     4.9370     4.4260     4.2320    23.4010   -11.0900 
  245.8750     2.3530    23.9490     4.9470     4.4010     4.2090    23.4010   -11.0840 
  246.0000     2.3570    24.2420     4.9290     4.3430     4.2310    23.4010   -11.0890 
  246.1250     2.3560    25.8830     4.8780     4.2630     4.2560    23.4040   -11.1140 
  246.2500     2.3520    28.5770     4.8030     4.1760     4.2780    23.4150   -11.1400 
  246.3750     2.3460    32.6570     4.7270     4.1030     4.2530    23.4390   -11.1820 
  246.5000     2.3410    36.3560     4.6800     4.0640     4.4260    23.4510   -11.2090 
  246.6250     2.3390    40.0820     4.6730     4.0610     5.1750    23.4540   -11.2210 
  246.7500     2.3390    45.9500     4.7120     4.0940     6.5870    23.4460   -11.2660 
  246.8750     2.3410    52.4100     4.8140     4.1760     6.2490    23.4270   -11.2550 
  247.0000     2.3460    55.0440     5.0600     4.3650     5.6290    23.4030   -11.2980 
  247.1250     2.3600    53.7790     5.5090     4.7100     5.2770    23.4040   -11.2910 
  247.2500     2.3910    51.2750     6.1910     5.2590     5.7300    23.4350   -11.2990 
  247.3750     2.4410    48.5630     7.0620     6.0010     7.0880    23.4990   -11.4140 
  247.5000     2.4960    46.2940     7.8990     6.8060    10.0960    23.5430   -11.3890 
  247.6250     2.5330    44.4380     8.3590     7.4010    11.3800    23.5640   -11.3890 
  247.7500     2.5350    43.2010     8.2150     7.5610     9.7870    23.5790   -11.4210 
  247.8750     2.5020    43.1760     7.5100     7.2180     6.7500    23.6060   -11.4380 
  248.0000     2.4510    43.3570     6.5310     6.4850     5.3390    23.6050   -11.4550 
  248.1250     2.4060    42.8110     5.6580     5.6940     4.5460    23.5520   -11.4990 
  248.2500     2.3780    40.5490     5.0410     5.0210     4.1600    23.4790   -11.5110 
  248.3750     2.3640    36.2810     4.6940     4.5420     4.0650    23.5130   -11.4200 
  248.5000     2.3540    31.4080     4.5720     4.2710     4.1070    23.6630   -11.4530 
  248.6250     2.3420    27.9620     4.5510     4.1260     4.1320    23.7370   -11.4650 
  248.7500     2.3280    27.7250     4.5730     4.0650     4.1490    23.7470   -11.4590 
  248.8750     2.3180    29.8790     4.6090     4.0610     4.2200    23.7410   -11.5300 
  249.0000     2.3160    33.1710     4.6580     4.1120     4.2650    23.7410   -11.5200 
  249.1250     2.3210    37.4340     4.7350     4.2110     4.2780    23.7390   -11.5020 
