~V
VERS. 2.00: Ver 2.00
~W
STRT.M 50.0000:
STOP.M 224.0000:
STEP.M 0.1250:
NULL. -999.2500:
UWI. F10690:
~C
DEPT.M :
SP.MV :
DEN.GM/CC :
GR.API :
RML.OHMM :
RI. :
RXO.OHMM :
CALI.CM :
~A
# ...
   61.2500   -17.9090     2.3310    65.8550     5.7810     8.0930     6.2150    25.0650 
   61.3750   -18.6880     2.3260    71.5400     5.7110     8.0480     6.1400    25.1410 
   61.5000   -19.3180     2.3180    74.8320     5.5480     7.8320     6.1140    25.1680 
   61.6250   -19.8820     2.3080    73.5840     5.4030     7.6020     6.1450    25.1670 
   61.7500   -20.4000     2.2920    69.8690     5.4080     7.5300     6.2590    25.1570 
   61.8750   -20.8110     2.2800    66.8900     5.6810     7.7540     6.5340    25.1300 
   62.0000   -21.0860     2.2740    63.9340     6.3040     8.3680     6.5920    25.0950 
   62.1250   -21.2670     2.2650    59.8730     7.3790     9.4720     7.7930    25.0380 
   62.2500   -21.4350     2.2420    55.1990     8.7760    10.9140    11.5120    24.9820 
   62.3750   -21.5940     2.2080    50.8390    10.3080    12.4810    15.9120    24.9530 
   62.5000   -21.7230     2.1800    47.5740    11.7150    13.8990    18.0650    24.9460 
   62.6250   -21.8380     2.1690    46.9910    12.7910    14.9470    20.4200    24.9450 
   62.7500   -21.9960     2.1730    47.7220    13.6720    15.7640    21.3400    24.9440 
   62.8750   -22.2260     2.1890    46.4520    14.5280    16.5280    15.3230    24.9400 
   63.0000   -22.5140     2.2080    43.9720    15.4570    17.3510    11.4870    24.9280 
   63.1250   -22.8070     2.2100    46.1720    16.3670    18.1610    12.7100    24.9050 
   63.2500   -23.0700     2.1850    51.3660    17.0280    18.7220    16.0350    24.8940 
   63.3750   -23.3360     2.1530    54.1510    17.3120    18.8820    14.0690    24.8920 
   63.5000   -23.6460     2.1390    53.2210    17.2620    18.6810    10.8600    24.8930 
   63.6250   -23.9980     2.1460    51.7730    16.9990    18.2760     9.9480    24.8960 
   63.7500   -24.3250     2.1550    51.0710    16.6680    17.8350     9.7390    24.8970 
   63.8750   -24.6080     2.1580    51.3310    16.3190    17.4020     8.9410    24.8970 
   64.0000   -24.8680     2.1600    52.1110    15.9830    16.9790     8.3080    24.8980 
   64.1250   -25.1220     2.1750    51.8830    15.7530    16.6160     8.1240    24.9000 
   64.2500   -25.3840     2.2050    50.9070    15.8290    16.4860     8.1080    24.9060 
   64.3750   -25.6730     2.2500    50.5980    16.4920    16.8910     8.2340    24.9160 
   64.5000   -25.9810     2.3170    51.5540    17.9850    18.1490     9.0270    24.9310 
   64.6250   -26.2790     2.4130    53.2370    20.3700    20.4780    11.4960    24.9400 
   64.7500   -26.5360     2.5140    54.1960    22.6910    23.0170    16.4630    24.9430 
   64.8750   -26.7330     2.5760    54.0570    23.4490    24.2060    26.3550    24.9400 
   65.0000   -26.8820     2.5560    54.2920    21.4270    22.5430    37.2450    24.9280 
   65.1250   -27.0500     2.4660    58.0350    17.0070    18.2060    30.2040    24.8970 
   65.2500   -27.2710     2.3810    64.7360    12.5910    13.7340    15.5790    24.8680 
   65.3750   -27.4970     2.3300    70.9440     9.3210    10.3220     8.0680    24.8480 
   65.5000   -27.6410     2.3060    73.0250     7.4050     8.1910     5.6650    24.8400 
   65.6250   -27.6720     2.2820    71.0180     6.7410     7.2740     5.9980    24.8400 
   65.7500   -27.6810     2.2430    69.6180     6.7950     7.1010     7.9310    24.8400 
   65.8750   -27.7300     2.1990    69.8310     7.2970     7.4450    10.6750    24.8400 
   66.0000   -27.8220     2.1640    69.9870     8.0260     8.1070    10.9340    24.8400 
   66.1250   -27.8960     2.1520    70.3240     8.8250     8.9410     9.2060    24.8440 
   66.2500   -27.8980     2.1590    69.8610     9.5960     9.8070     7.6070    24.8680 
   66.3750   -27.8350     2.1770    65.3470    10.2690    10.6060     7.5170    24.9340 
   66.5000   -27.7590     2.2050    57.0130    10.7300    11.1980     9.0280    25.0290 
   66.6250   -27.7230     2.2390    51.7730    10.7860    11.3540    11.9640    25.0910 
   66.7500   -27.7100     2.2670    52.9080    10.4570    11.0780    12.9240    25.1200 
   66.8750   -27.6700     2.2820    57.8740     9.8630    10.4770    10.1660    25.1410 
   67.0000   -27.5800     2.2850    62.5310     9.2040     9.7490     8.1060    25.1600 
   67.1250   -27.4500     2.2870    63.6220     8.6850     9.0960     6.7660    25.1670 
   67.2500   -27.3210     2.2950    62.1650     8.3330     8.5820     6.5480    25.1680 
   67.3750   -27.2200     2.3080    60.7170     8.0850     8.1820     6.4770    25.1680 
   67.5000   -27.1490     2.3180    60.8800     7.8520     7.8360     6.1100    25.1680 
   67.6250   -27.0990     2.3210    64.0490     7.5790     7.5050     5.8850    25.1680 
   67.7500   -27.0670     2.3220    67.5120     7.3160     7.2040     5.7840    25.1650 
   67.8750   -27.0530     2.3260    67.0460     7.1720     7.0050     5.6940    25.1520 
   68.0000   -27.0300     2.3330    60.9330     7.2560     6.9920     5.6090    25.1150 
   68.1250   -26.9570     2.3370    54.8810     7.6570     7.2500     5.8120    25.0740 
   68.2500   -26.8360     2.3440    53.7810     8.2750     7.7060     6.2240    25.0410 
   68.3750   -26.6860     2.3480    55.5190     8.9910     8.2730     7.1960    25.0240 
   68.5000   -26.5180     2.3380    55.9690     9.6380     8.8210     8.7110    24.9990 
   68.6250   -26.3420     2.3120    53.4470    10.0100     9.1750     9.4760    24.9430 
   68.7500   -26.1930     2.2990    49.5150    10.1310     9.3210     7.8740    24.9060 
   68.8750   -26.1150     2.3130    46.2700    10.1080     9.3270     7.1420    24.8930 
   69.0000   -26.1280     2.3460    46.0830    10.0400     9.2710     7.1280    24.8920 
   69.1250   -26.1990     2.3770    49.9680     9.9070     9.1670     7.2400    24.8920 
   69.2500   -26.2320     2.3940    53.0040     9.6330     8.9730     7.3040    24.8920 
   69.3750   -26.1900     2.3960    53.6740     9.1700     8.6470     7.0210    24.8920 
   69.5000   -26.1010     2.3910    54.5000     8.5900     8.2200     6.7190    24.8920 
   69.6250   -26.0150     2.3720    56.3220     8.0850     7.8150     6.1730    24.8920 
   69.7500   -25.9360     2.3400    56.3280     7.7900     7.5480     5.7150    24.8920 
   69.8750   -25.8330     2.3140    55.0660     7.7300     7.4600     5.5990    24.8920 
   70.0000   -25.6910     2.3050    55.5030     7.8540     7.5300     5.8080    24.8920 
   70.1250   -25.5450     2.3140    57.0620     8.0760     7.7080     6.2990    24.8920 
   70.2500   -25.4350     2.3270    56.5800     8.2760     7.8940     6.4680    24.8920 
   70.3750   -25.3570     2.3380    54.1840     8.3940     8.0310     6.3670    24.8920 
   70.5000   -25.2660     2.3460    51.9040     8.4240     8.0960     6.2870    24.8920 
   70.6250   -25.1160     2.3460    51.8750     8.4040     8.1040     6.2950    24.8920 
   70.7500   -24.9460     2.3420    54.0260     8.3990     8.1080     6.3720    24.8920 
   70.8750   -24.8070     2.3380    57.1060     8.4450     8.1430     6.3840    24.8920 
   71.0000   -24.7270     2.3270    58.9820     8.5850     8.2420     6.3910    24.8920 
   71.1250   -24.6870     2.3030    58.5530     8.9310     8.4900     6.4560    24.8920 
   71.2500   -24.6220     2.2810    59.3580     9.5360     8.9340     6.6220    24.8920 
   71.3750   -24.5060     2.2670    62.4170    10.3820     9.5840     6.7450    24.8920 
   71.5000   -24.3520     2.2620    62.9440    11.3070    10.3430     6.9640    24.8920 
   71.6250   -24.1800     2.2720    58.3020    11.9550    10.9460     7.6630    24.8920 
   71.7500   -24.0080     2.2960    54.6150    12.1390    11.1990     8.1840    24.8920 
   71.8750   -23.8380     2.3290    55.3390    11.9460    11.1230     7.9860    24.8920 
   72.0000   -23.6860     2.3650    56.9780    11.7200    10.9520     7.2240    24.8920 
   72.1250   -23.5660     2.4010    55.7000    12.0140    11.0940     6.9650    24.8920 
   72.2500   -23.4700     2.4230    53.7340    13.0660    11.7700     8.0240    24.8920 
   72.3750   -23.4020     2.4090    51.6370    14.9080    13.0580    10.2600    24.8920 
