~V
VERS. 2.00: Ver 2.00
~W
STRT.M 49.0000:
STOP.M 254.0000:
STEP.M 0.1250:
NULL. -999.2500:
UWI. F10669:
~C
DEPT.M :
DEN.GM/CC :
GR.API :
RML.OHMM :
RI. :
RXO.OHMM :
CALI.CM :
SP.MV :
~A
# ...
  150.2500     2.1400    61.6280    29.4580    25.2060    27.0070    23.5480    -7.7450 
  150.3750     2.1380    62.7240    30.2860    25.9770    27.3130    23.5620    -7.6950 
  150.5000     2.1330    60.4440    30.9020    26.6070    27.6800    23.5890    -7.6750 
  150.6250     2.1270    57.3980    31.3140    27.0700    27.9090    23.6400    -7.6690 
  150.7500     2.1230    58.1810    31.5680    27.3820    27.4740    23.6820    -7.6840 
  150.8750     2.1240    61.3450    31.6810    27.5410    27.6570    23.6790    -7.7360 
  151.0000     2.1280    61.8360    31.6700    27.5680    28.7600    23.6940    -7.7910 
  151.1250     2.1310    59.8310    31.5250    27.4560    29.2620    23.7370    -7.8550 
  151.2500     2.1280    58.1570    31.2700    27.2280    29.0850    23.7710    -7.9040 
  151.3750     2.1190    58.1820    30.9720    26.9410    28.8490    23.7660    -7.9280 
  151.5000     2.1080    57.2890    30.7330    26.6790    28.7370    23.7590    -7.9220 
  151.6250     2.1020    56.3640    30.6170    26.5030    28.3690    23.7440    -7.8980 
  151.7500     2.1020    57.3490    30.6560    26.4670    27.5980    23.7350    -7.8430 
  151.8750     2.1090    59.2000    30.8770    26.6320    27.1550    23.6650    -7.7560 
  152.0000     2.1190    58.6060    31.2120    26.9520    26.6330    23.4590    -7.6600 
  152.1250     2.1320    55.8150    31.5840    27.3670    25.6450    23.1700    -7.5590 
  152.2500     2.1410    54.3000    31.9020    27.7860    24.3100    22.9940    -7.4580 
  152.3750     2.1420    54.1140    32.0310    28.0780    24.3260    22.9120    -7.4190 
  152.5000     2.1340    53.2680    31.9180    28.1750    23.5040    22.7570    -7.3790 
  152.6250     2.1230    52.8140    31.5510    28.0500    22.9900    22.4390    -7.3760 
  152.7500     2.1140    54.1790    30.9810    27.7250    22.8920    22.0230    -7.3790 
  152.8750     2.1130    55.5730    30.3080    27.2660    23.0730    21.8640    -7.4420 
  153.0000     2.1150    55.8450    29.6940    26.8190    24.0680    22.1770    -7.5350 
  153.1250     2.1180    55.4630    29.2560    26.5100    25.6620    22.8870    -7.6600 
  153.2500     2.1220    54.5710    29.0790    26.4370    26.8710    23.5980    -7.8190 
  153.3750     2.1290    54.3950    29.2200    26.6820    27.0220    23.8260    -7.9680 
  153.5000     2.1390    55.8740    29.5100    27.1050    27.4090    23.8560    -8.1700 
  153.6250     2.1470    59.0820    29.7160    27.4930    28.3080    23.8260    -8.3940 
  153.7500     2.1470    61.4270    29.5920    27.6000    29.0890    23.7660    -8.6730 
  153.8750     2.1410    60.1550    28.9170    27.1840    28.8730    23.5100    -8.9720 
  154.0000     2.1440    57.4910    27.8290    26.3250    27.1410    23.0420    -9.2800 
  154.1250     2.1650    55.3830    26.4670    25.1230    23.2370    22.6920    -9.5840 
  154.2500     2.2010    55.6110    24.9320    23.6750    20.5920    22.7220    -9.8570 
  154.3750     2.2340    56.8560    23.2720    22.0700    19.4910    22.8820   -10.1070 
  154.5000     2.2510    57.9570    21.6430    20.5070    20.0360    23.0390   -10.3000 
  154.6250     2.2540    60.1100    20.2940    19.2200    17.3110    23.2110   -10.4370 
  154.7500     2.2520    63.7000    19.5150    18.4450    16.5850    23.3230   -10.5160 
  154.8750     2.2470    67.0310    19.6320    18.4560    15.7010    23.1200   -10.4920 
  155.0000     2.2360    67.3960    20.5050    19.1600    17.1410    22.9370   -10.4190 
  155.1250     2.2170    64.3260    21.9370    20.4570    24.1820    23.1330   -10.2950 
  155.2500     2.1970    59.6870    23.6170    22.1370    31.7110    23.6080   -10.1810 
  155.3750     2.1870    57.6570    25.1630    23.8750    28.3080    23.8740   -10.0850 
  155.5000     2.1870    58.8780    26.3850    25.3750    20.1950    23.8450   -10.0310 
  155.6250     2.1890    59.7390    27.2710    26.5410    14.9850    23.7340   -10.0230 
  155.7500     2.1830    57.9720    27.7850    27.3170    18.0760    23.6930   -10.0590 
  155.8750     2.1630    55.7210    27.5370    27.3490    27.1500    23.6700   -10.1930 
  156.0000     2.1370    56.0830    26.2510    26.3660    29.9500    23.6070   -10.3700 
  156.1250     2.1170    57.2420    23.8520    24.2310    23.9350    23.5040   -10.5930 
  156.2500     2.1150    59.0210    20.7230    21.2520    18.3550    23.3180   -10.8030 
  156.3750     2.1400    64.7580    17.7240    18.2210    14.9200    23.1060   -11.0090 
  156.5000     2.1750    70.0350    15.5700    15.8700    13.2020    22.9800   -11.1690 
  156.6250     2.1990    69.7440    14.5560    14.4980    13.0400    22.9330   -11.2880 
  156.7500     2.1990    64.6100    14.7660    14.1900    13.4430    22.9820   -11.3590 
  156.8750     2.1760    59.8670    16.3820    15.1580    14.8310    23.1640   -11.3950 
  157.0000     2.1480    56.7720    19.0190    17.1800    19.9660    23.4400   -11.4260 
  157.1250     2.1250    53.3920    22.2440    20.0010    24.4650    23.6550   -11.4650 
  157.2500     2.1130    50.5950    25.3570    23.0500    26.8710    23.7360   -11.5300 
  157.3750     2.1060    50.0630    27.4760    25.4460    28.2990    23.7370   -11.6300 
  157.5000     2.0970    49.7450    28.6850    26.9850    29.3840    23.7500   -11.7830 
  157.6250     2.0960    49.6080    29.6860    28.1290    30.1890    23.7790   -11.9810 
  157.7500     2.1170    51.1360    31.4310    29.6870    31.0220    23.8020   -12.2250 
  157.8750     2.1880    54.0040    34.9950    32.6690    33.9900    23.8160   -12.4850 
  158.0000     2.3080    55.6810    40.4330    37.3150    43.1070    23.8470   -12.7470 
  158.1250     2.4520    54.4820    47.4040    43.4980    59.3680    23.8910   -13.0100 
  158.2500     2.5820    51.3560    54.6400    50.2510    75.1280    23.9280   -13.2510 
  158.3750     2.6610    48.3010    58.9910    54.9420    80.5160    23.9470   -13.4730 
  158.5000     2.7000    45.8230    58.3990    55.4850    77.1340    23.9930   -13.6660 
  158.6250     2.6990    44.6580    53.0790    51.5660    70.2500    23.9960   -13.8580 
  158.7500     2.6450    44.7310    45.3760    44.8570    57.2530    23.9000   -14.0320 
  158.8750     2.5400    45.8800    38.1020    37.8720    39.3070    23.7050   -14.2070 
  159.0000     2.4280    47.0700    32.4920    32.1970    26.7860    23.5430   -14.3650 
  159.1250     2.3440    48.1140    28.5960    28.1010    22.6430    23.5070   -14.5220 
  159.2500     2.3120    50.1140    26.0830    25.3650    21.8180    23.6030   -14.7030 
  159.3750     2.3410    51.5000    24.7310    23.8140    22.0370    23.5780   -14.8850 
  159.5000     2.3920    50.7140    24.1670    23.0670    22.3390    23.4870   -15.0790 
  159.6250     2.4310    49.3490    24.3870    23.0860    25.2600    23.5170   -15.2540 
  159.7500     2.4530    49.0160    25.4750    23.9220    27.2610    23.6440   -15.4360 
  159.8750     2.4790    48.6170    27.6480    25.7890    32.4950    23.7180   -15.6020 
  160.0000     2.5250    46.5060    30.6110    28.4640    36.7410    23.7350   -15.7620 
  160.1250     2.5780    44.2140    33.9640    31.6220    41.5060    23.7350   -15.8900 
  160.2500     2.6160    43.9220    37.0910    34.7050    47.2260    23.7060   -15.9670 
  160.3750     2.6260    45.4720    39.1250    36.8580    51.5390    23.6600   -16.0090 
  160.5000     2.6250    47.2100    39.8630    37.7790    52.1160    23.6380   -16.0060 
  160.6250     2.6280    48.7180    39.4130    37.4980    48.8890    23.6690   -15.9850 
  160.7500     2.6410    50.0870    38.0890    36.2990    42.5500    23.6910   -15.9240 
  160.8750     2.6520    51.5010    36.1480    34.4620    37.0480    23.6870   -15.8460 
  161.0000     2.6460    52.1860    33.9850    32.3950    32.7330    23.7050   -15.7470 
  161.1250     2.6180    51.9930    31.8860    30.3600    29.3810    23.7230   -15.6340 
  161.2500     2.5800    51.7100    30.1130    28.5930    28.5070    23.7430   -15.5400 
  161.3750     2.5540    51.5380    28.9080    27.3310    28.0930    23.7680   -15.4270 
