~V
VERS. 2.00: Ver 2.00
~W
STRT.M 50.0000:
STOP.M 219.0000:
STEP.M 0.1250:
NULL. -999.2500:
UWI. F10688:
~C
DEPT.M :
SP.MV :
DEN.GM/CC :
GR.API :
RML.OHMM :
RI. :
RXO.OHMM :
CALI.CM :
~A
# ...
  162.5000    -6.7810     2.4380    76.3420    10.9780     9.4350    13.5500    24.9940 
  162.6250    -6.7790     2.3880    81.6770    11.4530     9.6230    10.4780    25.0090 
  162.7500    -6.7600     2.3390    83.4620    11.8920     9.8240     9.6060    25.0220 
  162.8750    -6.7950     2.3040    82.1350    12.2520    10.0180    10.1050    25.0320 
  163.0000    -6.8120     2.2880    81.6590    12.4170    10.1230    11.5970    25.0340 
  163.1250    -6.7540     2.2890    83.6290    12.1720     9.9840    12.1550    25.0330 
  163.2500    -6.6920     2.2990    86.2770    11.5310     9.5840    11.0530    25.0310 
  163.3750    -6.6860     2.3150    86.5030    10.6200     8.9840     9.3970    25.0290 
  163.5000    -6.6830     2.3340    83.6630     9.6960     8.3290     8.1560    25.0270 
  163.6250    -6.6670     2.3520    80.6280     9.1010     7.8380     7.5160    25.0270 
  163.7500    -6.7110     2.3620    81.3280     8.9220     7.6100     7.2640    25.0270 
  163.8750    -6.7500     2.3570    86.2120     9.1030     7.6500     7.3770    25.0280 
  164.0000    -6.8240     2.3410    89.3600     9.4770     7.8740     7.5670    25.0290 
  164.1250    -6.9630     2.3190    87.0670     9.7940     8.1150     7.9480    25.0280 
  164.2500    -7.1110     2.3020    85.3890     9.8590     8.2030     8.6900    25.0270 
  164.3750    -7.2720     2.2970    86.3130     9.6020     8.0640     8.7480    25.0270 
  164.5000    -7.4400     2.3040    87.7780     9.0850     7.7260     7.3100    25.0280 
  164.6250    -7.6400     2.3150    87.0480     8.4730     7.2980     6.3710    25.0280 
  164.7500    -7.8370     2.3230    88.4600     7.9570     6.9240     5.9980    25.0240 
  164.8750    -8.0110     2.3290    93.2150     7.6330     6.6750     5.9970    25.0180 
  165.0000    -8.1480     2.3390    97.2020     7.5280     6.5800     6.0630    25.0090 
  165.1250    -8.2080     2.3530    96.6590     7.6420     6.6600     6.1820    24.9980 
  165.2500    -8.2240     2.3690    92.1110     7.8920     6.8680     6.3500    24.9840 
  165.3750    -8.2180     2.3790    87.3130     8.2460     7.1760     6.5810    24.9650 
  165.5000    -8.1790     2.3780    84.3400     8.6630     7.5460     6.8500    24.9430 
  165.6250    -8.1180     2.3630    81.7240     9.0460     7.8900     7.2560    24.9200 
  165.7500    -8.0510     2.3430    80.2520     9.2740     8.1060     7.7690    24.8950 
  165.8750    -7.9650     2.3280    81.7910     9.2700     8.1230     8.2590    24.8720 
  166.0000    -7.8980     2.3200    84.3850     9.0410     7.9340     7.7850    24.8500 
  166.1250    -7.9160     2.3200    84.4300     8.6910     7.6020     7.0920    24.8340 
  166.2500    -7.9740     2.3230    84.0510     8.3930     7.2790     6.5030    24.8230 
  166.3750    -8.0280     2.3310    85.7750     8.2290     7.0550     6.4190    24.8190 
  166.5000    -8.1300     2.3470    86.0280     8.2050     6.9570     6.5870    24.8170 
  166.6250    -8.2410     2.3710    83.7510     8.2950     6.9710     6.6120    24.8150 
  166.7500    -8.3680     2.3860    83.8290     8.4770     7.0570     7.2400    24.8040 
  166.8750    -8.5490     2.3810    86.4070     8.8460     7.2630     8.2960    24.7490 
  167.0000    -8.6970     2.3620    87.2090     9.6140     7.7230     7.5260    24.6380 
  167.1250    -8.8350     2.3510    83.8770    11.3500     8.7960     7.0450    24.4920 
  167.2500    -8.9940     2.3540    80.1450    14.5020    10.7890     8.2100    24.3880 
  167.3750    -9.0970     2.3540    76.2830    19.5790    14.1250    13.3160    24.3570 
  167.5000    -9.1550     2.3270    71.2380    26.8130    19.1460    23.4400    24.4000 
  167.6250    -9.1870     2.2660    65.4840    35.8200    25.9110    34.2420    24.5220 
  167.7500    -9.1740     2.2020    61.4380    44.4100    32.8290    40.1640    24.7000 
  167.8750    -9.1140     2.1630    60.6790    50.4360    38.0390    42.8740    24.9190 
  168.0000    -9.0820     2.1650    61.5640    52.9980    40.5050    43.0400    25.1400 
  168.1250    -9.0390     2.2030    61.6680    52.9120    40.6010    42.9660    25.2920 
  168.2500    -8.9540     2.2400    61.8230    52.2170    39.9700    44.8750    25.3630 
  168.3750    -8.9140     2.2540    63.1110    51.5930    39.2520    43.6660    25.3740 
  168.5000    -8.8810     2.2470    64.8860    51.1770    38.6580    40.2050    25.3680 
  168.6250    -8.8530     2.2330    65.7070    51.0950    38.3520    37.8320    25.3560 
  168.7500    -8.8900     2.2240    65.6340    51.4280    38.4150    36.7670    25.3420 
  168.8750    -8.9770     2.2220    63.5070    52.2270    38.9060    36.5930    25.3290 
  169.0000    -9.0640     2.2250    59.5750    53.4070    39.7860    37.4290    25.3300 
  169.1250    -9.1920     2.2300    57.9050    54.5900    40.8150    39.7430    25.3580 
  169.2500    -9.3810     2.2370    58.5800    55.1530    41.5290    41.7680    25.3990 
  169.3750    -9.5610     2.2460    59.3080    54.6260    41.5650    43.4260    25.4450 
  169.5000    -9.7590     2.2550    58.7470    52.9090    40.7990    44.9040    25.4880 
  169.6250    -9.9780     2.2600    56.9880    50.3720    39.3950    43.9690    25.5160 
  169.7500   -10.1590     2.2670    55.6770    47.9980    37.9870    40.9160    25.5280 
  169.8750   -10.3730     2.2760    56.4720    46.5420    37.1020    36.4280    25.5250 
  170.0000   -10.5710     2.2860    59.5980    46.4560    37.1180    34.5360    25.5110 
  170.1250   -10.6990     2.2950    61.2750    47.7320    38.1660    35.1570    25.4960 
  170.2500   -10.8340     2.2980    60.6350    49.1670    39.4740    37.4000    25.4990 
  170.3750   -10.9820     2.2930    59.8470    49.3960    40.0420    40.2440    25.5170 
  170.5000   -11.1080     2.2770    60.8390    47.3000    38.9160    44.3560    25.5430 
  170.6250   -11.2490     2.2450    62.7100    42.6420    35.6830    46.0260    25.5710 
  170.7500   -11.3560     2.2040    64.1320    37.3130    31.6850    38.8480    25.6000 
  170.8750   -11.4390     2.1620    66.1130    32.8040    28.0950    27.3480    25.6250 
  171.0000   -11.5110     2.1350    69.1990    29.9470    25.6460    21.1700    25.6460 
  171.1250   -11.5550     2.1340    70.7640    29.1370    24.7740    20.6100    25.6600 
  171.2500   -11.5970     2.1560    69.9760    29.6570    25.0580    22.6800    25.6680 
  171.3750   -11.6470     2.1840    67.1500    30.8600    26.0730    25.8480    25.6740 
  171.5000   -11.7070     2.2080    63.6510    31.9960    27.2150    28.3290    25.6780 
  171.6250   -11.7340     2.2190    61.2080    32.2830    27.7350    28.8380    25.6800 
  171.7500   -11.7460     2.2180    59.8960    31.6790    27.4470    27.2810    25.6800 
  171.8750   -11.7400     2.2100    59.8550    30.4810    26.5530    24.9700    25.6800 
  172.0000   -11.7430     2.2040    61.2200    29.1410    25.4570    22.5510    25.6800 
  172.1250   -11.8180     2.2060    63.1220    28.0960    24.5690    21.7060    25.6790 
  172.2500   -11.9110     2.2130    63.8140    27.4290    23.9980    21.8940    25.6780 
  172.3750   -11.9860     2.2160    62.9410    27.0480    23.6710    22.1100    25.6760 
  172.5000   -12.0360     2.2070    63.4510    26.7610    23.4300    22.0060    25.6740 
  172.6250   -12.1380     2.1850    66.4790    26.3250    23.0730    22.3080    25.6740 
  172.7500   -12.2800     2.1620    67.9990    25.6580    22.5250    22.1440    25.6720 
  172.8750   -12.4310     2.1490    66.5170    24.8350    21.8380    20.9650    25.6720 
  173.0000   -12.6280     2.1480    63.8420    24.0600    21.1670    19.0980    25.6740 
  173.1250   -12.8230     2.1600    63.2560    23.6670    20.7780    19.1500    25.6760 
  173.2500   -12.9730     2.1720    64.2700    23.8260    20.8230    19.0390    25.6770 
  173.3750   -13.1680     2.1790    66.0130    24.6220    21.3830    19.5170    25.6770 
  173.5000   -13.4090     2.1790    69.3450    25.9820    22.4240    20.9810    25.6780 
  173.6250   -13.6210     2.1750    70.2260    27.6170    23.7640    22.9670    25.6770 
