~V
VERS. 2.00: Ver 2.00
~W
STRT.M 49.0000:
STOP.M 221.0000:
STEP.M 0.1250:
NULL. -999.2500:
UWI. F10615:
~C
DEPT.M :
DEN.GM/CC :
GR.API :
RML.OHMM :
RI. :
RXO.OHMM :
CALI.CM :
SP.MV :
~A
# ...
   82.7500     2.1950    77.2760     8.4030     6.2700     7.0580    23.4510   -18.4010 
   82.8750     2.1560    70.3250     9.4390     6.8320     9.0520    23.5640   -18.5610 
   83.0000     2.1410    63.0480    10.5800     7.5860    10.1780    23.7910   -18.7410 
   83.1250     2.1470    59.6260    11.4080     8.2640     9.7010    24.0550   -18.9120 
   83.2500     2.1570    60.6060    11.7680     8.7220     9.7470    24.3670   -19.0730 
   83.3750     2.1600    62.0170    11.7810     8.9580    10.8950    24.6210   -19.1710 
   83.5000     2.1590    63.2610    11.7370     9.0830    11.7050    24.8350   -19.1740 
   83.6250     2.1560    65.5150    11.8760     9.2580    11.1690    24.9890   -19.0730 
   83.7500     2.1520    66.4730    12.2630     9.5620    11.2360    25.0470   -18.8350 
   83.8750     2.1450    63.5530    12.8510    10.0040    11.8550    25.0530   -18.4880 
   84.0000     2.1360    59.2320    13.4320    10.4720    12.1950    25.0490   -18.0190 
   84.1250     2.1300    56.6470    13.6800    10.7290    12.2690    25.0130   -17.4870 
   84.2500     2.1440    55.0810    13.3090    10.5480    13.0200    24.9230   -16.8940 
   84.3750     2.1820    56.0280    12.2070     9.8210    14.1820    24.8280   -16.2720 
   84.5000     2.2350    62.9150    10.5570     8.6440    12.0540    24.7940   -15.6510 
   84.6250     2.2820    70.0520     8.9090     7.4080     8.4090    24.8240   -15.0730 
   84.7500     2.3020    73.1680     7.5850     6.3470     6.4790    24.9020   -14.5680 
   84.8750     2.3040    74.5270     6.7120     5.5760     5.8540    24.9950   -14.1540 
   85.0000     2.3070    79.5600     6.3290     5.1630     5.5570    24.9900   -13.8490 
   85.1250     2.3240    84.7900     6.2500     5.0140     5.2950    24.9030   -13.6440 
   85.2500     2.3490    84.8640     6.3620     5.0580     5.2720    24.8010   -13.5450 
   85.3750     2.3570    81.3550     6.5820     5.2140     5.6130    24.7010   -13.5380 
   85.5000     2.3420    78.3940     6.8590     5.4150     5.7830    24.5560   -13.6090 
   85.6250     2.3120    77.4950     7.1150     5.5970     5.8410    24.3580   -13.7080 
   85.7500     2.2910    76.9840     7.2630     5.7080     5.8560    24.1500   -13.8260 
   85.8750     2.2910    75.8010     7.2220     5.7040     6.0170    23.9930   -13.9340 
   86.0000     2.3060    75.0820     6.9690     5.5600     6.0600    24.1320   -14.0550 
   86.1250     2.3240    76.2910     6.6380     5.3370     5.8460    24.4690   -14.1660 
   86.2500     2.3260    79.0950     6.3600     5.1010     5.7490    24.7960   -14.2730 
   86.3750     2.3150    83.1480     6.2860     4.9470     5.8070    24.9680   -14.3550 
   86.5000     2.3010    85.9790     6.6490     5.0470     5.9950    24.9760   -14.4070 
   86.6250     2.3040    84.7870     7.5020     5.4840     6.4170    24.9320   -14.4320 
   86.7500     2.3490    79.7350     8.8270     6.2870     7.4330    24.9010   -14.4240 
   86.8750     2.4240    75.0500    10.4200     7.3750     9.8240    24.8970   -14.3860 
   87.0000     2.4860    73.8330    11.6920     8.4130    14.5240    24.7700   -14.3100 
   87.1250     2.4890    73.2580    12.0040     8.8950    18.1730    24.6820   -14.2180 
   87.2500     2.4250    72.4230    11.1410     8.5570    15.6990    24.6900   -14.0990 
   87.3750     2.3500    73.3280     9.5330     7.5810     9.2530    24.7810   -13.9890 
   87.5000     2.3060    76.2170     7.9690     6.4520     6.9740    24.8300   -13.8690 
   87.6250     2.3070    79.8370     6.8940     5.5560     6.0830    24.8360   -13.7730 
   87.7500     2.3370    85.0570     6.3430     4.9880     5.8660    24.8420   -13.7040 
   87.8750     2.3560    90.8670     6.1830     4.7160     5.8400    24.8720   -13.6780 
   88.0000     2.3500    93.3460     6.2450     4.6610     5.8480    24.9170   -13.7020 
   88.1250     2.3290    92.7340     6.3490     4.6900     5.5300    24.9710   -13.7540 
   88.2500     2.3130    91.1760     6.4460     4.7580     5.4060    25.0190   -13.8380 
   88.3750     2.3050    88.6470     6.5280     4.8450     5.5050    25.0360   -13.9280 
   88.5000     2.3000    82.6130     6.5990     4.9380     5.5870    25.0160   -14.0470 
   88.6250     2.2940    78.2180     6.6740     5.0300     5.7090    24.9680   -14.1510 
   88.7500     2.2900    77.8530     6.7720     5.1210     5.9180    24.9230   -14.2500 
   88.8750     2.2950    79.8720     6.9070     5.2230     6.0110    24.9120   -14.3310 
   89.0000     2.3030    82.3280     7.0910     5.3420     5.9580    24.9270   -14.3780 
   89.1250     2.3030    84.2090     7.2870     5.4600     5.8920    24.9530   -14.3800 
   89.2500     2.2840    84.3420     7.4340     5.5400     6.0060    25.0010   -14.3400 
   89.3750     2.2620    81.1970     7.4630     5.5350     6.2650    25.0140   -14.2580 
   89.5000     2.2500    77.8730     7.3270     5.4160     6.6180    24.9840   -14.1340 
   89.6250     2.2600    77.2790     7.1300     5.2550     6.6440    24.9320   -13.9800 
   89.7500     2.2960    79.6370     7.0000     5.1360     6.0580    24.8420   -13.7890 
   89.8750     2.3460    84.6680     7.0670     5.1430     5.4030    24.6660   -13.5920 
   90.0000     2.3900    87.6500     7.4590     5.3540     5.5380    24.3720   -13.3830 
   90.1250     2.4090    85.2800     8.0800     5.7210     6.7280    24.1890   -13.2020 
   90.2500     2.3840    80.8140     8.7440     6.1470     8.3800    24.0990   -13.0520 
   90.3750     2.3310    78.7080     9.1950     6.4850     7.6340    24.0180   -12.9460 
   90.5000     2.2770    78.0240     9.1590     6.5590     7.2680    23.9710   -12.8770 
   90.6250     2.2500    76.2000     8.7390     6.3850     7.2140    24.0350   -12.8570 
   90.7500     2.2650    77.1260     8.1330     6.0550     7.0840    24.1780   -12.8780 
   90.8750     2.3000    83.6810     7.5640     5.6960     6.4700    24.3640   -12.9390 
   91.0000     2.3270    89.3350     7.2240     5.4380     6.0940    24.6030   -13.0450 
   91.1250     2.3330    88.7370     7.1210     5.3290     6.0220    24.8090   -13.1930 
   91.2500     2.3110    83.1080     7.2130     5.3660     5.9220    24.9760   -13.3730 
   91.3750     2.2710    76.7940     7.4150     5.5050     5.7130    25.0880   -13.5800 
   91.5000     2.2190    70.4930     7.6090     5.6670     6.0530    25.1650   -13.8050 
   91.6250     2.1680    65.5870     7.7280     5.7890     7.1590    25.1460   -14.0080 
   91.7500     2.1500    66.7050     7.7700     5.8580     8.0480    25.0540   -14.1740 
   91.8750     2.1860    74.1970     7.7750     5.8910     7.5500    24.8030   -14.2820 
   92.0000     2.2690    80.0260     7.8050     5.9070     6.5490    24.4240   -14.3520 
   92.1250     2.3540    80.9090     7.8390     5.8980     7.5050    24.2860   -14.3830 
   92.2500     2.3880    81.2770     7.7880     5.8190     9.0680    24.4060   -14.3910 
   92.3750     2.3780    83.1600     7.5520     5.6190     7.6020    24.5500   -14.3800 
   92.5000     2.3540    83.9820     7.0690     5.2640     6.2560    24.5290   -14.3770 
   92.6250     2.3400    83.8080     6.5050     4.8450     5.7250    24.4350   -14.4010 
   92.7500     2.3480    84.4180     6.0650     4.4830     5.6420    24.3070   -14.4940 
   92.8750     2.3560    86.5470     5.9390     4.3050     5.4940    24.1670   -14.6610 
   93.0000     2.3470    88.2680     6.2990     4.4440     5.4670    24.0240   -14.9280 
   93.1250     2.3160    86.4440     7.0560     4.8670     5.9070    23.9450   -15.2680 
   93.2500     2.2680    78.7730     8.0970     5.5210     7.1220    24.0040   -15.6490 
   93.3750     2.2190    67.9970     9.2070     6.2880     8.2760    24.2780   -16.0830 
   93.5000     2.1830    60.3730    10.0280     6.9530     8.7650    24.7090   -16.5280 
   93.6250     2.1650    56.9420    10.3950     7.3600     8.8100    25.0910   -16.9950 
   93.7500     2.1660    56.4570    10.3660     7.4880     8.7440    25.2620   -17.4530 
   93.8750     2.1750    57.3870    10.1650     7.4400     8.5940    25.2600   -17.9020 
