~V
VERS. 2.00: Ver 2.00
~W
STRT.M 49.0000:
STOP.M 217.0000:
STEP.M 0.1250:
NULL. -999.2500:
UWI. F10685:
~C
DEPT.M :
SP.MV :
DEN.GM/CC :
GR.API :
RML.OHMM :
RI. :
RXO.OHMM :
CALI.CM :
~A
# ...
  105.2500    -7.8430     2.3590    76.4740     8.6120     7.1380     6.5970    24.9580 
  105.3750    -7.8280     2.3600    81.5390     8.4330     7.2370     6.9780    24.8430 
  105.5000    -7.8370     2.3560    83.1500     8.3310     7.2590     7.2010    24.7360 
  105.6250    -7.8480     2.3450    82.0720     8.5850     7.2640     7.0050    24.7180 
  105.7500    -7.8830     2.3310    81.8100     9.1850     7.3730     7.0520    24.7190 
  105.8750    -7.9540     2.3170    82.0820    10.0420     7.6860     7.6460    24.7380 
  106.0000    -8.0380     2.3010    81.3500    11.0080     8.2810     9.5680    24.7860 
  106.1250    -8.1240     2.2830    78.8990    11.9060     9.2180    12.2650    24.7690 
  106.2500    -8.2180     2.2640    75.5770    12.4850    10.3010    13.0710    24.7060 
  106.3750    -8.3130     2.2510    72.0810    12.5640    11.2470    12.3730    24.6240 
  106.5000    -8.4110     2.2460    70.3890    12.1660    11.7310    12.4200    24.5430 
  106.6250    -8.5340     2.2510    72.4230    11.6210    11.4990    11.9150    24.4920 
  106.7500    -8.6580     2.2610    76.9720    11.3040    10.8440    10.3120    24.3000 
  106.8750    -8.7540     2.2700    80.6210    11.2580    10.0770     9.0140    24.0890 
  107.0000    -8.8500     2.2740    81.4620    11.2680     9.4190     8.3090    23.8970 
  107.1250    -8.9510     2.2730    80.0620    11.1220     8.9910     8.2590    23.6010 
  107.2500    -9.0700     2.2710    75.9720    10.9240     8.7940     8.7600    23.0590 
  107.3750    -9.1980     2.2650    70.8830    11.0800     8.9110     9.4760    22.7670 
  107.5000    -9.3200     2.2560    68.5540    12.0820     9.5140     9.9710    22.8460 
  107.6250    -9.4270     2.2400    68.1190    14.7580    11.0750    10.8040    23.2770 
  107.7500    -9.5000     2.2190    65.9250    19.4640    13.9060    13.9390    24.1120 
  107.8750    -9.5640     2.1970    61.8220    26.5240    18.4160    22.2210    24.8640 
  108.0000    -9.6250     2.1800    58.3140    35.5100    24.7120    38.3600    25.1880 
  108.1250    -9.6790     2.1730    56.1040    44.2560    31.8930    54.9730    25.2230 
  108.2500    -9.6890     2.1720    56.5350    49.6300    37.5310    57.7780    25.2330 
  108.3750    -9.6680     2.1710    58.7570    50.5350    40.0520    48.9310    25.2790 
  108.5000    -9.6250     2.1660    60.8100    48.5400    39.7930    43.0160    25.3030 
  108.6250    -9.5750     2.1540    62.9510    46.4440    38.4400    41.1910    25.2740 
  108.7500    -9.5430     2.1390    65.1640    45.6720    37.5770    39.8160    25.2530 
  108.8750    -9.5200     2.1270    64.0450    46.2200    37.5850    40.6200    25.2930 
  109.0000    -9.4910     2.1220    59.8640    47.6180    38.2840    41.5170    25.3210 
  109.1250    -9.4710     2.1270    57.7640    49.2180    39.1320    41.8120    25.3620 
  109.2500    -9.4630     2.1410    59.0710    50.1450    39.5530    42.0410    25.3540 
  109.3750    -9.4740     2.1610    61.1110    49.9630    39.3600    40.3810    25.2860 
  109.5000    -9.5090     2.1810    61.4080    48.7880    38.7360    36.8070    25.0950 
  109.6250    -9.5290     2.1940    59.8790    47.5290    38.1840    33.3860    24.6900 
  109.7500    -9.5430     2.1940    59.2700    47.2220    38.1450    31.7800    24.3100 
  109.8750    -9.5660     2.1830    61.2910    48.2410    38.8160    31.4390    23.8500 
  110.0000    -9.5890     2.1650    62.3590    50.3020    40.1500    34.3660    23.5940 
  110.1250    -9.6080     2.1500    60.2730    52.4700    41.8200    36.1010    23.4350 
  110.2500    -9.6310     2.1400    59.2380    53.6300    43.1690    35.9470    23.2470 
  110.3750    -9.6770     2.1350    59.9430    53.3490    43.6330    35.5020    23.1910 
  110.5000    -9.7170     2.1320    60.1070    51.8630    42.9440    35.4620    23.1730 
  110.6250    -9.7960     2.1280    59.9370    50.1300    41.2620    35.0430    23.1180 
  110.7500    -9.8480     2.1220    61.8950    49.0790    39.4200    33.6780    23.1070 
  110.8750    -9.8950     2.1160    65.4000    48.9340    38.0170    30.8170    23.1130 
  111.0000    -9.9240     2.1120    69.2460    49.4550    37.4540    28.3360    23.1970 
  111.1250    -9.9360     2.1110    71.4440    50.0520    37.9300    32.0790    23.3790 
  111.2500    -9.9210     2.1100    69.8250    49.8720    38.8150    36.1420    23.7690 
  111.3750    -9.8740     2.1060    65.8510    48.4620    39.4130    37.3800    24.1770 
  111.5000    -9.8080     2.0980    64.2910    46.1220    39.2730    36.3590    24.3240 
  111.6250    -9.7180     2.0900    65.6130    43.9000    38.5060    33.6050    24.3450 
  111.7500    -9.6340     2.0890    65.5880    42.4990    37.8790    29.5520    24.3260 
  111.8750    -9.5320     2.0980    62.9120    42.0390    37.9070    26.9940    24.3280 
  112.0000    -9.4480     2.1140    59.9590    42.1840    38.6620    28.5540    24.3650 
  112.1250    -9.4130     2.1280    60.6580    42.1260    39.5410    36.6750    24.3820 
  112.2500    -9.3990     2.1310    63.5900    41.1140    39.5350    38.2920    24.2230 
  112.3750    -9.4090     2.1210    66.1410    38.9710    38.0470    32.1220    24.0500 
  112.5000    -9.4300     2.1050    66.0810    36.0180    35.1220    28.0710    23.8530 
  112.6250    -9.4790     2.1030    64.0710    33.0350    31.4650    25.1090    23.8380 
  112.7500    -9.5460     2.1280    64.1200    30.7600    28.2420    23.1750    23.8050 
  112.8750    -9.6590     2.1870    67.0750    29.4400    26.0490    21.2310    23.7910 
  113.0000    -9.7780     2.2690    70.1670    28.8920    25.0340    19.4910    23.7810 
  113.1250    -9.8770     2.3390    69.7360    29.0210    25.2140    19.5640    23.7400 
  113.2500   -10.0070     2.3630    67.3400    29.6900    26.1660    23.3740    23.6550 
  113.3750   -10.1460     2.3330    64.2980    30.9460    27.6390    29.9380    23.6630 
  113.5000   -10.2970     2.2690    61.1650    32.8620    29.4260    31.1770    23.8300 
  113.6250   -10.4540     2.2020    61.9460    35.7970    31.5780    28.4290    23.8320 
  113.7500   -10.6230     2.1490    66.4480    39.8850    34.3500    27.9200    23.7450 
  113.8750   -10.7650     2.1080    68.8980    45.3880    38.1850    30.7510    23.8860 
  114.0000   -10.8760     2.0710    65.5120    52.2770    43.4590    37.7360    24.0790 
  114.1250   -10.9730     2.0370    61.2050    60.0840    50.2820    49.7790    24.2460 
  114.2500   -11.0560     2.0170    60.1920    67.3340    57.4290    59.1880    24.4600 
  114.3750   -11.1360     2.0200    59.9210    72.6620    63.4440    62.8860    24.7690 
  114.5000   -11.2060     2.0490    57.4650    75.2010    67.1630    61.8560    25.2830 
  114.6250   -11.2580     2.0980    54.7070    74.7320    68.0570    59.4690    25.9240 
  114.7500   -11.2730     2.1450    53.4970    72.6850    67.3250    58.3220    25.9970 
  114.8750   -11.2880     2.1780    53.7600    69.9920    65.7220    58.2000    25.9250 
  115.0000   -11.3040     2.1910    55.5160    67.2220    63.6430    56.2440    25.8500 
  115.1250   -11.3040     2.1850    58.7650    64.8130    61.1800    53.5950    25.8190 
  115.2500   -11.2580     2.1650    60.4890    62.8290    58.4990    51.3310    25.7790 
  115.3750   -11.1890     2.1320    58.4130    61.2540    55.7800    47.7730    25.6440 
  115.5000   -11.0960     2.0900    53.8290    59.9350    53.3140    43.0580    25.3740 
  115.6250   -10.9630     2.0470    51.9300    58.4960    51.4950    40.8290    25.3270 
  115.7500   -10.8310     2.0180    55.1540    56.6360    50.3650    40.7640    25.3020 
  115.8750   -10.6520     2.0100    59.2570    54.5350    49.8850    41.1130    25.2360 
  116.0000   -10.4550     2.0270    59.7350    52.7760    49.9210    41.2210    25.1190 
  116.1250   -10.2430     2.0600    58.2110    52.3100    50.3130    41.3130    25.2100 
  116.2500   -10.0710     2.0990    58.8480    53.2870    50.8620    41.4370    25.2320 
  116.3750    -9.8890     2.1390    60.5130    55.4690    51.5390    41.4420    25.2340 
