~V
VERS. 2.00: Ver 2.00
~W
STRT.M 57.0000:
STOP.M 248.0000:
STEP.M 0.1250:
NULL. -999.2500:
UWI. F10637:
~C
DEPT.M :
SP.MV :
GR.API :
RML.OHMM :
RI. :
RXO.OHMM :
CALI.CM :
DEN.GM/CC :
~A
# ...
  237.0000   -16.5130    42.4430     6.8640     5.7250     7.1160    24.8180     2.3160 
  237.1250   -16.5890    42.0120     6.5120     5.3770     7.1030    25.0590     2.3310 
  237.2500   -16.5410    39.8670     6.5460     5.3090     7.1020    25.2300     2.3560 
  237.3750   -16.3930    37.2110     6.9250     5.5460     7.0960    25.2910     2.4000 
  237.5000   -16.1660    36.7330     7.5090     6.0190     7.0210    25.2960     2.4610 
  237.6250   -15.8790    38.1510     8.0400     6.5470     6.8030    25.3110     2.5190 
  237.7500   -15.5440    39.1190     8.1040     6.7890     6.3700    25.3660     2.5320 
  237.8750   -15.1890    39.0450     7.6170     6.5730     5.7520    25.3740     2.4960 
  238.0000   -14.8340    38.7310     6.7430     5.9540     4.9760    25.3420     2.4290 
  238.1250   -14.4920    38.7310     5.7830     5.1550     4.1730    25.2790     2.3580 
  238.2500   -14.1790    38.7310     5.0130     4.4290     3.6280    25.1990     2.3100 
  238.3750   -13.8900    38.7310     4.4830     3.8830     3.4230    25.0910     2.2910 
  238.5000   -13.6290    38.7310     4.1660     3.5260     3.4450    24.9720     2.2960 
  238.6250   -13.4040    38.7310     4.0130     3.3270     3.5330    24.8530     2.3150 
  238.7500   -13.2210    38.7310     3.9750     3.2530     3.6110    24.7210     2.3360 
  238.8750   -13.0800    38.7310     3.9800     3.2350     3.6650    24.6900     2.3490 
  239.0000   -12.9820    38.7310     3.9880     3.2370     3.6680    24.8440     2.3510 
  239.1250   -12.9220    38.7310     3.9730     3.2350     3.6180    24.9890     2.3470 
  239.2500   -12.8940    38.7310     3.9250     3.2130     3.5430    24.9710     2.3420 
  239.3750   -12.8910    38.7310     3.8640     3.1740     3.4800    24.9280     2.3410 
  239.5000   -12.9070    38.7310     3.8040     3.1250     3.4370    25.0230     2.3400 
  239.6250   -12.9290    38.7310     3.7580     3.0720     3.4110    25.1320     2.3350 
  239.7500   -12.9550    38.7310     3.7320     3.0240     3.3920    25.1310     2.3260 
  239.8750   -12.9810    38.7310     3.7200     2.9840     3.3730    25.1160     2.3160 
  240.0000   -12.9970    38.7310     3.7160     2.9530     3.3500    25.0960     2.3100 
  240.1250   -12.9980    38.7310     3.7160     2.9330     3.3250    25.0180     2.3050 
  240.2500   -12.9890    38.7310     3.7240     2.9280     3.3210    24.8070     2.2980 
  240.3750   -12.9710    38.7310     3.7430     2.9360     3.3240    24.6180     2.2880 
  240.5000   -12.9390    38.7310     3.7720     2.9560     3.3500    24.5310     2.2800 
  240.6250   -12.8990    38.7310     3.8070     2.9840     3.3980    24.5240     2.2770 
  240.7500   -12.8570    38.7310     3.8410     3.0110     3.4650    24.6560     2.2830 
  240.8750   -12.8130    38.7310     3.8690     3.0300     3.5350    24.9460     2.2980 
  241.0000   -12.7740    38.7310     3.8920     3.0380     3.5880    25.2240     2.3170 
  241.1250   -12.7470    38.7310     3.9130     3.0370     3.6340    25.1660     2.3360 
  241.2500   -12.7320    38.7310     3.9360     3.0330     3.6950    24.7850     2.3520 
  241.3750   -12.7310    38.7310     3.9650     3.0320     3.7750    24.6880     2.3620 
  241.5000   -12.7500    38.7310     3.9990     3.0380     3.8580    24.7950     2.3680 
  241.6250   -12.7870    38.7310     4.0360     3.0530     3.9410    24.8120     2.3740 
  241.7500   -12.8400    38.7310     4.0750     3.0800     4.0360    24.7040     2.3820 
  241.8750   -12.9080    38.7310     4.1140     3.1120     4.1400    24.5880     2.3860 
  242.0000   -12.9950    38.7310     4.1540     3.1450     4.2490    24.5450     2.3810 
  242.1250   -13.0970    38.7310     4.1960     3.1750     4.3560    24.4890     2.3700 
  242.2500   -13.2170    38.7310     4.2310     3.1960     4.4330    24.4400     2.3600 
  242.3750   -13.3510    38.7310     4.2530     3.2110     4.4700    24.3910     2.3600 
  242.5000   -13.4920    38.7310     4.2630     3.2200     4.4910    24.3660     2.3670 
  242.6250   -13.6330    38.7310     4.2630     3.2260     4.4930    24.3320     2.3770 
  242.7500   -13.7750    38.7310     4.2620     3.2270     4.4280    24.3410     2.3800 
  242.8750   -13.9130    38.7310     4.2610     3.2260     4.3000    24.3170     2.3750 
  243.0000   -14.0380    38.7310     4.2610     3.2230     4.1550    24.2900     2.3630 
  243.1250   -14.1450    38.7310     4.2540     3.2200     4.0340    24.2850     2.3470 
  243.2500   -14.2240    38.7310     4.2390     3.2190     3.9570    24.1950     2.3320 
  243.3750   -14.2760    38.7310     4.2210     3.2200     3.9040    24.0670     2.3260 
  243.5000   -14.3050    38.7310     4.2110     3.2230     3.8600    23.9770     2.3290 
  243.6250   -14.3190    38.7310     4.2150     3.2240     3.8050    23.9120     2.3320 
  243.7500   -14.3130    38.7310     4.2290     3.2220     3.7380    23.7470     2.3240 
  243.8750   -14.2930    38.7310     4.2390     3.2210     3.6700    23.4110     2.3080 
  244.0000   -14.2590    38.7310     4.2390     3.2210     3.6020    22.6820     2.2920 
  244.1250   -14.2170    38.7310     4.2390     3.2210     3.5340    21.5350     2.2820 
  244.2500   -14.1690    38.7310     4.2390     3.2210     3.4970    19.9860     2.2750 
  244.3750   -14.1170    38.7310     4.2390     3.2210     3.4960    18.2770     2.2640 
  244.5000   -14.0650    38.7310     4.2390     3.2210     3.5220    16.7680     2.2490 
  244.6250   -14.0070    38.7310     4.2390     3.2210     3.5750    16.2510     2.2360 
  244.7500   -13.9420    38.7310     4.2390     3.2210     3.6550    17.3740     2.2360 
  244.8750   -13.8700    38.7310     4.2390     3.2210     3.7380    19.2280     2.2720 
  245.0000   -13.7930    38.7310     4.2390     3.2210     3.7960    21.0010     2.3040 
  245.1250   -13.7080    38.7310     4.2390     3.2210     3.7940    21.9800     2.3250 
  245.2500   -13.6140    38.7310     4.2390     3.2210     3.7000    22.2120     2.3280 
  245.3750   -13.5150    38.7310     4.2390     3.2210     3.5790    22.2340     2.3170 
  245.5000   -13.4050    38.7310     4.2390     3.2210     3.5080    22.2340     2.3060 
  245.6250   -13.2860    38.7310     4.2390     3.2210     3.5140    22.2340     2.3100 
  245.7500   -13.1720    38.7310     4.2390     3.2210     3.5660    22.2340     2.3280 
  245.8750   -13.0710    38.7310     4.2390     3.2210     3.6200    22.2300     2.3470 
  246.0000   -12.9820    38.7310     4.2390     3.2210     3.6470    22.2020     2.3480 
  246.1250   -12.9110    38.7310     4.2390     3.2210     3.6390    22.1020     2.3330 
  246.2500   -12.8600    38.7310     4.2390     3.2210     3.6510    21.9020     2.3100 
  246.3750   -12.8230    38.7310     4.2390     3.2210     3.7010    21.6460     2.2790 
  246.5000   -12.8050    38.7310     4.2390     3.2210     3.7770    21.3050     2.2300 
  246.6250   -12.8060    38.7310     4.2390     3.2210     3.8510    20.6460     2.1610 
  246.7500   -12.6990    38.7310     4.2390     3.2210     3.8930    19.0650     2.0810 
  246.8750  -999.2500    38.7310     4.2390     3.2210     3.9020    16.7780     2.0050 
  247.0000  -999.2500    38.7310     4.2390     3.2210     3.8980    14.8350     1.9530 
  247.1250  -999.2500    38.7310     4.2390     3.2210     3.8940    13.9870     1.9240 
  247.2500  -999.2500    38.7310     4.2390     3.2210     3.8940    13.8940     1.9140 
  247.3750  -999.2500    38.7310     4.2390     3.2210     3.8940    13.8930     1.9110 
  247.5000  -999.2500    38.7310     4.2390     3.2210     3.8940    13.8930     1.9100 
  247.6250  -999.2500    38.7310     4.2390     3.2210     3.8940    13.8930     1.9090 
  247.7500  -999.2500    38.7310     4.2390     3.2210     3.8940    13.8930     1.9100 
  247.8750  -999.2500    38.7310     4.2390     3.2210     3.8940    13.8930     1.9120 
  248.0000  -999.2500    38.7310     4.2390     3.2210     3.8930    13.8930     1.9150 
