~V
VERS. 2.00: Ver 2.00
~W
STRT.M 59.0000:
STOP.M 270.0000:
STEP.M 0.1250:
NULL. -999.2500:
UWI. F10667:
~C
DEPT.M :
GR.API :
RML.OHMM :
RI. :
RXO.OHMM :
CALI.CM :
DEN.GM/CC :
SP.MV :
~A
   59.0000    52.4910    -0.2620     0.2540     0.7140    24.0170     2.6790    80.2180 
   59.1250    55.3940    -0.4740     0.1890     1.0740    24.0170     2.7080    71.1880 
   59.2500    58.0970    -0.3940     0.1590     1.7720    24.0200     2.6630    61.1270 
   59.3750    60.7580    -0.0360     0.1650     2.8720    24.0410     2.5550    50.4240 
   59.5000    62.2830     0.6970     0.3860     5.3490    24.1440     2.4190    39.5380 
   59.6250    61.9770     2.0650     1.1290     7.1420    24.3600     2.2950    29.0240 
   59.7500    61.8940     3.9220     2.4080     8.1760    24.5870     2.2010    19.2870 
   59.8750    62.6610     5.7600     3.6590     8.2040    24.6760     2.1370    10.6540 
   60.0000    63.8780     6.9360     4.7390     8.4020    24.6770     2.0990     3.3690 
   60.1250    62.8080     7.2460     5.5970     8.4500    24.6540     2.0910    -2.1550 
   60.2500    59.7780     7.2950     6.2640     8.5660    24.6010     2.1040    -6.1980 
   60.3750    57.0980     7.4250     6.7800     8.5350    24.5140     2.1310    -9.0880 
   60.5000    58.3840     7.7110     7.1780     8.5700    24.4080     2.1610   -11.1820 
   60.6250    62.7500     8.0490     7.4520     8.5930    24.3860     2.1810   -12.7360 
   60.7500    63.9580     8.2880     7.6330     8.5850    24.3860     2.1910   -14.0810 
   60.8750    63.5690     8.3440     7.7470     8.5120    24.2780     2.1940   -15.2650 
   61.0000    65.2050     8.1980     7.8210     8.5340    24.0780     2.1940   -16.3330 
   61.1250    68.4910     7.8850     7.8750     8.5720    23.9070     2.1950   -17.3230 
   61.2500    69.6350     7.5550     7.9240     8.6310    23.8460     2.1940   -18.2130 
   61.3750    67.8960     7.3550     7.9700     8.7100    23.8420     2.1920   -19.0150 
   61.5000    65.4770     7.4230     8.0210     8.6230    23.8620     2.1870   -19.7630 
   61.6250    63.9790     7.8870     8.0930     8.4430    23.9170     2.1810   -20.4770 
   61.7500    64.0850     8.6170     8.1830     8.5670    24.0020     2.1750   -21.1240 
   61.8750    64.4960     9.4230     8.2750     9.0320    24.0960     2.1690   -21.6980 
   62.0000    62.3740    10.0550     8.3380     9.8070    24.2190     2.1630   -22.1740 
   62.1250    59.5760    10.2340     8.3310    10.3660    24.4050     2.1550   -22.5620 
   62.2500    59.2760    10.0040     8.2550     9.7180    24.5650     2.1470   -22.8910 
   62.3750    60.5560     9.5220     8.1290     8.6140    24.6110     2.1420   -23.1660 
   62.5000    61.0430     8.9990     7.9910     8.0730    24.6040     2.1420   -23.3760 
   62.6250    60.1750     8.6490     7.8920     7.9750    24.6000     2.1490   -23.4590 
   62.7500    59.6850     8.5290     7.8440     7.8280    24.6000     2.1580   -23.4560 
   62.8750    59.2330     8.6240     7.8320     7.7830    24.6060     2.1660   -23.4250 
   63.0000    59.2260     8.8560     7.8150     7.8580    24.6270     2.1690   -23.3890 
   63.1250    59.7810     9.1070     7.7530     7.9420    24.6690     2.1710   -23.2760 
   63.2500    60.6350     9.2820     7.6680     8.0910    24.6820     2.1770   -23.0860 
   63.3750    62.4470     9.3590     7.6080     7.9510    24.6340     2.1910   -22.8420 
   63.5000    66.0800     9.3540     7.6150     7.2840    24.5410     2.2170   -22.5590 
   63.6250    69.5440     9.2790     7.6960     6.7850    24.4770     2.2520   -22.2690 
   63.7500    70.8240     9.1430     7.7830     8.0410    24.3890     2.2860   -22.0340 
   63.8750    70.8360     8.9320     7.8130    11.9860    24.2510     2.3070   -21.8760 
   64.0000    71.5670     8.6580     7.7450    12.9090    24.0990     2.3060   -21.8080 
   64.1250    72.0670     8.4090     7.5840     9.2590    24.0110     2.2800   -21.8730 
   64.2500    70.9510     8.2930     7.4080     7.6520    23.9880     2.2430   -22.1070 
   64.3750    69.1170     8.3650     7.2780     7.5240    24.0560     2.2070   -22.4820 
   64.5000    67.2460     8.6040     7.2280     7.8480    24.2110     2.1800   -22.9310 
   64.6250    66.1050     8.9110     7.2570     8.0230    24.4400     2.1690   -23.4300 
   64.7500    64.1460     9.1370     7.3120     8.1070    24.6440     2.1680   -23.9290 
   64.8750    62.1640     9.1940     7.3540     8.1940    24.7380     2.1710   -24.3500 
   65.0000    61.5010     9.0650     7.3640     8.2520    24.7520     2.1700   -24.6340 
   65.1250    61.2470     8.7780     7.3370     8.2890    24.8400     2.1590   -24.7970 
   65.2500    59.8490     8.4330     7.2870     8.2070    25.1220     2.1420   -24.8230 
   65.3750    58.3350     8.0990     7.2250     8.1760    25.5610     2.1270   -24.6890 
   65.5000    58.4090     7.8350     7.1640     8.1760    25.8410     2.1250   -24.4690 
   65.6250    60.3760     7.7090     7.1230     7.8030    25.3360     2.1390   -24.2030 
   65.7500    62.4560     7.7160     7.1100     7.3960    24.4400     2.1590   -23.8520 
   65.8750    64.0570     7.8410     7.1250     7.1520    23.7710     2.1760   -23.4470 
   66.0000    65.5740     8.0480     7.1650     7.0240    23.4760     2.1840   -23.0470 
   66.1250    66.7950     8.2730     7.2300     6.9820    23.3800     2.1840   -22.6120 
   66.2500    67.8070     8.4280     7.2980     6.9880    23.3230     2.1810   -22.1400 
   66.3750    68.2330     8.4240     7.3330     6.9980    23.2850     2.1800   -21.6230 
   66.5000    69.7950     8.1860     7.2750     7.0290    23.2630     2.1870   -21.0200 
   66.6250    76.3020     7.6420     7.0360     6.9670    23.2360     2.2070   -20.3610 
   66.7500    87.5190     6.9030     6.6230     6.5940    23.2270     2.2370   -19.6870 
   66.8750   100.5030     6.0980     6.0740     5.8150    23.2420     2.2720   -18.9990 
   67.0000   111.1080     5.3790     5.4740     4.9770    23.2970     2.3050   -18.3100 
   67.1250   115.4420     4.9260     4.9640     4.6270    23.3850     2.3260   -17.6910 
   67.2500   115.2580     4.7750     4.6360     4.4750    23.4820     2.3390   -17.1540 
   67.3750   110.5110     4.9240     4.5380     4.4340    23.5770     2.3460   -16.7270 
   67.5000   101.2650     5.3170     4.6650     4.5490    23.6650     2.3470   -16.4490 
   67.6250    89.2250     5.8530     4.9810     5.0070    23.6700     2.3390   -16.2690 
   67.7500    80.8830     6.3660     5.3650     5.7200    23.6170     2.3220   -16.1100 
   67.8750    79.6080     6.7410     5.7290     6.0890    23.6170     2.3000   -16.0020 
   68.0000    82.0650     6.9080     6.0030     6.2840    23.6820     2.2810   -15.9480 
   68.1250    82.5430     6.8280     6.1060     6.4490    23.7500     2.2700   -15.8430 
   68.2500    81.3960     6.5950     6.0440     6.5180    23.8160     2.2700   -15.6710 
   68.3750    82.4290     6.2870     5.8420     6.4200    23.9010     2.2790   -15.4750 
   68.5000    86.5500     5.9790     5.5630     6.4420    24.0000     2.2940   -15.2590 
   68.6250    89.6540     5.7520     5.2970     5.4850    24.0460     2.3140   -15.0190 
   68.7500    89.0770     5.6330     5.1140     4.9980    24.0500     2.3310   -14.8160 
   68.8750    86.8220     5.6320     5.0430     5.0410    24.0320     2.3430   -14.6590 
   69.0000    85.5780     5.7230     5.0830     5.3130    24.0190     2.3440   -14.5140 
   69.1250    86.0000     5.8530     5.2150     5.3720    24.0430     2.3340   -14.3890 
   69.2500    84.1380     5.9580     5.3850     5.3370    24.0690     2.3180   -14.3430 
   69.3750    79.9540     6.0190     5.5590     5.4180    24.0720     2.3020   -14.3660 
   69.5000    76.3080     6.0540     5.7150     5.7220    24.0650     2.2900   -14.4040 
   69.6250    74.4920     6.1110     5.8370     5.6800    24.0500     2.2780   -14.4500 
   69.7500    73.9670     6.2080     5.9260     5.4970    24.0410     2.2660   -14.5350 
   69.8750    75.6670     6.3320     5.9730     5.5110    24.0230     2.2560   -14.6070 
   70.0000    80.5540     6.4390     5.9580     6.0020    23.9590     2.2530   -14.6180 
   70.1250    86.9240     6.4580     5.8440     6.1130    23.9140     2.2650   -14.6320 
