~V
VERS. 2.00: Ver 2.00
~W
STRT.M 61.0000:
STOP.M 247.0000:
STEP.M 0.1250:
NULL. -999.2500:
UWI. F10600:
~C
DEPT.M :
GR.API :
RML.OHMM :
RI. :
RXO.OHMM :
CALI.CM :
DEN.GM/CC :
SP.MV :
~A
# ...
   94.7500    69.2820     9.0730     7.4490    11.8600    24.6890     2.1460   -37.1700 
   94.8750    70.4490     9.2600     7.4360     8.7960    24.5750     2.1490   -37.2720 
   95.0000    72.6010     9.3900     7.2950     7.8850    24.4440     2.1710   -37.3030 
   95.1250    73.2280     9.5640     7.0810     7.8400    24.2930     2.1970   -37.1890 
   95.2500    70.9500     9.7210     6.9230     7.7700    24.2000     2.2160   -36.9800 
   95.3750    67.8570     9.7140     6.8900     7.6340    24.1580     2.2240   -36.7060 
   95.5000    66.5450     9.4580     6.9760     7.4390    24.1510     2.2250   -36.3400 
   95.6250    68.4100     9.0170     7.1030     7.3540    24.1590     2.2270   -35.8750 
   95.7500    70.4400     8.6520     7.1750     7.3800    24.1650     2.2320   -35.3860 
   95.8750    71.6270     8.5300     7.1670     7.4080    24.1780     2.2370   -34.8080 
   96.0000    72.9920     8.6660     7.1140     7.4080    24.2050     2.2370   -34.1070 
   96.1250    73.6360     8.8980     7.0890     7.4970    24.2340     2.2290   -33.3460 
   96.2500    73.7270     9.0040     7.1220     7.7500    24.2490     2.2130   -32.5620 
   96.3750    75.1700     8.9110     7.1830     7.7690    24.2600     2.1930   -31.6700 
   96.5000    78.6430     8.6650     7.2020     7.2770    24.2810     2.1760   -30.6920 
   96.6250    82.8530     8.3890     7.0930     6.6450    24.2950     2.1710   -29.7450 
   96.7500    84.7470     8.2050     6.8770     6.2230    24.2840     2.1790   -28.7900 
   96.8750    84.0840     8.1520     6.6170     6.0950    24.2410     2.1980   -27.8290 
   97.0000    82.9710     8.1880     6.3990     6.2720    24.1780     2.2200   -26.9270 
   97.1250    83.3880     8.1940     6.3000     6.4370    24.1500     2.2380   -25.9900 
   97.2500    86.6660     8.0710     6.2740     6.5470    24.1410     2.2500   -25.0530 
   97.3750    92.3880     7.7950     6.2310     6.2300    24.1600     2.2590   -24.2470 
   97.5000    97.9690     7.4100     6.0810     5.5920    24.2510     2.2690   -23.5760 
   97.6250    99.6610     6.9980     5.7820     5.3840    24.4680     2.2830   -22.9860 
   97.7500    99.0590     6.6200     5.4380     5.3360    24.6560     2.2970   -22.4950 
   97.8750    98.4180     6.3000     5.1590     5.2940    24.7190     2.3100   -22.1770 
   98.0000    97.7480     6.0730     5.0280     5.1160    24.7000     2.3180   -22.0090 
   98.1250    95.8180     6.0100     5.0680     4.9380    24.6670     2.3210   -22.0300 
   98.2500    92.5020     6.1240     5.1860     4.8510    24.6080     2.3190   -22.2540 
   98.3750    88.4490     6.3910     5.3100     5.0930    24.5160     2.3160   -22.5720 
   98.5000    84.8980     6.7140     5.4100     5.5990    24.4010     2.3150   -22.9180 
   98.6250    82.7500     6.9310     5.5000     6.1430    24.2480     2.3200   -23.2670 
   98.7500    82.1350     6.9800     5.6120     6.2730    24.1440     2.3260   -23.6070 
   98.8750    82.8880     6.9030     5.7430     6.1000    24.0910     2.3300   -23.9120 
   99.0000    83.8450     6.8050     5.8540     5.8230    24.0660     2.3270   -24.1370 
   99.1250    83.1720     6.8130     5.8950     5.8990    24.0530     2.3150   -24.3050 
   99.2500    81.4300     6.9260     5.8740     6.1150    24.0330     2.2970   -24.3650 
   99.3750    79.5430     7.0520     5.8280     6.4380    24.0020     2.2820   -24.2830 
   99.5000    78.8410     7.0600     5.7890     7.0190    24.0090     2.2760   -24.1180 
   99.6250    81.1790     6.8600     5.7490     7.1740    24.0910     2.2830   -23.9370 
   99.7500    84.2410     6.5600     5.6630     6.5430    24.1970     2.2950   -23.7120 
   99.8750    86.2430     6.3120     5.5100     5.6760    24.2550     2.3090   -23.4690 
  100.0000    85.9170     6.2480     5.3130     5.2680    24.2710     2.3230   -23.2890 
  100.1250    82.8190     6.4030     5.1510     5.3590    24.2670     2.3470   -23.1600 
  100.2500    79.8950     6.5910     5.0850     5.7450    24.2850     2.3810   -23.0340 
  100.3750    80.6800     6.6250     5.1340     6.1080    24.3680     2.4160   -23.0270 
  100.5000    83.6200     6.4010     5.2640     6.2080    24.5200     2.4360   -23.1750 
  100.6250    83.9800     5.9580     5.4080     6.0170    24.7100     2.4250   -23.4040 
  100.7500    83.3820     5.5410     5.5030     5.4440    24.9100     2.3920   -23.6850 
  100.8750    83.4790     5.3320     5.5210     5.3070    25.0420     2.3560   -24.0080 
  101.0000    82.7430     5.3970     5.4610     5.3520    25.0270     2.3310   -24.3300 
  101.1250    82.6280     5.6930     5.3510     5.3680    24.8930     2.3220   -24.6450 
  101.2500    83.0520     6.0470     5.2660     5.4860    24.7960     2.3190   -24.9910 
  101.3750    81.9030     6.3620     5.2730     5.4630    24.7530     2.3140   -25.3670 
  101.5000    79.3210     6.6110     5.4120     5.6600    24.7370     2.3060   -25.7000 
  101.6250    77.8110     6.8170     5.6790     6.0050    24.7030     2.2960   -25.9780 
  101.7500    78.3130     7.0130     5.9680     6.2720    24.6390     2.2840   -26.2850 
  101.8750    78.1650     7.1950     6.1780     6.3950    24.5810     2.2740   -26.5260 
  102.0000    77.3960     7.3500     6.2490     6.5350    24.5550     2.2660   -26.6960 
  102.1250    77.0930     7.4900     6.1840     6.6720    24.5520     2.2660   -26.8740 
  102.2500    77.2280     7.6510     6.1060     6.8040    24.5660     2.2750   -27.0000 
  102.3750    77.7010     7.8670     6.1370     7.3120    24.6110     2.2890   -27.0190 
  102.5000    75.7190     8.1800     6.3860     8.9550    24.6900     2.3010   -26.9940 
  102.6250    73.3210     8.7220     6.9870    13.5550    24.7260     2.3060   -26.9700 
  102.7500    72.6360     9.6230     7.9390    21.6160    24.7380     2.3080   -26.8420 
  102.8750    71.7820    11.0590     9.2750    31.2690    24.7400     2.3210   -26.6960 
  103.0000    68.8180    13.1740    11.0080    39.5290    24.7410     2.3600   -26.5620 
  103.1250    64.8740    15.9980    13.0990    42.5850    24.7370     2.4330   -26.3650 
  103.2500    63.9790    18.8310    15.1490    42.7960    24.7090     2.5080   -26.2350 
  103.3750    64.6750    20.6270    16.5640    41.6930    24.6360     2.5520   -26.1650 
  103.5000    64.9770    20.3750    16.7110    38.5220    24.5540     2.5370   -26.0510 
  103.6250    65.5750    17.6590    15.1430    33.3280    24.5540     2.4570   -25.8560 
  103.7500    67.5160    13.9760    12.6330    25.8800    24.6080     2.3620   -25.6690 
  103.8750    70.2030    10.5190     9.9260    16.8550    24.6120     2.2940   -25.4580 
  104.0000    72.1050     7.9800     7.6020     9.1940    24.5080     2.2760   -25.2070 
  104.1250    75.4140     6.6590     6.0660     6.1190    24.3440     2.3040   -25.0510 
  104.2500    80.7120     6.1650     5.2280     4.9560    24.2770     2.3400   -25.0110 
  104.3750    84.8870     6.2220     4.9790     4.8710    24.2650     2.3570   -25.0720 
  104.5000    86.2330     6.5760     5.1600     5.3230    24.2690     2.3480   -25.2430 
  104.6250    84.3200     7.0250     5.5880     6.0100    24.2710     2.3160   -25.5660 
  104.7500    80.6680     7.4290     6.0280     6.6280    24.2710     2.2820   -26.0030 
  104.8750    75.8000     7.7250     6.3720     7.3810    24.2600     2.2560   -26.4830 
  105.0000    72.1630     7.8740     6.5960     8.0340    24.2230     2.2410   -26.9460 
  105.1250    73.3160     7.8370     6.7260     7.3450    24.1660     2.2380   -27.3520 
  105.2500    77.4220     7.6860     6.8060     6.8860    24.1400     2.2410   -27.5950 
  105.3750    82.4790     7.5240     6.8150     6.6810    24.1340     2.2460   -27.6830 
  105.5000    86.0480     7.4620     6.7210     6.6130    24.1340     2.2480   -27.7120 
  105.6250    85.9550     7.5940     6.5180     6.5550    24.1340     2.2470   -27.6760 
  105.7500    83.8290     7.8450     6.3080     6.5360    24.1340     2.2460   -27.5360 
  105.8750    81.5360     8.1000     6.1790     6.4860    24.1350     2.2470   -27.4080 
