~V
VERS. 2.00: Ver 2.00
~W
STRT.M 50.0000:
STOP.M 212.0000:
STEP.M 0.1250:
NULL. -999.2500:
UWI. F10691:
~C
DEPT.M :
GR.API :
RML.OHMM :
RI. :
RXO.OHMM :
CALI.CM :
SP.MV :
DEN.GM/CC :
~A
# ...
  162.5000    65.3670     9.5170     6.9950     8.0740    25.5340   -21.3150     2.3780 
  162.6250    66.2780     9.7710     7.1930     8.5200    25.5380   -21.2960     2.3650 
  162.7500    65.1500    10.0080     7.3850     9.1010    25.5380   -21.2460     2.3590 
  162.8750    64.7070    10.2150     7.5630     9.3690    25.5350   -21.1640     2.3610 
  163.0000    66.0540    10.4020     7.7290     9.4600    25.5250   -21.0730     2.3680 
  163.1250    66.8980    10.6150     7.9110     9.7280    25.4770   -20.9820     2.3780 
  163.2500    65.5840    10.8970     8.1390     9.7430    25.4990   -20.8880     2.3860 
  163.3750    62.3810    11.2460     8.4240     9.7970    25.5150   -20.7720     2.3880 
  163.5000    59.6910    11.6100     8.7410    10.2750    25.4370   -20.6300     2.3820 
  163.6250    60.1670    11.8740     9.0190    10.6250    25.4050   -20.4830     2.3630 
  163.7500    62.0300    11.9800     9.1990    10.3110    25.5060   -20.3200     2.3350 
  163.8750    62.8380    11.9250     9.2580    10.2340    25.6420   -20.1530     2.3030 
  164.0000    62.6620    11.7580     9.2120    10.3660    25.6730   -19.9800     2.2740 
  164.1250    62.4310    11.5450     9.1030    10.2350    25.6430   -19.8170     2.2590 
  164.2500    61.0020    11.3480     8.9880     9.8880    25.5410   -19.6850     2.2590 
  164.3750    57.9470    11.1760     8.8840     9.4310    25.4780   -19.5990     2.2720 
  164.5000    54.9220    11.0250     8.7930     9.0890    25.4930   -19.5550     2.2870 
  164.6250    54.5000    10.9020     8.7220     9.0990    25.4800   -19.5330     2.2950 
  164.7500    55.4500    10.8140     8.6880     9.1510    25.4950   -19.5110     2.2950 
  164.8750    55.6780    10.7640     8.7010     9.1910    25.5150   -19.4890     2.2920 
  165.0000    55.1980    10.7430     8.7590     9.5020    25.4720   -19.4540     2.2910 
  165.1250    54.5710    10.7350     8.8430    10.0700    25.4640   -19.3970     2.2940 
  165.2500    55.4570    10.7150     8.9150    10.0970    25.4610   -19.3060     2.2970 
  165.3750    59.5410    10.6560     8.9460     9.5880    25.4580   -19.1690     2.2970 
  165.5000    63.9510    10.5320     8.9070     9.0570    25.4470   -18.9930     2.2960 
  165.6250    63.4170    10.2990     8.7570     8.6840    25.3910   -18.7690     2.2950 
  165.7500    60.3540     9.9660     8.5010     8.6510    25.4110   -18.5270     2.2960 
  165.8750    59.1190     9.5500     8.1520     8.3920    25.4470   -18.2530     2.3010 
  166.0000    60.2410     9.0950     7.7460     7.8220    25.4490   -17.9400     2.3080 
  166.1250    61.0080     8.6680     7.3390     7.2470    25.4410   -17.5790     2.3130 
  166.2500    61.3150     8.3220     6.9800     6.9250    25.4500   -17.2090     2.3150 
  166.3750    62.1580     8.1190     6.7180     6.8230    25.4290   -16.8520     2.3180 
  166.5000    62.7640     8.1510     6.6180     6.9470    25.4840   -16.5260     2.3290 
  166.6250    62.8120     8.5770     6.7960     7.1290    25.4560   -16.2640     2.3580 
  166.7500    62.1150     9.4180     7.2780     7.2110    25.3490   -16.0730     2.3970 
  166.8750    59.5590    10.7070     8.0960     7.4790    25.3220   -15.9450     2.4300 
  167.0000    56.9860    12.3960     9.2440     8.4090    25.1620   -15.8880     2.4370 
  167.1250    57.6090    14.3210    10.6570    10.2230    24.9210   -15.9040     2.4050 
  167.2500    59.4900    16.1470    12.0930    12.5820    24.8690   -15.8980     2.3560 
  167.3750    57.8610    17.6900    13.3700    15.1880    25.1750   -15.8340     2.3110 
  167.5000    53.2200    18.9930    14.4540    17.8210    25.1760   -15.7140     2.2880 
  167.6250    51.2030    20.4080    15.5630    18.5140    25.0290   -15.5450     2.3070 
  167.7500    50.6360    22.2880    17.0080    21.0810    25.0670   -15.3240     2.3590 
  167.8750    49.7610    24.7320    18.9380    23.1750    25.1320   -15.0760     2.4290 
  168.0000    48.1390    27.5380    21.2810    26.2680    25.2150   -14.8190     2.4860 
  168.1250    47.2680    30.1200    23.6520    35.4650    25.0140   -14.5570     2.4900 
  168.2500    47.0650    31.8830    25.4950    41.9860    24.9280   -14.3380     2.4490 
  168.3750    47.8100    32.5470    26.4690    33.6200    24.9340   -14.1880     2.4000 
  168.5000    48.9170    32.2300    26.5580    25.5780    25.0670   -14.0950     2.3820 
  168.6250    47.3640    31.2580    25.9430    24.3740    25.1350   -14.0470     2.4070 
  168.7500    44.3310    30.1020    25.0590    27.6430    24.9830   -14.0230     2.4330 
  168.8750    43.4660    28.9570    24.1360    32.4050    24.7230   -14.0040     2.4250 
  169.0000    46.4980    27.9280    23.3180    31.3180    24.4570   -13.9820     2.3780 
  169.1250    50.5010    27.1370    22.7130    24.6620    24.6070   -13.9750     2.3200 
  169.2500    49.7360    26.6190    22.3320    20.3900    24.9270   -13.9590     2.2820 
  169.3750    46.3970    26.3570    22.1730    18.7390    24.9020   -13.9150     2.2630 
  169.5000    45.4310    26.2350    22.1740    19.6590    24.7400   -13.8500     2.2530 
  169.6250    48.2220    26.1060    22.2290    19.4780    24.4720   -13.7880     2.2440 
  169.7500    51.9020    25.9670    22.2700    19.3670    24.7850   -13.7660     2.2390 
  169.8750    53.3670    25.9480    22.3430    19.1590    25.2290   -13.7810     2.2410 
  170.0000    51.3830    26.2010    22.5360    19.4180    25.4880   -13.8100     2.2480 
  170.1250    48.5090    26.8250    22.9450    20.4140    25.4640   -13.8430     2.2590 
  170.2500    47.7400    27.6510    23.5090    21.7600    25.2700   -13.8910     2.2670 
  170.3750    49.6260    28.4740    24.1010    22.8350    25.2820   -13.9710     2.2710 
  170.5000    52.3000    29.0910    24.5490    23.8830    25.4890   -14.0810     2.2740 
  170.6250    53.2330    29.3450    24.6810    24.0010    25.5230   -14.2090     2.2830 
  170.7500    51.9310    29.3350    24.5640    24.3870    25.4960   -14.3120     2.2970 
  170.8750    48.2220    29.1870    24.3140    23.6990    25.3450   -14.3920     2.3140 
  171.0000    43.9570    29.0700    24.0910    22.2720    25.2910   -14.4750     2.3320 
  171.1250    41.5870    29.2560    24.1370    21.8780    25.3000   -14.5760     2.3430 
  171.2500    43.9310    29.8990    24.5800    21.9940    25.2260   -14.6840     2.3420 
  171.3750    48.7330    31.0660    25.4910    22.5180    25.2220   -14.7910     2.3280 
  171.5000    49.8690    32.6800    26.8380    24.3910    25.3460   -14.8920     2.3070 
  171.6250    47.3070    34.4930    28.4700    27.4980    25.3710   -14.9480     2.2880 
  171.7500    46.8790    36.0790    30.0440    29.9540    25.3990   -14.9760     2.2750 
  171.8750    48.2110    37.0850    31.2740    30.9440    25.4400   -14.9860     2.2670 
  172.0000    47.9500    37.2270    31.9010    31.1530    25.4700   -14.9620     2.2550 
  172.1250    46.1890    36.1710    31.5570    31.2980    25.5280   -14.9060     2.2390 
  172.2500    46.1030    34.1940    30.3290    30.3580    25.5420   -14.8350     2.2290 
  172.3750    48.1320    31.6480    28.4320    28.3440    25.5810   -14.7550     2.2330 
  172.5000    50.2170    28.9760    26.2330    25.8830    25.5920   -14.6540     2.2500 
  172.6250    50.6380    26.6420    24.1620    22.6080    25.5610   -14.5490     2.2630 
  172.7500    50.0050    24.8170    22.4670    19.8770    25.5240   -14.4470     2.2600 
  172.8750    50.2490    23.4950    21.2090    18.5930    25.6200   -14.3550     2.2410 
  173.0000    52.5360    22.5230    20.3110    19.0900    25.6250   -14.2900     2.2160 
  173.1250    54.5330    21.6600    19.6140    19.1300    25.5350   -14.2490     2.2030 
  173.2500    54.4350    20.6700    18.8820    18.1050    25.4540   -14.2300     2.2060 
  173.3750    52.8110    19.5000    18.0120    16.9150    25.3930   -14.2160     2.2160 
  173.5000    50.9650    18.2690    17.0410    16.3370    25.3190   -14.2130     2.2270 
  173.6250    50.6670    17.3020    16.1900    15.8370    25.3050   -14.2430     2.2330 
