~V
VERS. 2.00: Ver 2.00
~W
STRT.M 58.0000:
STOP.M 240.0000:
STEP.M 0.1250:
NULL. -999.2500:
UWI. F10642:
~C
DEPT.M :
SP.MV :
GR.API :
RML.OHMM :
RI. :
RXO.OHMM :
CALI.CM :
DEN.GM/CC :
~A
# ...
  181.7500   -26.8610    65.1070    15.8630    13.8610    19.0390    23.9300     2.3190 
  181.8750   -27.0720    61.7020    18.0760    15.8190    19.9720    24.0620     2.3080 
  182.0000   -27.2580    57.9610    19.5990    17.1680    20.0210    24.1200     2.2970 
  182.1250   -27.3800    56.9670    20.1750    17.6770    20.3690    24.1280     2.2880 
  182.2500   -27.4540    58.7340    20.2160    17.7130    20.2110    24.1050     2.2840 
  182.3750   -27.4670    61.6880    20.0970    17.6080    19.5810    24.0340     2.2800 
  182.5000   -27.4350    62.4620    20.1400    17.6460    18.1960    23.8020     2.2720 
  182.6250   -27.3330    60.4120    20.6420    18.0900    16.9720    23.3980     2.2650 
  182.7500   -27.2000    56.9130    21.6380    18.9720    16.7320    22.9410     2.2760 
  182.8750   -27.0310    54.8050    23.1290    20.2910    17.8230    22.4830     2.3080 
  183.0000   -26.8430    53.9770    25.0560    21.9960    20.7090    22.1770     2.3430 
  183.1250   -26.6450    53.7960    27.3220    24.0020    24.1950    22.4710     2.3470 
  183.2500   -26.4770    53.6000    29.6920    26.0990    27.2850    22.9700     2.3170 
  183.3750   -26.3230    53.4980    31.9930    28.1360    28.4000    23.2450     2.2710 
  183.5000   -26.1960    54.5200    34.0600    29.9640    30.5840    23.2510     2.2360 
  183.6250   -26.1110    55.5180    35.6340    31.3580    34.2820    23.3040     2.2300 
  183.7500   -26.0590    55.3630    36.6610    32.2670    35.7110    23.5630     2.2410 
  183.8750   -26.0390    54.0930    37.1350    32.6860    34.6300    23.8660     2.2570 
  184.0000   -26.0500    52.2550    37.1340    32.6850    33.4750    24.0660     2.2750 
  184.1250   -26.1050    52.4310    36.7450    32.3410    33.2940    24.0870     2.2960 
  184.2500   -26.1810    53.5970    36.1650    31.8270    33.8360    24.0210     2.3130 
  184.3750   -26.2980    52.2340    35.4880    31.2280    34.3460    23.8980     2.3210 
  184.5000   -26.4160    49.2550    34.7770    30.5990    33.0660    23.7370     2.3210 
  184.6250   -26.5430    51.1710    34.1100    30.0090    30.1720    23.5150     2.3180 
  184.7500   -26.6630    56.1840    33.5830    29.5430    28.9310    23.4350     2.3120 
  184.8750   -26.7970    57.7310    33.2870    29.2800    29.6000    23.6000     2.3000 
  185.0000   -26.9350    55.6940    33.2760    29.2710    31.1100    23.9650     2.2820 
  185.1250   -27.0580    56.3110    33.5860    29.5450    31.5700    24.2260     2.2630 
  185.2500   -27.1510    56.9900    34.0760    29.9790    31.1990    24.3200     2.2520 
  185.3750   -27.2030    54.3970    34.6050    30.4470    31.7330    24.3070     2.2540 
  185.5000   -27.2340    51.6370    35.0010    30.7970    32.5310    24.2610     2.2670 
  185.6250   -27.2220    52.0560    35.0410    30.8330    32.7440    24.1970     2.2750 
  185.7500   -27.1790    53.5250    34.7200    30.5480    32.6730    24.1920     2.2680 
  185.8750   -27.0950    53.2950    34.0990    29.9990    32.1390    24.2870     2.2490 
  186.0000   -26.9840    52.3440    33.3300    29.3180    31.1860    24.4070     2.2280 
  186.1250   -26.8250    52.7670    32.6590    28.7250    29.7140    24.4450     2.2200 
  186.2500   -26.6570    53.5600    32.3040    28.4110    28.9260    24.4110     2.2280 
  186.3750   -26.4750    55.1750    32.4230    28.5160    29.0980    24.3380     2.2430 
  186.5000   -26.3120    57.1270    33.1070    29.1210    29.6200    24.2630     2.2480 
  186.6250   -26.1760    58.1630    34.4340    30.2950    30.6720    24.2040     2.2290 
  186.7500   -26.0860    56.1530    36.1720    31.8340    33.1580    24.2330     2.1980 
  186.8750   -26.0280    52.9260    38.1580    33.5910    36.1870    24.2460     2.1740 
  187.0000   -25.9950    51.7570    40.3110    35.4960    38.5440    24.1450     2.1770 
  187.1250   -26.0070    53.4000    42.8090    37.7070    38.2410    23.8900     2.2140 
  187.2500   -26.0440    55.7170    45.8000    40.3540    38.6580    23.6270     2.2640 
  187.3750   -26.0940    56.8210    49.0020    43.1870    41.5700    23.4670     2.3130 
  187.5000   -26.1350    55.1810    50.9190    44.8840    42.6420    23.4100     2.3680 
  187.6250   -26.1410    50.1160    47.7590    42.0870    41.8700    23.4220     2.4390 
  187.7500   -26.0990    46.6440    39.1170    34.4400    38.5350    23.4780     2.5030 
  187.8750   -26.0100    47.7800    28.0450    24.6410    32.7740    23.5790     2.5310 
  188.0000   -25.8790    51.9640    18.3770    16.0860    20.1350    23.5600     2.5070 
  188.1250   -25.7170    56.1830    12.1980    10.6250    10.8910    23.1310     2.4470 
  188.2500   -25.5220    58.2370     8.4670     7.3630     5.4260    22.5470     2.3940 
  188.3750   -25.3220    56.4200     6.3660     5.5360     3.8420    22.0450     2.3640 
  188.5000   -25.1220    51.2360     5.2380     4.5550     3.4890    21.5750     2.3590 
  188.6250   -24.9430    47.6940     4.7370     4.1190     3.6060    21.3710     2.3610 
  188.7500   -24.8020    49.5190     4.5470     3.9540     3.9940    21.4420     2.3530 
  188.8750   -24.7050    55.2550     4.5720     3.9760     4.2830    21.6970     2.3320 
  189.0000   -24.6700    61.5170     4.7820     4.1580     4.2060    22.2200     2.3040 
  189.1250   -24.7010    68.5110     5.2300     4.5480     4.5490    22.9290     2.2860 
  189.2500   -24.8170    75.9530     5.8990     5.1290     5.9600    23.6650     2.2850 
  189.3750   -24.9920    81.4980     6.7470     5.8670     7.9930    24.1320     2.3080 
  189.5000   -25.2070    84.5810     7.6610     6.6610     9.2190    24.3200     2.3460 
  189.6250   -25.4490    88.5250     8.4140     7.3160     9.2940    24.3590     2.3820 
  189.7500   -25.7080    92.1570     8.8570     7.7020     9.1960    24.3650     2.4080 
  189.8750   -25.9860    91.2430     8.9680     7.7980     9.2050    24.3610     2.4230 
  190.0000   -26.2760    87.6940     8.8400     7.6870     9.2240    24.3520     2.4280 
  190.1250   -26.5500    87.8410     8.6170     7.4930     9.1120    24.3680     2.4270 
  190.2500   -26.8160    89.9410     8.4200     7.3220     8.9990    24.3690     2.4280 
  190.3750   -27.0720    89.8310     8.2950     7.2130     8.8920    24.3630     2.4320 
  190.5000   -27.3250    89.6570     8.2610     7.1830     8.7530    24.3520     2.4330 
  190.6250   -27.5850    94.7180     8.3310     7.2450     8.6400    24.3460     2.4230 
  190.7500   -27.8440   100.1430     8.4670     7.3620     8.7170    24.3340     2.4050 
  190.8750   -28.0900   101.9550     8.6200     7.4960     8.9570    24.3390     2.3890 
  191.0000   -28.3020   101.4060     8.7340     7.5950     9.2460    24.3620     2.3840 
  191.1250   -28.4850   102.3620     8.7390     7.5990     9.4920    24.3840     2.3940 
  191.2500   -28.5920   105.4220     8.6440     7.5160     9.2480    24.3980     2.4060 
  191.3750   -28.6300   108.6570     8.5130     7.4030     8.6700    24.4050     2.4120 
  191.5000   -28.5890   110.9710     8.4580     7.3550     8.2720    24.4270     2.4140 
  191.6250   -28.4790   110.6300     8.6440     7.5170     8.3630    24.4540     2.4150 
  191.7500   -28.3110   108.7870     9.1290     7.9380     9.1360    24.5050     2.4140 
  191.8750   -28.1020   107.0320     9.9310     8.6360    10.5090    24.5080     2.4050 
  192.0000   -27.8750   104.5150    11.0040     9.5690    12.0630    24.3980     2.3840 
  192.1250   -27.6110   100.8660    12.2450    10.6470    13.6760    24.2620     2.3480 
  192.2500   -27.3560    99.7290    13.4740    11.7160    14.1400    24.0770     2.3140 
  192.3750   -27.1240   100.5560    14.5760    12.6750    14.4770    23.8450     2.2930 
  192.5000   -26.9530   101.1700    15.4570    13.4410    15.0940    23.6950     2.2940 
  192.6250   -26.8370    98.7170    15.9820    13.8970    15.5250    23.6170     2.3160 
  192.7500   -26.7940    95.2650    16.1940    14.0820    16.0750    23.5280     2.3420 
  192.8750   -26.8070    92.1790    16.1850    14.0740    16.4780    23.4980     2.3540 
