~V
VERS. 2.00: Ver 2.00
~W
STRT.M 55.0000:
STOP.M 228.0000:
STEP.M 0.1250:
NULL. -999.2500:
UWI. F10621:
~C
DEPT.M :
GR.API :
RML.OHMM :
RI. :
RXO.OHMM :
CALI.CM :
DEN.GM/CC :
SP.MV :
~A
# ...
   66.2500    94.7620     7.2690     7.0270     6.4860    23.6210     2.3080   -17.5030 
   66.3750    93.4940     7.1250     6.8510     6.5090    23.5050     2.3060   -17.3710 
   66.5000    91.1850     7.0940     6.7900     6.5360    23.4670     2.2960   -17.2530 
   66.6250    89.1470     7.1140     6.7860     6.3120    23.6070     2.2890   -17.1490 
   66.7500    90.0260     7.1490     6.7920     6.1300    23.8650     2.2860   -17.0380 
   66.8750    93.6920     7.2060     6.8030     6.0810    24.1270     2.2890   -16.9370 
   67.0000    96.1480     7.2930     6.8240     6.1700    24.2750     2.2920   -16.8230 
   67.1250    92.5320     7.3910     6.8410     6.2400    24.3450     2.2930   -16.7030 
   67.2500    86.8580     7.4420     6.8120     6.2960    24.4220     2.2920   -16.5620 
   67.3750    83.2520     7.3850     6.6910     6.3760    24.5210     2.2890   -16.4150 
   67.5000    83.3200     7.1860     6.4570     6.4650    24.6350     2.2830   -16.2700 
   67.6250    87.0420     6.8730     6.1320     6.4610    24.7140     2.2750   -16.1180 
   67.7500    90.1800     6.6350     5.8410     6.4790    24.7590     2.2730   -15.9730 
   67.8750    90.6240     6.7730     5.7680     6.6450    24.7760     2.2890   -15.8320 
   68.0000    89.9610     7.7500     6.2190     7.3130    24.8140     2.3360   -15.6890 
   68.1250    90.2620    10.4220     7.8710    10.0960    24.8500     2.4210   -15.5180 
   68.2500    88.1570    14.8720    10.9780    17.0820    24.8220     2.5190   -15.3730 
   68.3750    81.2890    20.7070    15.4970    28.3310    24.7190     2.5980   -15.2170 
   68.5000    73.2600    26.7300    20.7180    41.2710    24.6410     2.6210   -15.0500 
   68.6250    69.4030    30.5970    24.8750    51.0000    24.6000     2.5630   -14.8700 
   68.7500    68.3790    30.9730    26.3870    47.8340    24.6020     2.4600   -14.6920 
   68.8750    67.1010    27.9570    24.8270    32.0130    24.6490     2.3470   -14.5250 
   69.0000    63.3400    23.2410    21.3610    18.0370    24.7750     2.2480   -14.3800 
   69.1250    58.2420    19.1050    17.9000    13.2170    24.9800     2.1810   -14.2410 
   69.2500    56.0690    16.3610    15.3540    12.0150    25.1700     2.1420   -14.0910 
   69.3750    58.7650    14.8110    13.7030    11.8790    25.2660     2.1300   -13.9700 
   69.5000    62.6850    14.0170    12.7090    11.7320    25.2750     2.1380   -13.8710 
   69.6250    63.0390    13.6690    12.1940    11.2580    25.1620     2.1610   -13.7870 
   69.7500    63.4180    13.5400    11.9570    10.5850    24.9130     2.1820   -13.6950 
   69.8750    66.0940    13.6240    11.9640    10.0540    24.6690     2.1940   -13.5860 
   70.0000    67.3490    13.9490    12.2150    10.1070    24.6530     2.1920   -13.4700 
   70.1250    64.4810    14.5140    12.7090    10.7360    24.8300     2.1810   -13.3530 
   70.2500    62.2790    15.1440    13.2930    11.6630    24.9280     2.1700   -13.2450 
   70.3750    63.1150    15.6550    13.8090    12.2540    24.9270     2.1660   -13.1450 
   70.5000    64.4950    15.8820    14.0950    12.4130    24.8890     2.1690   -13.0260 
   70.6250    65.5700    15.6850    13.9950    12.2320    24.8700     2.1750   -12.9220 
   70.7500    65.8100    15.1920    13.5980    11.7760    24.8480     2.1820   -12.8490 
   70.8750    65.7960    14.5740    13.0460    11.1600    24.8160     2.1860   -12.7880 
   71.0000    66.7130    14.0410    12.5280    10.5790    24.7950     2.1870   -12.7160 
   71.1250    67.8660    13.8360    12.2720    10.3450    24.7890     2.1860   -12.6710 
   71.2500    68.3480    14.0070    12.3550    10.5990    24.7890     2.1840   -12.6350 
   71.3750    68.1310    14.5260    12.7870    11.3250    24.7890     2.1820   -12.5790 
   71.5000    67.4610    15.2810    13.4980    12.3700    24.7980     2.1790   -12.5230 
   71.6250    65.0100    16.0810    14.3510    13.4900    24.8220     2.1780   -12.5020 
   71.7500    61.7650    16.7150    15.1210    14.2980    24.8500     2.1790   -12.4800 
   71.8750    60.4790    17.0350    15.6350    14.6460    24.8610     2.1800   -12.4760 
   72.0000    60.9830    16.9310    15.7420    14.6700    24.8610     2.1800   -12.5040 
   72.1250    62.0810    16.2600    15.2590    14.3320    24.8380     2.1800   -12.5290 
   72.2500    61.7010    15.1220    14.2690    13.8540    24.7860     2.1890   -12.5650 
   72.3750    61.7100    13.6270    12.8790    13.0240    24.6640     2.2080   -12.6450 
   72.5000    64.8340    11.9580    11.2770    11.3860    24.4050     2.2350   -12.7650 
   72.6250    69.5930    10.3900     9.7320     9.2740    23.8450     2.2610   -12.8460 
   72.7500    73.3610     9.1310     8.4530     7.5990    23.3000     2.2720   -12.8820 
   72.8750    75.8190     8.2850     7.5410     6.8240    22.9190     2.2660   -12.8570 
   73.0000    78.9550     7.8940     7.0320     6.6810    22.8950     2.2490   -12.7840 
   73.1250    79.9800     8.0720     7.0150     6.9620    23.2990     2.2350   -12.6870 
   73.2500    78.2380     8.8150     7.4790     7.4260    23.7330     2.2380   -12.5290 
   73.3750    76.2740    10.2350     8.5240     7.9830    23.9450     2.2610   -12.3000 
   73.5000    75.7260    12.3900    10.2440     8.9080    23.9170     2.2980   -12.0380 
   73.6250    72.6450    15.1880    12.6750    10.4400    23.9100     2.3290   -11.7540 
   73.7500    65.7900    17.9980    15.3360    12.2430    24.0970     2.3330   -11.4460 
   73.8750    59.1820    20.1320    17.6250    13.8630    24.3230     2.3020   -11.1570 
   74.0000    56.6090    20.9720    18.8920    14.4260    24.5130     2.2430   -10.8970 
   74.1250    57.8330    20.1080    18.5520    13.4790    24.8330     2.1780   -10.6420 
   74.2500    59.9000    18.3220    17.1860    11.7070    25.3100     2.1310   -10.4030 
   74.3750    61.0250    16.4030    15.5020    10.6410    25.8030     2.1120   -10.1980 
   74.5000    59.1420    14.9610    14.0950    10.1450    26.0020     2.1190   -10.0080 
   74.6250    56.6790    14.3240    13.3090     9.9810    25.8130     2.1410    -9.8110 
   74.7500    58.9310    14.2320    13.0070    10.0850    25.4280     2.1630    -9.6370 
   74.8750    64.7030    14.4620    13.0440    10.4210    25.0830     2.1780    -9.5000 
   75.0000    67.6180    14.8350    13.2820    10.7210    24.9040     2.1840    -9.3520 
   75.1250    64.6970    15.2740    13.6490    10.7400    24.8650     2.1830    -9.1880 
   75.2500    62.0730    15.7690    14.1000    10.7960    24.8780     2.1780    -9.0560 
   75.3750    62.0060    16.3380    14.6390    11.0770    24.9260     2.1700    -8.9290 
   75.5000    62.0520    16.9660    15.2500    11.6040    25.0050     2.1600    -8.7670 
   75.6250    58.7970    17.5790    15.8730    12.2840    25.0890     2.1510    -8.6500 
   75.7500    56.4300    18.0870    16.4180    12.8970    25.1510     2.1440    -8.5830 
   75.8750    57.7680    18.4390    16.8230    13.2320    25.1920     2.1430    -8.5160 
   76.0000    62.2550    18.6310    17.0700    13.2840    25.2100     2.1470    -8.4600 
   76.1250    66.0060    18.6870    17.1670    13.0380    25.2150     2.1570    -8.4810 
   76.2500    66.3830    18.6710    17.1820    12.7260    25.2150     2.1690    -8.5350 
   76.3750    64.1400    18.6130    17.1520    12.5030    25.2150     2.1800    -8.5910 
   76.5000    62.3580    18.5360    17.1050    12.3770    25.2150     2.1910    -8.6790 
   76.6250    61.7920    18.4850    17.0830    12.1480    25.2050     2.2000    -8.7770 
   76.7500    61.4800    18.5100    17.1270    11.9040    25.1800     2.2050    -8.8770 
   76.8750    61.9940    18.6340    17.2580    11.8490    25.1550     2.2060    -8.9780 
   77.0000    62.8140    18.8320    17.4640    12.0520    25.1380     2.2030    -9.0630 
   77.1250    61.9020    18.9920    17.6620    12.3660    25.1240     2.1990    -9.1440 
   77.2500    61.1060    18.9740    17.7240    12.5540    25.1100     2.1970    -9.2170 
   77.3750    62.0450    18.6860    17.5520    12.4760    25.1090     2.1970    -9.2940 
