~V
VERS. 2.00: Ver 2.00
~W
STRT.M 50.0000:
STOP.M 265.0000:
STEP.M 0.1250:
NULL. -999.2500:
UWI. F10671:
~C
DEPT.M :
GR.API :
RML.OHMM :
RI. :
RXO.OHMM :
CALI.CM :
DEN.GM/CC :
SP.MV :
~A
# ...
  128.7500    60.3270     8.8150     8.4040     9.6010    25.1260     2.1510   -17.8660 
  128.8750    64.3290     8.4810     8.1270     9.3850    25.1580     2.1240   -16.6150 
  129.0000    67.0040     7.8640     7.5740     8.8210    25.1250     2.1070   -15.2200 
  129.1250    72.6520     6.9940     6.7600     7.7030    25.0340     2.1100   -13.7250 
  129.2500    84.4000     6.0660     5.8610     6.2900    24.9120     2.1320   -12.3470 
  129.3750    96.4710     5.2450     5.0310     4.9520    24.7710     2.1690   -11.1930 
  129.5000   102.5700     4.6690     4.3980     4.2400    24.6230     2.2190   -10.3110 
  129.6250   104.3000     4.5000     4.1040     4.1800    24.4980     2.2790    -9.7380 
  129.7500   104.0100     4.7150     4.1400     4.6020    24.4000     2.3420    -9.5590 
  129.8750    98.3280     5.2800     4.4930     5.4690    24.3300     2.3930    -9.8890 
  130.0000    87.4830     6.0990     5.1040     6.7630    24.2820     2.4190   -10.6820 
  130.1250    78.8290     6.9920     5.8640     8.2120    24.2440     2.4070   -11.8410 
  130.2500    75.0920     7.7370     6.5780     9.1530    24.2340     2.3680   -13.1190 
  130.3750    73.6910     8.2020     7.1140     9.1040    24.2590     2.3190   -14.4200 
  130.5000    73.1450     8.3650     7.4140     8.8090    24.3150     2.2720   -15.7520 
  130.6250    71.5280     8.3070     7.4930     8.6810    24.3740     2.2370   -17.0200 
  130.7500    68.6540     8.2110     7.4870     8.6290    24.4660     2.2130   -18.0860 
  130.8750    65.1790     8.1650     7.4740     8.5860    24.6230     2.1960   -18.9550 
  131.0000    61.9760     8.1880     7.4860     8.6640    24.8340     2.1830   -19.6330 
  131.1250    59.9550     8.2450     7.5110     8.8370    25.0010     2.1730   -20.1130 
  131.2500    58.8950     8.2820     7.5240     8.9590    25.0810     2.1660   -20.4340 
  131.3750    59.2970     8.2790     7.5110     8.9820    25.1120     2.1620   -20.6100 
  131.5000    60.1030     8.2400     7.4710     8.8810    25.1180     2.1610   -20.6380 
  131.6250    61.0150     8.1970     7.4170     8.7410    25.0110     2.1650   -20.6840 
  131.7500    63.3630     8.1870     7.3720     8.6120    24.7850     2.1720   -20.7870 
  131.8750    65.7810     8.2260     7.3560     8.5690    24.5440     2.1800   -20.8310 
  132.0000    66.6290     8.3070     7.3750     8.6670    24.4140     2.1850   -20.7770 
  132.1250    65.8360     8.4050     7.4270     8.7270    24.3760     2.1850   -20.5950 
  132.2500    65.4470     8.4910     7.4920     8.7750    24.3520     2.1820   -20.4410 
  132.3750    65.5670     8.5540     7.5550     8.8140    24.3320     2.1740   -20.2910 
  132.5000    64.9150     8.5980     7.6070     8.8730    24.3200     2.1650   -20.1650 
  132.6250    63.9720     8.6440     7.6490     9.0010    24.3020     2.1580   -19.9920 
  132.7500    64.5890     8.7110     7.6920     9.1600    24.2660     2.1550   -19.6980 
  132.8750    64.9350     8.7980     7.7370     9.3190    24.1940     2.1580   -19.3520 
  133.0000    63.5650     8.8820     7.7760     9.4380    24.0950     2.1640   -19.0220 
  133.1250    60.7800     8.9030     7.7730     9.5230    24.0590     2.1700   -18.6990 
  133.2500    58.5010     8.8220     7.7060     9.5780    24.1750     2.1710   -18.1860 
  133.3750    57.4590     8.6420     7.5720     9.5790    24.3390     2.1630   -17.5400 
  133.5000    58.8160     8.4480     7.4230     9.5170    24.5060     2.1500   -16.7630 
  133.6250    62.0170     8.4810     7.4250     9.4530    24.5650     2.1410   -15.7090 
  133.7500    64.8300     8.9350     7.7370     9.6570    24.5690     2.1530   -14.5220 
  133.8750    66.1950     9.8790     8.4480    10.6180    24.5400     2.2000   -13.2610 
  134.0000    65.0600    11.1530     9.4910    12.7630    24.5100     2.2870   -11.9030 
  134.1250    63.1460    12.2720    10.5470    16.2260    24.4660     2.3960   -10.5000 
  134.2500    62.8120    12.7060    11.1550    19.5350    24.3990     2.4840    -9.2350 
  134.3750    64.9010    12.1770    11.0040    20.8920    24.3210     2.5170    -8.0890 
  134.5000    68.5470    10.8150    10.0840    18.3520    24.2640     2.4870    -7.0670 
  134.6250    74.1830     9.1580     8.7370    12.5870    24.2530     2.4170    -6.3250 
  134.7500    82.3310     7.8210     7.5210     8.4610    24.2770     2.3530    -5.7570 
  134.8750    87.6570     6.9950     6.6690     6.9940    24.3090     2.3150    -5.3220 
  135.0000    86.8770     6.6210     6.2030     6.7440    24.3240     2.3080    -5.0460 
  135.1250    84.9370     6.5400     6.0530     6.8160    24.3250     2.3270    -4.9480 
  135.2500    87.7620     6.5210     6.0250     6.7700    24.3250     2.3530    -4.8620 
  135.3750    91.3590     6.4700     6.0160     6.5960    24.3250     2.3720    -4.8080 
  135.5000    91.5500     6.3640     5.9740     6.3300    24.3250     2.3780    -4.7760 
  135.6250    91.7930     6.2230     5.8920     6.1300    24.3250     2.3710    -4.6940 
  135.7500    92.8250     6.0810     5.7960     5.9130    24.3250     2.3570    -4.6620 
  135.8750    91.4420     5.9500     5.7000     5.8060    24.3250     2.3410    -4.6800 
  136.0000    89.1950     5.8340     5.6110     5.7710    24.3250     2.3280    -4.6760 
  136.1250    93.1590     5.7410     5.5290     5.7660    24.3250     2.3210    -4.6100 
  136.2500    98.9000     5.6790     5.4560     5.6850    24.3250     2.3180    -4.5960 
  136.3750   100.2750     5.6530     5.3990     5.5850    24.3250     2.3170    -4.6230 
  136.5000    98.4920     5.6710     5.3700     5.5370    24.3250     2.3160    -4.6510 
  136.6250    96.5080     5.7480     5.3940     5.6330    24.3250     2.3140    -4.7200 
  136.7500    95.4790     5.8790     5.4760     5.7420    24.3210     2.3110    -4.7900 
  136.8750    94.4920     6.0490     5.6110     5.8580    24.3080     2.3090    -4.7960 
  137.0000    93.6280     6.2310     5.7790     6.0140    24.2800     2.3050    -4.7960 
  137.1250    93.1150     6.3930     5.9510     6.2780    24.2100     2.2970    -4.8470 
  137.2500    91.7810     6.5510     6.1270     6.5780    24.1020     2.2900    -4.8410 
  137.3750    89.8780     6.7670     6.3510     6.8400    24.0090     2.2900    -4.7650 
  137.5000    89.7960     7.1200     6.6860     7.0630    23.9980     2.3070    -4.7030 
  137.6250    91.2430     7.6610     7.1890     7.7980    24.0660     2.3430    -4.6320 
  137.7500    89.3130     8.2770     7.7780     9.0020    24.1370     2.3840    -4.5460 
  137.8750    83.1720     8.7930     8.3130    10.6890    24.1320     2.4090    -4.5060 
  138.0000    77.6270     9.0130     8.6130    12.2450    24.0600     2.4040    -4.4870 
  138.1250    77.6120     8.7640     8.4810    11.8990    23.9570     2.3690    -4.4090 
  138.2500    81.0650     8.2150     8.0190     9.7290    23.9050     2.3280    -4.3620 
  138.3750    87.2970     7.5930     7.4120     8.0660    23.9210     2.2940    -4.3460 
  138.5000    93.0060     7.0950     6.8770     6.9730    23.9780     2.2740    -4.3030 
  138.6250    91.2500     6.9580     6.6360     6.8130    24.0400     2.2700    -4.2930 
  138.7500    85.3220     7.1890     6.7210     7.2350    24.0070     2.2720    -4.3170 
  138.8750    81.5990     7.8820     7.1420     7.9510    23.9290     2.2740    -4.3230 
  139.0000    81.0250     9.0060     7.9020     8.8590    23.8690     2.2700    -4.2950 
  139.1250    79.2520    10.8390     9.0690    10.4040    23.8580     2.2530    -4.2490 
  139.2500    76.0550    13.1150    10.5860    12.9320    23.8780     2.2250    -4.1880 
  139.3750    73.6960    15.4570    12.4260    16.2040    23.9350     2.1890    -4.1490 
  139.5000    72.8420    17.7570    14.5130    19.7800    24.0770     2.1540    -4.1050 
  139.6250    71.3170    20.0220    16.6920    22.0700    24.3560     2.1280    -3.9790 
  139.7500    67.1900    22.0030    18.7060    22.4670    24.6700     2.1130    -3.7900 
  139.8750    61.9290    23.4900    20.3200    22.7240    24.9010     2.1100    -3.6230 
