~V
VERS. 2.00: Ver 2.00
~W
STRT.M 58.0000:
STOP.M 221.0000:
STEP.M 0.1250:
NULL. -999.2500:
UWI. F10613:
~C
DEPT.M :
SP.MV :
GR.API :
RML.OHMM :
RI. :
RXO.OHMM :
CALI.CM :
DEN.GM/CC :
~A
   58.0000    37.3580    56.9700     7.8060     6.7690    11.9310    25.2430     2.1160 
   58.1250    25.3510    58.4250     7.9570     7.6680    11.5620    25.1770     2.1300 
   58.2500    15.7010    58.7570     8.0320     8.1970    11.0070    25.1200     2.1390 
   58.3750     8.3800    56.7040     8.1670     8.5000    10.6960    25.0710     2.1430 
   58.5000     3.1750    53.3390     8.3540     8.6620    10.5650    25.0240     2.1430 
   58.6250    -0.8390    52.1370     8.5730     8.7870    10.5590    25.0440     2.1430 
   58.7500    -4.0340    54.6160     8.8310     8.9350    10.6020    25.0890     2.1430 
   58.8750    -6.6220    58.3240     9.1410     9.1390    10.6320    25.0890     2.1430 
   59.0000    -8.7100    59.5040     9.5050     9.4110    10.8380    25.0160     2.1450 
   59.1250   -10.5190    58.1050     9.8780     9.7090    11.0590    24.9220     2.1470 
   59.2500   -12.1090    55.2120    10.2090     9.9890    11.3430    24.8990     2.1490 
   59.3750   -13.5310    52.9880    10.4630    10.2010    11.5960    24.8920     2.1480 
   59.5000   -14.7700    52.9400    10.6140    10.3030    11.7710    24.9030     2.1440 
   59.6250   -15.8630    53.1190    10.6840    10.3180    12.1310    24.9510     2.1390 
   59.7500   -16.8270    52.0760    10.6920    10.2770    12.1420    25.0370     2.1340 
   59.8750   -17.6270    50.7360    10.6620    10.2040    11.7870    25.0920     2.1300 
   60.0000   -18.2620    52.2160    10.5950    10.0930    11.2930    25.1000     2.1280 
   60.1250   -18.7440    54.1110    10.4820     9.9200    11.1750    25.0960     2.1280 
   60.2500   -19.1160    54.4590    10.3080     9.6630    11.0680    25.0670     2.1300 
   60.3750   -19.3660    55.6080    10.0750     9.3280    10.6940    24.9860     2.1320 
   60.5000   -19.5190    57.7900     9.7970     8.9470     9.8250    24.8720     2.1260 
   60.6250   -19.5770    58.9840     9.5550     8.5990     9.2630    24.8230     2.1100 
   60.7500   -19.5570    59.1620     9.4580     8.3890     8.9660    24.8140     2.0990 
   60.8750   -19.5190    60.1780     9.5810     8.4090     8.9780    24.8340     2.1140 
   61.0000   -19.4900    63.9160     9.9260     8.7030     9.1630    24.9060     2.1730 
   61.1250   -19.4700    67.9110    10.2900     9.0930     9.3400    24.9890     2.2500 
   61.2500   -19.4550    69.7090    10.4580     9.3590    11.0480    24.9310     2.3090 
   61.3750   -19.4270    69.9560    10.2620     9.2910    14.1850    24.6640     2.3220 
   61.5000   -19.4260    72.5690     9.6560     8.7740    13.1420    24.4260     2.2870 
   61.6250   -19.4980    77.6550     8.9050     8.0460     8.5370    24.4160     2.2430 
   61.7500   -19.5920    82.1870     8.2030     7.3180     6.6480    24.5400     2.2100 
   61.8750   -19.6650    83.1120     7.6450     6.7140     6.6270    24.6170     2.1950 
   62.0000   -19.7590    80.8820     7.2330     6.2780     6.9250    24.5940     2.2040 
   62.1250   -19.8390    80.1550     6.8730     5.9380     6.8390    24.5540     2.2320 
   62.2500   -19.8930    84.1600     6.5330     5.6460     6.2940    24.5420     2.2760 
   62.3750   -19.9580    91.4100     6.2400     5.3860     5.8120    24.5360     2.3250 
   62.5000   -20.0090    94.3650     6.0770     5.2060     5.2040    24.4270     2.3630 
   62.6250   -20.0290    91.4910     6.0590     5.1370     4.9060    24.1840     2.3820 
   62.7500   -20.0120    88.3660     6.1510     5.1820     5.2120    23.8810     2.3760 
   62.8750   -20.0190    89.6080     6.2920     5.3090     5.9670    23.4790     2.3480 
   63.0000   -20.0010    93.0820     6.4310     5.4720     6.4480    22.9920     2.3100 
   63.1250   -19.9370    90.8180     6.5470     5.6180     6.4480    22.5090     2.2790 
   63.2500   -19.8680    84.1750     6.6270     5.7180     6.3200    22.1510     2.2610 
   63.3750   -19.7940    80.5090     6.6420     5.7460     6.2980    21.9410     2.2560 
   63.5000   -19.6690    81.9210     6.5510     5.6730     6.3840    21.7950     2.2610 
   63.6250   -19.5100    83.8930     6.3680     5.5120     6.4390    21.7660     2.2700 
   63.7500   -19.3740    85.0740     6.1220     5.2800     5.9360    22.0970     2.2800 
   63.8750   -19.2080    88.3600     5.8700     5.0210     5.0830    22.8300     2.2910 
   64.0000   -19.0430    92.8750     5.6870     4.7990     4.7400    23.7320     2.3040 
   64.1250   -18.9210    96.1200     5.5990     4.6530     4.8540    24.4110     2.3120 
   64.2500   -18.7710    97.6540     5.6030     4.5970     4.9660    24.6830     2.3080 
   64.3750   -18.6220    97.3720     5.6780     4.6200     5.5480    24.6900     2.2940 
   64.5000   -18.5270    95.8070     5.8010     4.7050     6.3740    24.6570     2.2740 
   64.6250   -18.4170    93.9020     5.9490     4.8180     6.7310    24.6890     2.2580 
   64.7500   -18.3350    91.7570     6.1180     4.9470     6.2170    24.7320     2.2510 
   64.8750   -18.2860    89.3570     6.3030     5.0850     5.8810    24.7290     2.2570 
   65.0000   -18.2100    87.8600     6.4880     5.2240     5.7290    24.6530     2.2740 
   65.1250   -18.1370    86.7660     6.6350     5.3460     5.9840    24.5670     2.2950 
   65.2500   -18.0630    85.3020     6.7000     5.4230     6.3040    24.4860     2.3150 
   65.3750   -17.9870    83.9310     6.6410     5.4180     5.9490    24.4340     2.3290 
   65.5000   -17.8860    86.1400     6.4250     5.2920     5.5400    24.4060     2.3330 
   65.6250   -17.7790    91.2490     6.1110     5.0790     5.3500    24.3810     2.3300 
   65.7500   -17.6410    96.3660     5.7740     4.8270     5.2600    24.4260     2.3290 
   65.8750   -17.4560    97.6400     5.4880     4.5950     4.9320    24.5150     2.3360 
   66.0000   -17.2760    95.5640     5.3250     4.4470     4.7290    24.6030     2.3540 
   66.1250   -17.0680    94.4800     5.2750     4.3870     4.7730    24.6380     2.3750 
   66.2500   -16.8470    93.6700     5.3160     4.4030     4.9560    24.6110     2.3880 
   66.3750   -16.6140    91.1780     5.4000     4.4610     5.0440    24.5740     2.3880 
   66.5000   -16.3740    87.3950     5.4730     4.5200     5.0400    24.5880     2.3780 
   66.6250   -16.1100    84.8700     5.5110     4.5540     5.0220    24.6040     2.3670 
   66.7500   -15.8420    84.3500     5.5190     4.5620     4.9260    24.6180     2.3630 
   66.8750   -15.5940    84.3730     5.5160     4.5550     4.7250    24.6300     2.3690 
   67.0000   -15.3140    85.5790     5.5140     4.5310     4.7280    24.5930     2.3840 
   67.1250   -15.0660    86.1300     5.4920     4.4760     4.8370    24.5110     2.3990 
   67.2500   -14.8830    85.3790     5.4060     4.3690     4.9580    24.4300     2.4050 
   67.3750   -14.7090    85.4770     5.2290     4.1990     4.9300    24.3910     2.4010 
   67.5000   -14.6040    87.6030     4.9990     3.9950     4.7270    24.3640     2.3980 
   67.6250   -14.5720    90.8060     4.8650     3.8490     4.5510    24.3170     2.4060 
   67.7500   -14.5580    94.2640     4.9940     3.8690     4.5400    24.2440     2.4190 
   67.8750   -14.6000    94.3460     5.5560     4.1710     4.8200    24.1210     2.4120 
   68.0000   -14.6830    88.7410     6.8110     4.9410     6.0380    23.9460     2.3660 
   68.1250   -14.7670    78.9210     8.7110     6.1970     8.4440    23.8920     2.2940 
   68.2500   -14.8420    68.3680    11.0620     7.9020    11.7700    24.1290     2.2120 
   68.3750   -14.9290    60.5150    13.3710     9.8150    14.0920    24.5870     2.1430 
   68.5000   -14.9950    55.1230    14.8040    11.3780    14.4720    25.0370     2.1050 
   68.6250   -15.0240    51.9050    15.1760    12.2390    14.1930    25.2780     2.0940 
   68.7500   -15.0570    50.2940    14.7800    12.4310    13.6290    25.3500     2.1010 
   68.8750   -15.0270    50.3430    14.1010    12.2190    13.1700    25.2650     2.1170 
   69.0000   -14.9410    51.9840    13.4790    11.8370    13.3490    25.0830     2.1330 
   69.1250   -14.8350    53.5020    12.9400    11.3980    13.2890    24.9350     2.1460 
