~V
VERS. 2.00: Ver 2.00
~W
STRT.M 55.0000:
STOP.M 226.0000:
STEP.M 0.1250:
NULL. -999.2500:
UWI. F10689:
~C
DEPT.M :
DEN.GM/CC :
GR.API :
RML.OHMM :
RI. :
RXO.OHMM :
CALI.CM :
SP.MV :
~A
# ...
  145.0000     2.4220    52.3380    25.6080    22.1320    18.7960    22.9910   -14.9070 
  145.1250     2.4170    48.3860    24.3660    21.0890    17.4010    23.0000   -14.9710 
  145.2500     2.4290    47.7300    23.9300    20.5710    16.4720    23.0120   -14.9990 
  145.3750     2.4560    51.2890    24.2650    20.6190    16.3680    23.0770   -14.9760 
  145.5000     2.4880    54.8530    25.0000    21.0350    17.4920    23.2020   -14.9190 
  145.6250     2.5130    55.2330    25.4280    21.3500    18.3320    23.2240   -14.7850 
  145.7500     2.5210    54.6970    25.0490    21.1380    18.7910    23.2300   -14.6080 
  145.8750     2.5170    53.8190    23.7750    20.2660    18.9160    23.2400   -14.3760 
  146.0000     2.5070    51.8550    21.9000    18.8960    17.1940    23.2770   -14.1140 
  146.1250     2.4990    50.2740    19.9990    17.4130    14.9390    23.4490   -13.8640 
  146.2500     2.4950    50.4440    18.5180    16.1650    13.8790    23.4770   -13.6250 
  146.3750     2.4920    51.2910    17.5710    15.2600    13.7110    23.4940   -13.4100 
  146.5000     2.4890    50.4700    17.0890    14.6890    14.1860    23.5600   -13.2170 
  146.6250     2.4840    47.8740    16.9450    14.4170    14.2590    23.6520   -13.0700 
  146.7500     2.4820    46.8240    16.9160    14.3040    13.3790    23.7730   -12.9660 
  146.8750     2.4830    47.3080    16.9270    14.2850    12.1090    23.8550   -12.8990 
  147.0000     2.4890    46.8650    17.0020    14.3560    11.8000    23.8650   -12.8630 
  147.1250     2.4960    44.9960    17.2060    14.5470    12.6480    23.8670   -12.8180 
  147.2500     2.4990    45.1170    17.4690    14.8020    13.4420    23.8560   -12.7890 
  147.3750     2.4960    46.1540    17.6690    15.0300    13.9230    23.8610   -12.7970 
  147.5000     2.4900    44.8860    17.6950    15.1260    14.6900    23.8650   -12.8320 
  147.6250     2.4860    43.2840    17.4740    15.0040    15.3870    23.8730   -12.8750 
  147.7500     2.4890    45.1800    17.1270    14.7420    15.2930    23.8720   -12.9300 
  147.8750     2.4940    49.4730    16.7810    14.4400    14.3360    23.8580   -12.9940 
  148.0000     2.4990    51.3090    16.5380    14.1880    14.0660    23.8460   -13.0940 
  148.1250     2.4980    50.3080    16.4750    14.0700    14.2010    23.8060   -13.2240 
  148.2500     2.4920    50.5420    16.5670    14.0940    14.2860    23.8020   -13.3540 
  148.3750     2.4840    51.3360    16.7550    14.2340    13.9440    23.8080   -13.4650 
  148.5000     2.4750    49.9270    16.9460    14.4220    13.1480    23.8620   -13.5580 
  148.6250     2.4650    47.7630    17.0160    14.5530    13.2790    23.8650   -13.6680 
  148.7500     2.4550    49.1810    16.9260    14.5610    14.0950    23.8560   -13.7600 
  148.8750     2.4450    52.7580    16.6930    14.4400    14.2690    23.8590   -13.8380 
  149.0000     2.4390    54.0560    16.3780    14.2290    12.7910    23.8540   -13.8760 
  149.1250     2.4370    51.3660    16.0500    13.9760    12.1540    23.8550   -13.9050 
  149.2500     2.4370    48.7750    15.7310    13.7070    11.6990    23.8640   -13.9250 
  149.3750     2.4360    47.7760    15.4200    13.4160    11.6210    23.8730   -13.9630 
  149.5000     2.4340    47.4700    15.1220    13.1090    11.8930    23.8790   -14.0160 
  149.6250     2.4360    46.9980    14.8840    12.8210    11.5310    23.9020   -14.0850 
  149.7500     2.4430    46.5670    14.7900    12.6270    10.7960    23.9430   -14.1530 
  149.8750     2.4560    47.3080    14.9410    12.6150    10.5560    23.9410   -14.2220 
  150.0000     2.4690    50.5510    15.3990    12.8590    11.4110    23.9360   -14.2720 
  150.1250     2.4760    54.3440    16.1890    13.4310    12.7160    23.9020   -14.3260 
  150.2500     2.4750    54.9810    17.1580    14.2330    13.8530    23.8150   -14.3850 
  150.3750     2.4670    53.4590    18.1550    15.1490    14.9290    23.7860   -14.4590 
  150.5000     2.4550    53.1740    19.0230    16.0120    16.0530    23.8350   -14.5720 
  150.6250     2.4400    54.6740    19.6480    16.6480    17.0700    23.9820   -14.7390 
  150.7500     2.4230    55.0380    20.1540    17.1030    17.2270    23.9860   -14.9560 
  150.8750     2.4100    53.7730    20.7250    17.5290    17.1800    23.9500   -15.2000 
  151.0000     2.4010    52.5070    21.5260    18.0940    16.6310    23.9310   -15.4500 
  151.1250     2.4010    54.0830    22.6070    18.9150    17.1390    23.9180   -15.6630 
  151.2500     2.4060    57.6180    23.6790    19.8310    20.2850    23.8820   -15.8590 
  151.3750     2.4130    59.7250    24.3230    20.5300    24.8340    23.8760   -16.0060 
  151.5000     2.4220    56.1590    24.1550    20.6520    25.8590    23.8750   -16.0910 
  151.6250     2.4320    50.4660    23.0120    19.9440    22.1640    23.8750   -16.1260 
  151.7500     2.4420    49.9370    21.5350    18.8300    18.7630    23.8760   -16.1400 
  151.8750     2.4500    54.3680    20.3420    17.7770    16.8080    23.8890   -16.1540 
  152.0000     2.4540    59.1080    19.8880    17.1790    16.1310    23.9490   -16.2010 
  152.1250     2.4530    60.0450    20.5250    17.4010    16.1170    24.0790   -16.2700 
  152.2500     2.4490    59.5600    22.0310    18.3760    18.1620    24.0950   -16.3480 
  152.3750     2.4460    59.8030    24.1950    20.0140    21.7250    24.0950   -16.4530 
  152.5000     2.4450    61.7610    26.7040    22.1040    25.3370    24.0960   -16.5670 
  152.6250     2.4490    65.1430    29.0360    24.2330    27.7720    24.1030   -16.6530 
  152.7500     2.4560    66.8190    30.6600    25.8610    29.9360    24.1050   -16.7050 
  152.8750     2.4620    66.6210    31.2210    26.6060    29.3250    24.1050   -16.7250 
  153.0000     2.4600    67.1250    30.6760    26.3700    27.2150    24.0990   -16.7140 
  153.1250     2.4450    68.1430    29.3000    25.3320    24.8710    24.0600   -16.6860 
  153.2500     2.4200    67.6780    27.8080    24.0930    22.3350    23.9450   -16.6650 
  153.3750     2.3910    64.2100    26.6550    23.0350    20.4380    23.8610   -16.6440 
  153.5000     2.3660    59.2620    26.1140    22.4060    19.1470    23.7450   -16.6530 
  153.6250     2.3550    57.2090    26.3550    22.3930    19.5830    23.4360   -16.6990 
  153.7500     2.3550    60.0580    27.1290    22.8650    20.9800    23.3370   -16.7840 
  153.8750     2.3630    66.2020    28.2050    23.6820    21.4680    23.3180   -16.9020 
  154.0000     2.3740    70.7060    29.2630    24.6130    21.7010    23.3170   -17.0370 
  154.1250     2.3860    69.5100    29.8470    25.2750    22.5540    23.3010   -17.2020 
  154.2500     2.3980    67.5510    29.8080    25.4450    22.5730    23.2150   -17.3940 
  154.3750     2.4080    68.1680    29.2680    25.1500    22.5100    23.1200   -17.6100 
  154.5000     2.4160    69.9000    28.5880    24.6490    22.2100    23.1310   -17.8310 
  154.6250     2.4200    69.5440    28.2780    24.3520    20.4560    23.3070   -18.0380 
  154.7500     2.4200    69.0860    28.5710    24.5090    19.6650    23.5430   -18.2520 
  154.8750     2.4160    68.7360    29.4540    25.1950    22.4130    23.7390   -18.4660 
  155.0000     2.4080    66.7490    30.7040    26.3050    27.2860    23.9710   -18.6970 
  155.1250     2.3990    64.7880    31.9650    27.5840    27.8720    24.1010   -18.9310 
  155.2500     2.3910    67.1190    32.9470    28.7030    25.7500    24.1860   -19.1610 
  155.3750     2.3860    71.5020    33.5570    29.4870    24.5310    24.2380   -19.4150 
  155.5000     2.3840    72.3520    33.8180    29.8790    26.1670    24.2470   -19.6680 
  155.6250     2.3830    68.7190    33.6900    29.8280    28.2140    24.2480   -19.9910 
  155.7500     2.3800    65.2120    33.0550    29.3270    28.4030    24.2520   -20.3390 
  155.8750     2.3750    64.0650    31.6370    28.1650    27.5000    24.2560   -20.7380 
  156.0000     2.3690    64.4570    29.3630    26.2090    26.9430    24.2490   -21.1820 
  156.1250     2.3630    66.1820    26.7310    23.7550    25.7350    24.2500   -21.6700 
