~V
VERS. 2.00: Ver 2.00
~W
STRT.M 49.0000:
STOP.M 217.0000:
STEP.M 0.1250:
NULL. -999.2500:
UWI. F10685:
~C
DEPT.M :
SP.MV :
DEN.GM/CC :
GR.API :
RML.OHMM :
RI. :
RXO.OHMM :
CALI.CM :
~A
# ...
  139.0000   -20.4040     2.5970    47.2740    30.3340    26.3440    27.1000    24.8080 
  139.1250   -20.3670     2.5900    49.6360    28.6510    24.9820    28.2110    24.8870 
  139.2500   -20.2150     2.5740    52.3040    27.0110    23.7610    24.0330    24.8140 
  139.3750   -19.9890     2.5520    52.0140    25.6290    22.9220    20.8650    24.7490 
  139.5000   -19.6840     2.5260    50.7360    24.7930    22.5640    20.1830    24.7720 
  139.6250   -19.2020     2.5040    50.9350    24.9200    22.7710    21.1140    24.7790 
  139.7500   -18.6280     2.4900    50.1830    25.7960    23.3730    21.4410    24.8120 
  139.8750   -17.9440     2.4890    47.9790    26.9820    24.1690    22.1180    24.8450 
  140.0000   -17.1200     2.4980    47.5770    27.9640    24.8720    23.2730    24.9330 
  140.1250   -16.1500     2.5120    49.5650    28.4580    25.1530    24.8630    25.0810 
  140.2500   -15.0970     2.5230    50.0870    28.6480    25.0480    24.8170    24.9890 
  140.3750   -14.0080     2.5260    49.8620    28.6750    24.7520    23.1480    24.9070 
  140.5000   -12.8970     2.5250    51.2640    28.5490    24.4930    22.6620    24.8280 
  140.6250   -11.8420     2.5270    51.6650    28.3220    24.4820    23.9440    24.7840 
  140.7500   -10.8730     2.5360    50.3050    28.2840    24.7570    27.2760    24.8090 
  140.8750   -10.0230     2.5530    49.7250    28.6390    25.2960    28.4570    24.7960 
  141.0000    -9.3440     2.5730    51.1980    29.4130    26.0080    25.8580    24.7980 
  141.1250    -8.8680     2.5920    52.5670    30.5690    26.7580    24.0780    24.8170 
  141.2500    -8.5050     2.6070    51.8940    31.8220    27.4020    24.8660    24.7790 
  141.3750    -8.2430     2.6210    50.4350    32.8430    27.7850    26.9760    24.7660 
  141.5000    -8.0690     2.6320    48.4610    33.1650    27.6440    28.5400    24.7160 
  141.6250    -7.9470     2.6300    46.8370    32.0350    26.5500    26.2680    24.7600 
  141.7500    -7.8280     2.6120    45.9430    29.4650    24.6100    24.7520    24.8500 
  141.8750    -7.7130     2.5820    46.8740    25.9570    22.1640    22.9820    24.9090 
  142.0000    -7.5810     2.5480    50.6340    22.4570    19.7420    19.0560    25.0010 
  142.1250    -7.4570     2.5250    53.3260    20.1020    17.9160    14.9630    25.0140 
  142.2500    -7.3550     2.5160    52.6510    19.1060    16.8170    13.2340    24.9850 
  142.3750    -7.2430     2.5180    51.3490    19.3240    16.4480    13.4460    24.8150 
  142.5000    -7.1530     2.5250    52.3940    20.3320    16.7420    14.7550    24.7090 
  142.6250    -7.1330     2.5310    53.3820    21.6680    17.6800    16.2310    24.6720 
  142.7500    -7.1530     2.5340    51.7960    23.0250    19.0020    17.4570    24.6290 
  142.8750    -7.1460     2.5360    49.8080    24.3520    20.4660    18.9150    24.5680 
  143.0000    -7.1230     2.5380    49.3020    25.4650    21.7270    20.2950    24.4850 
  143.1250    -7.0860     2.5400    48.6910    25.8430    22.2060    21.1630    24.4010 
  143.2500    -7.0710     2.5380    47.2120    25.1990    21.7030    21.5870    24.3760 
  143.3750    -7.0740     2.5310    46.5890    23.5790    20.3330    19.5620    24.4370 
  143.5000    -7.0500     2.5210    47.8100    21.4490    18.5440    16.7020    24.4390 
  143.6250    -7.0050     2.5140    50.8060    19.5950    16.9370    15.0400    24.2040 
  143.7500    -6.9760     2.5130    55.3400    18.5100    15.8360    14.9330    24.2420 
  143.8750    -6.9700     2.5180    59.2960    18.3160    15.3230    15.4610    24.2850 
  144.0000    -6.9580     2.5220    59.2600    18.8620    15.3520    16.1850    24.2450 
  144.1250    -6.8980     2.5230    55.8520    19.7480    15.8590    16.5470    24.2480 
  144.2500    -6.8020     2.5210    54.7950    20.3690    16.6300    16.3700    24.1600 
  144.3750    -6.6790     2.5150    55.5930    20.4910    17.5230    16.3790    24.0590 
  144.5000    -6.5730     2.5060    55.3650    20.2410    18.3570    17.6500    24.1230 
  144.6250    -6.5000     2.4960    54.5870    19.9670    18.8210    19.5480    24.2920 
  144.7500    -6.4090     2.4870    54.7910    19.7550    18.7610    20.3430    24.4540 
  144.8750    -6.3540     2.4800    56.4190    19.4210    18.1570    18.8550    24.3930 
  145.0000    -6.3960     2.4750    60.0680    18.8060    17.1850    16.3380    24.1670 
  145.1250    -6.5480     2.4680    64.5940    17.9870    16.1890    15.3130    23.8220 
  145.2500    -6.7470     2.4580    65.3620    17.3170    15.4770    15.2050    23.5110 
  145.3750    -7.0300     2.4460    61.9510    17.0610    15.1870    14.4700    23.3420 
  145.5000    -7.3300     2.4380    59.5050    17.2980    15.3470    14.4450    23.2620 
  145.6250    -7.5790     2.4400    62.1750    17.8430    15.8890    15.5530    23.2500 
  145.7500    -7.8490     2.4480    64.5070    18.2750    16.4950    17.6230    23.2660 
  145.8750    -8.0960     2.4560    63.6860    18.4460    16.9250    18.7420    23.3060 
  146.0000    -8.2950     2.4560    60.0390    18.4460    17.0610    18.5350    23.3160 
  146.1250    -8.4580     2.4430    56.4720    18.5720    16.9360    16.7450    23.2850 
  146.2500    -8.5780     2.4200    56.8580    18.9510    16.8000    15.8300    23.2930 
  146.3750    -8.6300     2.3960    61.7010    19.5140    16.8540    15.8180    23.3040 
  146.5000    -8.6610     2.3820    67.4070    20.1080    17.2080    16.5960    23.1640 
  146.6250    -8.6780     2.3920    68.3830    20.6960    17.8530    17.2460    23.2670 
  146.7500    -8.6730     2.4220    66.0070    21.3650    18.5650    17.8440    23.5600 
  146.8750    -8.6780     2.4630    64.1010    22.0570    19.1420    18.9440    23.8260 
  147.0000    -8.6790     2.5020    63.7140    22.5090    19.4130    20.4450    23.9060 
  147.1250    -8.7100     2.5280    64.5890    22.5500    19.2900    20.2900    23.8970 
  147.2500    -8.7950     2.5390    65.2410    22.5420    19.0070    19.3670    23.8580 
  147.3750    -8.9490     2.5380    63.7770    23.0010    18.8100    19.0810    23.8700 
  147.5000    -9.1310     2.5270    61.8030    24.2770    18.9540    18.7660    23.8810 
  147.6250    -9.3840     2.5020    66.1840    26.4970    19.7630    19.3230    23.8000 
  147.7500    -9.6620     2.4710    73.6420    29.1680    21.2090    21.3570    23.7390 
  147.8750    -9.9210     2.4360    76.2540    31.8580    23.1360    24.7750    23.6580 
  148.0000   -10.2110     2.4080    71.7400    34.0950    25.1910    28.1510    23.5840 
  148.1250   -10.4800     2.3950    69.0530    35.2240    26.8200    30.8330    23.5750 
  148.2500   -10.6750     2.3950    73.3710    35.2890    27.7410    30.3700    23.5680 
  148.3750   -10.8290     2.4030    78.1800    34.7250    27.9380    27.9190    23.5680 
  148.5000   -10.9560     2.4090    76.9700    34.1160    27.6360    26.0010    23.5690 
  148.6250   -11.0080     2.4070    71.7750    33.9590    27.1430    26.1640    23.5840 
  148.7500   -11.0380     2.3980    68.9860    34.0520    26.6450    26.7010    23.6400 
  148.8750   -11.1190     2.3900    71.0080    33.9410    26.0940    25.6040    23.7500 
  149.0000   -11.1880     2.3890    75.9700    33.2090    25.3980    23.4210    23.9630 
  149.1250   -11.2660     2.3990    79.9290    31.7110    24.5300    23.1450    24.2030 
  149.2500   -11.4140     2.4110    79.5280    29.9470    23.6670    22.8140    24.4700 
  149.3750   -11.5620     2.4140    74.5360    28.4290    23.0270    21.4950    24.5870 
  149.5000   -11.7610     2.4020    70.0300    27.6530    22.8110    21.5290    24.6620 
  149.6250   -12.0060     2.3780    72.9060    28.0600    23.1830    22.7780    24.6290 
  149.7500   -12.2530     2.3530    79.3000    29.1730    23.9320    25.2290    24.5450 
  149.8750   -12.4820     2.3370    82.4760    30.4020    24.7700    27.2650    24.5800 
  150.0000   -12.7010     2.3320    80.3340    31.1180    25.3300    27.6520    24.6620 
  150.1250   -12.9200     2.3370    77.2190    30.8360    25.2280    27.0060    24.6730 
