~V
VERS. 2.00: Ver 2.00
~W
STRT.M 50.0000:
STOP.M 216.0000:
STEP.M 0.1250:
NULL. -999.2500:
UWI. F10607:
~C
DEPT.M :
GR.API :
RML.OHMM :
RI. :
RXO.OHMM :
CALI.CM :
DEN.GM/CC :
SP.MV :
~A
# ...
  196.2500    36.2320     5.2480     4.1970     4.7850    22.7980     2.4000    -7.4460 
  196.3750    36.8900     5.6810     4.5130     5.4390    22.8060     2.4130    -7.6450 
  196.5000    38.1050     6.1180     4.8530     6.1920    22.8070     2.4180    -7.9060 
  196.6250    40.8850     6.4270     5.1180     6.7010    22.8070     2.4120    -8.2170 
  196.7500    43.5050     6.5710     5.2600     6.9880    22.8050     2.4010    -8.5220 
  196.8750    45.4690     6.5830     5.2850     6.8610    22.8020     2.3900    -8.8230 
  197.0000    46.9690     6.5580     5.2530     6.3040    22.7980     2.3840    -9.1080 
  197.1250    47.8510     6.6150     5.2560     6.0800    22.8070     2.3830    -9.3580 
  197.2500    47.6790     6.8000     5.3540     6.4650    22.8420     2.3840    -9.5650 
  197.3750    48.0540     7.1100     5.5630     7.2550    22.8990     2.3850    -9.7500 
  197.5000    49.9670     7.4960     5.8580     7.8950    22.9210     2.3890    -9.8580 
  197.6250    52.8280     7.8690     6.1810     8.0930    22.8940     2.3960    -9.8940 
  197.7500    54.6190     8.1380     6.4480     8.1530    22.8740     2.4030    -9.9090 
  197.8750    54.4480     8.2510     6.6100     8.3290    22.8640     2.4070    -9.8830 
  198.0000    52.7670     8.2030     6.6500     8.5980    22.8610     2.4070    -9.8200 
  198.1250    50.0690     8.0300     6.5760     8.3410    22.8610     2.4060    -9.6980 
  198.2500    47.9410     7.8190     6.4470     8.1180    22.8670     2.4050    -9.5760 
  198.3750    46.2340     7.6170     6.2970     7.7670    22.8730     2.4060    -9.4350 
  198.5000    44.8580     7.4430     6.1480     7.6690    22.8760     2.4090    -9.3070 
  198.6250    45.2530     7.2850     6.0070     7.5870    22.8750     2.4110    -9.2040 
  198.7500    47.6800     7.1200     5.8690     7.4520    22.8690     2.4080    -9.0870 
  198.8750    52.3490     6.9530     5.7350     7.1950    22.8620     2.3970    -8.9830 
  199.0000    58.2050     6.8140     5.6230     6.9810    22.8770     2.3760    -8.9280 
  199.1250    64.9790     6.7480     5.5630     6.8780    22.8820     2.3570    -8.9000 
  199.2500    71.1000     6.7430     5.5560     6.8920    22.8610     2.3500    -8.8940 
  199.3750    72.1220     6.7700     5.5860     7.0130    22.8250     2.3530    -8.9150 
  199.5000    65.2320     6.7900     5.6240     7.1840    22.8050     2.3610    -8.9390 
  199.6250    56.1120     6.7730     5.6430     7.2190    22.7870     2.3610    -8.9600 
  199.7500    53.6810     6.7250     5.6380     6.9000    22.7400     2.3570    -8.9750 
  199.8750    56.8490     6.6580     5.6140     6.2800    22.6460     2.3520    -8.9860 
  200.0000    60.8990     6.5730     5.5790     6.0290    22.5380     2.3520    -8.9750 
  200.1250    63.5570     6.4490     5.5210     6.6380    22.5140     2.3530    -8.9560 
  200.2500    65.0900     6.2790     5.4280     7.1030    22.5730     2.3530    -8.9140 
  200.3750    64.6740     6.0720     5.2900     7.0320    22.6190     2.3510    -8.8390 
  200.5000    63.1750     5.8520     5.1180     6.2490    22.6240     2.3540    -8.7610 
  200.6250    61.9310     5.6800     4.9530     5.6170    22.6530     2.3640    -8.7130 
  200.7500    60.2210     5.5950     4.8410     5.3600    22.6960     2.3730    -8.6930 
  200.8750    57.3570     5.6110     4.8050     5.3140    22.7380     2.3750    -8.6780 
  201.0000    54.6740     5.7110     4.8390     5.3800    22.7610     2.3680    -8.6500 
  201.1250    53.4100     5.8420     4.9100     5.6970    22.7520     2.3590    -8.6150 
  201.2500    52.9610     5.9250     4.9670     6.1770    22.7660     2.3530    -8.5980 
  201.3750    53.2000     5.9230     4.9810     6.2780    22.7790     2.3550    -8.5810 
  201.5000    53.8210     5.8540     4.9490     5.9240    22.7610     2.3590    -8.5210 
  201.6250    53.2110     5.7750     4.8950     5.6830    22.6990     2.3620    -8.4400 
  201.7500    50.6590     5.7530     4.8700     5.5710    22.6640     2.3620    -8.3310 
  201.8750    48.0030     5.8250     4.9120     5.6430    22.7110     2.3610    -8.2280 
  202.0000    47.2030     5.9960     5.0390     5.8420    22.8450     2.3650    -8.1790 
  202.1250    47.1750     6.2390     5.2370     6.1250    22.9680     2.3790    -8.2010 
  202.2500    47.2510     6.4750     5.4400     6.3350    23.0570     2.3980    -8.2610 
  202.3750    48.3400     6.6380     5.5970     6.3600    23.1050     2.4150    -8.3380 
  202.5000    50.2950     6.6820     5.6770     6.2650    23.1340     2.4210    -8.4590 
  202.6250    50.6610     6.6060     5.6670     6.2420    23.1680     2.4130    -8.6250 
  202.7500    48.1830     6.5000     5.6120     6.2840    23.1840     2.3990    -8.8210 
  202.8750    44.5140     6.4250     5.5400     6.4180    23.1860     2.3880    -9.0180 
  203.0000    41.8860     6.3950     5.4680     6.7260    23.1860     2.3830    -9.2020 
  203.1250    43.0410     6.3780     5.3980     7.0310    23.1910     2.3820    -9.3180 
  203.2500    45.8910     6.3380     5.3290     6.8440    23.1950     2.3820    -9.3760 
  203.3750    46.9040     6.2770     5.2710     6.4390    23.1960     2.3810    -9.4430 
  203.5000    45.3120     6.2230     5.2400     6.1250    23.2000     2.3810    -9.5070 
  203.6250    44.2990     6.1910     5.2530     6.0520    23.2190     2.3820    -9.4680 
  203.7500    44.5220     6.1610     5.2880     6.0270    23.2430     2.3810    -9.3630 
  203.8750    44.0770     6.1010     5.3050     6.3300    23.2340     2.3730    -9.2160 
  204.0000    43.1980     5.9880     5.2670     6.8410    23.1810     2.3580    -8.9930 
  204.1250    42.6770     5.8250     5.1580     6.7250    23.0780     2.3410    -8.7480 
  204.2500    42.5340     5.6640     5.0320     6.0580    22.9510     2.3310    -8.4710 
  204.3750    43.4610     5.5490     4.9390     5.4720    22.8460     2.3370    -8.1310 
  204.5000    45.9560     5.5150     4.9150     5.3980    22.8000     2.3570    -7.8090 
  204.6250    47.6530     5.5830     4.9670     5.6310    22.7970     2.3780    -7.6040 
  204.7500    47.1620     5.6980     5.0450     5.8700    22.7970     2.3880    -7.4360 
  204.8750    46.1350     5.7870     5.1100     5.9090    22.7980     2.3830    -7.3000 
  205.0000    46.1080     5.7960     5.1330     5.7700    22.8070     2.3670    -7.2460 
  205.1250    46.2680     5.7140     5.1090     5.6050    22.8310     2.3520    -7.2450 
  205.2500    46.7710     5.6060     5.0670     5.6220    22.8550     2.3430    -7.3010 
  205.3750    47.0500     5.5240     5.0310     5.6670    22.8560     2.3410    -7.4390 
  205.5000    47.0500     5.5020     5.0200     5.6940    22.8340     2.3420    -7.5570 
  205.6250    47.0500     5.5600     5.0540     5.7920    22.8510     2.3440    -7.6270 
  205.7500    47.0500     5.6740     5.1250     5.9190    22.9440     2.3490    -7.7490 
  205.8750    47.0500     5.8150     5.2120     5.9820    23.0580     2.3580    -7.8840 
  206.0000    47.0500     5.9420     5.2830     5.8860    23.1130     2.3670    -7.9890 
  206.1250    47.0500     6.0000     5.2960     5.8080    23.1120     2.3690    -8.0790 
  206.2500    47.0500     5.9840     5.2490     5.7890    23.0920     2.3590    -8.1480 
  206.3750    47.0500     5.9100     5.1600     5.7400    23.0360     2.3400    -8.1700 
  206.5000    47.0500     5.8140     5.0630     5.5870    22.9270     2.3220    -8.2020 
  206.6250    47.0500     5.7460     4.9960     5.5590    22.8610     2.3210    -8.2680 
  206.7500    47.0500     5.7270     4.9700     5.9410    22.8380     2.3380    -8.3210 
  206.8750    47.0500     5.7610     4.9800     6.2910    22.8170     2.3670    -8.3880 
  207.0000    47.0500     5.8580     5.0270     6.4710    22.7930     2.3930    -8.4880 
  207.1250    47.0500     6.0950     5.1680     6.6420    22.7690     2.4010    -8.6250 
  207.2500    47.0500     6.5600     5.4790     6.9970    22.7530     2.3920    -8.8110 
  207.3750    47.0500     7.3610     6.0580     7.4510    22.7700     2.3720    -9.0710 
