~V
VERS. 2.00: Ver 2.00
~W
STRT.M 52.0000:
STOP.M 239.0000:
STEP.M 0.1250:
NULL. -999.2500:
UWI. F10645:
~C
DEPT.M :
SP.MV :
GR.API :
RML.OHMM :
RI. :
RXO.OHMM :
CALI.CM :
DEN.GM/CC :
~A
# ...
  187.0000   -23.4660    61.9930    23.6900    19.3090    17.9440    24.3120     2.2700 
  187.1250   -23.2520    59.5720    25.2540    20.4000    17.4970    24.2980     2.2660 
  187.2500   -23.0070    57.0530    27.2220    21.9250    18.9920    24.3550     2.2650 
  187.3750   -22.7520    54.6240    29.1080    23.5640    22.1150    24.4220     2.2610 
  187.5000   -22.4980    52.9120    30.2660    24.8520    25.3920    24.4610     2.2500 
  187.6250   -22.2830    54.4980    30.0720    25.2310    27.8310    24.4380     2.2360 
  187.7500   -22.0620    58.7220    28.1540    24.1550    27.1250    24.3470     2.2270 
  187.8750   -21.8940    61.2510    25.3950    22.0890    23.9700    24.2400     2.2250 
  188.0000   -21.7380    61.1380    22.5970    19.6320    18.8340    24.1660     2.2290 
  188.1250   -21.6440    59.2040    20.2940    17.3520    14.7150    24.0830     2.2380 
  188.2500   -21.6070    58.5680    18.7120    15.6550    12.8710    24.0310     2.2450 
  188.3750   -21.6120    59.9570    17.6090    14.4900    12.0430    24.0180     2.2450 
  188.5000   -21.6720    63.9740    16.8440    13.7610    11.8550    24.0180     2.2360 
  188.6250   -21.7320    67.7000    16.3450    13.3570    11.9670    24.0030     2.2240 
  188.7500   -21.8530    67.1900    16.1780    13.2520    11.8460    23.9910     2.2220 
  188.8750   -21.9920    64.4960    16.4170    13.4260    11.5340    24.0100     2.2310 
  189.0000   -22.1820    61.8560    17.2360    13.9800    11.6620    24.0570     2.2420 
  189.1250   -22.3750    59.8430    18.8030    15.0410    12.6680    24.1290     2.2440 
  189.2500   -22.5630    57.5990    21.2610    16.7720    14.8680    24.2330     2.2390 
  189.3750   -22.7420    55.7620    24.2050    18.9330    18.0590    24.3510     2.2440 
  189.5000   -22.8930    55.8230    27.0780    21.1120    21.7460    24.4230     2.2740 
  189.6250   -23.0300    56.2930    29.1370    22.7280    25.6340    24.4360     2.3220 
  189.7500   -23.1540    56.3740    29.6030    23.1580    24.6910    24.4340     2.3530 
  189.8750   -23.2500    58.1310    28.9600    22.7170    21.0510    24.4160     2.3460 
  190.0000   -23.3060    61.8530    27.9860    21.9690    17.8330    24.4750     2.3060 
  190.1250   -23.3310    64.6390    27.4460    21.5050    17.7550    24.6420     2.2540 
  190.2500   -23.3100    65.0410    28.0870    21.9010    20.4450    24.7580     2.2170 
  190.3750   -23.3070    64.0950    30.0790    23.2650    24.0020    24.7060     2.2000 
  190.5000   -23.2820    62.6500    33.5310    25.6690    26.5460    24.6120     2.1960 
  190.6250   -23.2470    60.2920    38.2730    29.0140    29.9010    24.5800     2.1950 
  190.7500   -23.1840    55.9220    43.2470    32.6710    35.6190    24.5890     2.1980 
  190.8750   -23.0960    52.4890    45.6810    34.8930    42.6390    24.5680     2.2190 
  191.0000   -23.0080    52.1810    42.6770    33.6760    48.2590    24.4950     2.2780 
  191.1250   -22.8830    55.6100    34.1360    28.3760    47.7960    24.3880     2.3850 
  191.2500   -22.7480    59.3650    24.0070    20.9850    36.4230    24.1890     2.5160 
  191.3750   -22.5480    61.9860    16.0940    14.6050    23.1860    23.9010     2.6070 
  191.5000   -22.3490    65.7550    10.9750    10.1390    12.8390    23.5560     2.6280 
  191.6250   -22.1770    68.3750     8.0890     7.4110     6.1420    23.1530     2.5880 
  191.7500   -22.0130    65.4450     6.8310     6.0530     4.8070    22.8350     2.5200 
  191.8750   -21.9030    59.9260     6.3230     5.3850     4.4790    22.6660     2.4600 
  192.0000   -21.8030    56.6910     6.1700     5.1120     4.4890    22.6690     2.4190 
  192.1250   -21.7580    55.4770     6.0640     4.9990     4.3300    22.7890     2.3970 
  192.2500   -21.7710    52.1240     5.7950     4.8520     4.1100    22.8510     2.3880 
  192.3750   -21.8630    49.6320     5.4240     4.6310     3.9270    22.7430     2.3830 
  192.5000   -21.9780    52.2250     5.1190     4.4090     3.8100    22.5630     2.3750 
  192.6250   -22.1020    58.4040     5.0300     4.2930     3.8490    22.4260     2.3630 
  192.7500   -22.2180    63.4480     5.2810     4.3940     4.1100    22.5130     2.3490 
  192.8750   -22.3260    68.3250     5.8090     4.7030     4.7860    22.8930     2.3400 
  193.0000   -22.4150    75.3490     6.5300     5.1870     6.0200    23.3910     2.3380 
  193.1250   -22.4880    82.4000     7.3170     5.7640     6.8990    23.7440     2.3470 
  193.2500   -22.5410    83.1050     8.0040     6.3080     7.1270    23.8630     2.3650 
  193.3750   -22.5410    80.1150     8.5060     6.7170     7.1590    23.9340     2.3830 
  193.5000   -22.5420    79.3890     8.8110     6.9570     7.3230    23.9800     2.3930 
  193.6250   -22.5090    83.0790     8.9670     7.0550     7.5770    24.0020     2.3940 
  193.7500   -22.4950    87.9730     9.0270     7.0600     7.7530    23.9890     2.3940 
  193.8750   -22.4610    89.3560     9.0410     7.0320     7.7710    23.9110     2.3980 
  194.0000   -22.4580    89.5100     9.0210     6.9850     7.3770    23.7550     2.4080 
  194.1250   -22.4980    91.0520     8.9810     6.9270     6.9100    23.6350     2.4180 
  194.2500   -22.5650    94.7340     8.9550     6.8770     6.8470    23.5920     2.4170 
  194.3750   -22.6980    98.4390     8.9750     6.8530     6.7650    23.6170     2.4040 
  194.5000   -22.8490   102.1720     9.0520     6.8690     6.8220    23.5950     2.3840 
  194.6250   -23.0620   105.4080     9.1720     6.9220     7.1420    23.5160     2.3610 
  194.7500   -23.3020   106.6590     9.2990     6.9930     7.4010    23.4990     2.3350 
  194.8750   -23.5910   106.2420     9.3940     7.0590     7.3950    23.5700     2.3080 
  195.0000   -23.8930   106.7940     9.4390     7.1040     7.4080    23.7130     2.2890 
  195.1250   -24.1750   109.4980     9.4360     7.1270     7.4350    23.9280     2.2870 
  195.2500   -24.4390   112.6720     9.3980     7.1220     7.4520    24.0380     2.3060 
  195.3750   -24.6640   114.4700     9.3510     7.1000     7.4840    24.1650     2.3330 
  195.5000   -24.8520   114.5860     9.3210     7.0780     7.4720    24.2960     2.3510 
  195.6250   -24.9950   113.6930     9.3490     7.0830     7.2340    24.3690     2.3530 
  195.7500   -25.0870   111.6880     9.5110     7.1760     7.1190    24.3770     2.3420 
  195.8750   -25.1120   107.8000     9.8580     7.3970     7.3950    24.3840     2.3370 
  196.0000   -25.0950   102.7570    10.4360     7.7830     8.1820    24.4080     2.3480 
  196.1250   -25.0330    98.4890    11.2490     8.3470     9.1010    24.4080     2.3780 
  196.2500   -24.9650    97.0320    12.2630     9.0780    10.0850    24.3800     2.4180 
  196.3750   -24.8600    95.8870    13.3290     9.8710    11.0520    24.3030     2.4450 
  196.5000   -24.7370    92.8610    14.3350    10.6400    11.8200    24.1520     2.4450 
  196.6250   -24.6080    87.7940    15.1900    11.3120    11.9070    23.9160     2.4200 
  196.7500   -24.4730    84.7760    15.7630    11.7890    12.0480    23.7030     2.3850 
  196.8750   -24.3920    84.6380    16.0000    12.0350    12.3590    23.6070     2.3600 
  197.0000   -24.3260    86.4810    15.8770    12.0340    12.9230    23.5690     2.3530 
  197.1250   -24.3110    88.5300    15.5110    11.8500    13.9120    23.5490     2.3610 
  197.2500   -24.3110    90.5810    15.2860    11.6980    13.5760    23.5450     2.3720 
  197.3750   -24.3610    93.1630    15.7240    11.9070    11.9540    23.5470     2.3740 
  197.5000   -24.4830    94.6790    17.3560    12.8500    11.5030    23.5480     2.3600 
  197.6250   -24.6360    91.8660    20.6280    14.9330    13.7460    23.6090     2.3310 
  197.7500   -24.8400    84.2320    25.9400    18.6970    19.4870    23.7670     2.2930 
  197.8750   -25.0130    75.6090    32.0980    23.5750    29.9490    23.9410     2.2630 
  198.0000   -25.1950    69.2000    36.7780    28.1220    46.2920    23.9770     2.2550 
  198.1250   -25.3530    66.0030    37.1230    30.0650    52.6780    23.8110     2.2750 
