~V
VERS. 2.00: Ver 2.00
~W
STRT.M 55.0000:
STOP.M 213.0000:
STEP.M 0.1250:
NULL. -999.2500:
UWI. F10686:
~C
DEPT.M :
SP.MV :
DEN.GM/CC :
GR.API :
RML.OHMM :
RI. :
RXO.OHMM :
CALI.CM :
~A
# ...
  201.2500    -9.9060     2.2530    34.6670     5.1770     4.0710     4.4640    24.2740 
  201.3750    -9.9220     2.2530    36.6410     5.1690     4.0370     4.5010    24.1970 
  201.5000    -9.9510     2.2500    36.6780     5.1500     4.0000     4.4640    24.1760 
  201.6250    -9.9820     2.2460    35.2280     5.1040     3.9520     4.4200    24.2280 
  201.7500    -9.9250     2.2450    33.7370     5.0450     3.9000     4.3390    24.3880 
  201.8750    -9.8000     2.2500    32.6960     5.0060     3.8610     4.2210    24.5960 
  202.0000    -9.6860     2.2620    32.5240     5.0260     3.8600     4.0340    24.8290 
  202.1250    -9.6330     2.2790    32.5240     5.1490     3.9330     4.0880    24.9960 
  202.2500    -9.6180     2.2960    32.5240     5.3590     4.0750     4.5010    25.0230 
  202.3750    -9.6410     2.3120    32.5240     5.6190     4.2700     5.0820    25.0280 
  202.5000    -9.7150     2.3230    32.5240     5.8750     4.4780     5.5050    25.0280 
  202.6250    -9.8950     2.3240    32.5240     6.0520     4.6430     5.5620    25.0280 
  202.7500   -10.1750     2.3160    32.5240     6.1200     4.7340     5.4630    25.0280 
  202.8750   -10.4870     2.3030    32.5240     6.0790     4.7440     5.2780    25.0310 
  203.0000   -10.7330     2.2920    32.5240     5.9600     4.6880     5.2190    25.0400 
  203.1250   -10.8250     2.2880    32.5240     5.8080     4.5880     5.1860    25.0930 
  203.2500   -10.8570     2.2870    32.5240     5.6730     4.4740     4.9320    25.0830 
  203.3750   -10.8980     2.2860    32.5240     5.5700     4.3620     4.4430    24.9880 
  203.5000   -10.9440     2.2840    32.5240     5.4910     4.2600     4.0330    24.7600 
  203.6250   -10.9070     2.2760    32.5240     5.4200     4.1750     3.8080    24.7210 
  203.7500   -10.8000     2.2640    32.5240     5.3500     4.1090     3.7000    24.7110 
  203.8750   -10.6650     2.2500    32.5240     5.2900     4.0670     3.7170    24.7110 
  204.0000   -10.5580     2.2350    32.5240     5.2570     4.0560     3.7890    24.7110 
  204.1250   -10.5770     2.2240    32.5240     5.2630     4.0790     3.8540    24.7220 
  204.2500   -10.6460     2.2170    32.5240     5.2920     4.1200     3.9330    24.7780 
  204.3750   -10.7090     2.2170    32.5240     5.3250     4.1630     3.9510    24.9250 
  204.5000   -10.7640     2.2260    32.5240     5.3420     4.1940     3.9200    25.2150 
  204.6250   -10.7690     2.2410    32.5240     5.3270     4.2010     3.8460    25.4020 
  204.7500   -10.7750     2.2540    32.5240     5.2890     4.1880     3.8160    24.7640 
  204.8750   -10.7670     2.2590    32.5240     5.2360     4.1620     3.7960    24.3210 
  205.0000   -10.7440     2.2540    32.5240     5.1840     4.1350     3.7910    24.2400 
  205.1250   -10.6870     2.2460    32.5240     5.1560     4.1260     3.8130    24.2400 
  205.2500   -10.5900     2.2450    32.5240     5.1640     4.1430     3.8880    24.2400 
  205.3750   -10.5070     2.2550    32.5240     5.2120     4.1860     4.1550    24.2400 
  205.5000   -10.4240     2.2720    32.5240     5.2910     4.2480     4.6270    24.2400 
  205.6250   -10.4270     2.2850    32.5240     5.3870     4.3150     5.1020    24.2400 
  205.7500   -10.4630     2.2900    32.5240     5.4730     4.3770     5.3230    24.2400 
  205.8750   -10.5040     2.2880    32.5240     5.5410     4.4300     5.1590    24.2400 
  206.0000   -10.5510     2.2810    32.5240     5.6040     4.4740     4.9390    24.2400 
  206.1250   -10.5950     2.2780    32.5240     5.6750     4.5090     4.7870    24.2400 
  206.2500   -10.6510     2.2820    32.5240     5.7390     4.5380     4.7150    24.2400 
  206.3750   -10.6560     2.2940    32.5240     5.7810     4.5650     4.5900    24.2400 
  206.5000   -10.6340     2.3090    32.5240     5.7900     4.5910     4.5570    24.2400 
  206.6250   -10.6160     2.3210    32.5240     5.7730     4.6150     4.7780    24.2400 
  206.7500   -10.5940     2.3280    32.5240     5.7550     4.6350     5.1600    24.2400 
  206.8750   -10.6000     2.3310    32.5240     5.7500     4.6480     5.4500    24.2390 
  207.0000   -10.6510     2.3320    32.5240     5.7590     4.6540     5.6440    24.2320 
  207.1250   -10.7620     2.3340    32.5240     5.7700     4.6570     5.8530    24.1880 
  207.2500   -10.9580     2.3370    32.5240     5.7790     4.6620     5.9720    24.1200 
  207.3750   -11.2100     2.3370    32.5240     5.7890     4.6700     5.9340    24.0750 
  207.5000   -11.4670     2.3350    32.5240     5.8000     4.6790     5.9440    24.0270 
  207.6250   -11.8920     2.3310    32.5240     5.8080     4.6850     6.0340    24.0030 
  207.7500   -12.4270     2.3260    32.5240     5.8150     4.6880     6.1780    23.9850 
  207.8750   -12.9440     2.3170    32.5240     5.8180     4.6880     6.4390    23.9260 
  208.0000   -13.4490     2.3010    32.5240     5.8180     4.6880     6.5160    23.8430 
  208.1250   -13.9110     2.2790    32.5240     5.8180     4.6880     6.1570    23.7480 
  208.2500   -14.3020     2.2610    32.5240     5.8180     4.6880     5.5980    23.6890 
  208.3750   -14.6850     2.2590    32.5240     5.8180     4.6880     5.3130    23.6630 
  208.5000   -15.1070     2.2830    32.5240     5.8180     4.6880     5.7950    23.5640 
  208.6250   -15.0990     2.3360    32.5240     5.8180     4.6880     7.6980    23.4740 
  208.7500   -15.0910     2.3980    32.5240     5.8180     4.6880    10.9220    23.4750 
  208.8750  -999.2500     2.4500    32.5240     5.8180     4.6880    13.5150    23.5570 
  209.0000  -999.2500     2.4760    32.5240     5.8180     4.6880    13.3310    23.5910 
  209.1250  -999.2500     2.4680    32.5240     5.8180     4.6880    11.4920    23.6010 
  209.2500  -999.2500     2.4420    32.5240     5.8180     4.6880    10.1640    23.5960 
  209.3750  -999.2500     2.4090    32.5240     5.8180     4.6880     9.3490    23.5950 
  209.5000  -999.2500     2.3770    32.5240     5.8180     4.6880     8.8080    23.5950 
  209.6250  -999.2500     2.3520    32.5240     5.8180     4.6880     8.6010    23.5960 
  209.7500  -999.2500     2.3310    32.5240     5.8180     4.6880     8.7040    23.6120 
  209.8750  -999.2500     2.3130    32.5240     5.8180     4.6880     8.8470    23.6770 
  210.0000  -999.2500     2.2970    32.5240     5.8180     4.6880     8.7950    23.8090 
  210.1250  -999.2500     2.2880    32.5240     5.8180     4.6880     8.1640    23.8170 
  210.2500  -999.2500     2.2890    32.5240     5.8180     4.6880     7.3030    23.7010 
  210.3750  -999.2500     2.3020    32.5240     5.8180     4.6880     6.6510    23.4020 
  210.5000  -999.2500     2.3230    32.5240     5.8180     4.6880     7.1390    23.0390 
  210.6250  -999.2500     2.3410    32.5240     5.8180     4.6880     8.5310    22.9110 
  210.7500  -999.2500     2.3510    32.5240     5.8180     4.6880     9.6290    22.8560 
  210.8750  -999.2500     2.3530    32.5240     5.8180     4.6880    10.4030    22.8100 
  211.0000  -999.2500     2.3490    32.5240     5.8180     4.6880    10.7800    22.7530 
  211.1250  -999.2500     2.3380    32.5240     5.8180     4.6880    11.1790    22.7380 
  211.2500  -999.2500     2.3200    32.5240     5.8180     4.6880    11.3840    22.6130 
  211.3750  -999.2500     2.2930    32.5240     5.8180     4.6880    10.3350    21.9510 
  211.5000  -999.2500     2.2600    32.5240     5.8180     4.6880     8.3210    19.2080 
  211.6250  -999.2500     2.2280    32.5240     5.8180     4.6880     7.3410    17.5480 
  211.7500  -999.2500     2.2020    32.5240     5.8180     4.6880     7.0940    17.2370 
  211.8750  -999.2500     2.1830    32.5240     5.8180     4.6880     7.0880    17.1940 
  212.0000  -999.2500     2.1710    32.5240     5.8180     4.6880     7.0900    17.1940 
  212.1250  -999.2500     2.1640    32.5240     5.8180     4.6880     7.0910    17.1930 
  212.2500  -999.2500     2.1610    32.5240     5.8180     4.6880     7.0870    17.1880 
  212.3750  -999.2500     2.1590    32.5240     5.8180     4.6880     7.0800    17.1830 
