~V
VERS. 2.00: Ver 2.00
~W
STRT.M 55.0000:
STOP.M 242.0000:
STEP.M 0.1250:
NULL. -999.2500:
UWI. F10652:
~C
DEPT.M :
SP.MV :
GR.API :
RML.OHMM :
RI. :
RXO.OHMM :
CALI.CM :
DEN.GM/CC :
~A
# ...
  111.2500    -9.0090    84.2770     6.0940     5.1130     5.8770    24.1440     2.3980 
  111.3750    -8.8880    81.6580     6.0020     4.9320     5.8680    24.3180     2.4040 
  111.5000    -8.7460    82.0350     5.9630     4.7840     5.7890    24.5140     2.4060 
  111.6250    -8.5650    86.0600     6.0770     4.7550     5.6830    24.6100     2.4030 
  111.7500    -8.3890    88.9970     6.3970     4.8860     5.7020    24.6050     2.3880 
  111.8750    -8.1950    87.3450     6.9660     5.2170     5.7910    24.4670     2.3560 
  112.0000    -8.0140    77.9910     7.8300     5.7900     6.0220    24.1850     2.3080 
  112.1250    -7.8260    65.3860     9.0920     6.7050     6.2430    23.8620     2.2540 
  112.2500    -7.6350    59.2890    10.6830     7.9290     6.4600    23.6280     2.2050 
  112.3750    -7.4630    59.6660    12.4370     9.3610     7.3530    23.4540     2.1670 
  112.5000    -7.2940    61.7880    13.9550    10.7310     9.5010    23.3760     2.1410 
  112.6250    -7.2050    61.1410    14.5070    11.4990    11.4980    23.4400     2.1340 
  112.7500    -7.1810    59.3590    13.9480    11.4510    12.4140    23.6350     2.1470 
  112.8750    -7.2390    58.8080    12.5640    10.6800    11.7130    23.9300     2.1810 
  113.0000    -7.3730    61.8470    10.9260     9.5360     9.8040    24.2270     2.2240 
  113.1250    -7.5710    70.0160     9.5950     8.4170     7.8880    24.2810     2.2580 
  113.2500    -7.8340    77.0130     8.6930     7.5190     7.5880    24.1330     2.2730 
  113.3750    -8.1010    78.5480     8.1130     6.8440     7.5560    24.0280     2.2750 
  113.5000    -8.4050    76.2640     7.6690     6.3190     7.4000    24.0940     2.2790 
  113.6250    -8.6520    75.5070     7.2100     5.8620     6.9290    24.3220     2.2980 
  113.7500    -8.8410    77.9760     6.7540     5.4450     6.3040    24.4460     2.3250 
  113.8750    -8.9710    82.8050     6.4360     5.1380     5.5900    24.4740     2.3470 
  114.0000    -9.0270    87.8140     6.4010     5.0300     5.0850    24.4080     2.3460 
  114.1250    -9.0290    86.9050     6.8120     5.2500     5.3690    24.1660     2.3160 
  114.2500    -8.9720    80.7360     7.5860     5.7670     6.4330    23.8860     2.2790 
  114.3750    -8.8970    75.4360     8.5710     6.5070     7.9010    23.8220     2.2600 
  114.5000    -8.7710    74.7340     9.4820     7.2960     8.7210    23.9020     2.2790 
  114.6250    -8.6610    76.5740     9.9010     7.8320     9.4500    23.9640     2.3340 
  114.7500    -8.5200    79.0270     9.7690     7.9770    10.5790    23.9450     2.3860 
  114.8750    -8.3710    81.0480     9.2480     7.7550    10.1900    23.8870     2.4020 
  115.0000    -8.2340    80.4340     8.6170     7.3250     8.3570    23.8370     2.3760 
  115.1250    -8.0890    76.0340     8.0890     6.8720     7.3290    23.8080     2.3330 
  115.2500    -7.9740    73.5660     7.6710     6.4840     7.0940    23.7780     2.3040 
  115.3750    -7.8690    76.2430     7.3180     6.1650     6.8250    23.7420     2.3020 
  115.5000    -7.8120    81.3400     6.9920     5.8990     6.4360    23.6980     2.3230 
  115.6250    -7.7640    84.1980     6.6750     5.6620     6.1300    23.6740     2.3520 
  115.7500    -7.7670    85.0470     6.3810     5.4320     5.9110    23.7290     2.3720 
  115.8750    -7.8250    86.1810     6.1300     5.2140     5.6890    23.8660     2.3750 
  116.0000    -7.8670    88.4300     5.9270     5.0210     5.5990    23.9630     2.3650 
  116.1250    -7.9590    89.4560     5.7730     4.8700     5.6060    23.9820     2.3510 
  116.2500    -8.0380    89.4730     5.7040     4.7800     5.5610    23.9740     2.3410 
  116.3750    -8.1130    90.8350     5.8020     4.7980     5.5290    23.9370     2.3390 
  116.5000    -8.1540    94.0880     6.1280     4.9700     5.4760    23.8420     2.3460 
  116.6250    -8.1560    94.7930     6.7050     5.3380     5.7860    23.7660     2.3600 
  116.7500    -8.1360    91.6920     7.3750     5.8210     7.0190    23.7160     2.3700 
  116.8750    -8.0660    86.7770     7.9400     6.3010     9.1880    23.7090     2.3670 
  117.0000    -7.9960    82.6360     8.2030     6.6190     9.8210    23.7600     2.3510 
  117.1250    -7.8520    80.2100     8.0410     6.6180     8.0760    23.8590     2.3280 
  117.2500    -7.6720    79.8850     7.6550     6.3980     6.9360    23.7490     2.3110 
  117.3750    -7.4460    82.6520     7.2530     6.1060     6.6320    23.5610     2.3080 
  117.5000    -7.2200    87.5080     7.0160     5.8950     6.5230    23.4500     2.3150 
  117.6250    -6.9500    91.2620     7.0820     5.9020     6.5640    23.4190     2.3200 
  117.7500    -6.6440    91.3300     7.3920     6.1120     6.6400    23.4910     2.3140 
  117.8750    -6.3190    88.8210     7.8480     6.4650     6.7710    23.6250     2.2980 
  118.0000    -5.9510    86.5780     8.3110     6.8640     6.9890    23.6420     2.2810 
  118.1250    -5.6120    84.2630     8.6020     7.1800     7.6070    23.5000     2.2770 
  118.2500    -5.2610    82.5900     8.6800     7.3360     7.7530    23.4160     2.2840 
  118.3750    -4.9240    82.5940     8.5850     7.3130     7.3570    23.4140     2.2960 
  118.5000    -4.5590    83.7990     8.4160     7.1620     6.9870    23.3860     2.3010 
  118.6250    -4.1630    84.7480     8.3180     6.9980     7.0620    23.1650     2.2970 
  118.7500    -3.7450    84.8350     8.4120     6.9620     7.4320    22.8700     2.2900 
  118.8750    -3.2580    84.8530     8.8030     7.1650     7.7400    22.7160     2.2810 
  119.0000    -2.7160    83.9040     9.6120     7.7050     7.8050    22.6890     2.2680 
  119.1250    -2.0680    79.2580    11.0970     8.7610     8.4620    22.7540     2.2420 
  119.2500    -1.3460    72.4800    13.3040    10.3590    10.2780    22.9820     2.2080 
  119.3750    -0.5600    67.2280    16.2600    12.5490    12.7610    23.3980     2.1760 
  119.5000     0.2620    65.4970    19.8000    15.2740    14.8450    23.8610     2.1530 
  119.6250     1.0570    64.9850    23.3690    18.2400    16.5710    24.1220     2.1420 
  119.7500     1.8340    62.6170    26.1780    20.8680    17.9150    24.2560     2.1330 
  119.8750     2.5240    59.0490    27.7660    22.7090    18.5620    24.3030     2.1230 
  120.0000     3.1250    56.4960    28.1380    23.5600    19.0810    24.3190     2.1100 
  120.1250     3.5960    55.1920    27.5220    23.3970    18.6430    24.3280     2.1040 
  120.2500     3.9670    54.7220    26.5310    22.7220    17.5490    24.3150     2.1100 
  120.3750     4.2190    55.2900    25.5590    21.9240    17.1100    24.2560     2.1280 
  120.5000     4.4010    56.4230    24.9360    21.3430    16.8360    24.1780     2.1550 
  120.6250     4.5430    57.0830    25.0380    21.3310    16.7660    24.1190     2.1840 
  120.7500     4.6510    55.9030    25.8960    21.9380    17.8540    24.1310     2.2120 
  120.8750     4.7780    53.4770    27.4310    23.1300    18.7750    24.1710     2.2290 
  121.0000     4.8890    51.2630    29.3350    24.7040    18.9760    24.2720     2.2290 
  121.1250     5.0030    51.8290    30.9580    26.2070    18.6820    24.4220     2.2050 
  121.2500     5.1150    54.0100    31.7230    27.1290    18.5600    24.4990     2.1680 
  121.3750     5.2350    55.2670    31.4180    27.2060    18.2420    24.4430     2.1310 
  121.5000     5.3590    54.3350    30.2760    26.5200    18.2270    24.4230     2.1050 
  121.6250     5.4490    52.9150    28.8400    25.4400    17.5060    24.6390     2.0970 
  121.7500     5.5760    52.5710    27.6780    24.4810    18.4850    24.8890     2.1010 
  121.8750     5.7020    53.2540    27.0620    23.9150    20.2010    24.9110     2.1080 
  122.0000     5.8230    54.1830    27.0840    23.8680    19.1870    24.5410     2.1160 
  122.1250     5.9860    53.6700    27.7100    24.3700    19.3980    24.1870     2.1240 
  122.2500     6.1310    52.1580    28.5600    25.1330    20.5420    24.0420     2.1310 
  122.3750     6.2900    52.4050    29.3270    25.9140    21.9010    23.9930     2.1380 
