~V
VERS. 2.00: Ver 2.00
~W
STRT.M 56.0000:
STOP.M 256.0000:
STEP.M 0.1250:
NULL. -999.2500:
UWI. F10668:
~C
DEPT.M :
SP.MV :
GR.API :
RML.OHMM :
RI. :
RXO.OHMM :
CALI.CM :
DEN.GM/CC :
~A
# ...
  236.0000   -16.6570    26.7000     4.5080     3.6310     4.4000    23.3720     2.3570 
  236.1250   -16.7210    27.1240     4.5810     3.6570     4.3660    23.4830     2.3430 
  236.2500   -16.7580    27.6190     4.6680     3.6990     4.2290    23.5250     2.3490 
  236.3750   -16.7700    29.3770     4.7420     3.7550     4.2550    23.4680     2.3780 
  236.5000   -16.7510    30.6920     4.7820     3.8080     4.4350    23.3960     2.4120 
  236.6250   -16.7080    29.7470     4.7700     3.8370     4.5540    23.2790     2.4290 
  236.7500   -16.6570    26.5660     4.7030     3.8280     4.4810    23.1560     2.4230 
  236.8750   -16.5980    23.9960     4.5970     3.7800     4.3270    23.1150     2.4000 
  237.0000   -16.5360    23.2110     4.5100     3.7280     4.2030    23.0940     2.3780 
  237.1250   -16.4700    24.0000     4.5050     3.7130     4.1880    23.0620     2.3660 
  237.2500   -16.4150    26.1820     4.6290     3.7740     4.2930    23.0870     2.3690 
  237.3750   -16.3980    30.0680     4.9030     3.9350     4.5610    23.2890     2.3840 
  237.5000   -16.4380    33.9620     5.2310     4.1480     4.9930    23.5400     2.3970 
  237.6250   -16.5190    36.1130     5.5310     4.3590     5.3560    23.6950     2.3980 
  237.7500   -16.6440    36.4920     5.7520     4.5340     5.5460    23.7580     2.3840 
  237.8750   -16.7690    36.7840     5.9010     4.6700     5.5210    23.7730     2.3560 
  238.0000   -16.9440    39.4380     6.0600     4.8130     5.3720    23.7620     2.3290 
  238.1250   -17.1460    45.6540     6.2850     4.9990     5.8670    23.7760     2.3090 
  238.2500   -17.3480    55.1790     6.5900     5.2420     7.3400    23.7930     2.2970 
  238.3750   -17.5180    64.5520     6.9010     5.5030     8.0920    23.7460     2.2930 
  238.5000   -17.6300    68.3200     7.0830     5.6920     6.9160    23.6420     2.2960 
  238.6250   -17.6820    65.8060     7.0270     5.7180     6.0840    23.4980     2.3050 
  238.7500   -17.6620    61.4670     6.6940     5.5310     5.9610    23.3260     2.3180 
  238.8750   -17.5620    59.0730     6.1280     5.1340     5.8740    23.2440     2.3320 
  239.0000   -17.3910    54.6480     5.5090     4.6620     5.4630    23.4310     2.3440 
  239.1250   -17.1570    45.0100     4.9560     4.2160     5.0420    23.6690     2.3550 
  239.2500   -16.8830    34.0100     4.5500     3.8660     4.2770    23.8040     2.3700 
  239.3750   -16.5970    27.5930     4.3590     3.6730     3.8970    23.9510     2.3990 
  239.5000   -16.3190    24.6680     4.3430     3.6140     3.7990    24.1020     2.4350 
  239.6250   -16.0560    23.0410     4.4420     3.6610     3.9400    24.1960     2.4660 
  239.7500   -15.8350    21.8700     4.5700     3.7550     4.3250    24.2200     2.4770 
  239.8750   -15.6450    20.6540     4.6180     3.8220     4.9460    24.1480     2.4600 
  240.0000   -15.4700    18.8060     4.5550     3.8180     5.1880    24.0650     2.4300 
  240.1250   -15.3370    17.4140     4.4040     3.7400     4.7170    24.0010     2.3990 
  240.2500   -15.2150    17.6260     4.2160     3.6160     4.1860    23.9680     2.3770 
  240.3750   -15.1490    18.9530     4.0410     3.4850     3.9470    23.9660     2.3670 
  240.5000   -15.1250    19.5390     3.9020     3.3750     3.7880    23.9850     2.3630 
  240.6250   -15.1100    19.1780     3.8020     3.2970     3.6610    23.9210     2.3600 
  240.7500   -15.0650    18.9970     3.7450     3.2520     3.5750    23.8300     2.3590 
  240.8750   -15.0490    18.8340     3.7410     3.2470     3.5490    23.7350     2.3630 
  241.0000   -15.0820    18.2850     3.7780     3.2700     3.5680    23.7050     2.3710 
  241.1250   -15.1230    18.1420     3.8350     3.3110     3.6100    23.7400     2.3810 
  241.2500   -15.2200    18.7880     3.8880     3.3550     3.6220    23.8110     2.3890 
  241.3750   -15.3250    19.3910     3.9090     3.3800     3.5790    23.8800     2.3920 
  241.5000   -15.4170    20.4310     3.8950     3.3740     3.5820    23.9280     2.3910 
  241.6250   -15.5360    23.1890     3.8450     3.3350     3.6840    23.9460     2.3880 
  241.7500   -15.7050    25.8990     3.7700     3.2700     3.7490    23.9130     2.3870 
  241.8750   -15.8840    26.1830     3.6880     3.2000     3.8350    23.8850     2.3870 
  242.0000   -16.0450    25.6590     3.6360     3.1550     3.8520    23.9060     2.3870 
  242.1250   -16.2100    25.2330     3.6530     3.1640     3.7980    24.0110     2.3840 
  242.2500   -16.3300    24.8910     3.7630     3.2400     3.7210    24.1200     2.3800 
  242.3750   -16.4260    24.8130     3.9690     3.3840     3.7580    24.2240     2.3810 
  242.5000   -16.5320    25.0910     4.1950     3.5450     3.9030    24.2620     2.3910 
  242.6250   -16.6060    25.5390     4.3690     3.6770     4.2170    24.2700     2.4070 
  242.7500   -16.6370    25.6190     4.4280     3.7390     4.4710    24.2710     2.4160 
  242.8750   -16.6760    25.1460     4.3390     3.7080     4.6880    24.2680     2.4050 
  243.0000   -16.6930    24.4140     4.1790     3.6220     4.2620    24.2440     2.3790 
  243.1250   -16.6930    24.4930     4.0190     3.5170     4.0220    24.1800     2.3520 
  243.2500   -16.7190    25.6460     3.9020     3.4230     4.0340    24.0920     2.3350 
  243.3750   -16.7200    26.6970     3.8430     3.3590     4.1410    24.0640     2.3350 
  243.5000   -16.6870    27.6110     3.8090     3.3180     4.1080    24.0770     2.3430 
  243.6250   -16.7000    28.4670     3.7820     3.2940     3.9630    24.1160     2.3540 
  243.7500   -16.7520    28.5320     3.7570     3.2800     3.8730    24.1460     2.3690 
  243.8750   -16.7920    26.8680     3.7470     3.2730     3.8810    24.1630     2.3860 
  244.0000   -16.8840    25.1250     3.7530     3.2720     3.8870    24.1860     2.4010 
  244.1250   -17.0220    24.5290     3.7780     3.2810     3.8870    24.1990     2.4050 
  244.2500   -17.1700    24.4450     3.8280     3.3080     3.8950    24.1220     2.3980 
  244.3750   -17.3500    24.0360     3.9220     3.3690     3.9390    23.9380     2.3870 
  244.5000   -17.5770    24.4630     4.0630     3.4620     3.9690    23.7890     2.3830 
  244.6250   -17.7890    25.9230     4.2370     3.5770     4.0850    23.8530     2.3870 
  244.7500   -18.0200    27.0970     4.4120     3.6920     4.3700    23.9250     2.3920 
  244.8750   -18.2970    27.1060     4.5360     3.7730     4.6510    23.8620     2.3870 
  245.0000   -18.5220    27.4520     4.5860     3.8070     4.5430    23.8300     2.3740 
  245.1250   -18.7190    28.3840     4.5660     3.7960     4.4150    23.8720     2.3610 
  245.2500   -18.9140    29.0710     4.5050     3.7600     4.3700    23.9260     2.3530 
  245.3750   -19.1010    29.0690     4.4710     3.7390     4.4720    23.8840     2.3500 
  245.5000   -19.2840    28.8550     4.5280     3.7750     4.5040    23.8010     2.3400 
  245.6250   -19.4410    28.6760     4.7180     3.9010     4.4250    23.6630     2.3190 
  245.7500   -19.5570    28.8700     5.0620     4.1340     4.4080    23.5610     2.2930 
  245.8750   -19.6290    28.5600     5.5460     4.4780     4.9810    23.6220     2.2730 
  246.0000   -19.7110    27.3170     6.0500     4.8520     5.8420    23.8510     2.2650 
  246.1250   -19.7600    26.6710     6.4480     5.1630     6.8220    24.0500     2.2660 
  246.2500   -19.7610    26.6710     6.6270     5.3220     7.5640    24.0910     2.2700 
  246.3750   -19.7070    26.6710     6.5100     5.2690     7.4730    24.1180     2.2710 
  246.5000   -19.6190    26.6710     6.2320     5.0960     6.6990    24.1460     2.2700 
  246.6250   -19.5630    26.6710     5.9440     4.9090     6.0340    24.1960     2.2700 
  246.7500   -19.5310    26.6710     5.7810     4.8010     5.6600    24.2140     2.2730 
  246.8750   -19.5140    26.6710     5.8520     4.8530     5.7940    24.1990     2.2790 
  247.0000   -19.5300    26.6710     6.1230     5.0470     6.3810    24.1890     2.2850 
  247.1250   -19.6100    26.6710     6.5520     5.3620     7.2940    24.1940     2.2870 
