~V
VERS. 2.00: Ver 2.00
~W
STRT.M 56.0000:
STOP.M 256.0000:
STEP.M 0.1250:
NULL. -999.2500:
UWI. F10668:
~C
DEPT.M :
SP.MV :
GR.API :
RML.OHMM :
RI. :
RXO.OHMM :
CALI.CM :
DEN.GM/CC :
~A
# ...
  123.5000   -14.3400    84.9800     6.4740     4.9840     6.0830    24.6850     2.3570 
  123.6250   -14.2510    85.8290     6.3740     4.9120     5.7940    24.7170     2.3460 
  123.7500   -14.2010    87.5150     6.2670     4.8390     5.6610    24.6840     2.3300 
  123.8750   -14.1660    87.8140     6.2130     4.8010     5.4700    24.5810     2.3150 
  124.0000   -14.1690    88.3480     6.2610     4.8300     5.1810    24.3910     2.3070 
  124.1250   -14.1750    89.2860     6.4270     4.9470     4.9390    24.1240     2.3060 
  124.2500   -14.1730    89.5460     6.6870     5.1480     5.1040    23.9160     2.3090 
  124.3750   -14.1460    85.7190     6.9770     5.3990     5.8420    24.0090     2.3090 
  124.5000   -14.0860    80.7150     7.2130     5.6290     6.5270    24.3390     2.3070 
  124.6250   -14.0070    77.8840     7.3480     5.7890     6.8920    24.6280     2.3080 
  124.7500   -13.9010    78.8350     7.3850     5.8620     6.9070    24.8080     2.3140 
  124.8750   -13.7870    82.1790     7.3870     5.8770     6.7220    24.8340     2.3220 
  125.0000   -13.6270    83.4070     7.4540     5.9100     6.5810    24.7510     2.3220 
  125.1250   -13.4310    82.0450     7.6380     6.0140     6.7030    24.5350     2.3080 
  125.2500   -13.2010    79.6560     7.9430     6.2010     6.9370    24.2410     2.2830 
  125.3750   -12.9290    78.8170     8.3220     6.4510     7.3870    24.0810     2.2600 
  125.5000   -12.6130    79.3140     8.6730     6.6970     7.7270    24.2070     2.2480 
  125.6250   -12.2610    79.5310     8.9420     6.8990     7.9750    24.3650     2.2460 
  125.7500   -11.8910    79.2690     9.1580     7.0650     8.3300    24.3480     2.2420 
  125.8750   -11.4680    78.4660     9.5140     7.3050     8.9400    24.1730     2.2160 
  126.0000   -11.0470    77.8330    10.2870     7.7890     9.3030    23.9840     2.1770 
  126.1250   -10.6220    76.4850    11.8060     8.7330     9.5540    23.8230     2.1540 
  126.2500   -10.2030    72.5200    14.3880    10.3730    10.5890    23.7020     2.1850 
  126.3750    -9.8010    66.7520    18.3720    13.0640    13.2270    23.6550     2.2990 
  126.5000    -9.4260    61.1630    23.1500    16.5620    19.0330    23.7050     2.4300 
  126.6250    -9.0510    57.3690    27.6400    20.2410    29.5650    23.8800     2.4900 
  126.7500    -8.6860    55.3750    30.3810    22.9900    41.7170    24.0870     2.4470 
  126.8750    -8.3550    53.8490    30.2080    23.6250    38.5630    24.3090     2.3390 
  127.0000    -8.0400    53.8280    28.4920    22.8410    29.0910    24.4720     2.2350 
  127.1250    -7.7520    55.8220    26.6530    21.6190    22.6110    24.7160     2.1660 
  127.2500    -7.4800    57.7500    25.5810    20.6960    21.0650    25.0970     2.1340 
  127.3750    -7.2470    57.4230    25.6160    20.4760    23.3590    25.4250     2.1260 
  127.5000    -7.0350    57.3930    26.3260    20.8040    25.4120    25.6470     2.1250 
  127.6250    -6.8700    57.5180    27.3800    21.5040    25.7050    25.7840     2.1300 
  127.7500    -6.7250    54.5670    28.5230    22.3910    25.8560    25.7880     2.1410 
  127.8750    -6.5890    49.8550    29.5960    23.3200    25.4490    25.7750     2.1560 
  128.0000    -6.4490    48.8340    30.5340    24.1800    25.6710    25.9200     2.1620 
  128.1250    -6.3090    50.7540    31.2520    24.8810    26.8700    26.3100     2.1560 
  128.2500    -6.1970    51.1770    31.6360    25.3260    30.0740    26.7500     2.1420 
  128.3750    -6.0840    48.6770    31.5020    25.3710    29.6320    26.9760     2.1250 
  128.5000    -6.0120    46.8680    30.9180    25.0620    27.6990    26.9260     2.1090 
  128.6250    -5.9530    48.1050    30.0090    24.4810    27.0320    26.6570     2.0930 
  128.7500    -5.9310    52.0590    28.9700    23.7670    27.4110    26.3960     2.0780 
  128.8750    -5.9400    56.1910    28.0440    23.0990    26.2420    26.3090     2.0740 
  129.0000    -5.9960    57.9570    27.3780    22.6110    23.5440    26.1990     2.0850 
  129.1250    -6.0930    56.6490    27.0270    22.3670    22.1990    25.9610     2.1080 
  129.2500    -6.2080    53.5940    26.9580    22.3620    23.4430    25.7950     2.1290 
  129.3750    -6.3680    51.2260    27.0830    22.5470    23.9670    25.8260     2.1310 
  129.5000    -6.5600    51.2210    27.2200    22.7730    23.5570    25.8900     2.1180 
  129.6250    -6.7880    53.3090    27.2260    22.9200    23.7460    25.8160     2.1020 
  129.7500    -7.0400    56.7050    26.9810    22.8750    23.7620    25.7200     2.0940 
  129.8750    -7.3280    59.1570    26.3160    22.4750    22.4290    25.7060     2.0980 
  130.0000    -7.6240    59.0060    25.2210    21.6860    21.7530    25.7290     2.1080 
  130.1250    -7.9300    57.4580    23.7330    20.5250    21.6930    25.6400     2.1200 
  130.2500    -8.2330    57.0610    22.0220    19.1390    20.9200    25.4160     2.1280 
  130.3750    -8.5020    59.1140    20.4320    17.8180    17.9250    24.9480     2.1320 
  130.5000    -8.6830    61.6170    19.2830    16.8230    14.7390    24.4970     2.1340 
  130.6250    -8.7760    63.2900    18.7700    16.3090    12.9320    24.5310     2.1390 
  130.7500    -8.7780    63.5020    18.9510    16.3380    13.9220    24.9450     2.1520 
  130.8750    -8.7060    60.7250    19.8370    16.9550    16.0750    25.2600     2.1710 
  131.0000    -8.5690    56.7580    21.1330    17.9650    18.2700    25.4080     2.1880 
  131.1250    -8.3770    54.1570    22.6200    19.2160    20.0570    25.6410     2.1930 
  131.2500    -8.1460    54.0930    24.0420    20.5140    21.1540    25.9600     2.1820 
  131.3750    -7.9100    55.1750    25.0550    21.5630    21.8990    26.2200     2.1560 
  131.5000    -7.6930    54.2800    25.4890    22.1610    22.6200    26.3920     2.1290 
  131.6250    -7.5340    52.3610    25.2550    22.1860    24.2050    26.5120     2.1130 
  131.7500    -7.4220    52.0380    24.4420    21.6750    25.2200    26.4630     2.1120 
  131.8750    -7.3820    53.9110    23.3480    20.8320    23.4540    26.1360     2.1240 
  132.0000    -7.3560    55.6460    22.4420    20.0490    20.5950    25.9380     2.1340 
  132.1250    -7.3720    57.5900    22.0010    19.5680    18.7450    26.0060     2.1320 
  132.2500    -7.4250    60.4700    22.1160    19.5010    19.3920    26.0270     2.1210 
  132.3750    -7.5370    61.9580    22.7350    19.8660    21.1650    25.9220     2.1120 
  132.5000    -7.6910    60.4950    23.4940    20.4150    22.9210    25.8120     2.1160 
  132.6250    -7.8730    57.2600    24.1470    20.9420    24.0880    25.9110     2.1310 
  132.7500    -8.0800    55.1550    24.6400    21.3440    24.2700    25.9970     2.1430 
  132.8750    -8.2910    55.7000    25.2390    21.7580    24.5300    25.9290     2.1460 
  133.0000    -8.5450    56.5290    26.3070    22.4570    23.3380    25.8410     2.1540 
  133.1250    -8.7940    56.0360    28.0860    23.6520    21.9490    25.8460     2.1870 
  133.2500    -9.0350    54.2780    30.6460    25.4580    20.6740    25.8480     2.2570 
  133.3750    -9.2310    52.8520    33.8080    27.8690    20.2350    25.6100     2.3470 
  133.5000    -9.3960    51.8630    36.8160    30.3820    22.9960    25.3520     2.4100 
  133.6250    -9.5110    52.0770    38.9120    32.4070    28.1920    25.2650     2.4150 
  133.7500    -9.5800    54.0100    39.5020    33.3880    34.3410    25.3300     2.3660 
  133.8750    -9.6170    54.2720    38.1940    32.8180    39.8100    25.7880     2.2870 
  134.0000    -9.6120    51.4660    35.7610    31.1590    36.7260    26.5270     2.2110 
  134.1250    -9.6160    48.3740    32.9150    28.9600    31.1050    27.0900     2.1590 
  134.2500    -9.6130    48.7640    30.2390    26.7530    28.1530    27.1840     2.1380 
  134.3750    -9.6020    53.4360    28.1320    24.9170    26.0890    26.9110     2.1390 
  134.5000    -9.5900    57.3550    26.5680    23.4910    24.4320    26.7120     2.1440 
  134.6250    -9.5780    58.6950    25.4690    22.4360    22.7870    26.7000     2.1510 
