~V
VERS. 2.00: Ver 2.00
~W
STRT.M 52.0000:
STOP.M 260.0000:
STEP.M 0.1250:
NULL. -999.2500:
UWI. F10654:
~C
DEPT.M :
SP.MV :
GR.API :
RML.OHMM :
RI. :
RXO.OHMM :
CALI.CM :
DEN.GM/CC :
~A
# ...
   97.0000   -11.5860    64.2790     8.9960     7.8080     3.9700    14.8790     2.2070 
   97.1250   -11.7820    62.5630     8.8920     7.7160     3.8970    15.2260     2.2040 
   97.2500   -11.9960    60.3960     8.8380     7.6670     3.8210    15.7840     2.1980 
   97.3750   -12.2070    58.5550     8.8170     7.6570     3.8950    16.6570     2.1910 
   97.5000   -12.3770    58.4620     8.8120     7.6860     4.4820    17.9910     2.1830 
   97.6250   -12.5400    58.7940     8.8210     7.7520     5.2920    19.7170     2.1760 
   97.7500   -12.6680    58.4550     8.8710     7.8670     6.0580    21.5620     2.1700 
   97.8750   -12.7810    57.8900     8.9940     8.0440     6.6770    22.8860     2.1670 
   98.0000   -12.8420    59.2870     9.2230     8.2970     7.1170    23.4540     2.1700 
   98.1250   -12.8500    62.6490     9.5190     8.6020     7.4270    23.6410     2.1770 
   98.2500   -12.8370    64.1580     9.8270     8.9270     7.6740    23.7000     2.1860 
   98.3750   -12.7620    61.8270    10.0760     9.2240     7.9020    23.6910     2.1950 
   98.5000   -12.6750    58.8160    10.1750     9.4290     8.1590    23.6010     2.2010 
   98.6250   -12.5660    58.1050    10.1160     9.5170     8.4340    23.4300     2.2030 
   98.7500   -12.4410    57.8970     9.9230     9.4870     8.7340    23.2510     2.2040 
   98.8750   -12.3260    56.7670     9.6600     9.3690     9.0010    23.1170     2.2030 
   99.0000   -12.1740    55.9120     9.4330     9.2320     9.0980    23.0740     2.1960 
   99.1250   -12.0360    56.4530     9.3310     9.1660     9.1190    23.0670     2.1810 
   99.2500   -11.8930    57.6730     9.3970     9.2220     9.1310    23.0720     2.1590 
   99.3750   -11.7470    57.9150     9.5940     9.3910     9.1440    23.0770     2.1370 
   99.5000   -11.5970    57.1890     9.7560     9.5510     9.1590    23.0710     2.1380 
   99.6250   -11.4560    57.6760     9.6680     9.5100     9.1750    23.0390     2.1720 
   99.7500   -11.3110    61.1740     9.1990     9.1260     9.1330    22.9860     2.2370 
   99.8750   -11.1570    65.8090     8.3560     8.3760     8.8570    22.8950     2.3140 
  100.0000   -11.0400    69.9480     7.3040     7.3700     8.2540    22.7170     2.3660 
  100.1250   -10.9240    74.7120     6.3390     6.3780     7.1000    22.5340     2.3810 
  100.2500   -10.8360    79.5410     5.6260     5.5650     5.7600    22.3590     2.3670 
  100.3750   -10.7790    82.4600     5.2140     5.0110     5.2020    22.2140     2.3450 
  100.5000   -10.7760    82.3880     5.0780     4.7490     5.1810    22.0990     2.3350 
  100.6250   -10.7980    82.1970     5.0700     4.6770     5.2370    21.9870     2.3360 
  100.7500   -10.8620    82.6380     5.1060     4.7200     5.1930    21.9200     2.3440 
  100.8750   -10.9690    82.4110     5.1420     4.8170     5.0040    21.9410     2.3520 
  101.0000   -11.0700    82.6730     5.1990     4.9380     4.6320    22.0560     2.3550 
  101.1250   -11.1950    82.9070     5.3290     5.0900     4.3740    22.2280     2.3490 
  101.2500   -11.2960    80.2900     5.5600     5.2930     4.3890    22.3740     2.3340 
  101.3750   -11.3610    75.2540     5.8710     5.5440     4.5690    22.2870     2.3090 
  101.5000   -11.4170    72.3090     6.1820     5.7930     4.8070    21.9210     2.2800 
  101.6250   -11.4470    72.5360     6.3910     5.9670     5.1030    21.3580     2.2590 
  101.7500   -11.4600    72.2880     6.4410     6.0110     5.3630    20.8270     2.2520 
  101.8750   -11.4630    72.6820     6.3320     5.9080     5.3810    20.7930     2.2610 
  102.0000   -11.4710    76.7560     6.1080     5.6840     5.0450    21.3200     2.2810 
  102.1250   -11.4880    80.7780     5.8660     5.4340     4.6760    21.9290     2.3000 
  102.2500   -11.5040    82.1030     5.6720     5.2330     4.5590    22.3810     2.3110 
  102.3750   -11.5620    81.4700     5.5770     5.1310     4.6050    22.7180     2.3110 
  102.5000   -11.6190    80.4690     5.6330     5.1730     4.7310    22.8920     2.3010 
  102.6250   -11.6700    77.6240     5.8220     5.3310     4.8470    22.9370     2.2860 
  102.7500   -11.7470    73.3990     6.1170     5.5780     5.0280    22.8930     2.2690 
  102.8750   -11.8000    69.1140     6.4760     5.8810     5.3180    22.7990     2.2550 
  103.0000   -11.8530    66.3570     6.8400     6.2030     5.6140    22.6830     2.2450 
  103.1250   -11.8950    65.5440     7.1610     6.5090     5.8430    22.5430     2.2410 
  103.2500   -11.9160    65.8100     7.4200     6.7810     6.0200    22.4080     2.2420 
  103.3750   -11.9110    66.2300     7.6170     7.0130     6.2450    22.3620     2.2460 
  103.5000   -11.8750    66.9620     7.7600     7.2000     6.3350    22.4230     2.2490 
  103.6250   -11.8020    68.2420     7.8720     7.3550     6.3050    22.4810     2.2460 
  103.7500   -11.6830    69.7310     7.9650     7.4810     6.2760    22.5220     2.2350 
  103.8750   -11.5220    70.6130     8.0420     7.5820     6.2630    22.5580     2.2160 
  104.0000   -11.3480    70.4690     8.1000     7.6530     6.1840    22.4950     2.1920 
  104.1250   -11.1440    69.3220     8.1360     7.6920     5.9710    22.2430     2.1710 
  104.2500   -10.9330    69.8160     8.1340     7.6850     5.6400    21.8050     2.1570 
  104.3750   -10.7400    72.2450     8.0730     7.6250     5.1770    21.1370     2.1560 
  104.5000   -10.5280    74.0250     7.9250     7.4950     4.6050    20.1620     2.1710 
  104.6250   -10.3610    75.2770     7.7030     7.3070     4.1330    19.1580     2.1960 
  104.7500   -10.2030    77.2100     7.4240     7.0650     3.9420    18.3670     2.2270 
  104.8750   -10.0780    78.9550     7.1080     6.7740     3.9590    17.7480     2.2540 
  105.0000    -9.9680    78.7210     6.7760     6.4420     4.0380    17.1360     2.2720 
  105.1250    -9.8510    77.2430     6.4490     6.0960     4.2700    16.5320     2.2820 
  105.2500    -9.7730    75.4530     6.1450     5.7610     4.4730    16.0730     2.2860 
  105.3750    -9.6860    74.9980     5.8910     5.4590     4.5080    15.7260     2.2900 
  105.5000    -9.6120    78.7320     5.7210     5.2130     4.4460    15.6380     2.2960 
  105.6250    -9.5520    82.3990     5.6320     5.0290     4.4140    15.8840     2.3020 
  105.7500    -9.4920    83.4880     5.6210     4.9200     4.3930    16.4500     2.3090 
  105.8750    -9.4450    83.6910     5.6790     4.9050     4.3380    17.2780     2.3140 
  106.0000    -9.4250    83.8770     5.8040     5.0090     4.3780    18.3490     2.3140 
  106.1250    -9.4180    82.7120     5.9730     5.2040     4.7890    19.5090     2.3090 
  106.2500    -9.4130    79.2140     6.1720     5.4540     5.6160    20.6490     2.2970 
  106.3750    -9.4320    74.7310     6.3880     5.7170     6.7540    21.6400     2.2790 
  106.5000    -9.4770    71.6200     6.6050     5.9450     7.4650    22.3270     2.2610 
  106.6250    -9.5300    71.3150     6.8090     6.1240     7.0750    22.6480     2.2480 
  106.7500    -9.5800    72.4470     6.9670     6.2440     6.0290    22.7610     2.2420 
  106.8750    -9.6370    72.4810     7.0120     6.2850     5.6550    22.7960     2.2430 
  107.0000    -9.6860    70.8890     6.8270     6.1840     5.7460    22.8350     2.2500 
  107.1250    -9.7310    68.7400     6.4070     5.9320     5.7910    22.9140     2.2570 
  107.2500    -9.7700    66.8750     5.8210     5.5630     5.6680    23.0560     2.2590 
  107.3750    -9.7660    67.7210     5.2390     5.1750     5.3770    23.3030     2.2500 
  107.5000    -9.7180    72.5440     4.9670     4.9680     5.1950    23.6420     2.2340 
  107.6250    -9.6400    77.0220     5.1710     5.0800     5.4310    23.9430     2.2230 
  107.7500    -9.5450    77.1460     5.9060     5.5830     6.2600    24.0790     2.2250 
  107.8750    -9.4200    71.9360     7.0710     6.4540     7.5320    24.0980     2.2360 
  108.0000    -9.2770    64.6340     8.3890     7.5480     8.7450    24.1200     2.2410 
  108.1250    -9.1460    60.5420     9.4340     8.5330     9.2800    24.2090     2.2310 
