~V
VERS. 2.00: Ver 2.00
~W
STRT.M 56.0000:
STOP.M 256.0000:
STEP.M 0.1250:
NULL. -999.2500:
UWI. F10668:
~C
DEPT.M :
SP.MV :
GR.API :
RML.OHMM :
RI. :
RXO.OHMM :
CALI.CM :
DEN.GM/CC :
~A
# ...
  224.7500   -20.0170    58.0820    49.3990    47.2570    44.4050    24.3670     2.6440 
  224.8750   -19.9380    55.9790    38.6390    37.6080    36.0780    24.2750     2.5680 
  225.0000   -19.8380    56.2070    27.3170    27.0160    28.5170    24.0300     2.4750 
  225.1250   -19.6880    62.3870    18.2110    18.2620    20.4260    23.7080     2.3750 
  225.2500   -19.4940    70.4830    12.1840    12.3100    11.8460    23.4650     2.2730 
  225.3750   -19.2370    71.5260     9.0880     9.0780     7.1820    23.4800     2.1930 
  225.5000   -18.9340    65.4930     7.6560     7.4000     5.3510    23.9600     2.1670 
  225.6250   -18.6040    57.5350     7.3340     6.7960     4.9740    24.6980     2.2200 
  225.7500   -18.2940    49.6630     7.7450     6.9450     6.1970    25.2170     2.3470 
  225.8750   -18.0070    42.1290     8.5580     7.5980    10.4770    25.1590     2.4770 
  226.0000   -17.7620    37.7610     9.2590     8.2800    15.1880    25.0500     2.5340 
  226.1250   -17.5620    38.5350     9.4570     8.5950    12.7810    25.0530     2.5110 
  226.2500   -17.4240    42.0090     8.9790     8.2990     9.3290    25.3250     2.4460 
  226.3750   -17.3420    44.8020     7.9340     7.3940     8.8450    25.6320     2.3840 
  226.5000   -17.3090    46.0050     6.7560     6.2890     8.7390    25.7050     2.3410 
  226.6250   -17.3220    44.6700     5.6820     5.2400     7.0870    25.5430     2.3120 
  226.7500   -17.3780    40.2130     4.8510     4.4030     4.6770    25.2440     2.2890 
  226.8750   -17.4740    34.2960     4.4150     3.9120     3.6920    24.9820     2.2830 
  227.0000   -17.5890    29.6360     4.3910     3.7740     3.5130    24.8090     2.3170 
  227.1250   -17.7180    25.9910     4.8170     4.0240     3.9000    24.7350     2.4050 
  227.2500   -17.8260    22.5200     5.6570     4.6480     5.5970    24.6900     2.5260 
  227.3750   -17.9210    19.6630     6.6990     5.5040    11.5910    24.6730     2.6080 
  227.5000   -17.9730    17.5480     7.4090     6.1760    20.1580    24.6560     2.6100 
  227.6250   -17.9710    16.8200     7.3480     6.2840    18.3740    24.6210     2.5500 
  227.7500   -17.8710    17.6730     6.5070     5.7340     9.1720    24.3970     2.4710 
  227.8750   -17.7010    19.8720     5.1990     4.8150     4.7260    23.7330     2.4060 
  228.0000   -17.4690    22.6230     3.7900     3.9890     3.4960    22.7550     2.3550 
  228.1250   -17.2200    24.7340     3.2990     3.4340     3.3050    21.9720     2.3090 
  228.2500   -16.9520    26.2330     3.1620     3.1710     3.2870    21.5820     2.2650 
  228.3750   -16.6870    27.4020     3.2830     3.1610     3.3060    21.5890     2.2370 
  228.5000   -16.4310    27.6280     3.4800     3.2530     3.3170    21.7850     2.2310 
  228.6250   -16.2070    26.3280     3.6400     3.3570     3.4590    22.0050     2.2450 
  228.7500   -16.0140    24.1130     3.6930     3.4100     3.6660    22.1390     2.2710 
  228.8750   -15.8710    22.5590     3.6160     3.3760     3.5750    22.4640     2.2930 
  229.0000   -15.7590    21.6710     3.4760     3.2870     3.4110    23.2920     2.2990 
  229.1250   -15.6650    21.3530     3.3320     3.1800     3.3260    24.4250     2.2880 
  229.2500   -15.6140    21.6100     3.2220     3.0840     3.2730    25.2900     2.2660 
  229.3750   -15.5750    23.0010     3.1710     3.0220     3.2530    25.3990     2.2480 
  229.5000   -15.5970    25.6160     3.1670     2.9890     3.2260    24.9950     2.2440 
  229.6250   -15.6320    27.8090     3.1890     2.9750     3.2340    24.3190     2.2580 
  229.7500   -15.7080    27.7310     3.2200     2.9690     3.2830    23.8070     2.2800 
  229.8750   -15.8150    27.3200     3.2470     2.9660     3.3290    23.6210     2.2910 
  230.0000   -15.9130    28.7600     3.2700     2.9650     3.3580    23.5760     2.2880 
  230.1250   -16.0020    29.9450     3.2910     2.9630     3.3440    23.5550     2.2780 
  230.2500   -16.0760    29.2260     3.3130     2.9610     3.3470    23.5120     2.2710 
  230.3750   -16.1200    28.4170     3.3430     2.9640     3.3730    23.3910     2.2740 
  230.5000   -16.1290    29.1360     3.3800     2.9740     3.4310    23.2550     2.2820 
  230.6250   -16.0980    30.8120     3.4230     2.9920     3.5040    23.1610     2.2930 
  230.7500   -16.0300    31.8730     3.4670     3.0150     3.5830    23.0980     2.3030 
  230.8750   -15.8860    31.0130     3.5100     3.0370     3.6170    23.0310     2.3100 
  231.0000   -15.7080    29.3930     3.5530     3.0550     3.5990    22.9750     2.3120 
  231.1250   -15.5160    28.0760     3.5960     3.0700     3.5620    22.9500     2.3090 
  231.2500   -15.2750    27.3030     3.6380     3.0840     3.4950    22.9270     2.3020 
  231.3750   -15.0400    26.9650     3.6800     3.1020     3.5240    23.0150     2.2920 
  231.5000   -14.7910    27.8340     3.7190     3.1260     3.6300    23.2580     2.2850 
  231.6250   -14.5390    29.0150     3.7530     3.1540     3.7520    23.4850     2.2840 
  231.7500   -14.3070    29.1670     3.7830     3.1790     3.8120    23.5800     2.2930 
  231.8750   -14.1460    29.2670     3.8050     3.1930     3.8640    23.5960     2.3150 
  232.0000   -14.0550    29.6840     3.8150     3.1950     3.9250    23.6240     2.3410 
  232.1250   -14.0470    29.1190     3.8100     3.1890     3.8330    23.6390     2.3630 
  232.2500   -14.1510    27.1570     3.8000     3.1830     3.7350    23.5820     2.3710 
  232.3750   -14.3230    26.2500     3.8020     3.1840     3.6890    23.4450     2.3640 
  232.5000   -14.5610    27.3880     3.8200     3.1900     3.6720    23.3500     2.3510 
  232.6250   -14.8550    28.6980     3.8490     3.2010     3.6810    23.3990     2.3420 
  232.7500   -15.1240    27.7680     3.8790     3.2150     3.7160    23.4850     2.3390 
  232.8750   -15.3960    24.7650     3.9020     3.2300     3.7460    23.5340     2.3420 
  233.0000   -15.6620    23.0700     3.9190     3.2440     3.7100    23.5580     2.3410 
  233.1250   -15.8740    23.7600     3.9350     3.2520     3.6680    23.5610     2.3360 
  233.2500   -16.0360    25.3750     3.9560     3.2550     3.6820    23.5470     2.3330 
  233.3750   -16.1540    26.5850     3.9830     3.2530     3.7500    23.5680     2.3380 
  233.5000   -16.2260    26.6370     4.0160     3.2560     3.7820    23.6120     2.3520 
  233.6250   -16.2760    25.7020     4.0580     3.2690     3.7670    23.6660     2.3660 
  233.7500   -16.3560    24.7860     4.1060     3.2970     3.7850    23.6960     2.3720 
  233.8750   -16.3750    25.4630     4.1530     3.3410     3.8610    23.6890     2.3700 
  234.0000   -16.3780    27.7020     4.1930     3.3950     3.9550    23.6010     2.3680 
  234.1250   -16.3730    29.6130     4.2280     3.4540     4.0430    23.4660     2.3720 
  234.2500   -16.3220    30.5720     4.2680     3.5110     4.0830    23.2520     2.3850 
  234.3750   -16.2810    31.3680     4.3210     3.5610     4.0610    23.1190     2.4010 
  234.5000   -16.2100    31.0600     4.3850     3.6010     3.9870    23.1300     2.4150 
  234.6250   -16.1250    28.3060     4.4430     3.6290     4.0070    23.2650     2.4180 
  234.7500   -16.0490    24.2430     4.4780     3.6420     4.0950    23.3580     2.4070 
  234.8750   -16.0130    23.6130     4.4770     3.6390     4.1850    23.4440     2.3850 
  235.0000   -16.0050    25.6520     4.4570     3.6280     4.0750    23.4360     2.3680 
  235.1250   -16.0140    27.1980     4.4360     3.6140     3.9660    23.3650     2.3670 
  235.2500   -16.0760    27.2200     4.4230     3.6010     3.9560    23.2620     2.3840 
  235.3750   -16.1480    26.8930     4.4220     3.5960     4.0520    23.2130     2.4090 
  235.5000   -16.2420    26.6740     4.4280     3.5980     4.1540    23.1940     2.4240 
  235.6250   -16.3590    26.0410     4.4340     3.6040     4.1100    23.2110     2.4230 
  235.7500   -16.4630    25.4350     4.4410     3.6110     4.0230    23.2510     2.4070 
  235.8750   -16.5780    25.8840     4.4620     3.6180     4.1730    23.2840     2.3820 
