~V
VERS. 2.00: Ver 2.00
~W
STRT.M 52.0000:
STOP.M 240.0000:
STEP.M 0.1250:
NULL. -999.2500:
UWI. F10646:
~C
DEPT.M :
GR.API :
RML.OHMM :
RI. :
RXO.OHMM :
CALI.CM :
DEN.GM/CC :
SP.MV :
~A
# ...
  175.7500    53.9450    30.5710    22.4670    33.5920    24.3730     2.3450   -17.7060 
  175.8750    54.8750    33.6750    25.2490    37.5980    24.4800     2.2840   -17.7560 
  176.0000    54.3060    35.4350    27.1020    37.3500    24.4860     2.2430   -17.8100 
  176.1250    52.7600    36.0280    28.0370    36.2530    24.4410     2.2210   -17.8020 
  176.2500    52.2290    35.8470    28.2830    35.6500    24.4400     2.2110   -17.7260 
  176.3750    53.0270    35.4570    28.2570    34.3340    24.4710     2.2060   -17.6280 
  176.5000    56.3310    35.4150    28.3880    33.4180    24.4600     2.2090   -17.5040 
  176.6250    60.7640    35.9080    28.8550    34.5260    24.4100     2.2220   -17.3870 
  176.7500    61.3050    36.9130    29.6700    35.5220    24.3810     2.2460   -17.3060 
  176.8750    56.9840    38.1510    30.6930    35.7270    24.3220     2.2820   -17.2370 
  177.0000    52.6600    38.6540    31.2970    37.1040    24.2190     2.3180   -17.1750 
  177.1250    50.9110    37.2520    30.5200    39.2930    24.1150     2.3390   -17.1580 
  177.2500    51.0890    33.3530    27.7420    37.9880    24.1180     2.3440   -17.2050 
  177.3750    53.3580    27.6640    23.4180    33.8870    24.1690     2.3400   -17.2800 
  177.5000    58.3750    22.0710    19.0080    27.2840    24.2180     2.3450   -17.3350 
  177.6250    63.7540    18.0220    15.6780    18.8260    24.1920     2.3630   -17.4050 
  177.7500    67.8480    15.9080    13.7450    13.8390    24.1730     2.3820   -17.4940 
  177.8750    70.1220    15.5590    13.1330    14.8280    24.1570     2.3850   -17.5730 
  178.0000    68.5420    16.6510    13.7540    19.8950    24.1680     2.3650   -17.6490 
  178.1250    64.3160    18.3210    15.0790    23.2020    24.1840     2.3370   -17.7040 
  178.2500    60.2400    19.9340    16.6840    23.3100    24.1960     2.3140   -17.6910 
  178.3750    58.0360    20.9750    18.0830    21.8660    24.1970     2.2990   -17.6460 
  178.5000    56.7670    21.1830    18.8380    21.2650    24.2010     2.2910   -17.6050 
  178.6250    55.3680    20.9010    19.0490    21.6580    24.2040     2.2880   -17.4880 
  178.7500    53.8210    20.2630    18.7910    21.8950    24.2060     2.2860   -17.3110 
  178.8750    53.3710    19.1380    17.9830    21.1500    24.2090     2.2860   -17.1520 
  179.0000    55.7400    17.2400    16.4050    19.2020    24.1970     2.2970   -16.9770 
  179.1250    60.4760    14.8580    14.3420    16.3330    24.1750     2.3210   -16.7740 
  179.2500    66.0860    12.4270    12.1860    13.3270    24.1480     2.3530   -16.5840 
  179.3750    70.3330    10.3790    10.3080    10.2960    24.1250     2.3830   -16.4010 
  179.5000    72.1920     9.0540     9.0010     8.2810    24.1110     2.3980   -16.2550 
  179.6250    73.3360     8.3330     8.1980     7.8370    24.1270     2.4010   -16.1910 
  179.7500    75.1160     8.0910     7.8260     8.1870    24.1540     2.3970   -16.1770 
  179.8750    78.0060     8.1850     7.7930     8.6120    24.1490     2.3870   -16.1750 
  180.0000    80.1800     8.4780     8.0020     8.7190    24.1400     2.3730   -16.2410 
  180.1250    79.2730     8.7830     8.2650     8.7340    24.1290     2.3570   -16.3740 
  180.2500    74.5410     9.0050     8.4680     9.1110    24.1150     2.3500   -16.5570 
  180.3750    69.7500     9.1230     8.5640     9.6330    24.0840     2.3610   -16.7800 
  180.5000    69.1320     9.1720     8.5650     9.9860    24.0650     2.3930   -17.0250 
  180.6250    68.8650     9.2510     8.5510     9.6590    24.0570     2.4200   -17.2800 
  180.7500    66.9960     9.4630     8.6040     9.7860    24.0460     2.4280   -17.5400 
  180.8750    66.1190     9.9440     8.8400    11.0210    24.0230     2.4160   -17.7930 
  181.0000    68.9640    10.9700     9.5040    12.9230    24.0130     2.3960   -18.0230 
  181.1250    70.9260    12.7150    10.7500    14.2180    24.0250     2.3740   -18.2110 
  181.2500    69.0120    15.4250    12.7670    16.5100    24.0470     2.3510   -18.3620 
  181.3750    64.3550    19.2460    15.6890    22.8370    24.0670     2.3280   -18.5190 
  181.5000    58.8200    24.1330    19.5830    28.7640    24.0800     2.3050   -18.6500 
  181.6250    55.5660    29.2390    23.8670    32.7330    24.0850     2.2820   -18.7080 
  181.7500    55.7260    33.6310    27.8290    34.7170    24.1540     2.2560   -18.7530 
  181.8750    57.9450    36.5300    30.7330    35.9890    24.2410     2.2240   -18.8300 
  182.0000    59.2030    37.5910    32.0500    36.0150    24.2260     2.1920   -18.8750 
  182.1250    59.1100    37.7520    32.3910    36.0160    24.2050     2.1670   -18.8820 
  182.2500    58.9600    37.6900    32.3150    36.5590    24.2580     2.1610   -18.9040 
  182.3750    58.5170    37.7800    32.2220    37.5310    24.3040     2.1720   -18.9340 
  182.5000    57.4890    38.1980    32.3580    37.7370    24.2900     2.1910   -18.9620 
  182.6250    56.9830    38.8750    32.7510    37.4740    24.2500     2.2100   -19.0110 
  182.7500    57.2490    39.6890    33.3310    37.8390    24.2140     2.2290   -19.0590 
  182.8750    56.6930    40.4560    33.9540    38.5420    24.1860     2.2470   -19.1050 
  183.0000    53.9350    40.9170    34.4290    39.2990    24.1530     2.2550   -19.1680 
  183.1250    51.3270    41.0130    34.6850    39.6270    24.1380     2.2520   -19.2210 
  183.2500    51.7190    40.8100    34.7320    39.7000    24.1350     2.2390   -19.2010 
  183.3750    54.2460    40.4930    34.6470    39.5670    24.1450     2.2260   -19.0810 
  183.5000    55.9460    40.2780    34.5430    39.2160    24.1670     2.2230   -18.8750 
  183.6250    56.1550    40.1880    34.4730    39.0690    24.1860     2.2320   -18.6320 
  183.7500    56.7940    40.0810    34.3890    38.5350    24.1950     2.2500   -18.3760 
  183.8750    56.5820    39.7430    34.1820    37.6810    24.1820     2.2710   -18.1100 
  184.0000    54.4350    38.9530    33.7030    37.1980    24.1620     2.2910   -17.7930 
  184.1250    52.3130    37.8430    32.9850    37.0430    24.1730     2.3000   -17.4850 
  184.2500    52.0910    36.6420    32.1530    36.2660    24.1940     2.2970   -17.2500 
  184.3750    53.1250    35.6250    31.3960    34.7190    24.2060     2.2830   -17.0300 
  184.5000    54.0020    35.0600    30.9270    33.8180    24.2070     2.2660   -16.8240 
  184.6250    54.2100    34.9230    30.7580    34.1140    24.2080     2.2540   -16.6640 
  184.7500    53.0030    35.0960    30.8150    35.3080    24.2070     2.2490   -16.5130 
  184.8750    52.0720    35.3540    30.9450    36.1510    24.2110     2.2460   -16.2980 
  185.0000    53.3600    35.3730    30.9220    33.6780    24.2110     2.2460   -16.0780 
  185.1250    53.9770    34.9790    30.6240    31.1080    24.1890     2.2480   -15.8980 
  185.2500    52.6350    34.1360    30.0080    30.4690    24.1540     2.2590   -15.7270 
  185.3750    51.6830    32.9280    29.0980    30.8220    24.1360     2.2800   -15.5900 
  185.5000    52.5370    31.5180    27.9660    31.2590    24.1360     2.3040   -15.4950 
  185.6250    52.3910    30.1410    26.8040    30.7070    24.1590     2.3150   -15.4280 
  185.7500    51.6040    28.8840    25.7040    29.2310    24.2170     2.3050   -15.3790 
  185.8750    52.4370    27.7490    24.6860    26.4880    24.3080     2.2830   -15.3510 
  186.0000    53.8220    26.7130    23.7370    26.0580    24.3450     2.2670   -15.3610 
  186.1250    54.8570    25.7160    22.8140    25.8040    24.3210     2.2700   -15.3730 
  186.2500    56.8430    24.7380    21.9120    24.5730    24.2370     2.2880   -15.3710 
  186.3750    59.6130    23.7970    21.0630    22.0960    24.1720     2.3040   -15.3640 
  186.5000    60.3400    22.9920    20.3590    20.7490    24.1650     2.3040   -15.3790 
  186.6250    58.1860    22.4170    19.8490    22.1110    24.1870     2.2940   -15.3760 
  186.7500    55.6740    22.1980    19.6050    23.0960    24.2000     2.2840   -15.3360 
  186.8750    54.5400    22.4630    19.7280    23.2410    24.2020     2.2860   -15.3210 
