~V
VERS. 2.00: Ver 2.00
~W
STRT.M 56.0000:
STOP.M 256.0000:
STEP.M 0.1250:
NULL. -999.2500:
UWI. F10668:
~C
DEPT.M :
SP.MV :
GR.API :
RML.OHMM :
RI. :
RXO.OHMM :
CALI.CM :
DEN.GM/CC :
~A
# ...
   89.7500   -24.3280    55.1470    11.1980     8.5760     9.2690    24.5160     2.1350 
   89.8750   -24.2510    55.2960    11.3750     8.7080     9.9250    24.6280     2.1370 
   90.0000   -24.1430    53.4100    11.5150     8.8190    10.3300    24.7550     2.1490 
   90.1250   -24.0040    53.6420    11.5980     8.8840    10.4490    24.8040     2.1630 
   90.2500   -23.8610    56.4590    11.6250     8.9040    10.4960    24.8130     2.1720 
   90.3750   -23.7230    58.3990    11.6200     8.8940    10.5160    24.8150     2.1760 
   90.5000   -23.6000    59.2900    11.6240     8.8830    10.5300    24.7880     2.1750 
   90.6250   -23.4900    60.1140    11.6540     8.8800    10.4020    24.7330     2.1710 
   90.7500   -23.4180    58.7810    11.7110     8.8800    10.2020    24.6430     2.1650 
   90.8750   -23.3940    55.6800    11.7810     8.8690     9.9780    24.4980     2.1610 
   91.0000   -23.3980    54.7200    11.8380     8.8410     9.8650    24.3440     2.1630 
   91.1250   -23.4290    55.8980    11.8670     8.8030     9.9030    24.3490     2.1740 
   91.2500   -23.4810    55.5950    11.8730     8.7670    10.1010    24.5570     2.1900 
   91.3750   -23.5780    52.1560    11.8780     8.7530    10.4130    24.8970     2.2040 
   91.5000   -23.6930    49.2790    11.8970     8.7620    10.6660    25.1300     2.2140 
   91.6250   -23.8130    49.1820    11.9310     8.7880    10.7280    25.1840     2.2240 
   91.7500   -23.9290    50.7280    11.9730     8.8260    10.5920    25.0330     2.2390 
   91.8750   -24.0630    52.7910    12.0180     8.8760    10.5250    24.7860     2.2460 
   92.0000   -24.1680    54.8510    12.0960     8.9530    10.6280    24.6980     2.2230 
   92.1250   -24.2380    56.1880    12.2580     9.0920    10.7810    24.9100     2.1660 
   92.2500   -24.2490    55.3790    12.5300     9.3130    10.8760    25.4400     2.0970 
   92.3750   -24.1890    52.3690    12.8570     9.5900    11.0980    26.0020     2.0540 
   92.5000   -24.0880    49.7700    13.0870     9.8120    11.0870    26.1270     2.0580 
   92.6250   -23.9560    49.4650    13.0780     9.8670    10.8690    25.7430     2.1050 
   92.7500   -23.8000    51.5460    12.7470     9.6760    10.4580    24.9480     2.1650 
   92.8750   -23.5790    53.8830    12.1010     9.2230    10.3060    24.3250     2.1940 
   93.0000   -23.3550    55.1590    11.3710     8.6670     9.8110    23.8720     2.1950 
   93.1250   -23.1360    57.0290    10.7350     8.1410     9.2110    23.6140     2.1900 
   93.2500   -22.9540    59.8720    10.3080     7.7400     8.7770    23.4510     2.1920 
   93.3750   -22.8000    62.0700    10.1580     7.5340     8.7890    23.3420     2.1970 
   93.5000   -22.6680    61.5040    10.1860     7.4790     8.9260    23.3070     2.1950 
   93.6250   -22.5590    59.7180    10.2890     7.5180     9.1420    23.3590     2.1880 
   93.7500   -22.4800    58.2710    10.3680     7.5800     9.4320    23.4690     2.1790 
   93.8750   -22.4530    56.8850    10.3640     7.6100     9.6730    23.5680     2.1740 
   94.0000   -22.4660    56.2130    10.3080     7.6030     9.5970    23.6170     2.1740 
   94.1250   -22.5110    57.1010    10.2470     7.5830     9.1800    23.6300     2.1790 
   94.2500   -22.5990    59.7920    10.2230     7.5770     8.9120    23.6480     2.1860 
   94.3750   -22.7120    62.5810    10.2510     7.6050     9.0560    23.7110     2.1940 
   94.5000   -22.8440    63.9810    10.2770     7.6440     9.3800    23.8090     2.2040 
   94.6250   -22.9800    65.1470    10.2340     7.6510     9.4730    23.8730     2.2200 
   94.7500   -23.1080    66.7960    10.0880     7.5890     9.1570    23.7780     2.2460 
   94.8750   -23.2070    68.9210     9.8640     7.4470     8.6050    23.3610     2.2740 
   95.0000   -23.2640    69.0980     9.6690     7.2920     8.2320    22.8490     2.2840 
   95.1250   -23.2940    68.1510     9.5960     7.1930     7.9940    22.8040     2.2680 
   95.2500   -23.2690    68.1050     9.6960     7.2050     8.1200    23.3740     2.2270 
   95.3750   -23.1880    67.5720     9.9620     7.3560     8.8450    24.3250     2.1780 
   95.5000   -23.0410    64.5000    10.2720     7.5790     9.5330    25.1090     2.1490 
   95.6250   -22.8340    59.4190    10.5230     7.8010     9.9920    25.5050     2.1520 
   95.7500   -22.5870    55.0680    10.6230     7.9510    10.2740    25.6310     2.1760 
   95.8750   -22.3240    54.5840    10.4900     7.9470    10.2420    25.6090     2.1910 
   96.0000   -22.0390    57.3550    10.1890     7.8020    10.0630    25.6580     2.1860 
   96.1250   -21.7410    60.3470     9.8120     7.5590     9.8000    25.8370     2.1720 
   96.2500   -21.4180    60.5850     9.4610     7.2890     9.3240    25.9640     2.1680 
   96.3750   -21.1200    60.2800     9.2430     7.0820     8.5020    25.5820     2.1810 
   96.5000   -20.8580    62.9440     9.1600     6.9700     7.7880    24.8080     2.1920 
   96.6250   -20.6510    66.1110     9.1660     6.9350     7.6040    24.1840     2.1850 
   96.7500   -20.4620    66.4870     9.1710     6.9130     8.0910    24.0820     2.1620 
   96.8750   -20.3360    65.0040     9.0550     6.8120     8.5620    24.4640     2.1490 
   97.0000   -20.2620    65.1950     8.7960     6.6040     8.4990    24.7680     2.1670 
   97.1250   -20.2610    66.0240     8.4400     6.3200     7.7530    24.8370     2.2080 
   97.2500   -20.3360    65.7520     8.1140     6.0450     7.1050    24.7520     2.2460 
   97.3750   -20.4740    65.2400     8.0430     5.9330     6.9640    24.6880     2.2590 
   97.5000   -20.6460    66.0940     8.3320     6.0610     7.5230    24.7170     2.2700 
   97.6250   -20.8450    68.6000     9.0030     6.4600     8.0470    24.8080     2.3070 
   97.7500   -21.0710    70.1350     9.9740     7.0930     9.3360    24.8330     2.3740 
   97.8750   -21.2950    68.7850    11.0220     7.8420    13.9030    24.3130     2.4260 
   98.0000   -21.5060    66.9600    11.8290     8.4890    19.7030    23.4390     2.4220 
   98.1250   -21.6620    66.9470    12.2180     8.8850    17.6080    22.8060     2.3680 
   98.2500   -21.7760    67.6460    12.2070     8.9950    11.3260    22.5790     2.3000 
   98.3750   -21.8100    65.6060    11.9860     8.9020     8.9130    22.4510     2.2590 
   98.5000   -21.7950    62.9260    11.8330     8.8040     8.0360    22.2480     2.2470 
   98.6250   -21.7160    63.2590    11.8790     8.8190     8.0450    22.0840     2.2500 
   98.7500   -21.6130    66.2220    12.1430     8.9970     8.3450    21.9080     2.2540 
   98.8750   -21.4310    67.2160    12.5360     9.3130     8.7860    21.5660     2.2460 
   99.0000   -21.1990    63.8960    12.8310     9.6160     9.2030    21.2700     2.2250 
   99.1250   -20.9310    59.0860    12.8050     9.7330     9.4030    21.5890     2.1940 
   99.2500   -20.6270    55.9400    12.2730     9.4960     9.3760    22.5260     2.1620 
   99.3750   -20.2920    56.5520    11.1240     8.7650     9.3130    23.4700     2.1540 
   99.5000   -19.9570    61.0860     9.6640     7.7360     8.7560    24.1480     2.1810 
   99.6250   -19.6450    67.7450     8.2010     6.6310     7.4280    24.5290     2.2370 
   99.7500   -19.3540    75.3210     6.9930     5.6570     5.5370    24.6690     2.3010 
   99.8750   -19.0980    81.9130     6.2340     4.9850     4.8070    24.7240     2.3430 
  100.0000   -18.9660    85.8400     5.8640     4.6030     4.6210    24.7430     2.3620 
  100.1250   -18.8670    87.3960     5.8350     4.4870     4.7800    24.7330     2.3650 
  100.2500   -18.7260    87.4480     6.0560     4.5780     5.1730    24.7120     2.3600 
  100.3750   -18.6390    85.8950     6.4000     4.7930     5.6810    24.6570     2.3490 
  100.5000   -18.6050    82.8350     6.6960     5.0010     5.9980    24.6170     2.3350 
  100.6250   -18.5930    79.6290     6.8470     5.1200     6.3900    24.5860     2.3210 
  100.7500   -18.5820    78.8590     6.8050     5.1050     6.3760    24.5700     2.3120 
  100.8750   -18.5560    79.8890     6.5410     4.9270     5.6680    24.5880     2.3090 
