~V
VERS. 2.00: Ver 2.00
~W
STRT.M 55.0000:
STOP.M 192.0000:
STEP.M 0.1250:
NULL. -999.2500:
UWI. F10682:
~C
DEPT.M :
DEN.GM/CC :
GR.API :
RML.OHMM :
RI. :
RXO.OHMM :
CALI.CM :
SP.MV :
~A
# ...
  178.7500     2.2840    55.6170     6.9200     6.1940     6.6860    24.4890   -11.6180 
  178.8750     2.2920    54.4470     6.7750     6.1200     6.5740    24.4940   -11.2400 
  179.0000     2.2920    55.8330     6.6460     6.0430     6.6390    24.4930   -10.8520 
  179.1250     2.2840    58.9140     6.5290     5.9410     6.6680    24.4810   -10.5000 
  179.2500     2.2760    58.1250     6.4050     5.8040     6.2250    24.4540   -10.1530 
  179.3750     2.2750    54.8890     6.2530     5.6280     5.7010    24.4170    -9.7560 
  179.5000     2.2810    54.1630     6.0740     5.4300     5.2970    24.3990    -9.3510 
  179.6250     2.2900    54.8610     5.9090     5.2440     5.1340    24.3990    -8.9840 
  179.7500     2.2970    53.7380     5.7950     5.0960     5.0330    24.4100    -8.6730 
  179.8750     2.2990    52.3880     5.7370     4.9940     4.9710    24.4590    -8.4300 
  180.0000     2.2970    53.1530     5.7140     4.9300     4.9580    24.4890    -8.2210 
  180.1250     2.2910    56.0790     5.6910     4.8910     5.0500    24.4850    -8.0280 
  180.2500     2.2810    58.4740     5.6530     4.8580     5.0910    24.4460    -7.8770 
  180.3750     2.2730    58.7640     5.6080     4.8350     5.0550    24.4110    -7.7990 
  180.5000     2.2760    56.9950     5.5880     4.8370     5.0330    24.4250    -7.8190 
  180.6250     2.2980    55.0450     5.6660     4.9100     5.1560    24.5350    -7.9300 
  180.7500     2.3280    54.1980     5.8860     5.0790     5.5290    24.6970    -8.1150 
  180.8750     2.3520    53.4040     6.2640     5.3580     6.2130    24.9750    -8.3500 
  181.0000     2.3580    52.5300     6.7490     5.7320     7.1170    25.0400    -8.6300 
  181.1250     2.3490    52.7740     7.2070     6.1370     7.4220    24.8660    -8.9510 
  181.2500     2.3400    53.8400     7.5200     6.4780     7.4640    24.8090    -9.3140 
  181.3750     2.3410    54.5490     7.6640     6.6990     7.5410    24.9070    -9.7000 
  181.5000     2.3480    54.5490     7.6920     6.7930     7.4590    24.9830   -10.0590 
  181.6250     2.3480    54.5490     7.6810     6.7950     7.4150    24.9480   -10.3330 
  181.7500     2.3380    54.5490     7.6860     6.7800     7.7510    24.8490   -10.5190 
  181.8750     2.3190    54.5490     7.7020     6.7730     8.1050    24.9260   -10.6410 
  182.0000     2.2980    54.5490     7.6910     6.7660     8.1510    24.8170   -10.6990 
  182.1250     2.2820    54.5490     7.6000     6.7150     7.7850    24.8160   -10.6600 
  182.2500     2.2730    54.5490     7.4150     6.5870     7.1840    24.8910   -10.5290 
  182.3750     2.2700    54.5490     7.1290     6.3610     6.6750    25.0380   -10.3420 
  182.5000     2.2690    54.5490     6.7640     6.0520     6.4710    25.0900   -10.1200 
  182.6250     2.2700    54.5490     6.3870     5.7080     6.2450    25.1010    -9.8920 
  182.7500     2.2700    54.5490     6.0780     5.4070     5.7640    25.1130    -9.6830 
  182.8750     2.2700    54.5490     5.9040     5.2050     5.3560    25.1250    -9.5380 
  183.0000     2.2730    54.5490     5.9220     5.1540     5.2820    25.1290    -9.4850 
  183.1250     2.2820    54.5490     6.2010     5.3160     5.8810    25.1360    -9.5690 
  183.2500     2.2970    54.5490     6.6840     5.6700     7.0920    25.1610    -9.7840 
  183.3750     2.3150    54.5490     7.3120     6.1890     8.2750    25.1770   -10.1040 
  183.5000     2.3340    54.5490     7.9940     6.8110     8.9490    25.1630   -10.4860 
  183.6250     2.3450    54.5490     8.5920     7.4230     9.4020    25.1520   -10.9120 
  183.7500     2.3450    54.5490     9.0060     7.9120     9.7660    25.1760   -11.4100 
  183.8750     2.3350    54.5490     9.1940     8.2140    10.1310    25.1620   -11.9230 
  184.0000     2.3200    54.5490     9.1740     8.3180     9.9610    25.1190   -12.4270 
  184.1250     2.3060    54.5490     8.9890     8.2390     9.4790    25.1160   -12.9380 
  184.2500     2.2980    54.5490     8.7380     8.0650     9.1940    25.1100   -13.4520 
  184.3750     2.2980    54.5490     8.4690     7.8530     9.2760    25.1080   -13.9940 
  184.5000     2.3000    54.5490     8.2220     7.6480     9.2650    25.1330   -14.6120 
  184.6250     2.2990    54.5490     8.0300     7.4760     8.6090    25.0510   -15.3180 
  184.7500     2.2920    54.5490     7.8860     7.3290     8.0440    25.1090   -16.0430 
  184.8750     2.2820    54.5490     7.7740     7.1820     7.8850    24.9870   -16.7590 
  185.0000     2.2720    54.5490     7.6580     7.0130     7.8950    24.8680   -17.4070 
  185.1250     2.2650    54.5490     7.4980     6.8030     7.6460    24.8120   -17.9430 
  185.2500     2.2600    54.5490     7.3090     6.5830     7.2770    25.1110   -18.3290 
  185.3750     2.2580    54.5490     7.1300     6.3950     7.0050    25.5290   -18.5000 
  185.5000     2.2620    54.5490     7.0050     6.2720     7.1910    25.9250   -18.4390 
  185.6250     2.2750    54.5490     6.9670     6.2320     7.8560    25.8240   -18.1780 
  185.7500     2.2950    54.5490     6.9820     6.2430     8.7580    25.6000   -17.7760 
  185.8750     2.3190    54.5490     7.0090     6.2710     9.4260    25.1790   -17.2790 
  186.0000     2.3440    54.5490     7.0090     6.2920    10.0440    25.0550   -16.7660 
  186.1250     2.3680    54.5490     6.9670     6.2930    10.5060    25.1320   -16.2490 
  186.2500     2.3810    54.5490     6.8960     6.2890    10.5110    25.3850   -15.7710 
  186.3750     2.3730    54.5490     6.8040     6.2870    10.3350    25.4750   -15.4040 
  186.5000     2.3430    54.5490     6.7180     6.2920    10.1570    25.2920   -15.1180 
  186.6250     2.2970    54.5490     6.6850     6.3010     9.5290    25.0920   -14.9030 
  186.7500     2.2600    54.5490     6.7190     6.3090     8.6610    25.1320   -14.7610 
  186.8750     2.2450    54.5490     6.8100     6.3100     8.0550    25.2320   -14.6610 
  187.0000     2.2510    54.5490     6.9190     6.3060     8.0400    25.2630   -14.5810 
  187.1250     2.2650    54.5490     6.9910     6.2980     8.7430    25.2440   -14.5060 
  187.2500     2.2730    54.5490     7.0140     6.2940     9.5900    25.2200   -14.4530 
  187.3750     2.2790    54.5490     7.0140     6.2940     9.7470    25.1070   -14.4500 
  187.5000     2.2950    54.5490     7.0140     6.2940     8.6130    25.0030   -14.4900 
  187.6250     2.3230    54.5490     7.0140     6.2940     6.3710    25.1160   -14.5220 
  187.7500     2.3450    54.5490     7.0140     6.2940     5.5570    25.6540   -14.5170 
  187.8750     2.3430    54.5490     7.0140     6.2940     5.6730    25.6810   -14.4810 
  188.0000     2.3090    54.5490     7.0140     6.2940     6.1040    25.3210   -14.4350 
  188.1250     2.2570    54.5490     7.0140     6.2940     6.8950    24.8530   -14.4100 
  188.2500     2.2150    54.5490     7.0140     6.2940     7.6860    24.6630   -14.4100 
  188.3750     2.1970    54.5490     7.0140     6.2940     8.2480    24.6430   -14.4100 
  188.5000     2.2020    54.5490     7.0140     6.2940     8.4660    24.6600   -14.4100 
  188.6250     2.2240    54.5490     7.0140     6.2940     8.2400    24.7300  -999.2500 
  188.7500     2.2460    54.5490     7.0140     6.2940     7.7720    24.7920  -999.2500 
  188.8750     2.2660    54.5490     7.0140     6.2940     7.3380    24.9800  -999.2500 
  189.0000     2.2800    54.5490     7.0140     6.2940     6.8110    25.1300  -999.2500 
  189.1250     2.2880    54.5490     7.0140     6.2940     7.2500    25.5480  -999.2500 
  189.2500     2.2890    54.5490     7.0140     6.2940     8.1110    25.6330  -999.2500 
  189.3750     2.2850    54.5490     7.0140     6.2940     8.8060    25.4890  -999.2500 
  189.5000     2.2840    54.5490     7.0140     6.2940     9.3510    25.4210  -999.2500 
  189.6250     2.2930    54.5490     7.0140     6.2940     9.3910    25.4560  -999.2500 
  189.7500     2.3050    54.5490     7.0140     6.2940     9.4320    25.5890  -999.2500 
  189.8750     2.3120    54.5490     7.0140     6.2940     9.0200    25.4180  -999.2500 
