~V
VERS. 2.00: Ver 2.00
~W
STRT.M 48.0000:
STOP.M 229.0000:
STEP.M 0.1250:
NULL. -999.2500:
UWI. F10623:
~C
DEPT.M :
GR.API :
RML.OHMM :
RI. :
RXO.OHMM :
CALI.CM :
DEN.GM/CC :
SP.MV :
~A
# ...
  183.0000    95.6730     8.9630     8.3340     8.6540    24.2740     2.4210    -9.9290 
  183.1250    97.3520     8.9810     8.2750     8.6060    24.2570     2.4200   -10.0070 
  183.2500   101.5930     8.9090     8.1490     8.5220    24.2370     2.4210   -10.0680 
  183.3750   105.3990     8.7410     7.9470     8.3770    24.2190     2.4210   -10.1040 
  183.5000   107.6660     8.4990     7.6850     8.1930    24.2140     2.4190   -10.1420 
  183.6250   108.8840     8.2870     7.4280     8.0360    24.2170     2.4160   -10.1920 
  183.7500   109.9780     8.2830     7.3020     7.9070    24.2170     2.4190   -10.2740 
  183.8750   109.8900     8.7260     7.4750     7.9230    24.2080     2.4330   -10.3890 
  184.0000   109.1750     9.8900     8.1670     8.4460    24.1940     2.4580   -10.5220 
  184.1250   106.6810    12.1850     9.7700    10.3240    24.1660     2.4860   -10.6790 
  184.2500    99.7480    15.4730    12.3150    13.8950    24.1090     2.5020   -10.8700 
  184.3750    89.1850    19.4680    15.7210    19.0610    24.0150     2.4940   -11.1030 
  184.5000    78.7980    23.6220    19.6310    24.8530    23.9130     2.4620   -11.3700 
  184.6250    71.1910    27.1780    23.3810    29.0760    23.8270     2.4120   -11.6680 
  184.7500    65.7940    29.9600    26.5110    30.2160    23.7410     2.3640   -11.9670 
  184.8750    64.8040    32.3840    29.1300    29.4710    23.6380     2.3250   -12.2510 
  185.0000    68.1870    35.2150    31.8190    29.9880    23.5610     2.2970   -12.5240 
  185.1250    70.1410    39.0720    35.2490    34.7650    23.6580     2.2770   -12.7970 
  185.2500    68.4070    43.2580    39.0850    42.6890    23.7120     2.2630   -13.0570 
  185.3750    66.7490    46.4880    42.3410    51.4710    23.7710     2.2570   -13.3130 
  185.5000    68.1730    47.3730    43.7560    57.8670    23.8570     2.2610   -13.5660 
  185.6250    69.4540    44.8220    42.0960    56.0350    23.9330     2.2780   -13.8160 
  185.7500    69.7900    40.4240    38.4580    47.3720    23.9030     2.3030   -14.0850 
  185.8750    71.1680    35.9910    34.4420    36.1810    23.7790     2.3310   -14.3800 
  186.0000    73.5110    33.2760    31.6530    29.8830    23.6360     2.3540   -14.7080 
  186.1250    73.8520    34.1950    31.8260    28.6230    23.5560     2.3600   -15.0770 
  186.2500    73.2400    39.4780    35.6420    32.4940    23.6080     2.3520   -15.4840 
  186.3750    71.9340    50.1750    44.0420    43.3050    23.7220     2.3310   -15.9050 
  186.5000    68.2940    67.2720    57.6190    60.1600    23.8210     2.3050   -16.3140 
  186.6250    63.1430    90.5720    76.5690    83.5480    23.9230     2.2800   -16.7030 
  186.7500    59.2830   116.0250    97.8230   108.9470    23.9970     2.2600   -17.0700 
  186.8750    57.9660   139.2180   118.3390   130.9690    24.0130     2.2470   -17.4190 
  187.0000    59.1120   158.5440   135.5530   147.3190    24.0150     2.2410   -17.7470 
  187.1250    60.8850   172.7680   148.2690   158.1440    24.0330     2.2410   -18.0360 
  187.2500    61.0460   184.7100   158.7110   172.7430    23.9920     2.2420   -18.2780 
  187.3750    58.9050   196.3720   168.5320   188.3030    23.9150     2.2370   -18.4870 
  187.5000    56.6650   208.4280   178.5030   200.0630    23.8240     2.2230   -18.6860 
  187.6250    55.6000   219.6170   188.0000   205.7950    23.7990     2.2030   -18.8760 
  187.7500    56.1900   227.8030   195.5560   202.7890    23.8320     2.1840   -19.0510 
  187.8750    57.3910   231.0750   199.6780   199.5590    23.9870     2.1740   -19.1970 
  188.0000    56.8890   228.3750   199.3050   192.2840    24.1850     2.1750   -19.3160 
  188.1250    55.9710   219.2850   193.5590   182.5700    24.3000     2.1850   -19.4160 
  188.2500    56.9070   206.9390   184.4890   171.2070    24.3570     2.1980   -19.5220 
  188.3750    59.2640   194.2200   174.2840   155.5320    24.3760     2.2110   -19.6200 
  188.5000    61.1340   184.1050   165.6180   137.2300    24.3540     2.2210   -19.6900 
  188.6250    62.8190   180.3040   162.1310   118.4910    24.2610     2.2260   -19.7310 
  188.7500    64.0460   183.6850   165.1350   103.5880    24.1610     2.2260   -19.7640 
  188.8750    62.6780   194.4170   175.0810    99.0250    24.1470     2.2190   -19.8180 
  189.0000    59.9630   210.7220   190.6870   107.1080    24.1490     2.2060   -19.8990 
  189.1250    58.8190   227.5220   208.2200   129.9900    24.1490     2.1920   -20.0010 
  189.2500    57.3770   238.6040   221.6660   162.2830    24.2310     2.1810   -20.0980 
  189.3750    53.9340   239.1160   226.4090   193.6800    24.4050     2.1770   -20.1880 
  189.5000    50.8560   229.1670   220.3560   212.7810    24.5330     2.1800   -20.2860 
  189.6250    51.8740   210.4930   204.2000   206.1110    24.5490     2.1860   -20.4000 
  189.7500    55.1160   192.1860   184.5580   184.8320    24.5120     2.1930   -20.5200 
  189.8750    57.4920   177.0870   165.8860   160.8240    24.4770     2.1980   -20.6370 
  190.0000    58.0250   161.9390   150.8000   144.3170    24.4390     2.2020   -20.7520 
  190.1250    57.4350   150.9430   140.5740   134.9520    24.3910     2.2050   -20.8660 
  190.2500    57.3800   143.3760   133.7110   128.9350    24.3440     2.2090   -20.9830 
  190.3750    58.5260   138.1020   129.1880   126.3510    24.3100     2.2110   -21.1050 
  190.5000    60.9300   134.3470   126.1980   124.9180    24.3030     2.2110   -21.2190 
  190.6250    62.3180   131.9720   124.5020   122.5010    24.3310     2.2100   -21.3020 
  190.7500    61.8580   130.7780   123.8690   120.4820    24.3560     2.2100   -21.3720 
  190.8750    61.6530   130.7260   124.2940   121.4120    24.3400     2.2110   -21.4220 
  191.0000    62.6040   131.5270   125.5650   127.3980    24.2330     2.2120   -21.4490 
  191.1250    63.5760   132.6130   127.2060   135.6090    23.9890     2.2070   -21.4520 
  191.2500    62.0820   133.3620   128.5940   140.3040    23.6820     2.1950   -21.4450 
  191.3750    59.2220   133.5990   129.4930   138.8490    23.5080     2.1820   -21.4420 
  191.5000    56.4790   133.5670   130.0540   136.2750    23.6030     2.1730   -21.4460 
  191.6250    55.7500   133.7950   130.7580   130.5360    23.9570     2.1740   -21.4660 
  191.7500    57.7630   134.3370   131.7710   124.5660    24.2530     2.1830   -21.4820 
  191.8750    61.0130   134.5820   132.5980   121.7090    24.3510     2.1950   -21.4880 
  192.0000    61.4350   133.5020   132.2410   126.8570    24.3480     2.2070   -21.4760 
  192.1250    58.0530   129.8090   129.2720   134.1220    24.3330     2.2190   -21.4480 
  192.2500    56.5570   124.0010   123.9140   135.0300    24.3240     2.2320   -21.3980 
  192.3750    58.0240   117.3410   117.1980   122.3430    24.3050     2.2460   -21.3130 
  192.5000    61.5080   111.7950   110.9920    99.5060    24.2720     2.2600   -21.1930 
  192.6250    64.2580   110.3500   108.2840    83.7760    24.2290     2.2690   -21.0390 
  192.7500    64.7570   114.4980   110.8100    81.8590    24.1830     2.2730   -20.8820 
  192.8750    62.3950   125.6160   119.9880    89.3230    24.1470     2.2720   -20.7370 
  193.0000    60.8850   144.4460   136.4630   105.0470    24.1370     2.2650   -20.6030 
  193.1250    63.2120   171.5030   160.4650   130.3770    24.1560     2.2570   -20.4680 
  193.2500    63.1960   202.7620   188.0390   161.8280    24.1600     2.2490   -20.3190 
  193.3750    58.9030   233.8420   215.1180   195.3560    24.1720     2.2430   -20.1560 
  193.5000    54.6540   259.7270   237.3110   217.2530    24.2260     2.2380   -19.9860 
  193.6250    55.8260   274.8490   249.8680   218.7470    24.2570     2.2330   -19.8130 
  193.7500    58.4210   280.4910   253.9360   217.2430    24.2570     2.2280   -19.6140 
  193.8750    59.0010   279.5580   251.9010   216.1880    24.2360     2.2240   -19.3690 
  194.0000    58.2070   275.8830   247.0810   215.0900    24.2150     2.2210   -19.0810 
  194.1250    56.3320   273.0090   242.7830   215.1260    24.1860     2.2220   -18.7610 
