~V
VERS. 2.00: Ver 2.00
~W
STRT.M 56.0000:
STOP.M 256.0000:
STEP.M 0.1250:
NULL. -999.2500:
UWI. F10668:
~C
DEPT.M :
SP.MV :
GR.API :
RML.OHMM :
RI. :
RXO.OHMM :
CALI.CM :
DEN.GM/CC :
~A
# ...
  191.0000   -17.2690    45.1230    12.5350     9.9700    11.5500    24.9160     2.3740 
  191.1250   -17.3610    40.3560    13.1550    10.4450    13.7230    24.8580     2.4030 
  191.2500   -17.4800    38.8010    13.7040    10.9000    15.0270    24.8150     2.4240 
  191.3750   -17.6470    43.4480    14.0460    11.2290    14.6770    24.7810     2.4350 
  191.5000   -17.8330    47.4040    14.1970    11.4120    14.0140    24.7430     2.4430 
  191.6250   -18.0310    47.8470    14.2560    11.4900    13.2900    24.7240     2.4520 
  191.7500   -18.2340    48.0640    14.3480    11.5470    14.6240    24.6590     2.4610 
  191.8750   -18.4290    50.4760    14.5590    11.6640    14.7170    24.6190     2.4660 
  192.0000   -18.6010    51.0770    14.8300    11.8310    14.0190    24.6120     2.4660 
  192.1250   -18.7680    48.4290    15.0540    11.9870    13.3220    24.6240     2.4670 
  192.2500   -18.9130    46.0630    15.1280    12.0530    13.3070    24.6380     2.4690 
  192.3750   -19.0250    46.4600    14.9530    11.9340    13.4940    24.6300     2.4690 
  192.5000   -19.0760    48.6300    14.5730    11.6520    13.8110    24.5900     2.4630 
  192.6250   -19.0720    51.7320    14.0630    11.2620    13.1720    24.4900     2.4540 
  192.7500   -18.9890    55.8890    13.5440    10.8570    11.7820    24.4230     2.4450 
  192.8750   -18.8770    57.7130    13.1780    10.5600    10.8060    24.4250     2.4430 
  193.0000   -18.7190    55.1140    13.0090    10.4050    10.3840    24.4740     2.4460 
  193.1250   -18.4870    50.0580    13.0130    10.3800    10.4890    24.5130     2.4480 
  193.2500   -18.1980    46.7710    13.1050    10.4240    10.5640    24.5620     2.4460 
  193.3750   -17.8890    46.4650    13.1500    10.4440     9.6100    24.6300     2.4380 
  193.5000   -17.6070    46.3390    13.0710    10.3810     8.3060    24.5360     2.4280 
  193.6250   -17.3670    46.7610    12.8700    10.2270     8.1660    24.2530     2.4180 
  193.7500   -17.1690    48.5070    12.6010    10.0160     9.4430    24.0660     2.4090 
  193.8750   -17.0260    48.8950    12.3600     9.8110    10.6430    24.2230     2.4040 
  194.0000   -16.9380    47.5280    12.2240     9.6730    11.1950    24.4740     2.4040 
  194.1250   -16.9240    47.3850    12.2410     9.6460    10.9680    24.6430     2.4120 
  194.2500   -16.9820    49.2710    12.4330     9.7500    10.9720    24.6900     2.4260 
  194.3750   -17.1080    49.8390    12.8000    10.0010    11.6440    24.5510     2.4380 
  194.5000   -17.2370    47.9710    13.2470    10.3350    12.8770    24.3560     2.4420 
  194.6250   -17.3700    46.7580    13.6820    10.6810    13.6900    24.3370     2.4340 
  194.7500   -17.5100    47.3250    14.0000    10.9580    13.4780    24.3700     2.4160 
  194.8750   -17.6250    46.6390    14.0900    11.0650    12.8260    24.1740     2.3980 
  195.0000   -17.7210    44.8330    13.9860    11.0070    11.5810    23.5930     2.3890 
  195.1250   -17.7950    44.6580    13.7620    10.8310    10.2800    22.9020     2.3900 
  195.2500   -17.8350    47.0440    13.5230    10.6190     9.5660    22.7100     2.3960 
  195.3750   -17.8210    48.6220    13.3810    10.4680     9.7720    23.3990     2.3980 
  195.5000   -17.7790    48.1890    13.3600    10.4160    10.3510    24.4150     2.3960 
  195.6250   -17.7000    47.7730    13.4380    10.4670    11.0090    25.1460     2.3930 
  195.7500   -17.5940    47.4970    13.5610    10.5880    11.6460    25.4090     2.3930 
  195.8750   -17.4710    46.4180    13.6560    10.7230    12.1460    25.3770     2.3930 
  196.0000   -17.3290    46.1050    13.7070    10.8290    12.3270    25.3180     2.3920 
  196.1250   -17.1930    46.2400    13.7580    10.9130    12.1470    25.2600     2.3980 
  196.2500   -17.0530    45.3850    13.8800    11.0100    11.5690    25.2090     2.4230 
  196.3750   -16.9280    44.3520    14.1800    11.1880    10.9590    25.1510     2.4780 
  196.5000   -16.8250    45.1620    14.6600    11.4750    10.8060    25.0820     2.5290 
  196.6250   -16.7630    47.0010    15.2670    11.8630    11.0650    24.9800     2.5400 
  196.7500   -16.7500    49.0380    15.8670    12.2850    11.1440    24.9040     2.4890 
  196.8750   -16.7940    52.0230    16.2100    12.5830    10.8990    24.9100     2.3960 
  197.0000   -16.8950    55.9040    16.1660    12.6320    10.9000    24.9810     2.3090 
  197.1250   -17.0240    59.9420    15.7370    12.3900    11.1340    24.9710     2.2600 
  197.2500   -17.1800    63.0400    15.1100    11.9550    11.2070    24.8230     2.2630 
  197.3750   -17.3560    64.4900    14.6540    11.5770    11.1250    24.5670     2.3060 
  197.5000   -17.5320    64.7930    14.6760    11.5020    12.2470    24.4730     2.3480 
  197.6250   -17.6990    65.1630    15.3850    11.9090    14.4360    24.5700     2.3590 
  197.7500   -17.8480    63.7400    16.8980    12.9240    16.8380    24.8250     2.3330 
  197.8750   -17.9730    59.5050    19.3380    14.7230    19.4100    24.9820     2.2850 
  198.0000   -18.0750    57.1420    22.3740    17.1290    20.9040    24.8580     2.2380 
  198.1250   -18.1530    58.6500    25.6460    19.9170    19.9330    24.2810     2.2010 
  198.2500   -18.1980    61.4380    28.6740    22.7110    16.6990    23.0950     2.1740 
  198.3750   -18.2060    60.5240    30.6450    24.8120    15.0220    22.1720     2.1670 
  198.5000   -18.1990    57.4780    30.9830    25.6120    16.0700    21.9450     2.1860 
  198.6250   -18.1740    55.5310    29.2480    24.6290    16.5460    22.1660     2.2330 
  198.7500   -18.1390    54.7750    25.6170    21.9300    14.3620    22.3740     2.2970 
  198.8750   -18.0500    55.1850    21.0400    18.2630    11.3840    22.3730     2.3540 
  199.0000   -17.9450    57.7690    16.9090    14.8200     8.7120    22.1360     2.3960 
  199.1250   -17.8180    62.7360    13.8610    12.1400     6.9710    21.9710     2.4280 
  199.2500   -17.7020    67.3050    12.0480    10.3820     6.5950    22.0610     2.4530 
  199.3750   -17.6040    67.4520    11.4990     9.6310     7.0470    22.2980     2.4560 
  199.5000   -17.5360    64.4970    11.8660     9.6530     7.5800    22.4150     2.4320 
  199.6250   -17.5000    62.6300    13.0810    10.4140     8.1900    22.4490     2.3870 
  199.7500   -17.4970    63.6560    15.0880    11.8900     9.3960    22.5170     2.3290 
  199.8750   -17.5590    65.6090    17.8110    14.0830    11.3650    22.8280     2.2620 
  200.0000   -17.6540    65.2490    20.7830    16.6430    13.9130    23.3910     2.1920 
  200.1250   -17.7950    63.9770    23.5350    19.1950    17.6060    24.0590     2.1280 
  200.2500   -17.9760    62.3820    25.5920    21.2860    21.5080    24.5160     2.0900 
  200.3750   -18.1790    60.2060    26.5050    22.4090    23.5040    24.2520     2.1080 
  200.5000   -18.3980    60.1420    26.5810    22.7050    23.1210    23.5040     2.1760 
  200.6250   -18.6170    62.6890    26.2060    22.4580    21.8140    22.8970     2.2580 
  200.7500   -18.8200    64.3640    25.7620    22.0090    20.6620    22.6760     2.3100 
  200.8750   -19.0090    61.5510    25.5350    21.6520    20.0180    22.7550     2.3000 
  201.0000   -19.1790    57.2960    25.5310    21.4750    19.2510    23.1380     2.2590 
  201.1250   -19.3260    54.2020    25.6200    21.4230    17.5560    23.8650     2.2120 
  201.2500   -19.4390    52.4650    25.6300    21.3780    14.2950    24.2420     2.1750 
  201.3750   -19.5160    52.7280    25.4050    21.2220    10.9940    23.8110     2.1570 
  201.5000   -19.5590    54.2210    24.9860    20.9590     9.1000    23.1710     2.1490 
  201.6250   -19.5800    55.5760    24.4680    20.6460     8.5960    22.8690     2.1430 
  201.7500   -19.5820    55.3010    23.9520    20.3420     8.9070    22.7820     2.1400 
  201.8750   -19.5640    53.2480    23.4840    20.0600     9.9540    22.8780     2.1510 
  202.0000   -19.5310    53.0770    23.0230    19.7490    11.5360    23.1400     2.1760 
  202.1250   -19.4850    55.6800    22.5320    19.3740    13.1120    23.4220     2.2090 
