~V
VERS. 2.00: Ver 2.00
~W
STRT.M 51.0000:
STOP.M 206.0000:
STEP.M 0.1250:
NULL. -999.2500:
UWI. F10683:
~C
DEPT.M :
GR.API :
RML.OHMM :
RI. :
RXO.OHMM :
CALI.CM :
SP.MV :
DEN.GM/CC :
~A
# ...
  197.2500    63.6300     8.3290     7.5620     5.7450    24.7770   -11.4230     2.3200 
  197.3750    63.6300     8.3370     7.5440     5.9290    24.8030   -11.1920     2.3250 
  197.5000    63.6300     8.3640     7.5540     6.1900    24.7870   -10.9920     2.3410 
  197.6250    63.6300     8.4030     7.5760     6.8800    24.7170   -10.8290     2.3610 
  197.7500    63.6300     8.4560     7.6060     8.2220    24.6490   -10.6690     2.3800 
  197.8750    63.6300     8.5210     7.6430     9.9300    24.6090   -10.4400     2.3980 
  198.0000    63.6300     8.5900     7.6870    10.9730    24.5970   -10.0950     2.4140 
  198.1250    63.6300     8.6400     7.7270    10.9000    24.5970    -9.5540     2.4180 
  198.2500    63.6300     8.6570     7.7490    11.0670    24.5970    -8.8900     2.4110 
  198.3750    63.6300     8.6320     7.7440    11.4160    24.5970    -8.1710     2.4000 
  198.5000    63.6300     8.5650     7.7090    11.5080    24.6030    -7.4400     2.3930 
  198.6250    63.6300     8.4630     7.6440    10.6400    24.6230    -6.7670     2.3870 
  198.7500    63.6300     8.3400     7.5620     9.6100    24.6520    -6.2320     2.3790 
  198.8750    63.6300     8.1960     7.4730     8.8590    24.6680    -5.8430     2.3720 
  199.0000    63.6300     8.0210     7.3870     8.2720    24.6710    -5.5600     2.3690 
  199.1250    63.6300     7.8290     7.3060     7.8410    24.6580    -5.4020     2.3720 
  199.2500    63.6300     7.6500     7.2230     7.5460    24.6310    -5.3380     2.3740 
  199.3750    63.6300     7.4840     7.1350     7.4280    24.6070    -5.3650     2.3720 
  199.5000    63.6300     7.3090     7.0440     7.4700    24.5980    -5.5420     2.3680 
  199.6250    63.6300     7.2610     6.9680     7.3900    24.6030    -5.9880     2.3730 
  199.7500    63.6300     7.2610     6.9170     7.2940    24.6170    -6.6830     2.3800 
  199.8750    63.6300     7.2610     6.8910     7.1170    24.6230    -7.5940     2.4060 
  200.0000    63.6300     7.2610     6.8810     6.9950    24.5590    -8.6550     2.4130 
  200.1250    63.6300     7.2610     6.8780     7.4830    24.4110    -9.8240     2.4040 
  200.2500    63.6300     7.2610     6.8780     7.8450    24.3800   -11.0020     2.3770 
  200.3750    63.6300     7.2610     6.8810     7.3350    24.6660   -12.1660     2.3430 
  200.5000    63.6300     7.2610     6.8820     6.9220    25.1940   -13.2200     2.3270 
  200.6250    63.6300     7.2610     6.8780     7.5040    25.6260   -13.9890     2.3390 
  200.7500    63.6300     7.2610     6.8700     8.6250    25.7060   -14.4260     2.3640 
  200.8750    63.6300     7.2610     6.8630     9.8360    25.5640   -14.5740     2.3790 
  201.0000    63.6300     7.2610     6.8610    10.7250    25.5390   -14.5200     2.3650 
  201.1250    63.6300     7.2610     6.8680    10.5990    25.6930   -14.2990     2.3430 
  201.2500    63.6300     7.2610     6.8740    10.2640    25.9190   -13.9950     2.3360 
  201.3750    63.6300     7.2610     6.8740     9.6250    25.9320   -13.6550     2.3490 
  201.5000    63.6300     7.2610     6.8740     9.1040    25.7350   -13.3240     2.3650 
  201.6250    63.6300     7.2610     6.8740     8.8750    25.4360   -13.0710     2.3580 
  201.7500    63.6300     7.2610     6.8740     8.7510    25.2030   -12.8970     2.3320 
  201.8750    63.6300     7.2610     6.8740     8.8020    25.1600   -12.7870     2.3070 
  202.0000    63.6300     7.2610     6.8740     8.9730    25.3140   -12.7010     2.2970 
  202.1250    63.6300     7.2610     6.8740     8.7750    25.4790   -12.6720     2.2900 
  202.2500    63.6300     7.2610     6.8740     8.3410    25.4650   -12.6800     2.2690 
  202.3750    63.6300     7.2610     6.8740     7.7520    25.3870   -12.6740     2.2240 
  202.5000    63.6300     7.2610     6.8740     7.3950    25.3850   -12.6590     2.1820 
  202.6250    63.6300     7.2610     6.8740     7.5190    25.5510   -12.6460     2.1840 
  202.7500    63.6300     7.2610     6.8740     8.1470    25.8320   -12.6400     2.2390 
  202.8750    63.6300     7.2610     6.8740     8.9310    26.0490   -12.6110     2.3250 
  203.0000    63.6300     7.2610     6.8740     9.5190    26.0080   -12.5790     2.3970 
  203.1250    63.6300     7.2610     6.8740     9.6430    25.6550   -12.4910     2.4380 
  203.2500    63.6300     7.2610     6.8740     9.3870    25.3570   -12.4240     2.4480 
  203.3750    63.6300     7.2610     6.8740     8.7130    25.1910   -12.4760     2.4300 
  203.5000    63.6300     7.2610     6.8740     8.1540    25.0840   -12.5550     2.3840 
  203.6250    63.6300     7.2610     6.8740     8.4000    24.8970   -12.6070     2.3390 
  203.7500    63.6300     7.2610     6.8740     9.3850    24.6000   -12.6430     2.3150 
  203.8750    63.6300     7.2610     6.8740     9.8560    24.2090   -12.6620     2.3030 
  204.0000    63.6300     7.2610     6.8740     9.3740    23.4520   -12.6950     2.2690 
  204.1250    63.6300     7.2610     6.8740     9.0860    22.1420   -12.7590     2.2180 
  204.2500    63.6300     7.2610     6.8740     9.0540    20.8390   -12.8050     2.1840 
  204.3750    63.6300     7.2610     6.8740     9.0870    20.2080   -12.8050     2.1880 
  204.5000    63.6300     7.2610     6.8740     9.0870    20.0670   -12.8050     2.2150 
  204.6250    63.6300     7.2610     6.8740     9.0870    20.0670  -999.2500     2.2320 
  204.7500    63.6300     7.2610     6.8740     9.0870    20.0670  -999.2500     2.2350 
  204.8750    63.6300     7.2610     6.8740     9.0860    20.0670  -999.2500  -999.2500 
  205.0000    63.6300     7.2610     6.8740     9.0860    20.0670  -999.2500  -999.2500 
  205.1250    63.6300     7.2610     6.8740     9.0830    20.0670  -999.2500  -999.2500 
  205.2500    63.6300     7.2610     6.8740     9.0820    20.0670  -999.2500  -999.2500 
  205.3750    63.6300     7.2610     6.8740     9.0810    20.0670  -999.2500  -999.2500 
  205.5000    63.6300     7.2610     6.8740     9.0820    20.0670  -999.2500  -999.2500 
  205.6250    63.6300     7.2610     6.8740     9.0830    20.0670  -999.2500  -999.2500 
  205.7500    63.6300     7.2610     6.8740     9.0800    20.0670  -999.2500  -999.2500 
  205.8750    63.6300     5.3620     6.8740     9.0770    20.0670  -999.2500  -999.2500 
  206.0000    63.6300     4.7290     6.8740     9.0770    20.0670  -999.2500  -999.2500 
