~V
VERS. 2.00: Ver 2.00
~W
STRT.M 52.0000:
STOP.M 240.0000:
STEP.M 0.1250:
NULL. -999.2500:
UWI. F10646:
~C
DEPT.M :
GR.API :
RML.OHMM :
RI. :
RXO.OHMM :
CALI.CM :
DEN.GM/CC :
SP.MV :
~A
# ...
  209.5000    69.1350    48.6310    45.8780    42.1960    23.8530     2.3390   -15.3820 
  209.6250    70.0950    47.2010    44.5290    37.2090    23.9180     2.3160   -15.3580 
  209.7500    68.2640    45.6080    43.0270    35.6150    23.9710     2.2690   -15.3560 
  209.8750    66.3320    44.3080    41.8000    33.6030    23.8720     2.2210   -15.3700 
  210.0000    65.1160    43.7110    41.2360    32.7440    23.8810     2.2090   -15.3760 
  210.1250    62.8460    43.6720    41.2000    33.4550    23.9980     2.2450   -15.3730 
  210.2500    59.9760    43.8750    41.3910    34.9260    24.1100     2.3140   -15.3560 
  210.3750    59.9400    43.9370    41.4500    36.9940    24.2210     2.3780   -15.3150 
  210.5000    64.8390    43.6440    41.1730    38.4480    24.3290     2.3920   -15.2520 
  210.6250    69.2230    43.3170    40.8650    34.1170    24.3620     2.3690   -15.1710 
  210.7500    69.8410    43.4630    41.0030    30.9310    24.3100     2.3390   -15.0590 
  210.8750    67.0390    44.5800    42.0560    31.1750    24.2020     2.3270   -14.9430 
  211.0000    63.9120    47.0730    44.4090    37.5000    24.1860     2.3500   -14.8280 
  211.1250    62.1450    50.2600    47.4150    40.4590    24.2260     2.3940   -14.6560 
  211.2500    61.9690    52.9990    49.9990    41.3780    24.2690     2.4390   -14.4470 
  211.3750    62.2610    53.9160    50.8640    44.4240    24.2690     2.4700   -14.2530 
  211.5000    61.2110    51.8360    48.9020    46.1430    24.2740     2.4790   -14.0770 
  211.6250    59.7630    47.9020    45.1900    45.5080    24.2770     2.4680   -13.8930 
  211.7500    59.7610    43.4930    41.0310    40.9930    24.2340     2.4370   -13.6940 
  211.8750    60.7500    39.8210    37.5670    33.9270    24.2490     2.3860   -13.5020 
  212.0000    61.4890    37.7890    35.6500    31.3020    24.3530     2.3340   -13.3630 
  212.1250    61.0080    37.1830    35.0780    30.3670    24.3810     2.3110   -13.2730 
  212.2500    59.6300    37.6910    35.5580    32.9560    24.3310     2.3390   -13.2200 
  212.3750    57.3410    38.8900    36.6890    41.0990    24.2960     2.4030   -13.1790 
  212.5000    55.2190    40.3370    38.0540    47.1190    24.3000     2.4490   -13.1820 
  212.6250    55.7560    41.6540    39.2960    43.0020    24.3470     2.4430   -13.2150 
  212.7500    59.7160    42.6920    40.2760    36.9070    24.3640     2.3960   -13.2810 
  212.8750    64.7600    43.3570    40.9030    34.6000    24.2830     2.3360   -13.3800 
  213.0000    65.8640    43.3550    40.9010    39.8930    24.1470     2.3010   -13.4880 
  213.1250    66.3520    42.4750    40.0710    47.3790    24.1490     2.3040   -13.6060 
  213.2500    69.5570    40.5610    38.2650    44.9230    24.1650     2.3370   -13.7230 
  213.3750    71.7570    37.7610    35.6240    35.4450    24.0950     2.3830   -13.8380 
  213.5000    67.4960    34.5530    32.5970    29.8230    23.9580     2.4170   -13.9160 
  213.6250    62.5580    31.5870    29.7990    28.3320    24.0680     2.4240   -13.9480 
  213.7500    63.5440    29.1810    27.5290    27.1770    24.1410     2.4030   -13.9430 
  213.8750    68.6920    27.4080    25.8560    23.6210    24.0040     2.3700   -13.8990 
  214.0000    71.2880    26.2820    24.7940    21.0250    23.9780     2.3400   -13.8160 
  214.1250    70.3670    25.7220    24.2660    20.9950    24.1190     2.3160   -13.7160 
  214.2500    67.8420    25.9450    24.4770    22.8920    24.2590     2.2950   -13.5690 
  214.3750    65.8480    27.3400    25.7920    25.1180    24.3130     2.2840   -13.3980 
  214.5000    62.9430    30.7360    28.9960    26.5390    24.2810     2.3000   -13.2080 
  214.6250    57.5860    36.2990    34.2440    31.5720    24.1770     2.3500   -13.0500 
  214.7500    51.2690    44.0180    41.5270    48.8400    24.0380     2.4280   -12.8890 
  214.8750    46.8550    53.0640    50.0610    78.4530    23.9780     2.5130   -12.7330 
  215.0000    47.5950    61.1220    57.6620    89.5040    24.0300     2.5670   -12.5740 
  215.1250    53.5270    66.0360    62.2980    80.2170    24.0550     2.5790   -12.4400 
  215.2500    60.2630    67.1380    63.3370    79.0630    24.1270     2.5520   -12.3420 
  215.3750    61.9660    64.8270    61.1570    80.3030    24.1980     2.5100   -12.2810 
  215.5000    57.7920    58.9240    55.5890    83.7350    24.2100     2.4850   -12.2420 
  215.6250    56.5370    50.1620    47.3230    77.6870    24.1820     2.4800   -12.2020 
  215.7500    58.9550    39.6360    37.3920    60.7720    24.0580     2.4800   -12.1760 
  215.8750    60.8230    29.2290    27.5740    42.5860    23.9700     2.4750   -12.1900 
  216.0000    61.0150    20.6620    19.8000    26.3760    23.8390     2.4660   -12.2630 
  216.1250    62.4560    13.8640    14.2480    15.9000    23.6750     2.4520   -12.3150 
  216.2500    66.5660    10.1580    10.5560    11.2610    23.6460     2.4210   -12.3580 
  216.3750    71.2320     7.9170     8.1940     7.9140    23.8400     2.3540   -12.4220 
  216.5000    72.8480     6.7760     6.8790     5.7990    24.2680     2.2510   -12.5390 
  216.6250    72.6670     6.2780     6.2110     5.1720    24.5480     2.1480   -12.6840 
  216.7500    73.5600     6.2680     6.0460     5.5060    24.4390     2.0860   -12.8840 
  216.8750    77.5110     6.6400     6.2720     6.2280    24.0950     2.0900   -13.1180 
  217.0000    82.7160     7.3250     6.8130     7.1280    23.7420     2.1500   -13.4010 
  217.1250    86.7610     8.1050     7.4820     7.6020    23.5050     2.2080   -13.7310 
  217.2500    87.1090     8.8010     8.1290     8.4260    23.5170     2.2280   -14.0700 
  217.3750    83.5960     9.2710     8.6150    10.0810    23.8390     2.2120   -14.3810 
  217.5000    80.0410     9.4260     8.8170    11.6540    24.2840     2.1930   -14.6690 
  217.6250    78.8380     9.3780     8.7820    12.0890    24.4060     2.2020   -14.9520 
  217.7500    80.0080     9.2210     8.5770    11.2310    24.3250     2.2390   -15.2200 
  217.8750    82.2140     9.0520     8.2860     9.8790    24.2170     2.2830   -15.4370 
  218.0000    83.6070     8.9690     8.0070     9.1000    24.2390     2.3020   -15.5790 
  218.1250    81.5150     8.9920     7.8170     8.7530    24.3290     2.2940   -15.7240 
  218.2500    78.1470     9.1160     7.7550     8.5240    24.3850     2.2730   -15.9050 
  218.3750    75.4390     9.3090     7.8240     8.5180    24.3560     2.2480   -16.0960 
  218.5000    73.5440     9.5040     7.9930     9.0960    24.2990     2.2330   -16.2670 
  218.6250    73.1650     9.6200     8.1670     9.7660    24.2420     2.2370   -16.4040 
  218.7500    73.9000     9.5980     8.2670    10.4910    24.1780     2.2660   -16.5000 
  218.8750    75.0840     9.4280     8.2430    10.9600    24.1210     2.3070   -16.5720 
  219.0000    74.6470     9.1300     8.0770    10.4820    24.1400     2.3300   -16.6160 
  219.1250    73.2480     8.7990     7.8380     9.0910    24.2660     2.3160   -16.6000 
  219.2500    74.4380     8.4930     7.5740     8.3110    24.4530     2.2680   -16.5280 
  219.3750    80.9290     8.2300     7.3160     8.3210    24.5980     2.2050   -16.4260 
  219.5000    88.6720     7.9900     7.0820     8.3040    24.6140     2.1560   -16.2790 
  219.6250    88.7550     7.7480     6.8700     7.9380    24.5230     2.1370   -16.0720 
  219.7500    81.0600     7.5350     6.6880     7.6170    24.4240     2.1470   -15.8000 
  219.8750    73.3070     7.4140     6.5600     7.5930    24.3340     2.1710   -15.4920 
  220.0000    71.9220     7.4620     6.5270     7.2720    24.2580     2.1870   -15.2050 
  220.1250    72.5290     7.6400     6.5840     7.0050    24.2500     2.1840   -14.9760 
  220.2500    71.5700     7.8680     6.7010     7.6500    24.2840     2.1680   -14.7790 
  220.3750    70.3220     8.0750     6.8400     8.4260    24.3110     2.1520   -14.6070 
  220.5000    73.0370     8.2750     6.9830     8.6830    24.3360     2.1560   -14.5290 
  220.6250    77.7090     8.5260     7.1390     8.8060    24.3250     2.1760   -14.5700 
