~V
VERS. 2.00: Ver 2.00
~W
STRT.M 55.0000:
STOP.M 228.0000:
STEP.M 0.1250:
NULL. -999.2500:
UWI. F10621:
~C
DEPT.M :
GR.API :
RML.OHMM :
RI. :
RXO.OHMM :
CALI.CM :
DEN.GM/CC :
SP.MV :
~A
# ...
  156.2500    78.6170     7.2570     6.3100     6.5070    24.6510     2.4060    -3.5090 
  156.3750    77.8190     7.1730     6.2190     6.2610    24.7000     2.4040    -3.5490 
  156.5000    75.8350     7.1200     6.1280     6.1970    24.7350     2.4030    -3.5740 
  156.6250    75.3000     7.1160     6.0620     6.3230    24.7480     2.4010    -3.5690 
  156.7500    76.6860     7.1200     6.0090     6.4390    24.7510     2.3990    -3.5870 
  156.8750    77.1960     7.0940     5.9460     6.4350    24.7490     2.3960    -3.6170 
  157.0000    75.9320     7.0210     5.8590     6.3370    24.7480     2.3920    -3.6650 
  157.1250    78.0200     6.9200     5.7540     6.1190    24.7480     2.3850    -3.7400 
  157.2500    81.4080     6.8500     5.6700     6.0550    24.7500     2.3780    -3.8460 
  157.3750    81.9170     6.8600     5.6450     6.1320    24.7540     2.3720    -3.9980 
  157.5000    81.3310     6.9790     5.7100     6.3260    24.7560     2.3730    -4.1760 
  157.6250    83.3100     7.2380     5.9010     6.6590    24.7550     2.3840    -4.3590 
  157.7500    86.0280     7.6170     6.2050     7.0930    24.7530     2.4050    -4.5050 
  157.8750    85.6660     8.1110     6.6180     7.6790    24.7510     2.4320    -4.6270 
  158.0000    83.4820     8.7150     7.1330     8.3940    24.7490     2.4570    -4.7310 
  158.1250    81.3200     9.4190     7.7420     9.1910    24.7230     2.4720    -4.7690 
  158.2500    78.0700    10.1520     8.3920    10.0190    24.6620     2.4720    -4.7690 
  158.3750    74.2670    10.8340     9.0190    10.8380    24.6050     2.4570    -4.6910 
  158.5000    72.7480    11.3720     9.5470    11.6250    24.6180     2.4310    -4.5560 
  158.6250    75.5590    11.6420     9.8630    12.3150    24.6390     2.4010    -4.4250 
  158.7500    78.7600    11.6600     9.9610    12.4030    24.6600     2.3760    -4.2860 
  158.8750    80.2920    11.4890     9.8740    11.8400    24.7280     2.3600    -4.1450 
  159.0000    80.8020    11.2410     9.6850    11.4340    24.8180     2.3540    -4.0090 
  159.1250    80.1560    11.0700     9.5150    11.4180    24.8650     2.3550    -3.9030 
  159.2500    78.4630    11.0600     9.4550    11.4100    24.8890     2.3560    -3.8250 
  159.3750    77.7040    11.2310     9.5440    11.5890    24.9110     2.3550    -3.7770 
  159.5000    80.4610    11.5520     9.7810    11.9540    24.9420     2.3520    -3.7290 
  159.6250    83.5180    11.9660    10.1420    12.3810    24.9550     2.3500    -3.6460 
  159.7500    82.5860    12.3950    10.5590    12.9310    24.9400     2.3470    -3.5870 
  159.8750    77.7500    12.8110    11.0020    13.4090    24.8800     2.3480    -3.5460 
  160.0000    72.9860    13.2220    11.4600    13.8300    24.7950     2.3560    -3.4820 
  160.1250    73.8480    13.6660    11.9490    14.2300    24.7100     2.3830    -3.3990 
  160.2500    76.4050    14.1550    12.4720    14.5130    24.6490     2.4260    -3.3130 
  160.3750    73.4110    14.6570    12.9970    15.4290    24.5800     2.4740    -3.2520 
  160.5000    63.9090    15.0850    13.4540    16.9700    24.4690     2.5090    -3.1930 
  160.6250    57.3880    15.2920    13.7090    18.5860    24.4100     2.5070    -3.1910 
  160.7500    59.1700    15.2340    13.7150    19.2610    24.3830     2.4750    -3.2110 
  160.8750    64.5590    14.9370    13.4800    18.0180    24.4230     2.4250    -3.2310 
  161.0000    68.2150    14.5230    13.0980    15.5360    24.4540     2.3740    -3.2820 
  161.1250    69.3990    14.2150    12.7490    13.7150    24.3910     2.3350    -3.3490 
  161.2500    69.7790    14.1890    12.5960    13.1650    24.4200     2.3120    -3.4430 
  161.3750    69.5060    14.5360    12.7340    13.0640    24.5300     2.3060    -3.5110 
  161.5000    70.0470    15.2550    13.1870    13.3440    24.6230     2.3170    -3.5670 
  161.6250    72.1000    16.2450    13.9130    14.4120    24.6450     2.3400    -3.6140 
  161.7500    71.7440    17.2400    14.7080    15.6680    24.5930     2.3640    -3.6550 
  161.8750    68.9370    18.0480    15.4070    16.8050    24.4900     2.3790    -3.6790 
  162.0000    67.7240    18.5710    15.9050    17.7550    24.4150     2.3820    -3.6880 
  162.1250    72.0660    18.8750    16.2040    18.1610    24.3830     2.3700    -3.7160 
  162.2500    74.4960    19.3040    16.5490    17.5230    24.3860     2.3510    -3.7470 
  162.3750    71.4100    20.2050    17.2200    17.1760    24.4350     2.3270    -3.8030 
  162.5000    67.0670    21.8470    18.4740    18.2170    24.4930     2.3020    -3.8760 
  162.6250    65.4660    24.4170    20.5710    21.1840    24.5510     2.2750    -3.9110 
  162.7500    64.0910    27.5330    23.2900    25.1600    24.5940     2.2490    -3.9540 
  162.8750    61.7970    30.7620    26.3210    29.2750    24.6250     2.2330    -4.0080 
  163.0000    61.5050    33.6220    29.2280    31.9770    24.6560     2.2360    -4.0490 
  163.1250    62.8250    35.5860    31.4550    33.2490    24.6510     2.2650    -4.0990 
  163.2500    62.1520    36.6490    32.8540    34.2230    24.6000     2.3090    -4.1140 
  163.3750    59.3260    36.8710    33.4140    35.0250    24.5070     2.3480    -4.1100 
  163.5000    55.6840    36.3590    33.2230    35.2100    24.4040     2.3620    -4.0950 
  163.6250    52.8740    35.1320    32.3010    34.6850    24.4250     2.3430    -4.0940 
  163.7500    52.8370    33.4710    30.9240    32.3570    24.5480     2.3100    -4.0740 
  163.8750    56.6960    31.6450    29.3280    28.6270    24.6930     2.2830    -4.0260 
  164.0000    62.2350    29.9920    27.8090    25.9240    24.8070     2.2740    -3.9960 
  164.1250    65.6450    28.9360    26.7450    25.3130    24.8090     2.2870    -3.9440 
  164.2500    66.6260    28.5710    26.2580    25.4260    24.7720     2.3110    -3.9060 
  164.3750    64.7640    28.8540    26.3630    25.7190    24.7510     2.3350    -3.8740 
  164.5000    60.8340    29.5210    26.9300    26.5980    24.7430     2.3500    -3.8320 
  164.6250    58.2890    30.2490    27.6980    28.0300    24.7270     2.3480    -3.7690 
  164.7500    58.0720    30.6750    28.2990    28.9740    24.7120     2.3340    -3.7280 
  164.8750    58.5540    30.7350    28.4920    28.8730    24.7240     2.3130    -3.7030 
  165.0000    58.3890    30.2850    28.1590    27.7670    24.7420     2.2910    -3.6500 
  165.1250    59.2320    29.6760    27.2810    26.1000    24.7610     2.2760    -3.5910 
  165.2500    61.9500    28.9440    26.1730    25.2040    24.7870     2.2700    -3.5480 
  165.3750    65.8140    27.9450    25.1530    24.9730    24.8100     2.2740    -3.5080 
  165.5000    68.3150    27.1500    24.5670    25.1650    24.8190     2.2840    -3.4630 
  165.6250    66.3580    27.3780    24.8260    25.4900    24.8190     2.2950    -3.4570 
  165.7500    62.7680    28.4090    25.8210    26.3310    24.8190     2.3010    -3.4370 
  165.8750    60.8510    29.7730    27.2130    28.3640    24.8170     2.3000    -3.4050 
  166.0000    60.7550    30.7370    28.3770    31.6970    24.8020     2.2950    -3.3760 
  166.1250    60.2650    30.3150    28.3670    35.0400    24.7590     2.2930    -3.3210 
  166.2500    58.4030    28.4180    26.9550    34.7760    24.7100     2.3000    -3.2510 
  166.3750    56.4550    25.4210    24.3970    30.1240    24.6940     2.3170    -3.1640 
  166.5000    57.4260    22.0560    21.3560    23.0920    24.7200     2.3410    -3.0850 
  166.6250    63.3040    19.1460    18.6060    17.9530    24.7840     2.3640    -2.9940 
  166.7500    69.2860    16.9630    16.4570    16.2340    24.8140     2.3780    -2.9060 
  166.8750    72.7280    15.4720    14.9160    15.4500    24.8300     2.3820    -2.8620 
  167.0000    74.5570    14.5270    13.8850    14.3220    24.8530     2.3760    -2.8400 
  167.1250    75.2210    14.0540    13.3230    13.0190    24.8780     2.3640    -2.8130 
  167.2500    73.6090    13.9290    13.1070    12.5610    24.8880     2.3490    -2.7750 
  167.3750    72.0860    14.1670    13.2400    12.8710    24.8900     2.3350    -2.7620 
