~V
VERS. 2.00: Ver 2.00
~W
STRT.M 52.0000:
STOP.M 260.0000:
STEP.M 0.1250:
NULL. -999.2500:
UWI. F10654:
~C
DEPT.M :
SP.MV :
GR.API :
RML.OHMM :
RI. :
RXO.OHMM :
CALI.CM :
DEN.GM/CC :
~A
   52.0000  -999.2500  -999.2500  -999.2500  -999.2500  -999.2500  -999.2500     2.3400 
   52.1250  -999.2500  -999.2500  -999.2500  -999.2500  -999.2500  -999.2500     2.2930 
   52.2500  -999.2500  -999.2500  -999.2500  -999.2500  -999.2500  -999.2500     2.2570 
   52.3750  -999.2500  -999.2500  -999.2500  -999.2500  -999.2500  -999.2500     2.2430 
   52.5000  -999.2500  -999.2500  -999.2500  -999.2500  -999.2500  -999.2500     2.2580 
   52.6250  -999.2500  -999.2500  -999.2500  -999.2500  -999.2500  -999.2500     2.2920 
   52.7500  -999.2500    -1.7200    -3.4870    -6.9200   782.8000     0.0000     2.3310 
   52.8750    24.0460    -1.7200    -3.4870    -6.9200   782.8000     0.0000     2.3560 
   53.0000    24.0460    -0.8240  1064.2060     0.5090  1413.4990     0.7580     2.3510 
   53.1250    28.4160     0.0000   954.0050     0.2700   389.3950    -3.3000     2.3300 
   53.2500    34.2000     0.0000     0.0460    -0.3740   195.8250     0.0000     2.3120 
   53.3750    36.4210    41.1670     2.6490     0.2770     0.6110    25.3670     2.3120 
   53.5000    38.2520    41.2420     2.6810     0.2820     0.6400    25.3670     2.3350 
   53.6250    39.6930    42.2920     2.7620     0.2940     0.6890    25.3670     2.3650 
   53.7500    40.8590    42.9790     2.8180     0.3070     0.7600    25.3670     2.3860 
   53.8750    41.8960    42.7390     2.7900     0.3130     0.8440    25.3670     2.3850 
   54.0000    42.9500    41.5590     2.6550     0.3080     0.8770    25.3670     2.3580 
   54.1250    44.1550    39.8040     2.4790     0.2950     0.8490    25.3670     2.3160 
   54.2500    45.6510    37.7580     2.3270     0.2800     0.7680    25.3670     2.2690 
   54.3750    47.5650    36.2930     2.2500     0.2690     0.6850    25.3670     2.2290 
   54.5000    50.0920    36.5870     2.2810     0.2670     0.7630    25.3670     2.2110 
   54.6250    53.1360    38.2510     2.3940     0.2760     0.9380    25.3670     2.2140 
   54.7500    56.5410    40.2520     2.5530     0.2920     1.1280    25.3670     2.2290 
   54.8750    60.0630    41.2300     2.7100     0.3110     1.2590    25.3670     2.2440 
   55.0000    63.2890    42.0860     2.7990     0.3280     1.3440    25.3670     2.2400 
   55.1250    65.7920    43.3540     2.7980     0.3360     1.4270    25.3670     2.2120 
   55.2500    67.2440    43.4740     2.7180     0.3350     1.4830    25.3660     2.1620 
   55.3750    67.5520    41.5950     2.6000     0.3260     1.4670    25.3650     2.1000 
   55.5000    66.7890    39.4450     2.5040     0.3140     1.3050    25.3570     2.0380 
   55.6250    65.4710    38.6440     2.4630     0.3040     1.0010    25.3420     1.9880 
   55.7500    63.8800    38.3150     2.4890     0.2980     0.6850    25.3100     1.9550 
   55.8750    62.2910    37.4840     2.5740     0.2970     0.4940    25.2170     1.9370 
   56.0000    61.0870    36.8740     2.7020     0.3010     0.4450    25.1480     1.9330 
   56.1250    60.5250    36.7210     2.8430     0.3090     0.4480    25.0220     1.9370 
   56.2500    60.7660    36.3500     2.9750     0.3180     0.4720    24.8070     1.9430 
   56.3750    61.7420    35.0610     3.0790     0.3270     0.5090    24.6150     1.9500 
   56.5000    63.1590    33.8840     3.1270     0.3330     0.5600    24.4320     1.9540 
   56.6250    64.6050    35.0470     3.1040     0.3340     0.6130    24.2170     1.9560 
   56.7500    65.9460    38.5090     3.0030     0.3290     0.6670    23.9570     1.9570 
   56.8750    67.1400    43.0270     2.8370     0.3190     0.7490    23.6090     1.9610 
   57.0000    68.1470    45.7370     2.6490     0.3090     0.9310    22.7490     1.9750 
   57.1250    69.0130    46.0800     2.5020     0.3050     1.2240    22.1130     2.0020 
   57.2500    69.7630    45.3670     2.4330     0.3100     1.5860    20.9890     2.0420 
   57.3750    70.4340    44.8870     2.4560     0.3240     1.9140    19.4840     2.0940 
   57.5000    71.0510    45.9050     2.5570     0.3450     2.0380    17.9010     2.1510 
   57.6250    71.5490    47.7380     2.6610     0.3620     1.8580    16.9270     2.2050 
   57.7500    71.8260    49.2080     2.6960     0.3670     1.6680    16.4550     2.2560 
   57.8750    71.7790    48.4200     2.6000     0.3520     1.5050    16.2420     2.3050 
   58.0000    71.2210    45.9330     2.3320     0.3140     1.3160    16.1350     2.3610 
   58.1250    70.1180    45.8130     1.9590     0.2630     1.1610    16.0910     2.4240 
   58.2500    68.3910    48.0650     1.5480     0.2100     0.9500    16.0700     2.4830 
   58.3750    65.9570    49.9650     1.1550     0.1630     0.7430    16.0490     2.5170 
   58.5000    62.5610    49.1270     0.8290     0.1300     0.5820    16.0410     2.4970 
   58.6250    58.2830    49.0040     0.5790     0.1080     0.4780    16.0470     2.4300 
   58.7500    53.0550    51.4850     0.4090     0.0940     0.4370    16.0760     2.3390 
   58.8750    46.8360    53.5340     0.3190     0.0880     0.4620    16.1420     2.2470 
   59.0000    39.5460    50.8730     0.3330     0.1090     0.6840    16.2730     2.1760 
   59.1250    31.5970    46.3580     0.4900     0.2080     1.0670    16.5030     2.1330 
   59.2500    23.3190    44.3030     0.8850     0.4850     1.6390    16.9330     2.1210 
   59.3750    15.0450    45.2780     1.6180     1.0620     2.3370    17.6080     2.1440 
   59.5000     7.1920    45.6530     2.7750     2.0950     2.8600    18.4450     2.2060 
   59.6250     0.0510    45.1900     4.1410     3.4610     3.4480    19.2120     2.2950 
   59.7500    -6.0760    45.1150     5.4040     4.9290     3.9760    19.7430     2.3900 
   59.8750   -10.9690    44.9900     6.2010     6.1570     4.4400    20.0190     2.4590 
   60.0000   -14.3250    44.1280     6.2490     6.7460     4.8270    20.1100     2.4610 
   60.1250   -16.4780    43.8130     5.8640     6.7620     4.9210    20.1450     2.4020 
   60.2500   -17.6950    44.8380     5.3430     6.4100     4.6090    20.1500     2.3120 
   60.3750   -18.2170    46.5650     4.8920     5.9480     3.9300    20.1390     2.2260 
   60.5000   -18.1620    49.1480     4.6590     5.6270     3.3120    20.1150     2.1720 
   60.6250   -17.8260    54.5370     4.6480     5.5460     3.1410    20.0720     2.1490 
   60.7500   -17.3820    61.6460     4.8360     5.7030     3.3110    20.0270     2.1460 
   60.8750   -16.9290    66.7140     5.1550     6.0270     3.6720    20.0550     2.1520 
   61.0000   -16.5070    65.4540     5.5120     6.4070     3.9540    20.2320     2.1540 
   61.1250   -16.1420    61.7230     5.8010     6.7180     3.9650    20.3310     2.1550 
   61.2500   -15.8030    60.7400     5.9530     6.8820     3.8230    20.3280     2.1630 
   61.3750   -15.4550    63.4430     5.9290     6.8480     3.6410    20.2150     2.1840 
   61.5000   -15.0880    67.1370     5.6980     6.5750     3.4800    19.9390     2.2230 
   61.6250   -14.6800    72.8940     5.3370     6.1380     3.4940    19.5470     2.2670 
   61.7500   -14.2260    83.2340     4.9170     5.6190     3.6190    19.0200     2.3060 
   61.8750   -13.7630    96.1690     4.5180     5.1080     3.7260    18.5540     2.3320 
   62.0000   -13.3170   105.1380     4.2160     4.7060     3.6390    18.4050     2.3430 
   62.1250   -12.8950   108.3190     4.0170     4.4330     3.4260    18.3020     2.3460 
   62.2500   -12.5470   107.4580     3.9090     4.2780     3.3510    18.0010     2.3500 
   62.3750   -12.3250   106.2060     3.8700     4.2140     3.5510    17.5790     2.3550 
   62.5000   -12.2060   107.7780     3.8720     4.2090     3.7410    17.1330     2.3610 
   62.6250   -12.1550   109.7480     3.8810     4.2170     3.8880    16.9670     2.3670 
   62.7500   -12.1400   110.3310     3.8800     4.2180     3.7330    16.9920     2.3710 
   62.8750   -12.1260   110.4500     3.8610     4.2000     3.2680    17.1180     2.3720 
   63.0000   -12.1250   110.4380     3.8310     4.1700     2.9620    17.3310     2.3700 
   63.1250   -12.1510   107.3300     3.8160     4.1530     2.7820    17.6300     2.3690 
