~V
VERS. 2.00: Ver 2.00
~W
STRT.M 49.0000:
STOP.M 254.0000:
STEP.M 0.1250:
NULL. -999.2500:
UWI. F10669:
~C
DEPT.M :
DEN.GM/CC :
GR.API :
RML.OHMM :
RI. :
RXO.OHMM :
CALI.CM :
SP.MV :
~A
   49.0000  -999.2500    43.4020     0.5760     0.0950     0.9480    23.9260  -999.2500 
   49.1250  -999.2500    42.9120     0.5630     0.0960     0.9820    23.9020  -999.2500 
   49.2500  -999.2500    44.1320     0.5300     0.0990     1.0000    23.8840  -999.2500 
   49.3750  -999.2500    45.9070     0.4870     0.1010     1.0190    23.9150  -999.2500 
   49.5000  -999.2500    46.3000     0.4530     0.1000     1.0400    23.9390  -999.2500 
   49.6250  -999.2500    44.6300     0.4390     0.0970     1.0400    23.9300  -999.2500 
   49.7500  -999.2500    41.6770     0.4470     0.0940     1.0390    23.8990  -999.2500 
   49.8750  -999.2500    39.9610     0.4740     0.0950     1.0180    23.8540  -999.2500 
   50.0000  -999.2500    40.9420     0.5040     0.1000     0.9870    23.8310  -999.2500 
   50.1250  -999.2500    42.9260     0.5240     0.1050     0.9840    23.8160  -999.2500 
   50.2500  -999.2500    43.1480     0.5280     0.1080     1.0170    23.7800  -999.2500 
   50.3750  -999.2500    41.8790     0.5170     0.1060     1.0440    23.7880  -999.2500 
   50.5000  -999.2500    42.2150     0.5020     0.1020     0.9980    23.9370  -999.2500 
   50.6250  -999.2500    44.5680     0.4950     0.0970     0.9000    24.2680  -999.2500 
   50.7500  -999.2500    47.0750     0.4960     0.0920     0.9080    24.6660  -999.2500 
   50.8750  -999.2500    47.6370     0.4980     0.0880     1.1920    24.9540  -999.2500 
   51.0000  -999.2500    46.6470     0.4960     0.0850     1.6520    25.1410  -999.2500 
   51.1250  -999.2500    45.7700     0.4920     0.0830     1.3600    25.2650  -999.2500 
   51.2500  -999.2500    45.8650     0.4910     0.0840     0.5790    25.3360  -999.2500 
   51.3750  -999.2500    46.4800     0.4980     0.0890     0.4810    25.3450  -999.2500 
   51.5000  -999.2500    46.7380     0.5100     0.0950     0.4460    25.3550  -999.2500 
   51.6250  -999.2500    46.9570     0.5210     0.1010     0.4320    25.3700  -999.2500 
   51.7500  -999.2500    46.9420     0.5250     0.1040     0.3960    25.3760  -999.2500 
   51.8750  -999.2500    46.8470     0.5160     0.1060     0.3680    25.3690  -999.2500 
   52.0000  -999.2500    46.9220     0.4980     0.1080     0.2980    25.3630  -999.2500 
   52.1250  -999.2500    45.8070     0.4780     0.1130     0.2310    25.3630  -999.2500 
   52.2500  -999.2500    42.2190     0.4620     0.1190     0.1930    25.3720  -999.2500 
   52.3750  -999.2500    38.9920     0.4590     0.1220     0.1800    25.3780  -999.2500 
   52.5000  -999.2500    37.8770     0.4650     0.1210     0.1910    25.3790     0.0000 
   52.6250  -999.2500    37.9420     0.4720     0.1130     0.2220    25.3790     0.0000 
   52.7500  -999.2500    37.4570     0.4710     0.1030     0.1890    25.3720     0.0000 
   52.8750  -999.2500    37.4260     0.4590     0.0970     0.1290    25.3510     0.0000 
   53.0000  -999.2500    38.8110     0.4450     0.0970     0.0680    25.3220     0.0000 
   53.1250  -999.2500    39.9240     0.4370     0.1030     0.0600    25.2920     0.0000 
   53.2500  -999.2500    41.1070     0.4410     0.1120     0.0690    25.2500   119.5920 
   53.3750  -999.2500    43.4810     0.4510     0.1180     0.0740    25.1800   119.0840 
   53.5000     1.9880    44.1150     0.4600     0.1180     0.0840    25.1320   118.0020 
   53.6250     1.9880    42.0170     0.4630     0.1160     0.1100    25.0210   116.5080 
   53.7500     1.9840    39.8550     0.4610     0.1130     0.1210    24.7550   114.8070 
   53.8750     1.9880    41.6450     0.4530     0.1140     0.1710    24.4310   113.1330 
   54.0000     1.9960    43.9420     0.4390     0.1190     0.2270    24.2350   111.7950 
   54.1250     2.0080    44.6570     0.4200     0.1260     0.2980    24.1180   111.0150 
   54.2500     2.0170    43.9710     0.3990     0.1340     0.3640    24.0370   110.9070 
   54.3750     2.0220    41.5270     0.3790     0.1390     0.3820    24.0130   111.5260 
   54.5000     2.0310    38.9190     0.3680     0.1440     0.3850    24.0390   112.5330 
   54.6250     2.0500    37.9000     0.3640     0.1480     0.3900    24.0940   113.6870 
   54.7500     2.0770    38.2800     0.3650     0.1520     0.3980    24.1520   114.8250 
   54.8750     2.0950    38.7950     0.3710     0.1560     0.3970    24.1930   115.7960 
   55.0000     2.0870    39.1910     0.3830     0.1600     0.4010    24.2160   116.5280 
   55.1250     2.0530    38.7380     0.4000     0.1620     0.3810    24.2330   116.9540 
   55.2500     2.0070    37.0810     0.4220     0.1600     0.3420    24.2510   116.9980 
   55.3750     1.9770    35.4620     0.4430     0.1540     0.2970    24.2900   116.4790 
   55.5000     1.9700    35.5310     0.4590     0.1460     0.3210    24.3330   115.3990 
   55.6250     1.9840    36.9370     0.4690     0.1380     0.3560    24.3860   113.7100 
   55.7500     2.0080    38.5470     0.4680     0.1340     0.3750    24.4980   111.3160 
   55.8750     2.0330    40.1320     0.4290     0.1270     0.4110    24.7620   107.8790 
   56.0000     2.0710    41.2740     0.3330     0.1090     0.4390    25.0230   103.3780 
   56.1250     2.1580    40.6500     0.2030     0.0810     0.4750    25.1290    97.6960 
   56.2500     2.3230    37.8650     0.0930     0.0500     0.5770    25.1350    90.7530 
   56.3750     2.4970    34.6730     0.0360     0.0280     0.8950    25.0960    82.2900 
   56.5000     2.5840    34.2450     0.0180     0.0200     1.2410    24.9900    72.6380 
   56.6250     2.5780    37.2760     0.0330     0.0320     1.5060    24.7760    62.0240 
   56.7500     2.5160    42.6730     0.0960     0.0890     2.0530    24.4330    50.8670 
   56.8750     2.4320    46.8580     0.2870     0.2700     3.6010    24.1070    39.8500 
   57.0000     2.3540    48.7170     0.7190     0.6610     5.5870    23.9340    29.4770 
   57.1250     2.2900    49.3170     1.5270     1.3490     6.8700    23.8680    20.0520 
   57.2500     2.2400    50.9330     2.6250     2.3060     7.2380    23.8480    11.8350 
   57.3750     2.2020    55.0230     3.4430     3.2680     7.2970    23.8260     5.2640 
   57.5000     2.1760    60.5140     3.7910     3.9890     7.2830    23.7580     0.1370 
   57.6250     2.1590    64.5020     3.9220     4.4750     7.2120    23.7320    -3.6300 
   57.7500     2.1410    63.8100     4.0510     4.8300     7.1530    23.7890    -6.2930 
   57.8750     2.1180    59.2750     4.2340     5.1230     7.0190    23.8770    -8.1360 
   58.0000     2.0970    56.9160     4.4290     5.3850     7.0280    23.9580    -9.5310 
   58.1250     2.0860    57.8670     4.6020     5.6210     7.1620    23.9820   -10.5590 
   58.2500     2.0870    59.6080     4.7400     5.8310     7.2970    23.9300   -11.2850 
   58.3750     2.0950    60.6370     4.8630     6.0190     7.2440    23.8610   -11.7020 
   58.5000     2.1010    62.0400     5.0030     6.1920     7.2470    23.8290   -11.8740 
   58.6250     2.1040    63.2190     5.1520     6.3330     7.2720    23.8270   -11.8130 
   58.7500     2.1120    63.4630     5.2630     6.3990     7.2460    23.8530   -11.5360 
   58.8750     2.1400    63.9750     5.2250     6.3020     7.2280    23.8350   -11.0440 
   59.0000     2.1840    67.6890     5.0060     6.0360     7.0560    23.8030   -10.4800 
   59.1250     2.2320    76.6170     4.6420     5.6300     6.5610    23.7740    -9.9240 
   59.2500     2.2690    89.8560     4.2280     5.1560     6.0030    23.7770    -9.4050 
   59.3750     2.2890    99.3840     3.8770     4.7080     5.1130    23.8080    -9.0060 
   59.5000     2.3010   100.0270     3.6370     4.3480     4.6550    23.8300    -8.7250 
   59.6250     2.3120    96.0960     3.5210     4.1080     4.3940    23.8400    -8.5680 
   59.7500     2.3200    94.9460     3.5290     4.0040     4.4390    23.8290    -8.5510 
   59.8750     2.3190    95.1800     3.6620     4.0580     4.5470    23.8160    -8.7280 
   60.0000     2.3110    91.5530     3.8770     4.2230     4.6590    23.7990    -9.0270 
   60.1250     2.3020    86.0310     4.1330     4.4580     5.0440    23.7810    -9.3950 
