~V
VERS. 2.00: Ver 2.00
~W
STRT.M 55.0000:
STOP.M 213.0000:
STEP.M 0.1250:
NULL. -999.2500:
UWI. F10686:
~C
DEPT.M :
SP.MV :
DEN.GM/CC :
GR.API :
RML.OHMM :
RI. :
RXO.OHMM :
CALI.CM :
~A
# ...
  145.0000   -21.6290     2.4400    43.0880    13.5480    12.9790    12.4240    24.0380 
  145.1250   -21.6470     2.4370    45.2410    13.7820    12.9670    12.4540    24.0050 
  145.2500   -21.7200     2.4340    46.1860    14.1900    13.1480    12.8610    23.9230 
  145.3750   -21.8240     2.4310    44.3010    14.6860    13.4430    13.5200    23.8430 
  145.5000   -21.9450     2.4250    41.5380    15.2570    13.8260    14.6150    23.8160 
  145.6250   -22.0550     2.4200    44.7060    15.9930    14.3570    15.0140    23.8010 
  145.7500   -22.1540     2.4190    51.7620    16.9670    15.0860    15.0050    23.7570 
  145.8750   -22.2580     2.4250    57.1270    18.2150    16.0500    15.6250    23.6950 
  146.0000   -22.3880     2.4360    58.6350    19.7020    17.2370    18.0430    23.5580 
  146.1250   -22.5560     2.4470    58.0710    21.3280    18.5850    21.4380    23.3850 
  146.2500   -22.7140     2.4490    58.4280    22.9640    19.9660    24.5610    23.6760 
  146.3750   -22.8450     2.4400    60.0240    24.6110    21.3490    25.6620    24.0330 
  146.5000   -22.9480     2.4240    62.1880    26.3440    22.7810    26.1890    24.1860 
  146.6250   -23.0470     2.4060    63.7310    28.1660    24.3020    28.0700    24.2040 
  146.7500   -23.1360     2.3940    63.3660    29.8020    25.7480    31.3940    24.2070 
  146.8750   -23.1980     2.3930    62.2520    30.7940    26.7820    31.9070    24.2070 
  147.0000   -23.2030     2.4040    62.9930    30.6660    26.9760    31.0650    24.2070 
  147.1250   -23.0980     2.4260    63.4650    29.0960    25.9230    29.5790    24.2070 
  147.2500   -22.9330     2.4490    60.6130    26.8250    24.1310    25.0140    24.2070 
  147.3750   -22.7310     2.4660    55.7890    24.6060    22.1970    19.1120    24.2060 
  147.5000   -22.4990     2.4720    54.4860    23.0450    20.6510    15.8350    24.2000 
  147.6250   -22.2760     2.4640    59.8820    22.6320    19.9490    14.7820    24.1590 
  147.7500   -22.0860     2.4500    65.8190    23.2080    20.0700    14.7550    24.1090 
  147.8750   -21.9240     2.4340    68.4510    24.5630    20.9280    16.1580    24.0300 
  148.0000   -21.8010     2.4180    68.1890    26.3590    22.3100    18.7520    23.9650 
  148.1250   -21.7240     2.4000    65.4510    28.1750    23.9110    19.9670    23.9010 
  148.2500   -21.6900     2.3840    63.3520    29.6870    25.3750    20.1930    23.8920 
  148.3750   -21.6930     2.3710    62.1540    30.7850    26.5310    20.1660    23.8900 
  148.5000   -21.7320     2.3630    62.4270    31.4660    27.3160    21.4970    23.8910 
  148.6250   -21.7410     2.3630    63.7640    31.6480    27.6360    24.7900    23.9130 
  148.7500   -21.6890     2.3660    65.1050    31.3300    27.4970    27.6950    24.0140 
  148.8750   -21.6360     2.3660    65.7640    30.4880    26.8870    27.9850    24.1040 
  149.0000   -21.5780     2.3620    65.0090    29.2370    25.8970    27.0710    24.1550 
  149.1250   -21.5450     2.3530    62.4320    27.8640    24.7440    24.8400    24.1910 
  149.2500   -21.5400     2.3440    59.9380    26.7310    23.7480    22.3050    24.1520 
  149.3750   -21.5400     2.3420    59.8930    26.0190    23.1060    20.7420    24.0520 
  149.5000   -21.5330     2.3490    62.0760    25.7410    22.8900    20.3780    23.9480 
  149.6250   -21.5600     2.3620    63.4510    25.8020    23.0940    21.5940    23.7840 
  149.7500   -21.6510     2.3730    63.5290    25.9970    23.5100    22.9670    23.7350 
  149.8750   -21.7700     2.3750    64.3280    26.3060    24.0470    23.9480    23.7270 
  150.0000   -21.9220     2.3650    66.3120    26.8130    24.7180    25.9450    23.7430 
  150.1250   -22.1000     2.3460    67.5520    27.4540    25.5240    27.3650    23.8330 
  150.2500   -22.2480     2.3300    66.8020    27.6360    26.0480    27.4880    24.0000 
  150.3750   -22.3730     2.3240    64.4160    26.4920    25.4910    27.4120    24.0170 
  150.5000   -22.5000     2.3300    62.7270    23.3910    23.1030    29.0100    23.9530 
  150.6250   -22.6260     2.3410    64.3660    18.7300    18.8580    30.9910    23.7730 
  150.7500   -22.7130     2.3470    68.1300    14.2960    14.3210    24.2550    23.3520 
  150.8750   -22.6990     2.3420    70.1970    10.2020    10.5250    13.7530    22.8770 
  151.0000   -22.5780     2.3270    67.4570     7.5400     7.8540     7.8420    22.7630 
  151.1250   -22.3800     2.3110    59.7800     6.2300     6.3440     6.2220    22.9380 
  151.2500   -22.2050     2.3050    52.5420     5.6610     5.5490     5.9880    23.1960 
  151.3750   -22.0380     2.3130    48.5070     5.5270     5.2460     5.9150    23.2390 
  151.5000   -21.8370     2.3330    45.9270     5.6050     5.2430     5.8040    23.2460 
  151.6250   -21.6260     2.3540    43.2760     5.7560     5.3980     5.6750    23.2810 
  151.7500   -21.4520     2.3670    41.2440     5.9260     5.6040     5.4510    23.4540 
  151.8750   -21.3460     2.3670    39.5550     6.1120     5.8360     5.2040    23.6580 
  152.0000   -21.2800     2.3550    38.3500     6.2960     6.0680     5.0450    23.7100 
  152.1250   -21.2000     2.3390    38.3850     6.4100     6.2320     5.0500    23.6880 
  152.2500   -21.0630     2.3270    39.6660     6.4320     6.2870     5.0750    23.5490 
  152.3750   -20.9200     2.3180    39.3280     6.3860     6.2340     5.0710    23.3270 
  152.5000   -20.8080     2.3090    38.0550     6.3270     6.1120     5.0250    23.2540 
  152.6250   -20.6770     2.2950    39.9620     6.3400     5.9870     5.0130    23.2450 
  152.7500   -20.4810     2.2780    45.2130     6.4490     5.9100     5.0600    23.2450 
  152.8750   -20.2350     2.2660    52.7870     6.6410     5.8960     5.1780    23.2460 
  153.0000   -20.0070     2.2650    59.9220     6.8760     5.9340     5.1770    23.2540 
  153.1250   -19.8570     2.2790    62.5540     7.1190     6.0090     5.1730    23.2970 
  153.2500   -19.8140     2.2970    62.3070     7.3720     6.1080     5.1830    23.3270 
  153.3750   -19.8390     2.3090    62.0810     7.6700     6.2460     5.2010    23.3420 
  153.5000   -19.8950     2.3110    63.8790     8.0460     6.4460     4.9640    23.3930 
  153.6250   -20.0140     2.3090    67.6040     8.5170     6.7340     4.5700    23.6140 
  153.7500   -20.2210     2.3100    69.7900     9.0400     7.0880     4.4230    23.8330 
  153.8750   -20.5330     2.3150    68.1450     9.5890     7.4850     4.7100    23.9220 
  154.0000   -20.8820     2.3210    64.7050    10.1790     7.9240     5.4340    23.9070 
  154.1250   -21.1930     2.3240    64.2620    10.8710     8.4430     5.8770    23.8310 
  154.2500   -21.4550     2.3220    64.2950    11.6600     9.0520     5.7230    23.6540 
  154.3750   -21.7130     2.3170    62.5020    12.4480     9.7130     5.5140    23.4500 
  154.5000   -21.9980     2.3130    62.1270    13.0370    10.3070     6.3490    23.3480 
  154.6250   -22.2500     2.3130    65.0080    13.1250    10.6100     7.7730    23.3460 
  154.7500   -22.4640     2.3170    66.3330    12.7550    10.5840     8.7760    23.4210 
  154.8750   -22.6220     2.3210    64.0920    12.1500    10.3360     9.5600    23.5790 
  155.0000   -22.7460     2.3230    60.7310    11.6770    10.1010    10.8390    23.8360 
  155.1250   -22.8890     2.3230    60.7320    11.7810    10.2180    11.7860    23.9980 
  155.2500   -23.0020     2.3310    62.4060    12.5030    10.8210    12.2740    24.0210 
  155.3750   -23.0230     2.3520    62.4890    13.7150    11.9140    13.7410    23.9870 
  155.5000   -22.9520     2.3830    61.5000    15.1080    13.3320    15.6480    23.9480 
  155.6250   -22.8690     2.4070    62.9270    16.1130    14.6230    17.6420    23.8290 
  155.7500   -22.7900     2.4090    64.5650    16.3040    15.2640    20.0080    23.6570 
  155.8750   -22.7100     2.3870    65.1820    15.5820    15.0040    18.0220    23.7820 
  156.0000   -22.6270     2.3540    66.7140    14.2460    14.0090    14.2570    24.0510 
  156.1250   -22.4850     2.3240    69.2360    12.7730    12.6770    13.3720    24.0980 
