~V
VERS. 2.00: Ver 2.00
~W
STRT.M 57.0000:
STOP.M 204.0000:
STEP.M 0.1250:
NULL. -999.2500:
UWI. F10604:
~C
DEPT.M :
SP.MV :
GR.API :
RML.OHMM :
RI. :
RXO.OHMM :
CALI.CM :
DEN.GM/CC :
~A
# ...
  192.0000    -5.0680    52.1570     6.9670     6.0770     7.0290    24.4540     2.4730 
  192.1250    -5.1570    53.1400     7.3870     6.4560     7.5640    24.5280     2.4900 
  192.2500    -5.3520    54.9200     7.6740     6.7210     7.9470    24.6190     2.4920 
  192.3750    -5.6610    55.7700     7.8050     6.8450     8.2500    24.6610     2.4810 
  192.5000    -6.0070    55.1010     7.7920     6.8350     8.5260    24.6850     2.4620 
  192.6250    -6.3150    53.1220     7.6820     6.7230     8.6830    24.6850     2.4430 
  192.7500    -6.6050    52.1480     7.5670     6.5940     8.6210    24.6690     2.4310 
  192.8750    -6.9030    52.1480     7.5140     6.5060     8.3960    24.6480     2.4270 
  193.0000    -7.2310    52.1480     7.5640     6.5030     8.2150    24.6450     2.4300 
  193.1250    -7.5540    52.1480     7.7350     6.6220     8.3520    24.6630     2.4310 
  193.2500    -7.7990    52.1480     7.9650     6.8210     8.7670    24.6870     2.4230 
  193.3750    -7.9270    52.1480     8.1930     7.0490     9.2330    24.6970     2.4080 
  193.5000    -7.9670    52.1480     8.3560     7.2440     9.4630    24.6930     2.3910 
  193.6250    -7.9630    52.1480     8.4000     7.3380     9.2690    24.6740     2.3800 
  193.7500    -7.9270    52.1480     8.3450     7.3340     8.8920    24.6470     2.3810 
  193.8750    -7.8250    52.1480     8.2200     7.2530     8.5730    24.6400     2.3920 
  194.0000    -7.6370    52.1480     8.0650     7.1280     8.3980    24.6710     2.4080 
  194.1250    -7.4220    52.1480     7.9110     6.9880     8.2860    24.6800     2.4230 
  194.2500    -7.2720    52.1480     7.7650     6.8480     8.1440    24.6720     2.4330 
  194.3750    -7.1770    52.1480     7.6090     6.7030     8.0060    24.6680     2.4370 
  194.5000    -7.1380    52.1480     7.4190     6.5400     7.9260    24.6840     2.4310 
  194.6250    -7.2140    52.1480     7.1790     6.3430     7.8600    24.6960     2.4110 
  194.7500    -7.4080    52.1480     6.9260     6.1360     7.6640    24.7000     2.3800 
  194.8750    -7.8110    52.1480     6.7230     5.9680     7.2770    24.7020     2.3400 
  195.0000    -8.5010    52.1480     6.6480     5.8990     6.8780    24.7000     2.3010 
  195.1250    -9.4950    52.1480     6.8210     6.0280     7.0040    24.6950     2.2740 
  195.2500   -10.6460    52.1480     7.2510     6.3730     7.7790    24.6840     2.2630 
  195.3750   -11.8750    52.1480     7.9090     6.9390     8.8770    24.6640     2.2670 
  195.5000   -13.0520    52.1480     8.6790     7.6670     9.8380    24.6480     2.2770 
  195.6250   -13.9310    52.1480     9.3190     8.3710    10.5610    24.6140     2.2840 
  195.7500   -14.4380    52.1480     9.6070     8.7930    11.2320    24.6010     2.2860 
  195.8750   -14.4760    52.1480     9.4360     8.7670    11.5170    24.5680     2.2890 
  196.0000   -14.0500    52.1480     8.8470     8.2980    10.8400    24.5650     2.3000 
  196.1250   -13.1860    52.1480     8.0120     7.5480     9.1320    24.5900     2.3210 
  196.2500   -12.0410    52.1480     7.2060     6.7950     7.4520    24.5640     2.3430 
  196.3750   -10.7430    52.1480     6.5700     6.1740     6.4170    24.5230     2.3620 
  196.5000    -9.4340    52.1480     6.1590     5.7420     5.9540    24.4950     2.3750 
  196.6250    -8.2650    52.1480     5.9860     5.5270     5.7170    24.4490     2.3920 
  196.7500    -7.3240    52.1480     5.9600     5.4630     5.5650    24.3730     2.4160 
  196.8750    -6.7050    52.1480     6.0330     5.5080     5.5730    24.3000     2.4420 
  197.0000    -6.3730    52.1480     6.1730     5.6260     5.7580    24.2690     2.4610 
  197.1250    -6.1940    52.1480     6.3660     5.7980     6.0800    24.2900     2.4670 
  197.2500    -6.1380    52.1480     6.5820     5.9930     6.4820    24.3620     2.4640 
  197.3750    -6.2210    52.1480     6.7950     6.1860     6.9000    24.4440     2.4620 
  197.5000    -6.3790    52.1480     6.9700     6.3490     7.2070    24.4900     2.4620 
  197.6250    -6.5900    52.1480     7.0540     6.4350     7.3170    24.5020     2.4620 
  197.7500    -6.8110    52.1480     7.0300     6.4240     7.3580    24.5050     2.4550 
  197.8750    -7.0270    52.1480     6.8960     6.3080     7.3560    24.5090     2.4440 
  198.0000    -7.2080    52.1480     6.6840     6.1160     7.2030    24.5120     2.4380 
  198.1250    -7.3300    52.1480     6.4530     5.9050     6.9200    24.4910     2.4470 
  198.2500    -7.3990    52.1480     6.2660     5.7370     7.0270    24.5180     2.4660 
  198.3750    -7.4250    52.1480     6.1460     5.6310     8.1360    24.5730     2.4830 
  198.5000    -7.4630    52.1480     6.0880     5.5820    10.2850    24.5960     2.4850 
  198.6250    -7.5120    52.1480     6.0740     5.5710    12.3610    24.5720     2.4710 
  198.7500    -7.5990    52.1480     6.0720     5.5710    13.2210    24.5590     2.4540 
  198.8750    -7.7030    52.1480     6.0720     5.5710    12.8720    24.5520     2.4460 
  199.0000    -7.8170    52.1480     6.0720     5.5710    11.9900    24.5480     2.4510 
  199.1250    -7.9890    52.1480     6.0720     5.5710    11.1240    24.5270     2.4640 
  199.2500    -8.2280    52.1480     6.0720     5.5710    10.6060    24.5300     2.4750 
  199.3750    -8.4630    52.1480     6.0720     5.5710    10.7770    24.5380     2.4770 
  199.5000    -8.6280    52.1480     6.0720     5.5710    11.6200    24.5290     2.4690 
  199.6250    -8.7380    52.1480     6.0720     5.5710    12.4090    24.5420     2.4490 
  199.7500    -8.7940    52.1480     6.0720     5.5710    12.3650    24.5570     2.4240 
  199.8750    -8.7230    52.1480     6.0720     5.5710    11.3430    24.5380     2.3990 
  200.0000    -8.5530    52.1480     6.0720     5.5710     9.7260    24.5420     2.3800 
  200.1250    -8.3670    52.1480     6.0720     5.5710     8.2440    24.5620     2.3750 
  200.2500    -8.1150    52.1480     6.0720     5.5710     7.3700    24.5240     2.3820 
  200.3750    -7.8590    52.1480     6.0720     5.5710     7.0700    24.4820     2.3980 
  200.5000    -7.6480    52.1480     6.0720     5.5710     7.0150    24.4290     2.4180 
  200.6250    -7.4890    52.1480     6.0720     5.5710     6.9100    24.3820     2.4340 
  200.7500    -7.4160    52.1480     6.0720     5.5710     6.7800    24.3260     2.4440 
  200.8750    -7.4400    52.1480     6.0720     5.5710     6.7220    24.2220     2.4500 
  201.0000    -7.5270    52.1480     6.0720     5.5710     6.7080    24.1090     2.4550 
  201.1250    -7.6250    52.1480     6.0720     5.5710     6.6460    24.0670     2.4590 
  201.2500    -7.7640    52.1480     6.0720     5.5710     6.5650    23.9870     2.4600 
  201.3750    -7.9120    52.1480     6.0720     5.5710     6.5430    23.7550     2.4560 
  201.5000    -8.0370    52.1480     6.0720     5.5710     6.6330    23.4750     2.4490 
  201.6250    -8.1440    52.1480     6.0720     5.5710     6.8440    23.2640     2.4410 
  201.7500    -8.2340    52.1480     6.0720     5.5710     7.0740    23.0090     2.4350 
  201.8750    -8.3020    52.1480     6.0720     5.5710     7.2250    22.6500     2.4320 
  202.0000    -8.3850    52.1480     6.0720     5.5710     7.2540    22.1110     2.4290 
  202.1250    -8.4200    52.1480     6.0720     5.5710     7.2000    21.3130     2.4240 
  202.2500    -8.4200    52.1480     6.0720     5.5710     7.1700    20.1850     2.4150 
  202.3750  -999.2500    52.1480     6.0720     5.5710     7.1890    18.8980     2.4030 
  202.5000  -999.2500    52.1480     6.0720     5.5710     7.1830    17.8670     2.3890 
  202.6250  -999.2500    52.1480     6.0720     5.5710     7.0670    17.2160     2.3750 
  202.7500  -999.2500    52.1480     6.0720     5.5710     6.9030    16.6200     2.3610 
  202.8750  -999.2500    52.1480     6.0720     5.5710     6.7940    15.9120     2.3480 
  203.0000  -999.2500    52.1480     6.0720     5.5710     6.7960    15.0410     2.3360 
  203.1250  -999.2500    52.1480     6.0720     5.5710     6.9070    14.3070     2.3240 
