~V
VERS. 2.00: Ver 2.00
~W
STRT.M 50.0000:
STOP.M 221.0000:
STEP.M 0.1250:
NULL. -999.2500:
UWI. F10611:
~C
DEPT.M :
SP.MV :
GR.API :
RML.OHMM :
RI. :
RXO.OHMM :
CALI.CM :
DEN.GM/CC :
~A
# ...
  151.2500   -23.2970    38.6890     6.0460     4.8430     5.1030    24.7900     2.3540 
  151.3750   -23.5440    38.1670     6.0110     4.8060     5.0010    24.7160     2.3600 
  151.5000   -23.7730    38.5050     5.9820     4.8030     4.9350    24.7190     2.3640 
  151.6250   -24.0190    38.9330     6.0020     4.8440     4.9910    24.8130     2.3690 
  151.7500   -24.2550    41.6380     6.0840     4.9240     5.1390    24.7600     2.3750 
  151.8750   -24.4870    47.1320     6.2290     5.0370     5.2890    24.3090     2.3850 
  152.0000   -24.7190    51.7700     6.4210     5.1690     5.3790    23.6850     2.3980 
  152.1250   -24.9280    54.7810     6.6200     5.2990     5.4480    23.4500     2.4060 
  152.2500   -25.1280    58.9630     6.7780     5.4030     5.4420    23.8040     2.4040 
  152.3750   -25.2820    63.5470     6.8670     5.4590     5.4800    24.5030     2.3890 
  152.5000   -25.4330    64.3200     6.8730     5.4560     5.5950    25.1160     2.3700 
  152.6250   -25.5230    60.6350     6.7870     5.3820     5.5890    25.2140     2.3570 
  152.7500   -25.6130    59.1280     6.6450     5.2580     5.3470    25.0770     2.3620 
  152.8750   -25.6900    62.6930     6.4710     5.1020     5.1970    24.8720     2.3820 
  153.0000   -25.7750    68.2100     6.2900     4.9420     5.2050    24.6350     2.4060 
  153.1250   -25.8620    71.1760     6.1460     4.8110     4.9790    24.4350     2.4120 
  153.2500   -25.9580    71.7190     6.0730     4.7310     4.8770    24.5200     2.3960 
  153.3750   -26.1000    72.0540     6.1040     4.7270     4.8690    24.7200     2.3670 
  153.5000   -26.2510    71.5130     6.2630     4.8220     5.0860    24.8010     2.3360 
  153.6250   -26.4460    68.8590     6.5820     5.0400     5.4420    24.9580     2.3200 
  153.7500   -26.5470    67.4860     7.0110     5.3530     5.9560    25.0130     2.3190 
  153.8750   -26.7850    69.4080     7.5000     5.7280     6.2980    24.8110     2.3280 
  154.0000   -27.0510    71.2070     7.9970     6.1120     6.4680    24.3070     2.3430 
  154.1250   -27.3020    69.4570     8.4240     6.4330     6.8300    23.8610     2.3630 
  154.2500   -27.5300    66.9370     8.7580     6.6760     7.3090    23.8540     2.3860 
  154.3750   -27.7340    66.2330     9.0190     6.8610     7.9990    24.3750     2.4070 
  154.5000   -27.8750    68.2040     9.2630     7.0340     8.7880    24.9830     2.4240 
  154.6250   -27.9980    70.6850     9.6070     7.2870     9.2600    25.2250     2.4320 
  154.7500   -28.0460    70.5770    10.1530     7.6890    10.4360    25.2790     2.4280 
  154.8750   -28.0650    67.8950    10.9510     8.2790    11.9680    25.2820     2.4080 
  155.0000   -28.0270    64.9120    11.9640     9.0470    12.5340    25.2860     2.3790 
  155.1250   -27.9250    63.8540    13.0260     9.8990    13.4620    25.2960     2.3550 
  155.2500   -27.7860    62.2410    13.8450    10.6140    14.5630    25.3020     2.3490 
  155.3750   -27.6110    60.7420    14.1610    10.9860    15.0960    25.3100     2.3560 
  155.5000   -27.4170    62.3610    13.8470    10.8950    14.3960    25.2970     2.3640 
  155.6250   -27.1500    67.3870    12.9760    10.3520    13.4020    25.2850     2.3590 
  155.7500   -26.8710    71.4770    11.9830     9.6500    11.4710    25.2580     2.3450 
  155.8750   -26.5320    73.2870    11.1700     9.0050    10.1790    25.2010     2.3310 
  156.0000   -26.1840    74.3350    10.7260     8.5640     9.7690    25.1330     2.3240 
  156.1250   -25.8360    74.2560    10.7390     8.4230    10.4490    25.0790     2.3260 
  156.2500   -25.4850    72.9460    11.0340     8.5250    11.2750    25.0400     2.3310 
  156.3750   -25.1710    72.5210    11.4950     8.8240    11.0800    24.9880     2.3340 
  156.5000   -24.8960    73.0380    12.0710     9.2830    10.7400    24.8880     2.3280 
  156.6250   -24.7020    70.6990    12.8180     9.9110    11.2820    24.7770     2.3090 
  156.7500   -24.5880    66.4450    13.7330    10.6810    12.5450    24.8450     2.2850 
  156.8750   -24.5560    63.7630    14.7080    11.5320    14.3030    25.0430     2.2650 
  157.0000   -24.6030    62.7480    15.5080    12.3090    15.6850    25.1750     2.2570 
  157.1250   -24.7600    61.4870    15.7890    12.7510    16.1360    25.1970     2.2680 
  157.2500   -24.9850    61.7320    15.5820    12.8030    15.8220    25.1920     2.2880 
  157.3750   -25.2460    63.4060    15.0960    12.5450    14.5620    25.1870     2.3070 
  157.5000   -25.5250    63.2620    14.6160    12.1610    13.4560    25.1750     2.3170 
  157.6250   -25.8410    62.0040    14.3600    11.8490    13.4810    25.1450     2.3120 
  157.7500   -26.1290    63.1390    14.2290    11.6350    14.6470    25.1440     2.3000 
  157.8750   -26.4220    64.9090    14.0320    11.4260    14.4410    25.1690     2.2870 
  158.0000   -26.6840    64.5410    13.6320    11.1150    13.3900    25.1930     2.2780 
  158.1250   -26.8920    64.6230    13.0450    10.6780    13.1030    25.2000     2.2800 
  158.2500   -27.0810    66.1580    12.5320    10.2630    12.5490    25.2000     2.2890 
  158.3750   -27.2250    65.8930    12.3780    10.0610    11.4850    25.2090     2.3000 
  158.5000   -27.3680    63.7120    12.8400    10.2680    10.9840    25.2250     2.3070 
  158.6250   -27.4000    63.3510    14.1860    11.1230    13.0790    25.2430     2.3040 
  158.7500   -27.3710    64.0450    16.2220    12.5630    15.7190    25.2450     2.2960 
  158.8750   -27.2780    63.3780    18.6770    14.4730    18.1460    25.2570     2.2850 
  159.0000   -27.1060    61.5320    21.0550    16.5470    20.7220    25.2690     2.2700 
  159.1250   -26.8870    59.5510    22.5160    18.1300    22.0190    25.2800     2.2550 
  159.2500   -26.6140    56.6350    22.7240    18.7620    21.9900    25.2910     2.2440 
  159.3750   -26.3320    54.0430    21.7580    18.3620    21.2190    25.3130     2.2410 
  159.5000   -26.0250    53.7650    20.0430    17.2130    20.5020    25.3190     2.2470 
  159.6250   -25.7400    57.2890    18.1520    15.7560    18.5170    25.2900     2.2560 
  159.7500   -25.5130    60.7040    16.5850    14.4500    15.5190    25.2040     2.2580 
  159.8750   -25.3260    60.9530    15.5630    13.5020    12.9680    25.0220     2.2510 
  160.0000   -25.2320    57.7550    15.1570    13.0040    11.9270    24.8190     2.2480 
  160.1250   -25.2070    54.5850    15.4210    13.0560    12.9030    24.7590     2.2570 
  160.2500   -25.2320    53.4180    16.0950    13.5220    14.4360    24.8530     2.2670 
  160.3750   -25.3070    54.1170    16.9640    14.2750    15.1290    24.9740     2.2650 
  160.5000   -25.3970    55.1420    17.7950    15.1230    15.3660    25.0840     2.2460 
  160.6250   -25.5250    54.7690    18.3020    15.7820    17.1940    25.0810     2.2170 
  160.7500   -25.6350    53.6930    18.3560    16.0450    18.5310    24.8620     2.1970 
  160.8750   -25.7450    52.8710    17.9240    15.8270    17.3970    24.3660     2.1990 
  161.0000   -25.8360    53.1870    17.1200    15.2120    15.4740    23.8180     2.2250 
  161.1250   -25.8730    54.6910    16.2000    14.4270    13.8940    23.4280     2.2610 
  161.2500   -25.9120    56.9500    15.5200    13.7960    12.5100    23.2080     2.2880 
  161.3750   -25.8740    58.6500    15.3640    13.5460    11.2870    23.0210     2.2930 
  161.5000   -25.8180    57.4100    15.9220    13.8360    11.0770    22.9630     2.2790 
  161.6250   -25.7250    55.5730    17.3760    14.8450    12.4330    23.4110     2.2520 
  161.7500   -25.6100    54.7840    19.4880    16.4460    15.9280    24.2120     2.2220 
  161.8750   -25.5050    53.8210    21.9970    18.5050    20.4850    25.0870     2.1940 
  162.0000   -25.3720    51.5240    24.4640    20.7330    24.1460    25.7460     2.1730 
  162.1250   -25.2730    51.1250    26.2280    22.5850    24.9310    25.9810     2.1630 
  162.2500   -25.1800    52.4970    27.1170    23.7280    24.8050    26.1130     2.1620 
  162.3750   -25.1280    52.4870    27.3090    24.1720    24.7490    26.1770     2.1720 
