~V
VERS. 2.00: Ver 2.00
~W
STRT.M 55.0000:
STOP.M 242.0000:
STEP.M 0.1250:
NULL. -999.2500:
UWI. F10652:
~C
DEPT.M :
SP.MV :
GR.API :
RML.OHMM :
RI. :
RXO.OHMM :
CALI.CM :
DEN.GM/CC :
~A
# ...
  201.2500   -10.1710    62.1300    59.8580    61.6880    51.0240    24.0580     2.2540 
  201.3750   -10.2830    60.4510    60.4040    62.3930    54.5940    24.0720     2.2540 
  201.5000   -10.4000    59.7760    60.5120    62.7700    60.8570    24.0750     2.2440 
  201.6250   -10.5220    61.9030    58.8230    61.3590    66.9030    24.0750     2.2310 
  201.7500   -10.6570    63.2520    55.7870    58.3120    60.3260    24.0750     2.2230 
  201.8750   -10.7500    62.6590    52.8940    54.8740    49.4160    24.0750     2.2240 
  202.0000   -10.8640    62.2180    52.0270    52.9420    39.5160    24.0750     2.2270 
  202.1250   -10.9330    61.7900    55.7580    55.5160    30.5660    24.0750     2.2250 
  202.2500   -11.0170    57.5720    65.1270    64.3360    32.8920    24.0750     2.2160 
  202.3750   -11.0870    51.3710    81.6260    81.1010    53.9470    24.0750     2.2050 
  202.5000   -11.1450    48.6090   122.2210   106.2790    92.2890    24.0760     2.1960 
  202.6250   -11.2460    52.0630   158.3230   137.6720   129.8460    24.0770     2.1890 
  202.7500   -11.2850    54.9950   191.7790   166.7640   136.2370    24.0750     2.1820 
  202.8750   -11.3430    53.8940   214.2350   186.2910   137.9710    24.0620     2.1780 
  203.0000   -11.3950    51.0300   222.8380   193.7720   138.6650    24.0370     2.1800 
  203.1250   -11.4530    50.8960   219.5970   190.9540   140.7530    24.0100     2.1910 
  203.2500   -11.5200    52.3960   210.6350   183.1610   144.2480    24.0010     2.2080 
  203.3750   -11.5780    53.5550   198.4020   172.5230   143.4170    24.0040     2.2310 
  203.5000   -11.6450    54.3200   185.8260   161.5870   133.9870    24.0150     2.2570 
  203.6250   -11.6940    53.7020   177.4830   154.3330   119.9310    24.0150     2.2720 
  203.7500   -11.7770    53.3200   175.6530   152.7420   112.9610    23.9630     2.2660 
  203.8750   -11.8960    54.4050   180.9320   157.3320   112.3060    23.8590     2.2440 
  204.0000   -12.0060    55.1140   191.7700   166.7560   118.8130    23.7860     2.2260 
  204.1250   -12.1320    53.3100   203.9650   177.3610   121.3220    23.7670     2.2360 
  204.2500   -12.2800    50.1710   211.7480   184.1290   119.0110    23.7940     2.2650 
  204.3750   -12.4370    48.3760   212.0130   184.3590   125.0300    23.8600     2.2910 
  204.5000   -12.6040    48.8580   205.2860   178.5100   134.5080    23.9120     2.2910 
  204.6250   -12.7640    50.7690   195.1300   169.6780   130.0970    23.9320     2.2580 
  204.7500   -12.9240    52.5240   186.2030   161.9160   121.7090    23.9330     2.2220 
  204.8750   -13.0570    52.4500   180.4480   156.9110   117.6910    23.9300     2.2050 
  205.0000   -13.1710    51.2650   178.3410   155.0790   118.5680    23.9300     2.2150 
  205.1250   -13.2830    49.3890   179.9590   156.4860   118.0400    23.9330     2.2420 
  205.2500   -13.3120    48.5140   183.7790   159.8080   116.3160    23.9320     2.2610 
  205.3750   -13.3320    50.3030   188.5430   163.9500   120.5590    23.9310     2.2590 
  205.5000   -13.2870    52.7830   192.7530   167.6110   123.0330    23.9330     2.2340 
  205.6250   -13.2220    52.4920   194.1980   168.8680   125.1930    23.9340     2.2060 
  205.7500   -13.1350    51.9110   191.4300   166.4610   126.8490    23.9480     2.1930 
  205.8750   -12.9880    53.4360   183.1470   159.2590   132.6380    23.9980     2.1990 
  206.0000   -12.8600    55.2230   169.3280   147.2420   134.3650    24.0530     2.2140 
  206.1250   -12.6690    53.7880   151.9030   132.0900   129.4420    24.0760     2.2250 
  206.2500   -12.4880    52.5680   135.2260   117.5880   118.1900    24.0900     2.2280 
  206.3750   -12.3060    52.7460   122.1870   106.2490    95.5790    24.1460     2.2220 
  206.5000   -12.1580    53.0040   114.2600    99.3570    73.8920    24.2030     2.2140 
  206.6250   -12.0450    52.6160   111.3540    96.8300    74.6600    24.2290     2.2070 
  206.7500   -11.9260    51.8560   109.6560    95.3530    88.6160    24.2400     2.2000 
  206.8750   -11.8710    50.1120   105.7120    91.9230   106.8610    24.2420     2.1920 
  207.0000   -11.8220    49.6420    97.3860    84.6830   117.7580    24.2430     2.1870 
  207.1250   -11.8290    53.2550    85.1080    74.0070    91.6300    24.2460     2.1900 
  207.2500   -11.8500    57.2100    72.7730    63.2810    57.1210    24.2510     2.1980 
  207.3750   -11.8850    58.2250    62.9880    54.7720    41.7600    24.2600     2.2050 
  207.5000   -11.9080    58.8340    56.9640    49.5340    40.8140    24.2810     2.2100 
  207.6250   -11.8990    61.3760    55.3710    48.1490    44.8320    24.3380     2.2200 
  207.7500   -11.9020    62.2590    57.1070    49.6580    48.8270    24.4270     2.2450 
  207.8750   -11.8680    60.5470    61.6530    53.6120    52.0810    24.4790     2.2850 
  208.0000   -11.8160    59.4390    68.4370    59.5100    49.5140    24.3770     2.3330 
  208.1250   -11.7340    61.9840    76.7820    66.7670    59.0160    24.1480     2.3740 
  208.2500   -11.6150    64.8890    85.2090    74.0950    73.0900    24.0620     2.3940 
  208.3750   -11.4640    65.7850    92.4390    80.3820    82.8870    24.0940     2.3940 
  208.5000   -11.2910    66.1330    97.3220    84.6280    90.2820    24.1500     2.3770 
  208.6250   -11.0850    66.9720    98.7680    85.8850    92.9900    24.1700     2.3530 
  208.7500   -10.8730    66.5760    97.7190    84.9730    88.4400    24.1540     2.3340 
  208.8750   -10.6340    64.4950    95.2440    82.8210    84.0550    24.0830     2.3240 
  209.0000   -10.4000    63.3300    92.3550    80.3090    75.1940    24.0130     2.3280 
  209.1250   -10.1640    67.4550    89.6030    77.9160    64.3860    23.9430     2.3440 
  209.2500    -9.9700    71.3510    87.0220    75.6720    62.8590    23.9600     2.3680 
  209.3750    -9.7810    70.3080    84.4180    73.4070    70.9070    23.9870     2.3950 
  209.5000    -9.6440    66.2900    81.5230    70.8900    80.5220    23.9860     2.4190 
  209.6250    -9.5580    67.4240    78.1740    67.9770    69.5420    23.9520     2.4240 
  209.7500    -9.4970    71.7430    74.7050    64.9600    56.9410    23.9640     2.4070 
  209.8750    -9.4910    73.3510    71.5700    62.2340    49.5560    24.0390     2.3780 
  210.0000    -9.4850    72.1240    69.2310    60.2010    46.9130    24.1010     2.3490 
  210.1250    -9.5340    71.7030    68.4670    59.5360    46.1280    23.9300     2.3350 
  210.2500    -9.5670    70.0860    69.6110    60.5310    42.0350    23.5300     2.3370 
  210.3750    -9.6280    66.4230    72.9640    63.4470    38.9410    23.2290     2.3570 
  210.5000    -9.6500    63.8240    78.4870    68.2500    36.3930    23.1770     2.3920 
  210.6250    -9.6420    65.3300    85.7350    74.5520    42.0960    23.2820     2.4330 
  210.7500    -9.6070    67.4520    92.9530    80.8290    52.0910    23.3850     2.4660 
  210.8750    -9.5260    67.7180    98.2670    85.4500    60.6560    23.4020     2.4760 
  211.0000    -9.4240    66.2470   100.1100    87.0520    61.9480    23.3500     2.4630 
  211.1250    -9.2760    66.0710    97.7710    85.0190    59.0180    23.2830     2.4440 
  211.2500    -9.1000    66.6000    93.5080    81.3110    51.7240    23.2960     2.4420 
  211.3750    -8.8930    65.0460    89.2070    77.5710    51.3200    23.3680     2.4600 
  211.5000    -8.6730    60.5320    86.0260    74.8050    56.0360    23.4440     2.4890 
  211.6250    -8.4260    57.2280    83.9980    73.0420    63.2700    23.5350     2.5200 
  211.7500    -8.1570    56.2890    81.7840    71.1160    65.0040    23.5800     2.5440 
  211.8750    -7.8750    56.4170    78.2690    68.0600    61.5150    23.5370     2.5570 
  212.0000    -7.5990    55.8540    73.0680    63.5370    55.7360    23.4780     2.5530 
  212.1250    -7.2830    55.4610    66.8590    58.1380    51.1130    23.4350     2.5350 
  212.2500    -6.9890    57.2050    61.2780    53.2850    47.7590    23.4040     2.5150 
  212.3750    -6.6710    59.8300    57.3650    49.8820    47.7100    23.4100     2.5010 
