~V
VERS. 2.00: Ver 2.00
~W
STRT.M 51.0000:
STOP.M 221.0000:
STEP.M 0.1250:
NULL. -999.2500:
UWI. F10616:
~C
DEPT.M :
GR.API :
RML.OHMM :
RI. :
RXO.OHMM :
CALI.CM :
DEN.GM/CC :
SP.MV :
~A
# ...
  129.7500    50.3860    36.6670    32.6140    29.5240    24.4750     2.6100   -11.8720 
  129.8750    46.4670    36.1290    32.2630    29.2810    24.4090     2.6250   -12.0590 
  130.0000    45.6890    34.9950    31.3310    30.0310    24.4790     2.6170   -12.1880 
  130.1250    47.9120    33.4990    30.0160    30.7260    24.5920     2.5860   -12.2430 
  130.2500    49.6760    31.8900    28.5580    29.0290    24.6220     2.5430   -12.2410 
  130.3750    49.2730    30.4560    27.2220    26.3240    24.5450     2.5120   -12.2150 
  130.5000    48.9160    29.4250    26.2060    22.3380    24.4050     2.5060   -12.1660 
  130.6250    48.5100    28.9680    25.6530    20.7360    24.3020     2.5230   -12.1250 
  130.7500    48.0880    29.1430    25.6310    21.7870    24.2880     2.5530   -12.1030 
  130.8750    46.9580    29.9220    26.1540    23.0260    24.2730     2.5810   -12.1160 
  131.0000    43.4760    30.9830    26.9650    22.2310    24.2030     2.5970   -12.1650 
  131.1250    40.7210    32.0600    27.8500    22.4080    24.2110     2.6020   -12.2690 
  131.2500    43.9700    32.8470    28.5510    24.0960    24.3590     2.6020   -12.4100 
  131.3750    50.1370    32.8780    28.6770    25.5840    24.5140     2.6090   -12.5970 
  131.5000    51.4850    32.0470    28.1090    25.9860    24.5790     2.6250   -12.8200 
  131.6250    49.0590    30.4340    26.8800    26.0400    24.5480     2.6380   -13.0530 
  131.7500    47.7360    28.3960    25.2400    25.9970    24.4830     2.6340   -13.3100 
  131.8750    48.7790    26.5830    23.6480    24.4560    24.5100     2.6050   -13.5700 
  132.0000    49.8270    25.5090    22.5260    21.1650    24.6720     2.5680   -13.8240 
  132.1250    50.5060    25.3880    22.0840    19.7790    24.7850     2.5400   -14.0270 
  132.2500    50.6010    26.1840    22.3630    22.2500    24.8140     2.5320   -14.1910 
  132.3750    48.8800    27.6940    23.3210    24.9530    24.8120     2.5500   -14.3030 
  132.5000    45.8590    29.2750    24.5140    26.2880    24.7980     2.5820   -14.3720 
  132.6250    44.0650    30.3210    25.4570    26.8680    24.7200     2.6180   -14.4000 
  132.7500    45.3860    30.3580    25.6930    26.5120    24.5340     2.6420   -14.3890 
  132.8750    47.3770    29.2580    24.9920    25.5730    24.3640     2.6350   -14.3310 
  133.0000    47.0380    27.7900    23.8990    23.8700    24.3620     2.6060   -14.2400 
  133.1250    46.0200    26.6560    22.9420    20.4920    24.4220     2.5700   -14.1360 
  133.2500    46.9450    26.4150    22.5530    17.8990    24.3840     2.5500   -14.0430 
  133.3750    47.6400    27.4710    23.1120    17.9630    24.2680     2.5580   -13.9520 
  133.5000    46.6840    29.2530    24.3360    20.9890    24.2460     2.5830   -13.8920 
  133.6250    46.5800    30.8780    25.6290    26.0230    24.2570     2.6120   -13.8400 
  133.7500    46.9250    31.2910    26.1220    29.8100    24.2550     2.6340   -13.7530 
  133.8750    45.7180    29.6400    24.9910    29.5470    24.2470     2.6440   -13.6860 
  134.0000    45.5800    26.8240    22.8460    25.3840    24.1940     2.6460   -13.6470 
  134.1250    47.8460    23.9670    20.5530    19.2150    24.1240     2.6390   -13.6350 
  134.2500    50.4180    21.9660    18.8260    14.5680    24.1090     2.6260   -13.6330 
  134.3750    51.7960    21.3030    18.0910    15.4510    24.1060     2.6120   -13.6690 
  134.5000    54.5540    21.5060    18.0730    16.4880    23.9720     2.6030   -13.7130 
  134.6250    58.6640    22.1190    18.4670    16.3810    23.7470     2.6010   -13.7950 
  134.7500    61.0300    22.6930    18.9200    14.9110    23.5130     2.6010   -13.9220 
  134.8750    58.3980    22.8220    19.0660    13.4300    23.2740     2.6000   -14.0600 
  135.0000    54.1390    22.4920    18.8380    12.7560    22.9950     2.6000   -14.1950 
  135.1250    51.2440    21.8130    18.3180    12.1870    22.6990     2.6050   -14.3390 
  135.2500    50.1200    20.9160    17.6330    11.7910    22.3980     2.6120   -14.4800 
  135.3750    49.7200    19.9260    16.8950    11.4650    22.1770     2.6110   -14.5930 
  135.5000    50.8130    19.0640    16.2490    11.3690    22.0340     2.5950   -14.6820 
  135.6250    53.6900    18.5680    15.8360    11.0110    21.9700     2.5660   -14.7440 
  135.7500    56.9550    18.6470    15.7870    10.4590    21.8680     2.5250   -14.8000 
  135.8750    59.2470    19.5430    16.2950    10.7110    21.7410     2.4810   -14.8310 
  136.0000    58.3390    21.0740    17.3110    11.5410    21.7110     2.4410   -14.8280 
  136.1250    53.5690    22.9460    18.7090    12.0830    21.8480     2.4180   -14.7800 
  136.2500    48.8690    24.6630    20.1690    12.9610    22.2400     2.4170   -14.6980 
  136.3750    49.5030    25.4630    21.0760    14.6830    22.7630     2.4390   -14.6100 
  136.5000    50.3890    25.1520    21.1090    16.6960    23.3560     2.4690   -14.5160 
  136.6250    47.4110    23.9860    20.3490    16.8350    23.8540     2.4930   -14.4220 
  136.7500    44.5350    22.6320    19.2720    16.1140    24.2240     2.5020   -14.3280 
  136.8750    46.1860    21.9680    18.5590    15.9660    24.4380     2.4940   -14.2590 
  137.0000    48.0260    22.2570    18.5280    16.4770    24.5910     2.4760   -14.2190 
  137.1250    48.1540    23.3370    19.1780    17.7540    24.6870     2.4570   -14.2170 
  137.2500    47.7080    24.6610    20.2080    20.6220    24.6840     2.4460   -14.2330 
  137.3750    47.0450    25.2780    20.9360    23.1370    24.6730     2.4490   -14.2650 
  137.5000    46.4950    24.7320    20.8290    22.9290    24.6800     2.4600   -14.3040 
  137.6250    48.9780    23.1900    19.8620    19.2860    24.6990     2.4710   -14.3570 
  137.7500    52.9620    21.2790    18.4480    15.4940    24.7160     2.4740   -14.4240 
  137.8750    52.5730    19.7280    17.1450    13.9080    24.7600     2.4710   -14.4880 
  138.0000    48.8920    18.7290    16.1990    13.9210    24.7900     2.4680   -14.5450 
  138.1250    46.7340    18.1550    15.5870    14.1220    24.8570     2.4670   -14.5920 
  138.2500    47.5070    17.7420    15.1620    14.4810    24.9100     2.4610   -14.6530 
  138.3750    49.6620    17.2260    14.7360    14.2490    24.9370     2.4510   -14.6870 
  138.5000    51.0760    16.5860    14.2340    13.2760    24.9440     2.4420   -14.7060 
  138.6250    50.9090    15.9820    13.7300    12.4750    24.9490     2.4420   -14.6920 
  138.7500    50.4060    15.6390    13.3780    11.7170    24.9490     2.4500   -14.6490 
  138.8750    51.5580    15.8000    13.3870    12.1920    24.9260     2.4610   -14.5720 
  139.0000    54.4300    16.3950    13.7530    13.6850    24.9040     2.4700   -14.4940 
  139.1250    58.3680    17.2960    14.4070    15.1930    24.8730     2.4760   -14.4030 
  139.2500    61.0280    18.3110    15.2060    15.8560    24.8300     2.4810   -14.2970 
  139.3750    60.5720    19.2150    15.9590    17.0810    24.8160     2.4890   -14.1820 
  139.5000    57.6290    19.9080    16.5560    17.7120    24.8330     2.4990   -14.0820 
  139.6250    54.9160    20.3780    16.9750    17.5510    24.8860     2.5050   -13.9950 
  139.7500    53.3450    20.6290    17.2210    18.4800    24.9180     2.5030   -13.9330 
  139.8750    52.7250    20.5810    17.2280    21.1290    24.9140     2.4890   -13.8840 
  140.0000    52.6360    20.2740    17.0060    20.7750    24.9430     2.4680   -13.8400 
  140.1250    52.3620    19.8150    16.6220    18.5890    24.9620     2.4460   -13.8100 
  140.2500    50.8580    19.3790    16.2120    15.9210    24.9650     2.4300   -13.8200 
  140.3750    49.8160    19.1670    15.9500    14.7910    24.9640     2.4240   -13.8570 
  140.5000    50.3220    19.1920    15.8850    15.4710    24.9490     2.4260   -13.9190 
  140.6250    49.4420    19.3550    15.9720    17.3180    24.8750     2.4310   -13.9890 
  140.7500    46.0290    19.4760    16.0890    17.8320    24.6910     2.4360   -14.0720 
  140.8750    43.7610    19.4020    16.0940    16.2300    24.4350     2.4360   -14.1670 
