~V
VERS. 2.00: Ver 2.00
~W
STRT.M 50.0000:
STOP.M 263.0000:
STEP.M 0.1250:
NULL. -999.2500:
UWI. F10656:
~C
DEPT.M :
DEN.GM/CC :
GR.API :
RML.OHMM :
RI. :
RXO.OHMM :
CALI.CM :
SP.MV :
~A
   50.0000     2.2550    35.6430     1.2450     0.3380     3.6340    25.3970  -999.2500 
   50.1250     2.2710    36.3020     1.2300     0.3340     3.5140    25.3810  -999.2500 
   50.2500     2.2800    37.6700     1.2040     0.3300     3.3570    25.3720  -999.2500 
   50.3750     2.2710    39.0670     1.1560     0.3280     3.1390    25.3770  -999.2500 
   50.5000     2.2380    41.3740     1.0850     0.3260     2.9120    25.3750  -999.2500 
   50.6250     2.1810    45.0050     1.0120     0.3250     2.7640    25.3540  -999.2500 
   50.7500     2.1170    47.3420     0.9640     0.3240     2.7060    25.3420  -999.2500 
   50.8750     2.0580    46.5700     0.9590     0.3220     2.6820    25.3390  -999.2500 
   51.0000     2.0170    44.1120     0.9970     0.3210     2.6610    25.3380  -999.2500 
   51.1250     1.9990    41.6900     1.0740     0.3200     2.6290    25.3370  -999.2500 
   51.2500     1.9930    40.6870     1.1640     0.3190     2.6060    25.3340  -999.2500 
   51.3750     1.9900    42.0440     1.2460     0.3200     2.5930    25.3270  -999.2500 
   51.5000     1.9860    43.5600     1.2960     0.3210     2.5900    25.3150  -999.2500 
   51.6250     1.9840    43.4510     1.2900     0.3240     2.6050    25.3000  -999.2500 
   51.7500     1.9960    44.4710     1.2370     0.3270     2.6270    25.2880  -999.2500 
   51.8750     2.0290    46.8530     1.1540     0.3290     2.6450    25.2820  -999.2500 
   52.0000     2.0820    47.6760     1.0690     0.3300     2.6540    25.2770  -999.2500 
   52.1250     2.1410    46.3880     1.0130     0.3290     2.6860    25.2530     0.0000 
   52.2500     2.1860    45.9330     0.9930     0.3290     2.7040    25.1920     0.0000 
   52.3750     2.2140    46.1470     1.0030     0.3310     2.6770    25.0600     0.0000 
   52.5000     2.2270    46.4950     1.0330     0.3360     2.5940    24.8050     0.0000 
   52.6250     2.2370    49.0280     1.0570     0.3420     2.4030    24.4470     0.0000 
   52.7500     2.2500    52.2810     1.0540     0.3480     2.1050    24.1860     0.0000 
   52.8750     2.2670    53.6760     1.0180     0.3500     1.7260    24.0730     0.0000 
   53.0000     2.2850    53.5320     0.9550     0.3490     1.3200    23.9850    98.2170 
   53.1250     2.3040    52.2420     0.8830     0.3450     1.0480    23.8130    98.9150 
   53.2500     2.3270    49.8590     0.8240     0.3410     0.9400    23.5400    98.9560 
   53.3750     2.3560    47.5690     0.7900     0.3370     0.9270    23.1950    98.6720 
   53.5000     2.3920    46.4250     0.7820     0.3360     0.9630    22.9330    98.4680 
   53.6250     2.4290    44.4720     0.7920     0.3370     1.0000    22.8420    98.5230 
   53.7500     2.4620    41.7840     0.8010     0.3400     1.0110    22.8370    98.8610 
   53.8750     2.4840    40.8240     0.7940     0.3410     0.9920    22.8860    99.4470 
   54.0000     2.4940    41.8320     0.7670     0.3400     0.9520    23.0190   100.2320 
   54.1250     2.4930    41.8000     0.7280     0.3380     0.8850    23.2550   101.3490 
   54.2500     2.4910    41.0100     0.7000     0.3360     0.8340    23.4850   102.8650 
   54.3750     2.4900    41.0460     0.6970     0.3370     0.8280    23.6100   104.7620 
   54.5000     2.4950    41.5700     0.7180     0.3400     0.8320    23.5610   106.7990 
   54.6250     2.5010    41.3370     0.7510     0.3440     0.8540    23.3530   108.5780 
   54.7500     2.5060    41.5040     0.7770     0.3480     0.8930    23.0970   109.9030 
   54.8750     2.5060    42.8940     0.7940     0.3510     0.9140    22.9430   110.7050 
   55.0000     2.4990    45.2130     0.8120     0.3520     0.8950    22.8470   111.1200 
   55.1250     2.4870    46.1890     0.8490     0.3540     0.8990    22.7030   111.1110 
   55.2500     2.4690    44.4880     0.9010     0.3550     0.9700    22.4570   110.8300 
   55.3750     2.4450    41.3650     0.9480     0.3540     1.0720    22.2020   110.3160 
   55.5000     2.4150    39.8300     0.9700     0.3510     1.1810    22.0410   109.8510 
   55.6250     2.3730    41.7770     0.9490     0.3460     1.3300    21.9400   109.6420 
   55.7500     2.3220    43.6330     0.9070     0.3430     1.5290    21.8460   109.2770 
   55.8750     2.2630    42.1900     0.8650     0.3400     1.7500    21.7880   108.4780 
   56.0000     2.2000    38.1260     0.8330     0.3370     1.9200    21.8050   107.0250 
   56.1250     2.1400    35.2930     0.8020     0.3260     1.8760    22.0330   104.4660 
   56.2500     2.0900    35.2700     0.7520     0.3050     1.5610    22.4890   100.9000 
   56.3750     2.0610    36.6150     0.6680     0.2700     1.1590    23.0900    96.7160 
   56.5000     2.0700    37.6800     0.5450     0.2260     0.8980    23.6420    92.0900 
   56.6250     2.1360    38.1700     0.4020     0.1790     0.8290    24.0830    87.2860 
   56.7500     2.2520    38.2680     0.2770     0.1380     0.8460    24.4730    82.4920 
   56.8750     2.3910    39.4180     0.1910     0.1040     0.9230    24.7540    77.3860 
   57.0000     2.5020    42.9880     0.1590     0.0910     1.1100    24.8410    71.9850 
   57.1250     2.5270    48.0030     0.2390     0.1650     1.7370    24.7440    66.3190 
   57.2500     2.4800    51.2550     0.5000     0.4130     2.9620    24.5250    60.0280 
   57.3750     2.3960    54.2020     1.0190     0.9380     4.7830    24.2550    52.6980 
   57.5000     2.3050    57.6280     1.8220     1.7960     7.0310    24.1270    44.3970 
   57.6250     2.2330    57.8720     2.8380     2.9690     8.6270    24.1870    35.5640 
   57.7500     2.1870    55.3210     3.7940     4.1950     9.2690    24.3000    26.8740 
   57.8750     2.1650    53.7150     4.4670     5.2390     9.3560    24.3860    18.9300 
   58.0000     2.1580    54.0040     4.8180     5.9840     9.3490    24.3900    11.8160 
   58.1250     2.1600    53.0710     5.0080     6.4530     9.2700    24.3660     5.8610 
   58.2500     2.1660    53.1440     5.2010     6.7900     9.2270    24.3310     1.2360 
   58.3750     2.1740    56.3290     5.4070     7.0370     9.2110    24.3130    -2.0930 
   58.5000     2.1800    59.7170     5.5970     7.2040     9.2090    24.2870    -4.4920 
   58.6250     2.1820    60.4600     5.7280     7.2890     9.1170    24.2800    -6.3420 
   58.7500     2.1790    59.4790     5.7960     7.3200     8.9880    24.2740    -7.9740 
   58.8750     2.1740    57.8930     5.8160     7.3160     8.8480    24.3000    -9.4050 
   59.0000     2.1670    56.4180     5.8250     7.2950     8.7550    24.3140   -10.6020 
   59.1250     2.1620    57.4060     5.8530     7.2710     8.7100    24.2640   -11.6350 
   59.2500     2.1580    59.5490     5.8990     7.2490     8.6710    24.1640   -12.5670 
   59.3750     2.1540    60.3770     5.9510     7.2280     8.6490    24.0980   -13.3900 
   59.5000     2.1500    59.6140     5.9960     7.2070     8.6060    24.0850   -14.1110 
   59.6250     2.1490    59.2340     6.0200     7.1840     8.5350    24.0970   -14.8030 
   59.7500     2.1510    61.2620     6.0310     7.1620     8.4830    24.0790   -15.4300 
   59.8750     2.1570    64.4670     6.0450     7.1460     8.4780    24.0120   -16.0250 
   60.0000     2.1660    66.7400     6.0780     7.1470     8.4970    23.9160   -16.6200 
   60.1250     2.1750    65.7320     6.1510     7.1820     8.6230    23.8230   -17.2010 
   60.2500     2.1800    63.1330     6.2630     7.2500     8.9240    23.7700   -17.7890 
   60.3750     2.1770    61.2330     6.4040     7.3440     9.4050    23.7830   -18.3580 
   60.5000     2.1650    60.3360     6.5540     7.4480     9.9840    23.7990   -18.8720 
   60.6250     2.1430    59.2890     6.6780     7.5310    10.3320    23.7000   -19.3790 
   60.7500     2.1180    57.8560     6.7570     7.5770    10.0010    23.4400   -19.8790 
   60.8750     2.0980    57.0060     6.7830     7.5790     9.1040    22.9940   -20.3250 
   61.0000     2.0900    57.8360     6.7700     7.5470     8.4270    22.3890   -20.7270 
   61.1250     2.0980    60.3440     6.7450     7.4980     7.9380    21.4190   -20.9660 
