~V
VERS. 2.00: Ver 2.00
~W
STRT.M 48.0000:
STOP.M 229.0000:
STEP.M 0.1250:
NULL. -999.2500:
UWI. F10623:
~C
DEPT.M :
GR.API :
RML.OHMM :
RI. :
RXO.OHMM :
CALI.CM :
DEN.GM/CC :
SP.MV :
~A
# ...
   93.0000    94.1790     6.0210     5.2120     5.4840    24.5040     2.3110    -8.6620 
   93.1250    92.9180     5.9690     5.1950     5.4590    24.4870     2.3040    -8.6950 
   93.2500    88.6060     5.8820     5.1330     5.4540    24.4640     2.3000    -8.7140 
   93.3750    84.4590     5.8120     5.0690     5.4320    24.4450     2.3020    -8.7200 
   93.5000    85.8320     5.8070     5.0430     5.4070    24.4200     2.3110    -8.7120 
   93.6250    90.8450     5.9100     5.1000     5.4270    24.3690     2.3260    -8.6730 
   93.7500    91.7240     6.0900     5.2260     5.5730    24.2870     2.3430    -8.6100 
   93.8750    87.9370     6.2990     5.3890     5.8080    24.1810     2.3560    -8.5430 
   94.0000    84.5360     6.4750     5.5430     6.1390    24.0680     2.3630    -8.4960 
   94.1250    84.0890     6.5480     5.6330     6.3730    23.9850     2.3640    -8.4630 
   94.2500    83.6090     6.5140     5.6460     6.3430    23.9120     2.3590    -8.4160 
   94.3750    81.2770     6.4020     5.5970     6.1230    23.8280     2.3500    -8.3770 
   94.5000    78.0270     6.2630     5.5180     5.9670    23.8050     2.3360    -8.3670 
   94.6250    77.2920     6.1490     5.4520     6.1550    23.8570     2.3180    -8.3740 
   94.7500    79.9660     6.0710     5.4150     6.4570    23.9140     2.3010    -8.3970 
   94.8750    83.5830     6.0100     5.4010     6.5080    23.9860     2.2920    -8.4430 
   95.0000    85.4610     5.9430     5.3950     6.3250    23.9980     2.2940    -8.4940 
   95.1250    85.8850     5.8580     5.3790     6.4220    23.9000     2.3030    -8.5370 
   95.2500    86.0750     5.7710     5.3520     6.4380    23.8720     2.3120    -8.5870 
   95.3750    85.6090     5.7000     5.3190     5.9500    23.9550     2.3150    -8.6300 
   95.5000    85.3790     5.6520     5.2800     5.4560    24.0890     2.3140    -8.6650 
   95.6250    86.2870     5.6110     5.2250     5.3540    24.1910     2.3110    -8.6970 
   95.7500    88.9520     5.5440     5.1360     5.3270    24.2240     2.3150    -8.7160 
   95.8750    92.5600     5.4180     4.9940     5.2300    24.2100     2.3260    -8.7250 
   96.0000    97.4160     5.2080     4.7870     5.0490    24.1640     2.3440    -8.7400 
   96.1250   101.0980     4.9070     4.5080     4.8970    24.1040     2.3660    -8.7800 
   96.2500   102.0990     4.5810     4.2060     4.7630    24.0260     2.3840    -8.8390 
   96.3750   102.7740     4.3300     3.9510     4.5630    23.9500     2.3960    -8.9400 
   96.5000   103.7560     4.2970     3.8450     4.3900    23.8960     2.4020    -9.1000 
   96.6250   102.2050     4.7230     4.0740     4.5500    23.8320     2.4080    -9.3440 
   96.7500    96.0890     5.6450     4.6940     5.4890    23.7150     2.4190    -9.6720 
   96.8750    86.4370     6.9980     5.7020     7.4600    23.5470     2.4360   -10.0650 
   97.0000    76.5140     8.5380     6.9590    10.2140    23.3200     2.4510   -10.5110 
   97.1250    69.8900     9.7670     8.1260    12.8630    23.1090     2.4450   -11.0180 
   97.2500    68.7100    10.3050     8.8440    13.9490    23.0420     2.4090   -11.5500 
   97.3750    69.3630    10.0430     8.9390    12.0460    23.1240     2.3480   -12.0650 
   97.5000    67.2900     9.2290     8.5090     9.1540    23.3340     2.2780   -12.5440 
   97.6250    63.4380     8.3710     7.8850     8.1290    23.6450     2.2220   -12.9840 
   97.7500    63.8650     7.8340     7.4140     7.9100    23.9760     2.1900   -13.3750 
   97.8750    67.6620     7.6640     7.1970     7.9570    24.3450     2.1790   -13.7030 
   98.0000    69.8470     7.7500     7.2020     8.0520    24.6750     2.1830   -13.9660 
   98.1250    67.6880     7.9420     7.3410     8.1540    24.8230     2.1930   -14.1680 
   98.2500    63.9360     8.1060     7.5020     8.2420    24.8770     2.2000   -14.3220 
   98.3750    61.1510     8.2020     7.6360     8.2920    24.9020     2.2010   -14.4370 
   98.5000    59.7900     8.2300     7.7250     8.3200    24.9370     2.1970   -14.5100 
   98.6250    59.9620     8.2070     7.7620     8.3520    24.9930     2.1870   -14.4930 
   98.7500    60.0920     8.1720     7.7650     8.3350    25.0540     2.1780   -14.3990 
   98.8750    59.9360     8.1430     7.7450     8.2910    25.0920     2.1710   -14.2620 
   99.0000    61.3420     8.1260     7.7080     8.2460    24.9920     2.1690   -14.0800 
   99.1250    63.6690     8.1010     7.6480     8.1850    24.6990     2.1700   -13.8070 
   99.2500    62.8410     8.0350     7.5470     8.0890    24.3760     2.1720   -13.4770 
   99.3750    59.4360     7.8920     7.3850     7.9160    24.1740     2.1710   -13.1000 
   99.5000    57.7630     7.6590     7.1490     7.6970    24.0460     2.1690   -12.6870 
   99.6250    60.2920     7.3780     6.8650     7.4810    23.8470     2.1670   -12.2660 
   99.7500    63.5830     7.1720     6.6280     7.2290    23.5940     2.1730   -11.8540 
   99.8750    67.4690     7.1600     6.5380     7.1400    23.3660     2.1920   -11.4680 
  100.0000    71.3770     7.4200     6.6670     7.6070    23.2650     2.2290   -11.1360 
  100.1250    72.1980     7.9720     7.0590     9.1190    23.4220     2.2770   -10.9340 
  100.2500    69.4770     8.6440     7.5980    11.1560    23.7420     2.3200   -10.8410 
  100.3750    66.6820     9.2590     8.1550    13.2390    24.1120     2.3390   -10.8230 
  100.5000    65.9090     9.6630     8.6000    13.8290    24.5010     2.3250   -10.8590 
  100.6250    65.3140     9.7570     8.8200    11.1730    24.8740     2.2790   -10.9640 
  100.7500    63.1210     9.6680     8.8740     9.6950    25.1710     2.2290   -11.1060 
  100.8750    61.5160     9.5230     8.8420     9.4510    25.3260     2.1910   -11.2460 
  101.0000    62.4160     9.4130     8.8010     9.5760    25.3080     2.1740   -11.3620 
  101.1250    63.3020     9.3520     8.7730     9.5050    25.1340     2.1760   -11.4300 
  101.2500    62.3520     9.2820     8.7270     9.3530    24.8460     2.1820   -11.4520 
  101.3750    63.7620     9.1750     8.6400     9.1920    24.6570     2.1850   -11.4440 
  101.5000    68.1630     9.0430     8.5190     9.0940    24.4690     2.1810   -11.4250 
  101.6250    69.9160     8.9260     8.3990     9.0550    24.3560     2.1750   -11.3930 
  101.7500    67.2800     8.8430     8.3090     9.0120    24.3220     2.1700   -11.3730 
  101.8750    64.2080     8.7950     8.2530     9.0040    24.4370     2.1700   -11.3600 
  102.0000    62.3870     8.7800     8.2290     8.9950    24.6830     2.1720   -11.3380 
  102.1250    59.8660     8.7970     8.2350     9.0150    24.9350     2.1790   -11.3020 
  102.2500    57.8520     8.8390     8.2650     9.0440    25.0830     2.1820   -11.2540 
  102.3750    57.8290     8.8970     8.3170     9.0410    25.1300     2.1830   -11.1990 
  102.5000    59.0480     8.9630     8.3870     9.0430    25.1180     2.1810   -11.1360 
  102.6250    59.4160     9.0270     8.4640     9.0850    25.0670     2.1760   -11.0510 
  102.7500    59.0330     9.0820     8.5350     9.2040    24.9920     2.1700   -10.9270 
  102.8750    59.2760     9.1220     8.5860     9.3650    24.9150     2.1650   -10.7760 
  103.0000    60.3000     9.1340     8.6040     9.4660    24.8600     2.1640   -10.6230 
  103.1250    60.8620     9.0850     8.5650     9.4760    24.8690     2.1690   -10.4640 
  103.2500    59.8410     8.9590     8.4640     9.4830    24.9430     2.1760   -10.2820 
  103.3750    59.6050     8.7540     8.3000     9.5340    25.0710     2.1820   -10.0620 
  103.5000    61.7850     8.5140     8.1010     9.5650    25.1300     2.1820    -9.7920 
  103.6250    63.6990     8.3910     7.9700     9.5260    25.0570     2.1750    -9.4770 
  103.7500    62.6170     8.5820     8.0590     9.3730    24.8730     2.1720    -9.1600 
  103.8750    60.3380     9.2530     8.5240     9.4260    24.8510     2.1870    -8.8320 
  104.0000    59.3250    10.4140     9.4360    10.4430    25.0880     2.2350    -8.4600 
  104.1250    59.0770    11.8410    10.6780    14.6580    25.2710     2.3220    -8.0500 
