~V
VERS. 2.00: Ver 2.00
~W
STRT.M 52.0000:
STOP.M 240.0000:
STEP.M 0.1250:
NULL. -999.2500:
UWI. F10646:
~C
DEPT.M :
GR.API :
RML.OHMM :
RI. :
RXO.OHMM :
CALI.CM :
DEN.GM/CC :
SP.MV :
~A
# ...
  232.0000    84.9230     5.4540     5.0190     6.2330    24.4190     2.3220    -9.4770 
  232.1250    84.9230     5.4760     5.0190     6.0260    24.3770     2.3530    -9.1320 
  232.2500    84.9230     5.5170     5.0010     5.9640    24.3280     2.3970    -8.8150 
  232.3750    84.9230     5.5530     4.9460     6.0380    24.2580     2.4420    -8.5400 
  232.5000    84.9230     5.5510     4.8700     5.9640    24.1800     2.4630    -8.2580 
  232.6250    84.9230     5.5130     4.8090     5.7470    24.1320     2.4540    -7.8870 
  232.7500    84.9230     5.4540     4.7790     5.6610    24.1180     2.4250    -7.4700 
  232.8750    84.9230     5.3870     4.7650     5.7370    24.1360     2.3940    -7.0450 
  233.0000    84.9230     5.3150     4.7270     5.7970    24.1080     2.3790    -6.5840 
  233.1250    84.9230     5.2170     4.6400     5.5720    24.0160     2.3760    -6.1200 
  233.2500    84.9230     5.0650     4.4960     5.4910    23.9620     2.3770    -5.7020 
  233.3750    84.9230     4.8690     4.3130     5.7260    24.0030     2.3750    -5.3420 
  233.5000    84.9230     4.6990     4.1380     5.9080    24.1080     2.3670    -5.0870 
  233.6250    84.9230     4.6010     4.0020     5.6650    24.1750     2.3580    -4.9480 
  233.7500    84.9230     4.5640     3.9090     5.1880    24.2300     2.3500    -4.9010 
  233.8750    84.9230     4.5550     3.8450     4.9120    24.2790     2.3390    -4.8780 
  234.0000    84.9230     4.5330     3.8000     4.8620    24.2720     2.3230    -4.8630 
  234.1250    84.9230     4.4860     3.7650     4.8320    24.0690     2.3050    -4.9050 
  234.2500    84.9230     4.4330     3.7440     4.7850    23.6980     2.2910    -4.9940 
  234.3750    84.9230     4.3900     3.7390     4.6870    23.4570     2.2830    -5.0370 
  234.5000    84.9230     4.3780     3.7490     4.9980    23.7850     2.2790    -4.9980 
  234.6250    84.9230     4.4000     3.7580     5.7300    24.0040     2.2790    -4.9270 
  234.7500    84.9230     4.4520     3.7620     6.1170    24.0890     2.2870    -4.8410 
  234.8750    84.9230     4.5170     3.7580     5.2770    24.0940     2.3070    -4.7500 
  235.0000    84.9230     4.5540     3.7500     4.2340    24.0930     2.3370    -4.7010 
  235.1250    84.9230     4.5500     3.7460     3.7720    24.0860     2.3590    -4.6520 
  235.2500    84.9230     4.5230     3.7550     3.7090    24.1060     2.3600    -4.5670 
  235.3750    84.9230     4.5030     3.7790     3.7670    24.1240     2.3410    -4.5120 
  235.5000    84.9230     4.5120     3.8100     3.8010    24.1270     2.3160    -4.5070 
  235.6250    84.9230     4.5150     3.8300     3.7870    24.0730     2.3010    -4.5030 
  235.7500    84.9230     4.4980     3.8280     3.7720    24.0590     2.3020    -4.4890 
  235.8750    84.9230     4.4930     3.8260     3.9370    24.0810     2.3190    -4.4930 
  236.0000    84.9230     4.4930     3.8260     4.3610    24.0930     2.3420    -4.4930 
  236.1250    84.9230     4.4930     3.8260     4.6530    24.1000     2.3590    -4.4930 
  236.2500    84.9230     4.4930     3.8260     4.4130    24.1100     2.3620    -4.4930 
  236.3750    84.9230     4.4930     3.8260     3.9680    24.1280     2.3510  -999.2500 
  236.5000    84.9230     4.4930     3.8260     3.8330    24.1160     2.3330  -999.2500 
  236.6250    84.9230     4.4930     3.8260     3.8740    24.1070     2.3190  -999.2500 
  236.7500    84.9230     4.4930     3.8260     3.8680    24.1090     2.3120  -999.2500 
  236.8750    84.9230     4.4930     3.8260     3.7990    24.1120     2.3080  -999.2500 
  237.0000    84.9230     4.4930     3.8260     3.7500    24.1290     2.2990  -999.2500 
  237.1250    84.9230     4.4930     3.8260     3.7360    24.1310     2.2890  -999.2500 
  237.2500    84.9230     4.4930     3.8260     3.7150    24.0870     2.2830  -999.2500 
  237.3750    84.9230     4.4930     3.8260     3.7150    24.0120     2.2810  -999.2500 
  237.5000    84.9230     4.4930     3.8260     3.8490    23.9260     2.2770  -999.2500 
  237.6250    84.9230     4.4930     3.8260     4.0340    23.7590     2.2660  -999.2500 
  237.7500    84.9230     4.4930     3.8260     4.1310    23.5270     2.2480  -999.2500 
  237.8750    84.9230     4.4930     3.8260     4.1010    23.3500     2.2270  -999.2500 
  238.0000    84.9230     4.4930     3.8260     3.9210    23.2850     2.2130  -999.2500 
  238.1250    84.9230     4.4930     3.8260     3.8850    23.2630     2.2260  -999.2500 
  238.2500    84.9230     4.4930     3.8260     3.9580    23.2910     2.2700  -999.2500 
  238.3750    84.9230     4.4930     3.8260     4.2300    23.1780     2.2940  -999.2500 
  238.5000    84.9230     4.4930     3.8260     4.4750    22.6670     2.2110  -999.2500 
  238.6250    84.9230     4.4930     3.8260     4.5580    21.3120     2.0540  -999.2500 
  238.7500    84.9230     4.4930     3.8260     4.3220    19.0840     1.8830  -999.2500 
  238.8750    84.9230     4.4930     3.8260     4.0430    16.9790     1.7360  -999.2500 
  239.0000    84.9230     4.4930     3.8260     3.9170    16.0470     1.6550  -999.2500 
  239.1250    84.9230     4.4930     3.8260     3.8830    15.8720     1.6070  -999.2500 
  239.2500    84.9230     4.4930     3.8260     3.8860    15.8720     1.5850  -999.2500 
  239.3750    84.9230     4.4930     3.8260     3.8980    15.8730     1.5810  -999.2500 
  239.5000    84.9230     4.4930     3.8260     3.8990    15.8710     1.5810  -999.2500 
  239.6250    84.9230     4.4930     3.8260     3.8850    15.8710     1.5810  -999.2500 
  239.7500    84.9230     4.4930     3.8260     3.8770    15.8730     1.5790  -999.2500 
  239.8750    84.9230     4.4930     3.8260     3.8860    15.8760     1.5750  -999.2500 
  240.0000    84.9230     4.4930     3.8260     3.9030    15.8730     1.5720  -999.2500 
