~V
VERS. 2.00: Ver 2.00
~W
STRT.M 50.0000:
STOP.M 216.0000:
STEP.M 0.1250:
NULL. -999.2500:
UWI. F10607:
~C
DEPT.M :
GR.API :
RML.OHMM :
RI. :
RXO.OHMM :
CALI.CM :
DEN.GM/CC :
SP.MV :
~A
# ...
  140.0000    47.5840    19.1650    16.3900    15.6880    23.6300     2.4650    -9.5720 
  140.1250    49.7690    18.9990    16.1170    15.4740    23.6440     2.4580    -9.7320 
  140.2500    51.1650    19.2680    16.1910    16.0510    23.6490     2.4480    -9.9350 
  140.3750    51.5640    19.9450    16.6140    16.8060    23.6320     2.4390   -10.1740 
  140.5000    50.5390    20.9640    17.3550    17.3620    23.6190     2.4280   -10.4380 
  140.6250    48.6020    22.2150    18.3670    19.0640    23.6370     2.4150   -10.7080 
  140.7500    47.8700    23.4130    19.4320    20.9930    23.6550     2.4030   -10.9900 
  140.8750    49.0880    24.2720    20.3100    21.7030    23.6510     2.3980   -11.2720 
  141.0000    50.9000    24.5720    20.7790    21.1710    23.6130     2.4050   -11.5300 
  141.1250    52.1480    24.1580    20.6480    21.0290    23.5990     2.4210   -11.7570 
  141.2500    51.6300    23.3100    20.0960    20.3150    23.6130     2.4360   -11.9290 
  141.3750    50.5100    22.3110    19.3310    18.8680    23.6150     2.4420   -12.0370 
  141.5000    49.1630    21.4220    18.5700    17.7660    23.6040     2.4390   -12.0660 
  141.6250    45.7550    20.8170    17.9790    17.1940    23.6120     2.4320   -12.0310 
  141.7500    42.5680    20.4310    17.5600    16.8550    23.6040     2.4270   -11.9250 
  141.8750    43.3670    20.1780    17.2710    16.8060    23.5610     2.4280   -11.7470 
  142.0000    47.2290    19.9720    17.0550    16.9810    23.4730     2.4340   -11.5160 
  142.1250    49.2490    19.7560    16.8540    16.8210    23.4130     2.4420   -11.2430 
  142.2500    49.0540    19.5550    16.6590    16.6990    23.4220     2.4480   -10.9880 
  142.3750    48.5370    19.4390    16.5190    16.7240    23.4640     2.4520   -10.7650 
  142.5000    47.3440    19.4790    16.5010    16.2640    23.3980     2.4520   -10.5940 
  142.6250    45.7920    19.7600    16.6910    16.6180    23.2860     2.4470   -10.4790 
  142.7500    45.8600    20.2510    17.0710    16.9380    23.2370     2.4400   -10.4130 
  142.8750    47.5400    20.9030    17.6040    17.7030    23.2400     2.4350   -10.4120 
  143.0000    49.1470    21.6180    18.2150    18.6720    23.2550     2.4350   -10.4650 
  143.1250    49.2130    22.3030    18.8160    19.5080    23.2720     2.4440   -10.5470 
  143.2500    48.8290    22.9460    19.3820    20.2850    23.2980     2.4580   -10.6170 
  143.3750    49.3600    23.5780    19.9280    21.5820    23.3780     2.4760   -10.6640 
  143.5000    50.2410    24.2050    20.4630    21.6480    23.4730     2.4920   -10.6780 
  143.6250    49.9300    24.7370    20.9340    21.0540    23.4930     2.5030   -10.6590 
  143.7500    48.7650    25.0240    21.2370    22.0710    23.4720     2.5100   -10.5700 
  143.8750    48.2110    24.9020    21.2410    23.7410    23.4000     2.5110   -10.4220 
  144.0000    49.0440    24.2990    20.8630    22.3710    23.3070     2.5070   -10.2430 
  144.1250    50.1270    23.2480    20.0890    20.1460    23.3060     2.4960   -10.0450 
  144.2500    48.6960    22.0250    19.1220    18.5160    23.3590     2.4770    -9.8830 
  144.3750    45.6120    20.8290    18.1240    17.5760    23.4220     2.4540    -9.7390 
  144.5000    44.2260    19.8100    17.2330    16.5470    23.4710     2.4330    -9.6510 
  144.6250    46.1300    19.0900    16.5700    16.0920    23.5320     2.4170    -9.5940 
  144.7500    47.8080    18.6210    16.1130    15.5260    23.5550     2.4040    -9.5770 
  144.8750    48.4160    18.3600    15.8360    15.4590    23.5820     2.3940    -9.5970 
  145.0000    49.3400    18.2400    15.6910    15.6650    23.6000     2.3890    -9.5830 
  145.1250    49.8580    18.1800    15.6290    15.6780    23.5760     2.3940    -9.5690 
  145.2500    48.7780    18.1000    15.5860    15.5400    23.4830     2.4100    -9.4820 
  145.3750    46.9490    17.9950    15.5450    15.5020    23.3650     2.4340    -9.3490 
  145.5000    47.0040    17.9140    15.5160    15.3240    23.2730     2.4550    -9.1980 
  145.6250    49.1670    17.9430    15.5430    14.9980    23.2410     2.4620    -9.0460 
  145.7500    50.6350    18.0810    15.6420    15.1560    23.2070     2.4550    -8.9530 
  145.8750    49.9290    18.2810    15.7980    15.3660    23.1370     2.4400    -8.9060 
  146.0000    48.2290    18.4790    15.9700    15.7580    23.0190     2.4250    -8.9220 
  146.1250    47.3540    18.6160    16.0980    16.1010    22.9690     2.4190    -9.0870 
  146.2500    46.2630    18.6780    16.1480    15.8740    22.8870     2.4200    -9.3030 
  146.3750    44.4660    18.6680    16.1080    15.5690    22.7650     2.4250    -9.5610 
  146.5000    42.2680    18.5910    15.9940    15.5530    22.6910     2.4280    -9.8800 
  146.6250    41.4100    18.3860    15.7920    16.0390    22.6770     2.4270   -10.1510 
  146.7500    42.5940    18.0080    15.4790    15.3430    22.6880     2.4270   -10.3830 
  146.8750    44.3480    17.4510    15.0450    14.3240    22.6940     2.4330   -10.6100 
  147.0000    44.9350    16.8050    14.5350    13.6210    22.6710     2.4410   -10.7820 
  147.1250    44.3760    16.2770    14.0730    13.5380    22.6390     2.4440   -10.9030 
  147.2500    43.8770    16.0490    13.7910    13.3860    22.6340     2.4380   -11.0200 
  147.3750    43.5620    16.2280    13.7870    13.1540    22.6870     2.4280   -11.1330 
  147.5000    43.3420    16.8060    14.0980    13.5900    22.6870     2.4200   -11.1970 
  147.6250    43.8160    17.6620    14.6920    14.6610    22.6530     2.4210   -11.2350 
  147.7500    44.8750    18.4950    15.3500    15.4870    22.5840     2.4240   -11.2600 
  147.8750    45.1020    19.0690    15.8760    16.5170    22.4880     2.4210   -11.2590 
  148.0000    43.1910    19.2470    16.1230    17.5570    22.3740     2.4050   -11.2320 
  148.1250    39.8930    19.0200    16.0410    17.7230    22.3400     2.3870   -11.1700 
  148.2500    38.6020    18.6600    15.8160    15.9240    22.3650     2.3790   -11.1530 
  148.3750    40.6740    18.3510    15.5840    14.8700    22.4060     2.3890   -11.1720 
  148.5000    43.1770    18.1840    15.4250    14.8760    22.3530     2.4070   -11.2010 
  148.6250    43.0400    18.1590    15.3600    15.9330    22.2750     2.4160   -11.2210 
  148.7500    43.9650    18.1640    15.3280    16.9400    22.2050     2.4110   -11.2340 
  148.8750    47.6130    18.1280    15.2760    16.8740    22.2910     2.4020   -11.2710 
  149.0000    51.1990    18.0450    15.1860    16.3320    22.3780     2.4050   -11.3230 
  149.1250    50.4840    17.9550    15.0840    16.4820    22.3960     2.4310   -11.3440 
  149.2500    46.5010    17.8730    14.9920    16.7490    22.3940     2.4640   -11.3190 
  149.3750    42.3490    17.7630    14.8900    16.6570    22.3850     2.4820   -11.2760 
  149.5000    40.5550    17.5730    14.7410    16.6540    22.3470     2.4770   -11.2240 
  149.6250    42.0450    17.2480    14.4980    16.2490    22.2190     2.4580   -11.1690 
  149.7500    43.5760    16.8430    14.1890    14.8960    22.0400     2.4420   -11.1050 
  149.8750    41.7800    16.4470    13.8710    13.6400    21.8910     2.4390   -11.0400 
  150.0000    39.2540    16.1630    13.6260    13.5270    21.9210     2.4470   -10.9790 
  150.1250    40.2000    16.1140    13.5580    14.2360    22.0480     2.4590   -10.9440 
  150.2500    42.5990    16.2980    13.6850    14.5970    22.2190     2.4680   -10.9540 
  150.3750    43.4110    16.6770    13.9960    14.7750    22.3730     2.4730   -10.9510 
  150.5000    41.5450    17.1380    14.4150    15.2120    22.5400     2.4750   -10.9480 
  150.6250    39.2430    17.4890    14.7840    16.2720    22.6820     2.4710   -11.0180 
  150.7500    37.0790    17.5990    14.9720    16.6360    22.7600     2.4620   -11.1220 
  150.8750    36.0100    17.4320    14.9320    15.8590    22.7940     2.4540   -11.2020 
  151.0000    37.2730    17.0420    14.6900    15.2350    22.8250     2.4480   -11.2650 
  151.1250    40.9990    16.5500    14.3190    14.0970    22.8110     2.4460   -11.3570 
