~V
VERS. 2.00: Ver 2.00
~W
STRT.M 57.0000:
STOP.M 248.0000:
STEP.M 0.1250:
NULL. -999.2500:
UWI. F10637:
~C
DEPT.M :
SP.MV :
GR.API :
RML.OHMM :
RI. :
RXO.OHMM :
CALI.CM :
DEN.GM/CC :
~A
# ...
   79.5000   -28.8260    59.4480     9.8240     7.4430     8.9900    24.5470     2.1560 
   79.6250   -28.7870    57.9850     9.9480     7.5150     9.3840    24.6970     2.1700 
   79.7500   -28.7440    54.7810    10.2270     7.6900     9.8470    24.7770     2.1760 
   79.8750   -28.6730    53.1280    10.6860     7.9910    10.3590    24.7930     2.1680 
   80.0000   -28.5550    54.1350    11.3500     8.4420    11.4320    24.7390     2.1550 
   80.1250   -28.3760    56.7530    12.2130     9.0460    13.3720    24.6710     2.1550 
   80.2500   -28.1130    59.4340    13.2460     9.7970    15.5100    24.7570     2.1870 
   80.3750   -27.7720    62.4790    14.2410    10.5770    16.8410    24.9830     2.2460 
   80.5000   -27.3580    66.9550    14.8760    11.1800    17.1350    25.1460     2.3170 
   80.6250   -26.8790    70.3660    14.7750    11.3150    16.4010    25.1290     2.3820 
   80.7500   -26.3480    70.8970    13.6170    10.6710    14.6840    25.1410     2.4230 
   80.8750   -25.8030    71.3750    11.8480     9.4880    12.8630    25.2800     2.4350 
   81.0000   -25.2660    74.0850     9.9680     8.1000    11.6500    25.4060     2.4150 
   81.1250   -24.7520    76.4010     8.3970     6.8330    10.9430    25.4390     2.3670 
   81.2500   -24.2920    76.2300     7.3990     5.9360     8.8420    25.3890     2.3100 
   81.3750   -23.8960    77.2700     6.8450     5.3810     5.2940    25.3580     2.2680 
   81.5000   -23.5720    81.4240     6.6380     5.1200     5.2950    25.3360     2.2500 
   81.6250   -23.3210    86.5370     6.6870     5.0920     5.1670    25.2620     2.2470 
   81.7500   -23.1460    86.5430     6.9100     5.2370     5.1720    25.0190     2.2470 
   81.8750   -23.0200    81.6930     7.1690     5.4360     5.5130    24.6300     2.2440 
   82.0000   -22.9300    75.8540     7.3800     5.6150     5.9340    24.3190     2.2400 
   82.1250   -22.8690    72.9150     7.4770     5.7150     6.0290    24.2760     2.2340 
   82.2500   -22.8300    74.8360     7.4090     5.6840     5.9040    24.4710     2.2270 
   82.3750   -22.8020    76.4530     7.2380     5.5540     5.7070    24.6910     2.2200 
   82.5000   -22.7860    75.3530     7.0460     5.3780     5.2690    24.7570     2.2170 
   82.6250   -22.7920    74.6000     6.9280     5.2240     5.0460    24.5850     2.2210 
   82.7500   -22.8370    76.3690     6.9780     5.1760     5.0080    24.3030     2.2290 
   82.8750   -22.9300    76.4610     7.1920     5.2480     5.1570    24.0340     2.2320 
   83.0000   -23.0760    72.8990     7.5550     5.4390     5.4160    23.8510     2.2250 
   83.1250   -23.2750    69.7470     8.0400     5.7390     6.1090    23.7080     2.2080 
   83.2500   -23.5230    70.3680     8.6170     6.1420     6.6880    23.6290     2.1920 
   83.3750   -23.7900    70.8840     9.2010     6.5890     7.1490    23.6630     2.1830 
   83.5000   -24.0570    69.9620     9.6850     7.0070     7.4780    23.8310     2.1840 
   83.6250   -24.2950    68.2810     9.9530     7.2960     7.8460    24.0390     2.1940 
   83.7500   -24.4720    67.6590     9.8800     7.3380     8.3830    24.2300     2.2090 
   83.8750   -24.5770    66.6640     9.5430     7.1570     8.4100    24.4150     2.2200 
   84.0000   -24.5990    64.2950     9.0470     6.8130     7.4980    24.5860     2.2240 
   84.1250   -24.5350    62.6850     8.5200     6.3980     6.3280    24.7420     2.2210 
   84.2500   -24.3770    65.5270     8.0760     6.0060     6.1610    24.7770     2.2130 
   84.3750   -24.1500    70.7270     7.7400     5.6840     5.9190    24.7290     2.2110 
   84.5000   -23.8710    75.5250     7.5040     5.4470     5.7720    24.6470     2.2160 
   84.6250   -23.5490    78.8560     7.3430     5.2830     5.6980    24.5850     2.2270 
   84.7500   -23.1890    77.3040     7.2480     5.1860     5.7010    24.5450     2.2320 
   84.8750   -22.8050    72.7010     7.2130     5.1450     5.8340    24.5530     2.2320 
   85.0000   -22.4050    69.9450     7.2430     5.1650     6.0440    24.6010     2.2380 
   85.1250   -22.0000    72.4070     7.3140     5.2330     6.2490    24.6940     2.2640 
   85.2500   -21.6040    77.7790     7.3590     5.3080     6.3490    24.7800     2.3110 
   85.3750   -21.2260    81.7620     7.3230     5.3380     6.4030    24.8160     2.3550 
   85.5000   -20.8770    83.4440     7.1950     5.2950     6.4200    24.7840     2.3750 
   85.6250   -20.5720    84.0100     7.0040     5.1800     6.4220    24.6940     2.3650 
   85.7500   -20.3470    84.4270     6.8180     5.0360     6.3980    24.6520     2.3370 
   85.8750   -20.2120    84.2230     6.6970     4.9290     6.2980    24.6070     2.3100 
   86.0000   -20.1810    83.6700     6.6730     4.9050     6.2190    24.5670     2.2880 
   86.1250   -20.2570    84.3470     6.7610     4.9880     6.2000    24.5350     2.2640 
   86.2500   -20.4610    81.9310     6.9770     5.1930     6.2800    24.4630     2.2350 
   86.3750   -20.7560    74.3520     7.2860     5.4770     6.4090    24.3180     2.2090 
   86.5000   -21.1160    66.4130     7.6490     5.8040     6.5560    24.1370     2.1910 
   86.6250   -21.5100    63.0320     7.9930     6.1240     6.7270    24.0290     2.1810 
   86.7500   -21.8880    64.3620     8.1820     6.3350     6.8700    24.0250     2.1780 
   86.8750   -22.2020    67.4550     8.1340     6.3580     6.9350    24.0630     2.1820 
   87.0000   -22.4110    70.6870     7.8130     6.1460     6.8800    24.1310     2.1920 
   87.1250   -22.4920    75.4690     7.2650     5.7190     6.5910    24.2670     2.2120 
   87.2500   -22.4090    81.0840     6.6020     5.1570     6.0470    24.4430     2.2440 
   87.3750   -22.2010    84.2940     5.9850     4.6000     5.6200    24.4690     2.2760 
   87.5000   -21.9050    84.6650     5.5450     4.1510     4.7880    24.2640     2.2990 
   87.6250   -21.5640    84.6310     5.4060     3.9060     4.2420    23.9010     2.3120 
   87.7500   -21.2390    85.9820     5.7450     3.9960     4.3100    23.6470     2.3280 
   87.8750   -20.9820    85.1020     6.5510     4.4190     4.8170    23.5490     2.3490 
   88.0000   -20.8310    79.9050     7.8060     5.1800     8.1450    23.5400     2.3660 
   88.1250   -20.8140    70.5470     9.3560     6.2160     9.2910    23.4670     2.3590 
   88.2500   -20.9670    60.7500    10.7670     7.3180     9.3440    23.1910     2.3160 
   88.3750   -21.2560    55.6800    11.5960     8.1540     9.6380    22.9250     2.2570 
   88.5000   -21.6550    54.9340    11.7240     8.5450     9.7600    22.8440     2.2010 
   88.6250   -22.1240    54.5440    11.3890     8.5520     9.6430    22.8980     2.1640 
   88.7500   -22.6320    54.3260    11.0000     8.4010     9.2700    22.9750     2.1480 
   88.8750   -23.1390    56.5430    10.8190     8.3190     8.7980    23.0270     2.1420 
   89.0000   -23.6230    60.1120    10.8520     8.3570     8.4800    23.0660     2.1410 
   89.1250   -24.0710    61.4670    10.9870     8.4660     8.3910    23.1110     2.1430 
   89.2500   -24.4640    58.3400    11.1010     8.5640     8.5370    23.1310     2.1430 
   89.3750   -24.8120    53.5790    11.1540     8.6140     9.0100    23.1380     2.1420 
   89.5000   -25.1180    50.7420    11.1620     8.6230     9.7260    23.1360     2.1400 
   89.6250   -25.3890    51.5190    11.1410     8.6020    10.3350    23.1180     2.1380 
   89.7500   -25.6250    54.7750    11.0980     8.5580    10.5190    23.0540     2.1410 
   89.8750   -25.8300    56.6670    11.0340     8.5010    10.4040    22.9860     2.1480 
   90.0000   -26.0020    55.8010    10.9610     8.4430    10.1280    23.0440     2.1570 
   90.1250   -26.1380    53.1680    10.8920     8.3950     9.7500    23.3350     2.1600 
   90.2500   -26.2330    51.2720    10.8420     8.3630     9.3560    23.5530     2.1540 
   90.3750   -26.2900    51.8160    10.8090     8.3330     8.9750    23.6160     2.1450 
   90.5000   -26.3100    53.1350    10.7790     8.2890     8.6160    23.6090     2.1370 
   90.6250   -26.3020    53.1250    10.7370     8.2150     8.4420    23.6240     2.1340 
