~V
VERS. 2.00: Ver 2.00
~W
STRT.M 50.0000:
STOP.M 263.0000:
STEP.M 0.1250:
NULL. -999.2500:
UWI. F10656:
~C
DEPT.M :
DEN.GM/CC :
GR.API :
RML.OHMM :
RI. :
RXO.OHMM :
CALI.CM :
SP.MV :
~A
# ...
  173.7500     2.4210    55.5270    26.4940    22.1930    28.0070    24.8250    -7.6320 
  173.8750     2.3880    59.3910    34.6200    29.0640    40.5030    24.8410    -8.3300 
  174.0000     2.3490    60.3720    44.8320    38.2710    56.9870    24.8630    -9.0580 
  174.1250     2.3150    59.8070    55.5070    48.7020    71.1640    24.8840    -9.7790 
  174.2500     2.2870    59.2210    64.1060    57.9610    79.3800    24.9050   -10.4580 
  174.3750     2.2660    58.7270    68.7840    64.1300    82.1920    24.9430   -11.0270 
  174.5000     2.2510    58.1140    69.0810    66.3440    82.1220    24.9810   -11.4680 
  174.6250     2.2470    59.4670    65.8940    64.7990    79.9740    24.9980   -11.8150 
  174.7500     2.2550    61.7630    61.6320    61.5500    76.3370    24.9850   -12.0730 
  174.8750     2.2760    62.6180    57.3050    57.6470    70.9390    24.9560   -12.2340 
  175.0000     2.3000    62.3800    53.1720    53.5640    64.4000    24.9290   -12.3410 
  175.1250     2.3130    62.7500    48.8940    49.2030    57.9970    24.9200   -12.3980 
  175.2500     2.3070    62.5940    44.0120    44.2820    52.9120    24.9740   -12.3990 
  175.3750     2.2890    61.9020    38.3760    38.6690    50.4540    25.0900   -12.3960 
  175.5000     2.2700    62.5420    32.2950    32.6170    51.4580    25.1650   -12.3720 
  175.6250     2.2660    66.7170    26.6450    26.9080    48.8420    25.1480   -12.2800 
  175.7500     2.2750    71.9690    22.2020    22.2890    41.2990    25.0820   -12.1490 
  175.8750     2.2910    75.3690    19.4090    19.1840    30.8940    24.9970   -11.9860 
  176.0000     2.3060    75.0290    18.4350    17.7600    22.4200    24.9040   -11.7860 
  176.1250     2.3150    71.6660    19.6480    18.4230    21.2840    24.7670   -11.5910 
  176.2500     2.3160    69.7480    22.7690    21.0330    24.4950    24.6030   -11.4040 
  176.3750     2.3100    70.4080    27.7220    25.6810    31.7260    24.4640   -11.2180 
  176.5000     2.2980    70.5400    34.1410    32.1720    41.7200    24.3980   -11.0470 
  176.6250     2.2820    67.5000    41.0080    39.6610    51.6620    24.3840   -10.8780 
  176.7500     2.2650    64.4510    46.5000    46.1540    59.3160    24.3840   -10.6480 
  176.8750     2.2490    64.6910    48.8670    49.6520    65.4100    24.4020   -10.3390 
  177.0000     2.2390    64.9990    46.8510    48.5730    68.1760    24.4180    -9.9670 
  177.1250     2.2430    63.0060    39.8580    41.9290    64.7320    24.4190    -9.4920 
  177.2500     2.2640    62.4530    30.5390    32.3880    56.8810    24.3680    -8.9290 
  177.3750     2.3060    64.1130    21.3490    22.6540    46.3090    24.2560    -8.2890 
  177.5000     2.3660    65.2010    14.0680    14.8260    33.1700    24.1000    -7.5620 
  177.6250     2.4330    63.8630     9.5710     9.9150    21.3920    23.9920    -6.7890 
  177.7500     2.4850    63.4720     7.0020     6.9910    12.3400    23.9690    -6.0520 
  177.8750     2.5080    62.7210     5.7950     5.4590     6.9890    23.9730    -5.3880 
  178.0000     2.5000    58.2290     5.4690     4.8540     5.3250    23.9250    -4.7970 
  178.1250     2.4720    51.2930     5.6810     4.8940     5.3400    23.8730    -4.2800 
  178.2500     2.4450    46.1970     6.0440     5.1980     5.7410    23.8020    -3.8480 
  178.3750     2.4250    44.0150     6.3780     5.5710     6.0080    23.7700    -3.4810 
  178.5000     2.4130    42.8480     6.5850     5.8740     6.1020    23.7770    -3.1980 
  178.6250     2.4080    40.4230     6.6340     6.0230     6.0190    23.7710    -2.9890 
  178.7500     2.4090    38.0900     6.5990     6.0630     5.9610    23.7690    -2.8440 
  178.8750     2.4160    38.0780     6.5250     6.0380     5.9940    23.7940    -2.7220 
  179.0000     2.4270    40.4410     6.4350     5.9840     6.0330    23.7940    -2.6120 
  179.1250     2.4370    42.1620     6.3460     5.9120     6.0300    23.8040    -2.5570 
  179.2500     2.4400    41.4560     6.2520     5.8290     6.0220    23.8150    -2.5450 
  179.3750     2.4380    39.4090     6.1490     5.7380     6.0260    23.8220    -2.5830 
  179.5000     2.4350    37.9860     6.0530     5.6470     6.0080    23.7910    -2.6670 
  179.6250     2.4340    36.7830     5.9760     5.5710     6.0090    23.7290    -2.7800 
  179.7500     2.4360    34.8400     5.9130     5.5190     5.9840    23.6930    -2.9080 
  179.8750     2.4380    34.5470     5.8740     5.4950     5.9490    23.7180    -3.1050 
  180.0000     2.4380    38.4400     5.8740     5.5000     5.9770    23.7640    -3.3510 
  180.1250     2.4360    43.3230     5.9080     5.5280     6.1110    23.8060    -3.6010 
  180.2500     2.4340    43.9440     5.9530     5.5660     6.3080    23.8260    -3.8390 
  180.3750     2.4350    41.0820     5.9990     5.6040     6.4920    23.8560    -4.0450 
  180.5000     2.4370    37.9720     6.0480     5.6420     6.5660    23.9820    -4.1930 
  180.6250     2.4390    36.0130     6.1020     5.6860     6.4450    24.1760    -4.3230 
  180.7500     2.4420    35.5340     6.1860     5.7470     6.3450    24.3350    -4.4280 
  180.8750     2.4450    36.0720     6.2930     5.8300     6.3630    24.4110    -4.4650 
  181.0000     2.4480    36.6760     6.4020     5.9250     6.4920    24.4470    -4.4680 
  181.1250     2.4510    37.3400     6.4870     6.0050     6.6640    24.5350    -4.4400 
  181.2500     2.4540    38.6080     6.5260     6.0430     6.8590    24.5910    -4.3910 
  181.3750     2.4550    40.5490     6.5110     6.0260     7.0430    24.5370    -4.3470 
  181.5000     2.4540    44.0360     6.4620     5.9720     7.1910    24.4470    -4.3330 
  181.6250     2.4500    50.7820     6.4340     5.9250     7.1870    24.4040    -4.3240 
  181.7500     2.4430    58.2290     6.4720     5.9290     7.1260    24.4070    -4.3210 
  181.8750     2.4350    63.0080     6.5870     5.9960     7.1010    24.4310    -4.3410 
  182.0000     2.4270    66.4030     6.7440     6.1070     7.1480    24.4380    -4.3580 
  182.1250     2.4200    68.6300     6.8610     6.2050     7.3080    24.3550    -4.3590 
  182.2500     2.4100    66.5550     6.8690     6.2320     7.5020    24.2260    -4.3300 
  182.3750     2.3960    61.4770     6.7390     6.1590     7.4760    24.1600    -4.2790 
  182.5000     2.3790    56.5270     6.4960     5.9960     7.1490    24.1970    -4.2110 
  182.6250     2.3660    51.7970     6.2150     5.7870     6.8540    24.2840    -4.1350 
  182.7500     2.3640    45.1590     5.9910     5.6060     6.6160    24.3780    -4.0100 
  182.8750     2.3750    40.9370     5.8750     5.4970     6.3470    24.4540    -3.8440 
  183.0000     2.3960    41.6500     5.8840     5.4780     6.1790    24.5140    -3.6380 
  183.1250     2.4150    41.3410     6.0020     5.5520     6.1310    24.5320    -3.4480 
  183.2500     2.4230    38.2430     6.1540     5.6660     6.1460    24.4930    -3.3050 
  183.3750     2.4210    35.7830     6.2870     5.7810     6.1850    24.4130    -3.1940 
  183.5000     2.4130    35.7800     6.3600     5.8580     6.2260    24.3030    -3.0940 
  183.6250     2.4070    37.9530     6.3500     5.8640     6.1920    24.2190    -2.9920 
  183.7500     2.4050    40.4680     6.2840     5.8100     6.1890    24.2520    -2.8720 
  183.8750     2.4070    39.9320     6.1920     5.7210     6.1970    24.4660    -2.7600 
  184.0000     2.4110    34.0310     6.1030     5.6260     6.1000    24.7360    -2.6860 
  184.1250     2.4160    28.8960     6.0450     5.5520     5.9970    24.7470    -2.6170 
  184.2500     2.4250    28.9840     6.0220     5.5070     5.9120    24.5700    -2.5510 
  184.3750     2.4350    30.8280     6.0290     5.4850     5.8790    24.4050    -2.4900 
  184.5000     2.4460    31.2710     6.0560     5.4780     5.8600    24.3660    -2.4230 
  184.6250     2.4490    31.9760     6.0850     5.4710     5.8210    24.4190    -2.3770 
  184.7500     2.4390    32.7550     6.0980     5.4580     5.7510    24.4810    -2.3650 
  184.8750     2.4160    31.6890     6.0840     5.4370     5.6760    24.5630    -2.3620 
