~V
VERS. 2.00: Ver 2.00
~W
STRT.M 50.0000:
STOP.M 263.0000:
STEP.M 0.1250:
NULL. -999.2500:
UWI. F10656:
~C
DEPT.M :
DEN.GM/CC :
GR.API :
RML.OHMM :
RI. :
RXO.OHMM :
CALI.CM :
SP.MV :
~A
# ...
  252.5000     2.3780    69.6710     5.8820     5.1690     6.6620    23.9480    -6.2870 
  252.6250     2.3570    68.0830     5.6640     4.9660     6.3900    24.0490    -6.6530 
  252.7500     2.3480    66.9420     5.3490     4.6750     6.0320    24.1840    -6.9180 
  252.8750     2.3460    67.9370     5.0410     4.3900     5.8170    24.3370    -7.1240 
  253.0000     2.3440    70.7290     4.8590     4.2210     5.4490    24.4740    -7.4160 
  253.1250     2.3370    70.7290     4.9560     4.3110     5.2920    24.5520    -7.8740 
  253.2500     2.3290    70.7290     5.3300     4.6570     5.8090    24.5450    -8.5020 
  253.3750     2.3260    70.7290     5.9120     5.1960     6.9490    24.4810    -9.1950 
  253.5000     2.3300    70.7290     6.5480     5.7850     8.4270    24.3990    -9.8570 
  253.6250     2.3410    70.7290     6.9970     6.2010     9.8950    24.3680   -10.5030 
  253.7500     2.3530    70.7290     7.1470     6.3400    11.2280    24.3580   -11.1420 
  253.8750     2.3580    70.7290     7.0430     6.2430    12.5140    24.3570   -11.7490 
  254.0000     2.3540    70.7290     6.8460     6.0610    13.2180    24.3550   -12.1220 
  254.1250     2.3380    70.7290     6.7270     5.9510    12.7020    24.3470   -12.1110 
  254.2500     2.3200    70.7290     6.7110     5.9360    11.2250    24.3380   -11.9350 
  254.3750     2.3050    70.7290     6.7410     5.9640     9.2140    24.3330   -11.8330 
  254.5000     2.2980    70.7290     6.7530     5.9750     7.2910    24.3290   -11.8410 
  254.6250     2.3000    70.7290     6.7180     5.9420     6.9860    24.3420   -11.8650 
  254.7500     2.3050    70.7290     6.6700     5.8980     7.7460    24.3530   -11.8800 
  254.8750     2.3130    70.7290     6.6370     5.8670     8.6980    24.3580   -11.8960 
  255.0000     2.3220    70.7290     6.6220     5.8540     9.1450    24.3590   -12.0670 
  255.1250     2.3360    70.7290     6.6230     5.8550     8.7190    24.3600   -12.3310 
  255.2500     2.3540    70.7290     6.6310     5.8620     7.8020    24.3630   -12.5520 
  255.3750     2.3750    70.7290     6.6380     5.8690     7.0200    24.3710   -12.5950 
  255.5000     2.3940    70.7290     6.6430     5.8730     6.5890    24.3850   -12.5000 
  255.6250     2.4050    70.7290     6.6460     5.8760     6.6770    24.4030   -12.3720 
  255.7500     2.4060    70.7290     6.6460     5.8760     6.8510    24.3990   -12.3320 
  255.8750     2.3930    70.7290     6.6450     5.8750     7.0050    24.3810   -12.3340 
  256.0000     2.3650    70.7290     6.6420     5.8720     7.0660    24.3690   -12.4210 
  256.1250     2.3240    70.7290     6.6400     5.8700     7.3870    24.3720   -12.5660 
  256.2500     2.2840    70.7290     6.6380     5.8690     7.6540    24.3820   -12.7320 
  256.3750     2.2510    70.7290     6.6390     5.8690     7.5930    24.3850   -12.9120 
  256.5000     2.2320    70.7290     6.6400     5.8700     7.5620    24.3700   -13.0610 
  256.6250     2.2270    70.7290     6.6410     5.8710     7.6260    24.3600   -13.2000 
  256.7500     2.2310    70.7290     6.6420     5.8720     7.7000    24.3610   -13.3360 
  256.8750     2.2410    70.7290     6.6430     5.8730     7.7180    24.3810   -13.3850 
  257.0000     2.2540    70.7290     6.6440     5.8740     7.8580    24.4110   -13.3850 
  257.1250     2.2680    70.7290     6.6450     5.8750     8.2800    24.3880  -999.2500 
  257.2500     2.2780    70.7290     6.6470     5.8770     8.4700    24.3810  -999.2500 
  257.3750     2.2810    70.7290     6.6480     5.8780     7.9760    24.3920  -999.2500 
  257.5000     2.2770    70.7290     6.6480     5.8780     6.8510    24.4210  -999.2500 
  257.6250     2.2720    70.7290     6.6490     5.8780     6.4030    24.4340  -999.2500 
  257.7500     2.2730    70.7290     6.6490     5.8790     6.4430    24.4240  -999.2500 
  257.8750     2.2850    70.7290     6.6490     5.8780     6.8730    24.3930  -999.2500 
  258.0000     2.3060    70.7290     6.6480     5.8770     7.2410    24.3620  -999.2500 
  258.1250     2.3270    70.7290     6.6460     5.8760     6.9440    24.3530  -999.2500 
  258.2500     2.3440    70.7290     6.6450     5.8750     6.2760    24.3670  -999.2500 
  258.3750     2.3570    70.7290     6.6440     5.8740     5.5810    24.3940  -999.2500 
  258.5000     2.3700    70.7290     6.6450     5.8750     5.0580    24.3900  -999.2500 
  258.6250     2.3780    70.7290     6.6460     5.8760     4.9530    24.2820  -999.2500 
  258.7500     2.3680    70.7290     6.6480     5.8780     5.0650    23.9760  -999.2500 
  258.8750     2.3180    70.7290     6.6490     5.8790     5.2040    23.2880  -999.2500 
  259.0000     2.2160    70.7290     6.6490     5.8790     5.2380    22.0250  -999.2500 
  259.1250     2.0720    70.7290     6.6490     5.8790     4.9130    19.9400  -999.2500 
  259.2500     1.9330    70.7290     6.6490     5.8790     4.6330    17.6000  -999.2500 
  259.3750     1.8240    70.7290     6.6490     5.8790     4.5220    15.8280  -999.2500 
  259.5000     1.7520    70.7290     6.6490     5.8790     4.5080    15.0910  -999.2500 
  259.6250     1.7180    70.7290     6.6490     5.8790     4.5090    14.9990  -999.2500 
  259.7500     1.7050    70.7290     6.6490     5.8790     4.5090    14.9870  -999.2500 
  259.8750     1.7030    70.7290     6.6490     5.8790     4.5090    14.9840  -999.2500 
  260.0000     1.7030    70.7290     6.6490     5.8790     4.5090    14.9840  -999.2500 
  260.1250     1.7040    70.7290     6.6490     5.8790     4.5100    14.9840  -999.2500 
  260.2500     1.7030    70.7290     6.6490     5.8790     4.5100    14.9840  -999.2500 
  260.3750     1.7020    70.7290     6.6490     5.8790     4.5100    14.9840  -999.2500 
  260.5000     1.7000    70.7290     6.6490     5.8790     4.5100    14.9840  -999.2500 
  260.6250     1.6980    70.7290     6.6490     5.8790     4.5100    14.9840  -999.2500 
  260.7500     1.6960    70.7290     6.6490     5.8790     4.5100    14.9840  -999.2500 
  260.8750     1.6960    70.7290     6.6490     5.8790     4.5100    14.9840  -999.2500 
  261.0000     1.6960    70.7290     6.6490     5.8790     4.5100    14.9840  -999.2500 
  261.1250     1.6970    70.7290     6.6490     5.8790     4.5090    14.9840  -999.2500 
  261.2500     1.6980    70.7290     6.6490     5.8790     4.5090    14.9840  -999.2500 
  261.3750     1.7000    70.7290     6.6490     5.8790     4.5080    14.9840  -999.2500 
  261.5000  -999.2500    70.7290     6.6490     5.8790     4.5080    14.9840  -999.2500 
  261.6250  -999.2500    70.7290     6.6490     5.8790     4.5080    14.9840  -999.2500 
  261.7500  -999.2500    70.7290     6.6490     5.8790     4.5080    14.9840  -999.2500 
  261.8750  -999.2500    70.7290     6.6490     5.8790     4.5090    14.9840  -999.2500 
  262.0000  -999.2500    70.7290     6.6490     5.8790     4.5090    14.9840  -999.2500 
  262.1250  -999.2500    70.7290     6.6490     5.8790     4.5090    14.9840  -999.2500 
  262.2500  -999.2500    70.7290     6.6490     5.8790     4.5090    14.9840  -999.2500 
  262.3750  -999.2500    70.7290     6.6490     5.8790     4.5090    14.9840  -999.2500 
  262.5000  -999.2500    70.7290     6.6490     5.8790     4.5080    14.9840  -999.2500 
  262.6250  -999.2500    70.7290     6.6490     5.8790     4.5080    14.9840  -999.2500 
  262.7500  -999.2500    70.7290     6.6490     5.8790     4.5080    14.9840  -999.2500 
  262.8750  -999.2500    70.7290     6.6490     5.8790     4.5080    14.9840  -999.2500 
  263.0000  -999.2500    70.7290     6.6490     5.8790     4.5080    14.9840  -999.2500 
