~V
VERS. 2.00: Ver 2.00
~W
STRT.M 49.0000:
STOP.M 254.0000:
STEP.M 0.1250:
NULL. -999.2500:
UWI. F10669:
~C
DEPT.M :
DEN.GM/CC :
GR.API :
RML.OHMM :
RI. :
RXO.OHMM :
CALI.CM :
SP.MV :
~A
# ...
  105.2500     2.3350    79.4430     6.4360     5.5320     6.5840    23.8220   -14.1660 
  105.3750     2.3040    74.4250     7.0700     5.9500     6.9180    23.7920   -14.2010 
  105.5000     2.2710    71.7170     7.6110     6.4050     8.1910    23.7290   -14.2700 
  105.6250     2.2580    72.2750     7.8590     6.7010    10.4990    23.6590   -14.4030 
  105.7500     2.2710    73.4460     7.7860     6.7570    10.4920    23.5830   -14.5570 
  105.8750     2.2940    75.2540     7.5920     6.6580     8.0140    23.6110   -14.7550 
  106.0000     2.2970    78.1030     7.5620     6.6260     7.1000    23.6190   -14.9720 
  106.1250     2.2670    77.9830     7.7850     6.7620     7.7100    23.4900   -15.1700 
  106.2500     2.2130    71.5810     8.1940     7.0580     8.6750    23.3200   -15.3500 
  106.3750     2.1680    63.3030     8.5900     7.3980     9.5500    23.3200   -15.4660 
  106.5000     2.1590    62.0310     8.7530     7.6010    10.1580    23.4300   -15.5760 
  106.6250     2.1990    66.4730     8.6170     7.5640     9.9020    23.6220   -15.6400 
  106.7500     2.2720    71.0300     8.2970     7.3200     8.6000    23.7840   -15.6800 
  106.8750     2.3350    73.9290     7.9940     7.0050     8.2430    23.8460   -15.7010 
  107.0000     2.3540    77.3210     7.7890     6.7350     9.1400    23.8060   -15.7170 
  107.1250     2.3330    80.2850     7.6450     6.5230     8.9190    23.7580   -15.7230 
  107.2500     2.2960    80.4610     7.5040     6.3470     8.0700    23.7400   -15.7350 
  107.3750     2.2650    79.0040     7.3230     6.1770     7.5970    23.7440   -15.7730 
  107.5000     2.2440    78.8600     7.1440     6.0190     7.4870    23.7510   -15.7780 
  107.6250     2.2350    81.6620     7.0570     5.9220     7.3500    23.7680   -15.7590 
  107.7500     2.2490    86.5940     7.1230     5.9370     6.8560    23.7870   -15.7170 
  107.8750     2.2950    88.4190     7.3540     6.0910     7.2130    23.7930   -15.6660 
  108.0000     2.3470    84.5520     7.6420     6.3100     8.1760    23.7830   -15.5910 
  108.1250     2.3750    79.2280     7.8750     6.5140     9.2580    23.7580   -15.5210 
  108.2500     2.3630    77.6250     7.9620     6.6260     9.3480    23.6900   -15.4720 
  108.3750     2.3190    79.1880     7.8630     6.5880     7.8680    23.6790   -15.4190 
  108.5000     2.2730    78.9870     7.6700     6.4560     7.5150    23.6460   -15.3900 
  108.6250     2.2400    77.7550     7.4480     6.2810     7.4710    23.6390   -15.3430 
  108.7500     2.2250    77.8530     7.2310     6.1000     7.2780    23.6840   -15.3140 
  108.8750     2.2340    77.1570     7.0280     5.9390     7.1730    23.6930   -15.2910 
  109.0000     2.2560    74.6200     6.8490     5.8030     6.9990    23.6650   -15.2770 
  109.1250     2.2850    73.5320     6.7360     5.7050     6.6230    23.6580   -15.2910 
  109.2500     2.3050    77.3650     6.7510     5.6810     6.5260    23.6860   -15.3260 
  109.3750     2.2990    83.1110     6.9450     5.7780     6.8650    23.6800   -15.3990 
  109.5000     2.2730    84.1810     7.2280     5.9540     7.2850    23.5650   -15.4940 
  109.6250     2.2410    81.9660     7.4820     6.1360     7.5240    23.3640   -15.6020 
  109.7500     2.2160    79.7580     7.5770     6.2300     7.4350    23.1610   -15.6920 
  109.8750     2.2130    79.1730     7.4050     6.1400     7.5380    23.1440   -15.7070 
  110.0000     2.2290    78.9320     7.0540     5.9000     7.1810    23.2610   -15.7170 
  110.1250     2.2550    77.9530     6.6360     5.5820     6.6190    23.3530   -15.6800 
  110.2500     2.2770    77.4730     6.2540     5.2560     5.9950    23.3830   -15.6070 
  110.3750     2.2880    78.3260     5.9770     4.9820     5.9410    23.3520   -15.5040 
  110.5000     2.2960    79.5410     5.7970     4.7690     6.1820    23.3050   -15.3990 
  110.6250     2.3070    80.3780     5.7120     4.6310     6.0980    23.4030   -15.3210 
  110.7500     2.3190    81.8610     5.7460     4.5890     5.8220    23.6390   -15.3010 
  110.8750     2.3240    82.6040     5.9800     4.7080     5.7340    23.8080   -15.4140 
  111.0000     2.3180    80.4570     6.4340     5.0030     6.0660    23.8510   -15.5580 
  111.1250     2.3020    78.9560     7.1130     5.4830     6.9590    23.8270   -15.7420 
  111.2500     2.2790    79.9080     7.9540     6.1170     8.1610    23.8110   -15.9420 
  111.3750     2.2540    79.9580     8.7800     6.8040     8.9440    23.7570   -16.1220 
  111.5000     2.2320    78.2970     9.3850     7.3820     9.3980    23.6440   -16.2750 
  111.6250     2.2190    76.9670     9.6710     7.7480     9.7310    23.5220   -16.3960 
  111.7500     2.2160    75.3020     9.6600     7.8720    10.0810    23.4400   -16.4860 
  111.8750     2.2170    73.4490     9.4220     7.7600    10.1650    23.3790   -16.4540 
  112.0000     2.2150    74.1030     9.0670     7.5060     9.8740    23.3580   -16.3790 
  112.1250     2.2120    75.8930     8.6330     7.1600     9.3520    23.3920   -16.2440 
  112.2500     2.2140    75.3000     8.1520     6.7700     9.0530    23.4960   -16.0710 
  112.3750     2.2210    74.6900     7.6800     6.3910     8.4820    23.5920   -15.9180 
  112.5000     2.2300    75.9170     7.2930     6.0730     7.5130    23.5870   -15.7750 
  112.6250     2.2440    76.1930     7.0640     5.8610     6.9050    23.5910   -15.6450 
  112.7500     2.2720    76.5560     7.0240     5.7840     7.1580    23.5460   -15.5150 
  112.8750     2.3220    81.2410     7.1650     5.8550     7.7500    23.4930   -15.4130 
  113.0000     2.3740    85.1870     7.3660     5.9990     7.9480    23.5890   -15.3290 
  113.1250     2.3980    82.8440     7.5110     6.1410     8.1780    23.7490   -15.2630 
  113.2500     2.3820    77.1020     7.4950     6.2000     9.0080    23.8080   -15.2160 
  113.3750     2.3390    76.7150     7.2630     6.1090     8.1210    23.7690   -15.1630 
  113.5000     2.2970    80.1930     6.9300     5.9210     7.2450    23.6880   -15.1000 
  113.6250     2.2710    83.5460     6.5970     5.6990     6.7840    23.5590   -15.0240 
  113.7500     2.2630    85.5530     6.3460     5.5000     6.5620    23.5110   -14.9410 
  113.8750     2.2690    86.4780     6.2470     5.3850     6.4520    23.3980   -14.8300 
  114.0000     2.2790    86.3110     6.2580     5.3500     6.4280    23.2000   -14.7090 
  114.1250     2.2850    85.5490     6.3080     5.3590     6.2760    23.0860   -14.6030 
  114.2500     2.2810    83.8620     6.3220     5.3550     6.3680    23.1550   -14.5140 
  114.3750     2.2730    80.7320     6.2620     5.2930     6.6360    23.4040   -14.4590 
  114.5000     2.2720    78.6480     6.1640     5.1880     6.7590    23.6810   -14.4230 
  114.6250     2.2850    80.5700     6.0610     5.0630     6.3460    23.8170   -14.4500 
  114.7500     2.3070    84.8150     5.9730     4.9410     5.8170    23.8620   -14.5140 
  114.8750     2.3230    86.9430     5.8800     4.8250     5.9630    23.8660   -14.7080 
  115.0000     2.3260    86.1370     5.7410     4.6990     6.3460    23.8760   -14.9840 
  115.1250     2.3170    86.1740     5.5650     4.5650     6.4310    23.9220   -15.3340 
  115.2500     2.2990    87.4490     5.4600     4.4830     6.1650    23.9600   -15.7900 
  115.3750     2.2880    85.9090     5.7030     4.6280     6.1850    23.9720   -16.3360 
  115.5000     2.3110    82.5230     6.4850     5.1370     6.5170    23.9730   -16.9800 
  115.6250     2.3870    79.0000     7.9570     6.1450     7.9210    23.9620   -17.6920 
  115.7500     2.4940    74.7860    10.1330     7.7220    11.7180    23.9150   -18.4940 
  115.8750     2.5470    70.1160    12.6370     9.7270    20.7380    23.8150   -19.3140 
  116.0000     2.5100    65.7260    14.4150    11.4150    26.0770    23.7480   -20.1600 
  116.1250     2.4060    63.5090    14.6460    12.0720    20.6550    23.6880   -20.9820 
  116.2500     2.2870    63.0490    13.4670    11.5740    14.6140    23.6250   -21.7160 
  116.3750     2.1980    63.0570    11.8720    10.4810    12.3680    23.5840   -22.3200 
