~V
VERS. 2.00: Ver 2.00
~W
STRT.M 50.0000:
STOP.M 224.0000:
STEP.M 0.1250:
NULL. -999.2500:
UWI. F10690:
~C
DEPT.M :
SP.MV :
DEN.GM/CC :
GR.API :
RML.OHMM :
RI. :
RXO.OHMM :
CALI.CM :
~A
# ...
  140.0000   -18.8670     2.5740    42.7980    25.9640    24.9820    21.6980    25.4210 
  140.1250   -18.9230     2.5830    43.9930    26.6710    25.5660    21.2900    25.3900 
  140.2500   -19.0070     2.5950    46.5700    27.6270    26.3920    21.5200    25.3450 
  140.3750   -19.0830     2.6010    48.8590    28.7270    27.3650    24.3560    25.3050 
  140.5000   -19.1410     2.6020    48.8540    29.7730    28.3180    26.6030    25.2660 
  140.6250   -19.1800     2.6020    45.8370    30.4460    28.9740    24.4590    25.1950 
  140.7500   -19.2190     2.6100    42.9220    30.6340    29.2040    22.6480    25.0780 
  140.8750   -19.2630     2.6220    41.9580    30.3570    29.0060    23.1240    24.9960 
  141.0000   -19.2930     2.6290    42.2290    29.7860    28.5140    23.6560    25.0210 
  141.1250   -19.3030     2.6320    42.4960    29.1810    27.9550    22.1210    25.1540 
  141.2500   -19.3030     2.6360    43.3360    28.7000    27.4700    20.7410    25.3140 
  141.3750   -19.3120     2.6390    44.8550    28.3130    27.0130    21.5280    25.4590 
  141.5000   -19.3290     2.6400    45.8730    27.9310    26.4830    22.9860    25.5650 
  141.6250   -19.3260     2.6450    45.9280    27.4600    25.8060    23.9170    25.6170 
  141.7500   -19.3040     2.6550    45.0380    26.8890    25.0370    22.6980    25.6330 
  141.8750   -19.2790     2.6590    43.3050    26.2880    24.2820    21.0100    25.6350 
  142.0000   -19.2800     2.6540    42.4620    25.8250    23.7090    19.5350    25.6350 
  142.1250   -19.3180     2.6480    44.0680    25.7550    23.5690    20.3420    25.6350 
  142.2500   -19.3670     2.6470    45.5140    26.0770    23.8650    21.0070    25.6350 
  142.3750   -19.4090     2.6450    45.9090    26.6710    24.4980    21.5040    25.6350 
  142.5000   -19.4270     2.6350    47.7220    27.3090    25.2460    22.8580    25.6350 
  142.6250   -19.4280     2.6200    50.0250    27.6800    25.7600    25.3530    25.6350 
  142.7500   -19.4330     2.6120    49.5560    27.7190    25.8870    26.0180    25.6340 
  142.8750   -19.4470     2.6160    46.7900    27.5630    25.6910    25.5920    25.6290 
  143.0000   -19.4710     2.6280    45.3190    27.4410    25.3680    25.1220    25.6150 
  143.1250   -19.4950     2.6460    44.9230    27.5680    25.1250    24.0450    25.5940 
  143.2500   -19.5290     2.6650    42.9870    27.9020    25.0150    24.7280    25.5850 
  143.3750   -19.5710     2.6780    41.4410    28.2680    24.9560    27.3610    25.5830 
  143.5000   -19.6120     2.6850    42.5220    28.4250    24.7960    29.0070    25.5830 
  143.6250   -19.6510     2.6940    44.5880    28.1710    24.4010    27.1370    25.5830 
  143.7500   -19.6790     2.7050    43.1880    27.6830    23.8930    25.1070    25.5830 
  143.8750   -19.6970     2.7090    38.5820    27.2270    23.4850    23.5120    25.5830 
  144.0000   -19.7120     2.6940    35.6590    27.0710    23.3980    22.5330    25.5830 
  144.1250   -19.7170     2.6630    38.2580    27.4180    23.8290    22.9770    25.5820 
  144.2500   -19.7220     2.6270    41.9300    28.0490    24.5890    24.5230    25.5810 
  144.3750   -19.7330     2.5960    43.9320    28.6460    25.3780    25.7300    25.5820 
  144.5000   -19.7550     2.5860    44.7250    28.8830    25.8390    25.3310    25.5830 
  144.6250   -19.7930     2.5990    43.9970    28.4170    25.5700    24.6640    25.5830 
  144.7500   -19.8200     2.6120    42.0120    27.2740    24.5890    21.5060    25.5810 
  144.8750   -19.8280     2.6080    40.6230    25.5330    23.0230    17.6540    25.5700 
  145.0000   -19.8290     2.5900    41.3470    23.3820    21.1200    16.2450    25.5460 
  145.1250   -19.8400     2.5690    43.4770    21.0990    19.1960    15.7280    25.4890 
  145.2500   -19.8740     2.5450    45.3840    19.0280    17.5290    13.5410    25.2980 
  145.3750   -19.9080     2.5150    46.3930    17.4080    16.2720    11.1110    24.9180 
  145.5000   -19.9260     2.4900    46.3180    16.3610    15.4860     9.8510    24.5090 
  145.6250   -19.9240     2.4840    44.5980    15.9240    15.1850    10.4090    24.4050 
  145.7500   -19.9180     2.4900    41.7420    15.8140    15.1530    11.4840    24.5820 
  145.8750   -19.9290     2.4970    38.9110    15.8000    15.2070    12.3830    24.9390 
  146.0000   -19.9510     2.5040    37.8470    15.6800    15.1720    12.8520    25.2870 
  146.1250   -19.9710     2.5150    39.4080    15.3310    14.9170    12.9890    25.4660 
  146.2500   -19.9790     2.5300    41.8800    14.8600    14.5140    12.5070    25.5080 
  146.3750   -19.9740     2.5430    43.5880    14.3700    14.0550    11.6520    25.4910 
  146.5000   -19.9760     2.5480    43.0490    13.9120    13.6020    10.8690    25.4750 
  146.6250   -19.9840     2.5430    41.0530    13.4830    13.1740    10.7830    25.4690 
  146.7500   -19.9980     2.5320    40.7810    13.0910    12.7860    10.9860    25.4680 
  146.8750   -20.0220     2.5200    41.7690    12.8070    12.4910    10.6250    25.4690 
  147.0000   -20.0530     2.5160    40.9250    12.7430    12.3740     9.9220    25.4700 
  147.1250   -20.0980     2.5210    40.0440    13.0250    12.5490     9.7740    25.4690 
  147.2500   -20.1390     2.5300    42.0540    13.5640    12.9620    10.5960    25.4680 
  147.3750   -20.1710     2.5370    45.7070    14.2200    13.5220    12.0420    25.4680 
  147.5000   -20.1990     2.5410    48.4990    14.8160    14.0920    13.5990    25.4690 
  147.6250   -20.2350     2.5380    50.3220    15.1680    14.5060    14.1950    25.4710 
  147.7500   -20.2970     2.5310    51.1420    15.2830    14.7200    13.0900    25.4680 
  147.8750   -20.3740     2.5240    48.7300    15.2120    14.7430    12.1930    25.4580 
  148.0000   -20.4570     2.5170    43.8180    15.0060    14.6060    12.2750    25.4360 
  148.1250   -20.5400     2.5040    41.1050    14.6770    14.3200    12.9070    25.4250 
  148.2500   -20.6190     2.4890    40.6520    14.2890    13.9610    12.8630    25.4220 
  148.3750   -20.6980     2.4770    40.5330    13.9170    13.6010    12.0860    25.4220 
  148.5000   -20.7840     2.4730    41.2890    13.6590    13.3210    10.7150    25.4220 
  148.6250   -20.8860     2.4770    42.2090    13.6400    13.2210    10.4540    25.4220 
  148.7500   -20.9870     2.4840    42.2100    13.8290    13.2980    11.6830    25.4220 
  148.8750   -21.0770     2.4870    41.5170    14.1520    13.5090    13.5570    25.4220 
  149.0000   -21.1620     2.4840    41.1850    14.5110    13.7830    13.7600    25.4210 
  149.1250   -21.2370     2.4830    41.0080    14.8400    14.0560    12.0780    25.4060 
  149.2500   -21.3170     2.4890    41.0410    15.1540    14.3180    11.4910    25.3470 
  149.3750   -21.4090     2.4990    43.9040    15.5220    14.6190    11.6760    25.2250 
  149.5000   -21.5140     2.5050    48.6990    16.0420    15.0430    12.4300    25.0850 
  149.6250   -21.6170     2.4990    51.3400    16.8750    15.7340    13.2110    25.1300 
  149.7500   -21.7040     2.4870    52.6730    18.1020    16.7660    14.5550    25.2720 
  149.8750   -21.7850     2.4720    54.9920    19.8310    18.2460    16.3550    25.4010 
  150.0000   -21.8650     2.4580    58.2290    22.0820    20.2480    18.1170    25.4580 
  150.1250   -21.9490     2.4470    58.0860    24.6730    22.7260    21.0270    25.4780 
  150.2500   -22.0500     2.4410    55.4960    27.0680    25.2230    24.0580    25.4980 
  150.3750   -22.1570     2.4380    53.5490    28.7860    27.2510    27.0630    25.5180 
  150.5000   -22.2520     2.4360    54.6880    29.5130    28.4030    27.1870    25.5260 
  150.6250   -22.3170     2.4320    58.5040    29.0650    28.3660    23.0910    25.5260 
  150.7500   -22.3550     2.4270    61.2630    27.8520    27.4760    18.5860    25.5260 
  150.8750   -22.3870     2.4220    61.6600    26.1160    25.9720    16.9760    25.5260 
  151.0000   -22.4260     2.4190    60.7750    24.0480    24.0720    16.8590    25.5260 
  151.1250   -22.4760     2.4160    59.4480    21.8890    22.0270    15.7130    25.5260 
