~V
VERS. 2.00: Ver 2.00
~W
STRT.M 50.0000:
STOP.M 221.0000:
STEP.M 0.1250:
NULL. -999.2500:
UWI. F10611:
~C
DEPT.M :
SP.MV :
GR.API :
RML.OHMM :
RI. :
RXO.OHMM :
CALI.CM :
DEN.GM/CC :
~A
# ...
   61.2500   -30.2980    57.2420    18.4560    17.5530    18.2050    23.4720     2.2870 
   61.3750   -30.4140    56.6000    17.5040    16.5510    12.5860    23.4430     2.2350 
   61.5000   -30.5660    59.4190    16.6750    15.5630    10.0530    23.7480     2.2010 
   61.6250   -30.6900    64.3480    16.2350    14.9360     9.2480    24.2230     2.1910 
   61.7500   -30.8260    64.8370    16.1210    14.7090     9.2240    24.5160     2.1870 
   61.8750   -30.9570    60.4910    16.2220    14.7970     9.3960    24.7620     2.1730 
   62.0000   -31.0970    55.7840    16.3970    15.0330     9.4710    25.1040     2.1480 
   62.1250   -31.2530    54.8090    16.5400    15.2470     9.9740    25.3900     2.1210 
   62.2500   -31.4270    55.3570    16.6100    15.3610    10.6000    25.4940     2.1080 
   62.3750   -31.6010    56.4110    16.5580    15.3480    10.9540    25.5120     2.1160 
   62.5000   -31.7750    58.0370    16.3490    15.2100    10.7160    25.5150     2.1340 
   62.6250   -31.9380    61.1950    16.0010    14.9670    10.1690    25.4630     2.1390 
   62.7500   -32.0710    63.8330    15.6610    14.6840     9.5240    25.4710     2.1230 
   62.8750   -32.1620    63.7890    15.4630    14.4180     9.1620    25.4020     2.0940 
   63.0000   -32.1960    63.1180    15.4750    14.2300     9.2600    25.2610     2.0700 
   63.1250   -32.1430    63.6530    15.6880    14.1810     9.2640    25.0480     2.0720 
   63.2500   -32.0010    62.9800    15.9830    14.2410     9.0320    24.8070     2.0990 
   63.3750   -31.7950    58.6910    16.2710    14.3610     8.7610    24.3310     2.1350 
   63.5000   -31.5180    52.7250    16.4880    14.4780     8.6390    23.9040     2.1590 
   63.6250   -31.1970    51.1450    16.5670    14.5070     8.6080    23.6660     2.1630 
   63.7500   -30.8560    52.5290    16.5080    14.4230     8.3610    23.5130     2.1580 
   63.8750   -30.4930    53.7130    16.3320    14.2370     8.1230    23.3980     2.1520 
   64.0000   -30.1390    54.3410    16.0940    13.9840     7.9690    23.3180     2.1550 
   64.1250   -29.7840    55.5670    15.8760    13.7040     8.0170    23.2760     2.1700 
   64.2500   -29.4590    56.9370    15.7170    13.4360     8.1740    23.2410     2.1860 
   64.3750   -29.1610    57.8010    15.6000    13.1920     8.4420    23.2210     2.1920 
   64.5000   -28.9180    58.8450    15.4840    12.9580     8.4480    23.2270     2.1830 
   64.6250   -28.7510    59.0090    15.3230    12.7130     8.3950    23.4030     2.1570 
   64.7500   -28.6190    56.7810    15.1210    12.4580     8.2400    23.7930     2.1310 
   64.8750   -28.5750    53.9850    14.9160    12.2140     8.0760    24.2090     2.1170 
   65.0000   -28.5700    53.5370    14.7510    12.0100     8.0870    24.4300     2.1190 
   65.1250   -28.6740    55.0370    14.6670    11.8890     7.9800    24.2810     2.1280 
   65.2500   -28.8090    55.8210    14.6500    11.8490     8.0150    23.9350     2.1320 
   65.3750   -28.9840    55.4650    14.6780    11.8640     8.0960    23.7520     2.1290 
   65.5000   -29.1690    55.9780    14.7270    11.8980     8.3820    23.8460     2.1270 
   65.6250   -29.3840    57.8040    14.7620    11.9170     8.5900    23.9860     2.1340 
   65.7500   -29.5960    59.1520    14.7530    11.9000     8.6000    23.9410     2.1470 
   65.8750   -29.7850    60.1040    14.6800    11.8390     8.4600    23.9910     2.1650 
   66.0000   -29.9680    60.5940    14.5310    11.7320     8.4030    24.1970     2.1870 
   66.1250   -30.1130    59.3930    14.2840    11.5640     8.2350    24.4640     2.2100 
   66.2500   -30.2580    56.7060    13.9650    11.3400     8.2680    24.9050     2.2250 
   66.3750   -30.3850    54.1660    13.6180    11.0860     8.1160    25.6380     2.2220 
   66.5000   -30.4990    53.2550    13.3300    10.8600     7.5790    26.6030     2.2070 
   66.6250   -30.5750    54.4200    13.2540    10.7790     6.5200    27.4930     2.1880 
   66.7500   -30.6150    55.0300    13.4580    10.9150     5.6900    27.9470     2.1570 
   66.8750   -30.6410    53.0730    13.9330    11.2960     5.4360    27.8100     2.1020 
   67.0000   -30.6330    49.8590    14.5420    11.8510     7.1890    27.3910     2.0200 
   67.1250   -30.6330    49.4180    14.9710    12.3600    15.3760    27.1610     1.9300 
   67.2500   -30.6270    50.2900    14.9720    12.5720    32.6610    27.4070     1.8670 
   67.3750   -30.6400    50.3600    14.5230    12.3930    38.9180    27.7490     1.8560 
   67.5000   -30.6640    51.2680    13.8320    11.9330    24.9730    27.4440     1.8990 
   67.6250   -30.7460    54.6830    13.2240    11.4340    12.5440    26.5630     1.9790 
   67.7500   -30.8900    56.9290    12.8600    11.0750     7.4790    26.0030     2.0570 
   67.8750   -31.0840    56.6390    12.7130    10.8850     7.0250    25.6970     2.1250 
   68.0000   -31.3410    57.4250    12.6190    10.7870    10.1550    25.2130     2.1810 
   68.1250   -31.6270    61.5830    12.2820    10.5730    13.3200    24.3890     2.2150 
   68.2500   -31.9580    64.8640    11.5760    10.0930    10.2290    23.6370     2.2220 
   68.3750   -32.3030    64.7910    10.5530     9.3350     8.0630    23.0970     2.2140 
   68.5000   -32.6660    63.6230     9.4000     8.4170     7.3990    22.8260     2.2140 
   68.6250   -32.9830    64.3070     8.3920     7.5470     6.8820    22.8790     2.2410 
   68.7500   -33.2790    66.0040     7.6700     6.8840     6.1370    23.1380     2.2750 
   68.8750   -33.5340    67.8610     7.2590     6.4910     5.5920    23.5770     2.2960 
   69.0000   -33.7340    69.0380     7.1270     6.3620     5.6830    24.2090     2.2940 
   69.1250   -33.8640    68.9710     7.2610     6.4820     5.9120    24.6870     2.2770 
   69.2500   -33.9110    66.5480     7.5360     6.7360     6.2420    24.8560     2.2670 
   69.3750   -33.8900    63.7790     7.8170     7.0040     6.3810    24.8750     2.2700 
   69.5000   -33.7890    64.3180     7.9590     7.1520     6.4340    24.9000     2.2810 
   69.6250   -33.6320    68.3290     7.8240     7.0450     6.4610    24.9440     2.2870 
   69.7500   -33.4110    70.3430     7.4910     6.7470     6.4280    24.9600     2.2850 
   69.8750   -33.1530    69.8830     7.0860     6.3640     6.4800    24.9330     2.2800 
   70.0000   -32.8610    71.0740     6.7380     6.0050     6.1930    24.8870     2.2780 
   70.1250   -32.5420    76.1280     6.5920     5.7890     5.7480    24.8630     2.2790 
   70.2500   -32.2260    79.2550     6.7290     5.7800     5.7720    24.8580     2.2700 
   70.3750   -31.9060    76.8600     7.2630     6.0620     6.5330    24.8480     2.2520 
   70.5000   -31.6220    71.4420     8.3290     6.7350     7.2260    24.8220     2.2450 
   70.6250   -31.3480    67.2940    10.1680     7.9960     8.4140    24.7310     2.2830 
   70.7500   -31.1130    64.1420    12.6350     9.7870    11.7290    24.6190     2.3500 
   70.8750   -30.8780    59.7680    15.3690    11.9210    17.7170    24.3420     2.4020 
   71.0000   -30.6760    55.0960    17.6590    13.9210    21.7180    23.9570     2.3980 
   71.1250   -30.4930    53.7430    18.4260    14.9160    19.9540    23.5070     2.3290 
   71.2500   -30.3310    54.5990    17.7130    14.7400    16.8410    23.0680     2.2400 
   71.3750   -30.1880    55.0460    16.2160    13.8180    13.5170    22.6380     2.1750 
   71.5000   -30.0290    55.0060    14.8650    12.8290    10.8840    22.3200     2.1680 
   71.6250   -29.8710    56.8870    14.4100    12.3630     9.6500    22.2610     2.2240 
   71.7500   -29.6840    60.0780    14.8050    12.4970     9.9740    22.3700     2.2820 
   71.8750   -29.4840    61.1150    15.8350    13.1470    11.8860    22.5370     2.2920 
   72.0000   -29.2660    57.7530    17.1300    14.0890    14.5080    22.6850     2.2480 
   72.1250   -29.0570    54.1750    18.1890    14.9650    12.6650    22.7610     2.1790 
   72.2500   -28.8630    53.7900    18.7210    15.5020     9.6660    22.8470     2.1210 
   72.3750   -28.6830    55.1050    18.6900    15.6340     8.0870    23.0990     2.0960 
