~V
VERS. 2.00: Ver 2.00
~W
STRT.M 57.0000:
STOP.M 242.0000:
STEP.M 0.1250:
NULL. -999.2500:
UWI. F10636:
~C
DEPT.M :
GR.API :
RML.OHMM :
RI. :
RXO.OHMM :
CALI.CM :
DEN.GM/CC :
SP.MV :
~A
# ...
  169.5000    45.9480    15.6070    14.3040    14.4420    22.7780     2.4440    -9.0640 
  169.6250    45.2000    15.9230    14.5150    14.1220    22.7660     2.4250    -9.0480 
  169.7500    45.5530    16.3870    14.8900    14.1630    22.8380     2.4150    -9.0420 
  169.8750    46.6270    17.0020    15.4370    15.5300    22.9630     2.4200    -9.0640 
  170.0000    48.2700    17.7200    16.0920    17.1530    23.0750     2.4420    -9.1190 
  170.1250    50.1490    18.4390    16.7190    17.3950    23.1550     2.4780    -9.2210 
  170.2500    51.9510    19.0660    17.2070    17.2540    23.1740     2.5120    -9.3350 
  170.3750    53.2780    19.5690    17.5370    17.5000    23.1320     2.5320    -9.4410 
  170.5000    52.7410    19.9430    17.7600    17.4800    23.0230     2.5330    -9.5280 
  170.6250    51.5890    20.1630    17.9460    17.3390    22.9050     2.5170    -9.6040 
  170.7500    52.1230    20.2500    18.1120    17.5030    22.8870     2.4990    -9.6680 
  170.8750    52.2190    20.2180    18.2240    17.6540    22.9580     2.4850    -9.6950 
  171.0000    50.2420    20.0870    18.2520    17.8420    23.0340     2.4780    -9.6800 
  171.1250    48.3690    19.8710    18.1960    18.1480    23.1030     2.4730    -9.6390 
  171.2500    47.5240    19.6180    18.1110    18.1280    23.2440     2.4650    -9.6220 
  171.3750    46.7000    19.3770    18.0210    18.2040    23.4970     2.4570    -9.6190 
  171.5000    45.7820    19.1880    17.9200    18.2550    23.7270     2.4520    -9.6130 
  171.6250    46.6110    19.0540    17.7830    18.0960    23.8680     2.4540    -9.5760 
  171.7500    47.9810    18.9380    17.6190    17.8600    23.9560     2.4600    -9.5180 
  171.8750    48.9420    18.8300    17.4680    17.5780    24.0250     2.4710    -9.4920 
  172.0000    49.9580    18.7440    17.3840    17.5820    24.0670     2.4840    -9.5090 
  172.1250    50.5530    18.7180    17.4190    17.7580    24.0790     2.4980    -9.5050 
  172.2500    52.0110    18.7550    17.5430    17.7090    24.0810     2.5080    -9.4330 
  172.3750    53.8680    18.8430    17.7050    17.4940    24.0880     2.5080    -9.3290 
  172.5000    53.9160    18.9500    17.8420    18.0190    24.1020     2.4990    -9.2220 
  172.6250    52.3370    19.0330    17.8930    18.5660    24.1130     2.4850    -9.1380 
  172.7500    51.6130    19.0620    17.8650    18.4290    24.1200     2.4760    -9.0940 
  172.8750    51.8050    19.0160    17.7810    17.6610    24.1350     2.4760    -9.0500 
  173.0000    51.0920    18.8810    17.6680    17.2480    24.1680     2.4840    -8.9780 
  173.1250    50.6280    18.6440    17.5270    17.2340    24.2150     2.4930    -8.9260 
  173.2500    51.4120    18.3420    17.3420    17.5490    24.2450     2.4950    -8.9200 
  173.3750    51.9720    18.0110    17.1000    17.3450    24.2450     2.4900    -8.9280 
  173.5000    52.1330    17.7100    16.8220    16.1250    24.2250     2.4800    -8.9420 
  173.6250    53.0170    17.5580    16.6050    15.7980    24.2020     2.4730    -8.9610 
  173.7500    53.5110    17.6330    16.5570    15.7940    24.1830     2.4720    -8.9540 
  173.8750    52.7690    17.9620    16.7410    16.1770    24.1670     2.4740    -8.9100 
  174.0000    51.5360    18.4740    17.1330    16.5640    24.1700     2.4760    -8.8560 
  174.1250    51.0290    18.9910    17.5970    17.6010    24.2020     2.4760    -8.8100 
  174.2500    51.0110    19.3240    17.9320    18.8420    24.2340     2.4750    -8.7680 
  174.3750    50.2060    19.4020    18.0260    19.3980    24.2440     2.4790    -8.7300 
  174.5000    48.3280    19.2790    17.8810    18.0270    24.2410     2.4900    -8.6970 
  174.6250    48.6270    19.0890    17.6030    16.8650    24.2650     2.5060    -8.6850 
  174.7500    52.1020    18.9610    17.3750    17.2430    24.3180     2.5170    -8.6970 
  174.8750    54.6350    18.9070    17.2760    18.2960    24.3720     2.5190    -8.7420 
  175.0000    52.7380    18.8730    17.2910    18.6390    24.4020     2.5140    -8.8010 
  175.1250    50.2270    18.7760    17.3040    18.9000    24.3980     2.5110    -8.8610 
  175.2500    50.0180    18.5950    17.1990    19.5230    24.3770     2.5150    -8.9080 
  175.3750    51.1510    18.3480    16.9460    19.1940    24.3460     2.5280    -8.9460 
  175.5000    52.9320    18.0730    16.6050    17.2380    24.3110     2.5450    -8.9780 
  175.6250    54.9830    17.8230    16.3120    16.1440    24.2810     2.5590    -8.9840 
  175.7500    55.4790    17.6350    16.1640    15.5040    24.2600     2.5660    -8.9780 
  175.8750    54.2160    17.5260    16.1730    15.4480    24.2520     2.5650    -8.9580 
  176.0000    53.3500    17.4990    16.2880    15.4080    24.2610     2.5590    -8.9420 
  176.1250    53.0320    17.5410    16.4100    15.6740    24.2910     2.5490    -8.9250 
  176.2500    51.7110    17.5820    16.4510    15.6090    24.3290     2.5370    -8.8990 
  176.3750    50.5260    17.5340    16.3640    15.8500    24.3620     2.5240    -8.8640 
  176.5000    50.6000    17.3050    16.1340    15.9790    24.3810     2.5080    -8.8200 
  176.6250    51.0490    16.8020    15.7420    16.1080    24.3850     2.4910    -8.7750 
  176.7500    51.2040    16.1140    15.2290    15.5940    24.3820     2.4750    -8.7460 
  176.8750    50.5960    15.3800    14.6370    14.7010    24.3830     2.4600    -8.7310 
  177.0000    49.3410    14.7700    14.0430    14.0250    24.3850     2.4520    -8.7220 
  177.1250    48.8880    14.4680    13.5890    13.8020    24.3720     2.4550    -8.7370 
  177.2500    50.4900    14.4880    13.3770    13.7750    24.3310     2.4690    -8.7520 
  177.3750    52.9170    14.8210    13.4810    14.5480    24.2720     2.4890    -8.7630 
  177.5000    53.9360    15.4120    13.9130    15.0270    24.2110     2.5060    -8.7710 
  177.6250    53.8800    16.1570    14.6220    15.6390    24.1540     2.5130    -8.7750 
  177.7500    55.3160    16.8490    15.3830    15.7570    24.1070     2.5140    -8.7650 
  177.8750    58.4520    17.3220    15.9930    15.9540    24.0890     2.5130    -8.7540 
  178.0000    61.4770    17.4600    16.2810    16.7550    24.1200     2.5120    -8.7460 
  178.1250    60.8660    17.2270    16.1300    17.1830    24.2030     2.5090    -8.7330 
  178.2500    59.2520    16.8350    15.7230    16.9390    24.2920     2.4990    -8.7340 
  178.3750    58.4340    16.4670    15.2660    15.8470    24.3440     2.4850    -8.7680 
  178.5000    57.7790    16.2660    14.9550    14.9120    24.3420     2.4740    -8.8320 
  178.6250    55.3920    16.3400    14.9440    13.9220    24.3040     2.4760    -8.9170 
  178.7500    53.3420    16.6020    15.1540    14.1190    24.2700     2.4920    -9.0060 
  178.8750    53.4150    16.9230    15.4500    14.8190    24.2570     2.5160    -9.0900 
  179.0000    53.0800    17.1630    15.6720    15.2780    24.2620     2.5410    -9.1550 
  179.1250    50.5340    17.2190    15.6750    15.4790    24.2640     2.5540    -9.1950 
  179.2500    49.4140    17.1410    15.5020    13.9790    24.2370     2.5510    -9.2410 
  179.3750    52.0650    16.9870    15.2480    13.8020    24.1770     2.5350    -9.2770 
  179.5000    55.9270    16.8040    15.0220    16.7170    24.1030     2.5140    -9.2900 
  179.6250    55.8890    16.6230    14.9080    23.0500    24.0670     2.4990    -9.2900 
  179.7500    53.3300    16.4470    14.8710    20.4630    24.0950     2.4930    -9.2900 
  179.8750    50.5900    16.2670    14.8430    16.8840    24.1690     2.4930    -9.2900 
  180.0000    48.3510    16.0700    14.7590    15.8160    24.2530     2.4970    -9.3140 
  180.1250    46.8620    15.8350    14.5840    16.2350    24.3160     2.5020    -9.3860 
  180.2500    46.9840    15.5740    14.3650    15.2340    24.3600     2.5090    -9.4700 
  180.3750    49.2470    15.3300    14.1690    14.5630    24.3860     2.5180    -9.5580 
  180.5000    51.8210    15.1850    14.0790    14.6620    24.3880     2.5260    -9.6860 
  180.6250    51.0730    15.2680    14.2060    15.4730    24.3590     2.5300    -9.8770 
