~V
VERS. 2.00: Ver 2.00
~W
STRT.M 50.0000:
STOP.M 221.0000:
STEP.M 0.1250:
NULL. -999.2500:
UWI. F10611:
~C
DEPT.M :
SP.MV :
GR.API :
RML.OHMM :
RI. :
RXO.OHMM :
CALI.CM :
DEN.GM/CC :
~A
# ...
   95.0000   -26.9900    54.0600    14.8840    12.2730     9.0270    26.2600     2.1870 
   95.1250   -26.8870    52.7360    14.7630    12.2360     8.6250    26.6920     2.1590 
   95.2500   -26.8800    53.1360    14.7980    12.3120     8.7840    26.8720     2.1380 
   95.3750   -26.9320    54.3070    14.8670    12.4310     9.0090    27.0080     2.1210 
   95.5000   -27.0630    55.6830    14.8910    12.5570     8.9770    27.1330     2.1120 
   95.6250   -27.2660    56.8570    14.8400    12.6810     8.7310    27.0320     2.1230 
   95.7500   -27.5300    57.4440    14.7450    12.7990     8.5110    26.7200     2.1490 
   95.8750   -27.8170    57.3270    14.6020    12.8800     8.2970    26.5380     2.1690 
   96.0000   -28.1130    58.2330    14.3370    12.8300     8.0900    26.7850     2.1530 
   96.1250   -28.3540    60.9320    13.6920    12.3980     7.9190    27.1860     2.0930 
   96.2500   -28.5580    61.5420    12.5500    11.4740     7.8870    27.5780     2.0270 
   96.3750   -28.7490    59.9470    10.9560    10.1000     7.7250    27.8080     1.9880 
   96.5000   -28.8820    62.0770     9.1610     8.5120     6.9760    27.5680     2.0080 
   96.6250   -28.9460    71.9190     7.5700     7.0490     5.5560    26.5050     2.1060 
   96.7500   -28.9370    82.0940     6.4280     5.9150     4.6760    25.5420     2.2300 
   96.8750   -28.8500    86.6670     5.8150     5.1840     4.4700    24.9350     2.3320 
   97.0000   -28.6930    85.7790     5.7240     4.8710     4.6850    24.5610     2.3850 
   97.1250   -28.4670    82.9290     6.2140     5.0420     4.8530    24.5330     2.3890 
   97.2500   -28.1580    80.4720     7.1850     5.6290     5.5110    24.6300     2.3590 
   97.3750   -27.7820    77.0540     8.5900     6.6220     7.2080    24.7950     2.3020 
   97.5000   -27.3800    71.0220    10.3070     7.9600    10.2800    24.9390     2.2290 
   97.6250   -26.9790    64.7270    12.1220     9.5080    10.7720    25.0450     2.1630 
   97.7500   -26.6020    60.7280    13.7760    11.0150    10.5580    25.0740     2.1300 
   97.8750   -26.2800    56.3160    15.1390    12.3150    10.3380    25.0520     2.1460 
   98.0000   -25.9950    50.0340    16.2160    13.3340    10.1840    24.9610     2.2000 
   98.1250   -25.7660    49.0740    17.0560    14.0550    10.7740    24.8510     2.2550 
   98.2500   -25.6160    54.4580    17.7070    14.5530    12.1420    24.8070     2.2720 
   98.3750   -25.4990    59.2920    18.0940    14.8050    12.2830    24.8940     2.2490 
   98.5000   -25.4270    58.4600    18.1660    14.8000    10.7600    24.9790     2.2060 
   98.6250   -25.3720    55.7920    17.9910    14.6230     9.8020    24.9980     2.1740 
   98.7500   -25.3170    56.2610    17.7950    14.4530     9.6300    24.9950     2.1600 
   98.8750   -25.2530    59.2230    17.6890    14.3670     9.8570    24.9900     2.1540 
   99.0000   -25.1890    61.0680    17.6620    14.3460    10.2350    24.9800     2.1490 
   99.1250   -25.1160    59.8590    17.5440    14.2680    10.7140    24.9770     2.1480 
   99.2500   -25.0340    58.6050    17.1820    14.0120    10.9910    25.0020     2.1570 
   99.3750   -24.9650    58.1890    16.5740    13.5470    11.0080    25.0590     2.1710 
   99.5000   -24.8290    57.7670    15.8550    12.9420    10.4950    25.1030     2.1840 
   99.6250   -24.6230    57.5290    15.2580    12.3410     9.4070    25.0770     2.1830 
   99.7500   -24.3680    57.3800    14.9320    11.8800     8.4410    25.1360     2.1690 
   99.8750   -24.0630    57.0820    14.9440    11.6470     8.0130    25.2770     2.1490 
  100.0000   -23.7060    56.1320    15.2980    11.6920     7.9520    25.4040     2.1340 
  100.1250   -23.3200    55.7600    15.9900    12.0710     8.0920    25.4010     2.1280 
  100.2500   -22.9030    55.4320    16.8870    12.6880     8.5490    25.3480     2.1290 
  100.3750   -22.4780    53.0150    17.8900    13.4630     9.4420    25.3160     2.1370 
  100.5000   -22.1070    49.6290    18.8920    14.3020    10.7400    25.3000     2.1480 
  100.6250   -21.8030    47.8260    19.7760    15.0970    12.0090    25.3340     2.1580 
  100.7500   -21.5880    49.5650    20.4860    15.7640    12.7920    25.3800     2.1590 
  100.8750   -21.4550    54.1360    20.9900    16.2540    13.1450    25.4390     2.1490 
  101.0000   -21.4230    56.8270    21.3090    16.5580    13.6540    25.4600     2.1340 
  101.1250   -21.4570    54.1810    21.5030    16.7120    14.1010    25.4190     2.1230 
  101.2500   -21.5790    49.9700    21.6680    16.8130    14.3770    25.3060     2.1230 
  101.3750   -21.7420    47.9680    21.8450    16.9130    14.4170    25.1700     2.1330 
  101.5000   -21.9480    49.4170    22.0540    17.0410    14.3710    25.0640     2.1500 
  101.6250   -22.1910    52.6920    22.3180    17.2230    14.3450    25.0230     2.1660 
  101.7500   -22.4270    55.6230    22.6160    17.4670    14.6950    25.0370     2.1780 
  101.8750   -22.6640    55.6180    22.9110    17.7640    14.8760    25.1020     2.1850 
  102.0000   -22.8700    52.7090    23.1410    18.0670    15.0530    25.1640     2.1890 
  102.1250   -23.0590    51.4860    23.2160    18.2770    14.8580    25.2020     2.1870 
  102.2500   -23.2150    52.5320    23.1470    18.3360    14.5850    25.2030     2.1830 
  102.3750   -23.3700    52.7620    22.9720    18.2360    14.1060    25.1640     2.1790 
  102.5000   -23.4920    51.2590    22.7270    18.0110    13.7410    25.0760     2.1770 
  102.6250   -23.6280    50.8880    22.3830    17.7150    13.4310    25.0530     2.1800 
  102.7500   -23.7640    51.8830    21.9520    17.4210    13.4090    25.1240     2.1820 
  102.8750   -23.9230    53.2410    21.5380    17.2020    13.6540    25.3230     2.1780 
  103.0000   -24.1150    53.4200    21.3520    17.1650    13.9330    25.5200     2.1650 
  103.1250   -24.3740    51.7480    21.5670    17.4190    14.0270    25.6330     2.1610 
  103.2500   -24.6760    49.7010    21.8700    17.7580    13.9640    25.6810     2.1910 
  103.3750   -25.0290    49.0200    21.7270    17.8090    14.8560    25.6420     2.2660 
  103.5000   -25.4520    50.5540    20.6430    17.1840    20.0220    25.5180     2.3700 
  103.6250   -25.9310    54.1320    18.3790    15.6400    28.3580    25.4320     2.4430 
  103.7500   -26.4370    57.8600    15.6140    13.6270    24.3130    25.3930     2.4480 
  103.8750   -26.9390    60.8670    12.9650    11.5890    13.4930    25.3910     2.3990 
  104.0000   -27.4230    64.0620    10.8240     9.8460     8.8180    25.4160     2.3360 
  104.1250   -27.8950    67.8200     9.3370     8.5610     8.2910    25.4350     2.2850 
  104.2500   -28.3450    71.3360     8.2710     7.6200     7.7310    25.4750     2.2550 
  104.3750   -28.7540    75.1790     7.4990     6.9520     6.6260    25.5660     2.2480 
  104.5000   -29.1080    79.5210     6.9290     6.4930     5.9970    25.6620     2.2640 
  104.6250   -29.3690    81.0290     6.5320     6.2040     5.8670    25.6800     2.2910 
  104.7500   -29.5780    79.9890     6.2710     6.0160     5.8240    25.6480     2.3150 
  104.8750   -29.7230    79.8970     6.1140     5.8980     5.9710    25.6460     2.3300 
  105.0000   -29.8160    82.8110     5.9950     5.8150     6.0070    25.6870     2.3370 
  105.1250   -29.7730    86.1220     5.8580     5.7290     5.8780    25.6940     2.3450 
  105.2500   -29.6510    87.3420     5.7050     5.6310     5.5370    25.6860     2.3550 
  105.3750   -29.4370    87.6120     5.5730     5.5270     5.3210    25.6660     2.3610 
  105.5000   -29.1810    86.7710     5.4790     5.4190     5.4040    25.6810     2.3510 
  105.6250   -28.8590    84.0910     5.4080     5.2980     5.4940    25.7030     2.3220 
  105.7500   -28.4970    82.2540     5.3300     5.1660     5.4440    25.7120     2.2900 
  105.8750   -28.0940    85.9410     5.2730     5.0530     5.4610    25.7250     2.2700 
  106.0000   -27.6730    91.8360     5.3370     5.0220     5.6360    25.7210     2.2680 
  106.1250   -27.2870    90.4480     5.7490     5.2090     5.4310    25.6120     2.2780 
