~V
VERS. 2.00: Ver 2.00
~W
STRT.M 52.0000:
STOP.M 260.0000:
STEP.M 0.1250:
NULL. -999.2500:
UWI. F10654:
~C
DEPT.M :
SP.MV :
GR.API :
RML.OHMM :
RI. :
RXO.OHMM :
CALI.CM :
DEN.GM/CC :
~A
# ...
   74.5000   -14.7340    67.4300     6.8820     5.8790     4.2140    13.5480     2.1910 
   74.6250   -14.4120    74.9190     6.1340     5.1250     4.2080    13.5580     2.2110 
   74.7500   -14.0950    80.0890     5.5520     4.5430     4.1910    13.5970     2.2480 
   74.8750   -13.8160    82.2090     5.1060     4.1080     4.2210    13.6750     2.2920 
   75.0000   -13.6080    85.0010     4.8320     3.8400     4.2730    13.7720     2.3260 
   75.1250   -13.4490    90.0320     4.7290     3.7160     4.3550    13.9150     2.3440 
   75.2500   -13.3300    95.2260     4.7990     3.7330     4.4040    14.1320     2.3430 
   75.3750   -13.2430    98.6840     5.0130     3.8710     4.4420    14.4400     2.3300 
   75.5000   -13.1780    98.9060     5.3150     4.1060     4.5120    14.7750     2.3100 
   75.6250   -13.1480    95.8780     5.5990     4.3650     4.5600    15.1310     2.2920 
   75.7500   -13.1330    91.0720     5.7870     4.5890     4.5520    15.5220     2.2820 
   75.8750   -13.0940    85.4050     5.8370     4.7310     4.4160    15.9470     2.2810 
   76.0000   -13.0070    80.4780     5.7580     4.7710     4.1240    16.3760     2.2910 
   76.1250   -12.9520    80.2660     5.6650     4.7670     3.7470    16.7940     2.3040 
   76.2500   -12.9200    85.7500     5.6520     4.7820     3.4490    17.0550     2.3100 
   76.3750   -12.8840    89.8240     5.7680     4.8580     3.3150    17.0400     2.3030 
   76.5000   -12.8550    85.0180     6.0020     5.0000     3.2790    16.6460     2.2850 
   76.6250   -12.8250    77.1240     6.2390     5.1470     3.2180    16.1780     2.2660 
   76.7500   -12.8250    73.0630     6.3910     5.2440     3.2070    15.9190     2.2540 
   76.8750   -12.8410    75.9770     6.4190     5.2580     3.2960    15.9180     2.2520 
   77.0000   -12.8970    81.6840     6.3620     5.2020     3.5120    16.1450     2.2540 
   77.1250   -12.9640    84.7880     6.3370     5.1510     3.7400    16.5990     2.2510 
   77.2500   -13.0190    83.2590     6.4070     5.1540     3.9510    17.3390     2.2420 
   77.3750   -13.0830    79.8140     6.5610     5.2250     4.2140    18.3070     2.2280 
   77.5000   -13.1250    77.9720     6.7090     5.3290     4.3050    19.3480     2.2170 
   77.6250   -13.1310    76.7030     6.7420     5.3930     4.3180    20.2980     2.2140 
   77.7500   -13.1000    75.3140     6.6030     5.3640     4.3300    21.0570     2.2240 
   77.8750   -13.0290    75.9590     6.2970     5.2190     4.2580    21.4750     2.2480 
   78.0000   -12.9200    81.5840     5.8700     4.9660     4.1530    21.6180     2.2790 
   78.1250   -12.7580    87.4340     5.4280     4.6740     4.0640    21.6740     2.3090 
   78.2500   -12.5910    88.9450     5.0470     4.4000     3.9160    21.7340     2.3310 
   78.3750   -12.4150    88.8060     4.7850     4.1950     3.6310    21.8070     2.3480 
   78.5000   -12.2030    90.7280     4.6830     4.1010     3.4650    21.8310     2.3600 
   78.6250   -12.0270    89.6230     4.6790     4.0840     3.4100    21.8000     2.3690 
   78.7500   -11.8550    85.6810     4.7060     4.1030     3.4320    21.6990     2.3700 
   78.8750   -11.7340    86.0850     4.6970     4.1040     3.4870    21.5440     2.3610 
   79.0000   -11.6580    92.6640     4.6040     4.0380     3.5300    21.4580     2.3440 
   79.1250   -11.6000    96.3820     4.4580     3.9140     3.4930    21.4300     2.3270 
   79.2500   -11.5990    95.6890     4.3160     3.7670     3.3590    21.4340     2.3160 
   79.3750   -11.6360    95.3470     4.2440     3.6480     3.1930    21.4540     2.3120 
   79.5000   -11.7220    96.3210     4.3000     3.6130     3.1330    21.5040     2.3120 
   79.6250   -11.8650    94.9460     4.4440     3.6580     3.2320    21.5900     2.3100 
   79.7500   -12.0570    93.2540     4.6080     3.7500     3.4410    21.6920     2.3030 
   79.8750   -12.2590    95.1610     4.7120     3.8420     3.6360    21.7520     2.2920 
   80.0000   -12.4830   100.1960     4.7090     3.8960     3.6690    21.5950     2.2850 
   80.1250   -12.7360   101.3870     4.6830     3.9400     3.6170    21.2070     2.2890 
   80.2500   -13.0060    97.4540     4.7670     4.0420     3.5770    20.6750     2.3090 
   80.3750   -13.2930    93.8520     5.0920     4.2860     3.6080    20.0060     2.3410 
   80.5000   -13.6250    94.4820     5.7620     4.7600     3.9490    19.0530     2.3690 
   80.6250   -13.9370    94.3990     6.6430     5.4060     4.6130    18.0290     2.3760 
   80.7500   -14.2240    89.3950     7.5620     6.1220     5.3510    17.3310     2.3540 
   80.8750   -14.5160    80.7680     8.3180     6.7610     5.7770    17.0490     2.3090 
   81.0000   -14.7570    72.7190     8.7170     7.1430     5.6870    17.1300     2.2570 
   81.1250   -14.9650    68.5970     8.8100     7.2540     5.5060    17.4630     2.2160 
   81.2500   -15.1270    67.9360     8.6850     7.1470     5.3350    18.0390     2.1890 
   81.3750   -15.2200    68.6900     8.4340     6.9170     5.2590    18.8280     2.1770 
   81.5000   -15.2600    69.3440     8.1050     6.6490     5.2300    19.7520     2.1770 
   81.6250   -15.2740    72.4640     7.7500     6.4000     5.2840    20.6170     2.1820 
   81.7500   -15.2970    77.2090     7.4290     6.1940     5.3620    21.2110     2.1900 
   81.8750   -15.3280    78.3800     7.2150     6.0550     5.4020    21.4760     2.1970 
   82.0000   -15.3580    74.0450     7.1940     6.0210     5.4450    21.5390     2.2020 
   82.1250   -15.4180    71.2070     7.3260     6.0780     5.6110    21.5650     2.2040 
   82.2500   -15.4770    71.1750     7.5570     6.2070     5.8500    21.6400     2.2020 
   82.3750   -15.5590    70.1030     7.8180     6.3740     6.0500    21.8590     2.1950 
   82.5000   -15.6060    67.2070     8.0210     6.5310     6.2200    22.3410     2.1830 
   82.6250   -15.5910    65.5160     8.1010     6.6270     6.3280    23.0470     2.1710 
   82.7500   -15.5230    65.0050     8.0180     6.6280     6.3150    23.7560     2.1640 
   82.8750   -15.3500    65.2360     7.7740     6.5220     6.2260    24.1590     2.1690 
   83.0000   -15.1170    68.4240     7.4030     6.3060     6.0830    24.2040     2.1890 
   83.1250   -14.8510    72.2320     6.9950     6.0340     5.8960    24.1230     2.2160 
   83.2500   -14.5460    75.0320     6.6070     5.7450     5.6660    23.9490     2.2440 
   83.3750   -14.2430    79.7940     6.2780     5.4750     5.3340    23.6600     2.2640 
   83.5000   -13.9800    85.3920     6.0410     5.2590     4.8270    23.4540     2.2750 
   83.6250   -13.7690    88.5850     5.8860     5.0990     4.6560    23.4840     2.2800 
   83.7500   -13.6340    90.2800     5.8080     4.9940     4.6650    23.6450     2.2810 
   83.8750   -13.5740    92.0810     5.7890     4.9370     4.7180    23.8180     2.2810 
   84.0000   -13.6030    92.0880     5.8210     4.9210     4.6610    23.9700     2.2760 
   84.1250   -13.6820    89.9840     5.8900     4.9290     4.6920    24.0880     2.2650 
   84.2500   -13.8310    88.4470     5.9900     4.9500     4.7860    24.1510     2.2510 
   84.3750   -14.0050    85.9670     6.1030     4.9740     4.9090    24.1810     2.2390 
   84.5000   -14.1810    80.7490     6.1960     4.9950     5.0820    24.2090     2.2360 
   84.6250   -14.3960    75.4040     6.2560     5.0140     5.1770    24.2300     2.2400 
   84.7500   -14.5750    73.2750     6.3030     5.0470     5.1350    24.2370     2.2470 
   84.8750   -14.7750    73.8180     6.3920     5.1180     5.0750    24.2400     2.2480 
   85.0000   -14.9610    74.1790     6.6110     5.2770     5.2640    24.3040     2.2400 
   85.1250   -15.0860    73.0370     6.9700     5.5360     5.5900    24.4230     2.2220 
   85.2500   -15.1730    70.7060     7.4280     5.8860     5.9340    24.5440     2.1960 
   85.3750   -15.2020    67.6050     7.8830     6.2760     6.3690    24.5910     2.1650 
   85.5000   -15.1820    63.6600     8.1670     6.5960     7.2160    24.5210     2.1350 
   85.6250   -15.1030    61.7270     8.2090     6.7640     8.1520    24.2380     2.1120 
