~V
VERS. 2.00: Ver 2.00
~W
STRT.M 58.0000:
STOP.M 221.0000:
STEP.M 0.1250:
NULL. -999.2500:
UWI. F10613:
~C
DEPT.M :
SP.MV :
GR.API :
RML.OHMM :
RI. :
RXO.OHMM :
CALI.CM :
DEN.GM/CC :
~A
# ...
  193.0000   -12.9230    33.3310     4.2350     3.4260     3.9630    23.5650     2.3580 
  193.1250   -12.8780    32.0600     4.3200     3.4760     4.1250    23.5790     2.3660 
  193.2500   -12.8660    31.9120     4.4540     3.5620     4.3940    23.5640     2.3620 
  193.3750   -12.8300    32.8520     4.6340     3.6860     4.6880    23.5560     2.3470 
  193.5000   -12.7700    34.8040     4.8580     3.8560     4.7830    23.5850     2.3280 
  193.6250   -12.7380    37.8180     5.1020     4.0580     4.8090    23.6220     2.3140 
  193.7500   -12.6460    40.8120     5.3340     4.2650     4.8250    23.6260     2.3080 
  193.8750   -12.5180    42.1720     5.5060     4.4320     4.8110    23.6330     2.3100 
  194.0000   -12.4020    41.6730     5.5390     4.4840     4.6870    23.6550     2.3180 
  194.1250   -12.2220    40.2390     5.4260     4.4090     4.3530    23.6550     2.3270 
  194.2500   -12.0010    37.8960     5.1970     4.2290     4.1280    23.6210     2.3370 
  194.3750   -11.8160    34.6370     4.9280     4.0040     4.0280    23.6060     2.3470 
  194.5000   -11.6440    31.6730     4.7240     3.8110     4.0660    23.6600     2.3560 
  194.6250   -11.4620    30.5080     4.6350     3.6990     4.2500    23.7050     2.3620 
  194.7500   -11.3360    31.5590     4.6640     3.6820     4.4990    23.7400     2.3650 
  194.8750   -11.2550    33.6320     4.7850     3.7540     4.7210    23.7620     2.3660 
  195.0000   -11.1540    36.2110     4.9460     3.8900     4.8610    23.7740     2.3680 
  195.1250   -11.0990    39.7420     5.0880     4.0310     4.9710    23.8120     2.3730 
  195.2500   -11.0630    43.1090     5.1810     4.1320     5.0850    23.8540     2.3800 
  195.3750   -10.9800    42.6630     5.2030     4.1620     5.1420    23.8910     2.3900 
  195.5000   -10.8660    38.0350     5.1320     4.1060     5.0050    23.8810     2.4000 
  195.6250   -10.6990    34.2500     4.9990     4.0000     4.7160    23.8380     2.4080 
  195.7500   -10.4870    32.4440     4.8450     3.8790     4.5040    23.7900     2.4150 
  195.8750   -10.2480    31.0400     4.7130     3.7740     4.4130    23.7610     2.4200 
  196.0000    -9.9560    30.6090     4.6470     3.7070     4.4170    23.7660     2.4230 
  196.1250    -9.6160    32.2220     4.6370     3.6740     4.4540    23.7840     2.4210 
  196.2500    -9.2440    34.0350     4.6590     3.6650     4.4750    23.7940     2.4190 
  196.3750    -8.8260    34.4030     4.6810     3.6680     4.4320    23.8080     2.4230 
  196.5000    -8.3590    33.1800     4.6760     3.6690     4.3590    23.7930     2.4310 
  196.6250    -7.9350    30.4990     4.6440     3.6580     4.2270    23.7240     2.4360 
  196.7500    -7.5150    27.4660     4.5900     3.6340     4.1690    23.6280     2.4320 
  196.8750    -7.0560    25.4520     4.5200     3.5950     4.1640    23.5420     2.4210 
  197.0000    -6.6560    24.5450     4.4460     3.5470     4.1840    23.5490     2.4090 
  197.1250    -6.3080    25.1340     4.3840     3.5020     4.1790    23.6450     2.4030 
  197.2500    -5.9830    27.2170     4.3410     3.4700     4.1540    23.7490     2.4050 
  197.3750    -5.7680    28.9470     4.3270     3.4560     4.1200    23.7940     2.4140 
  197.5000    -5.7300    28.8940     4.3460     3.4630     4.0770    23.7510     2.4220 
  197.6250    -5.7830    28.0430     4.3870     3.4820     4.0640    23.6950     2.4230 
  197.7500    -5.9740    26.3850     4.4340     3.5050     4.0720    23.6480     2.4160 
  197.8750    -6.3720    23.6520     4.4700     3.5280     4.1020    23.6180     2.4020 
  198.0000    -6.9370    22.5650     4.4740     3.5430     4.1460    23.5970     2.3830 
  198.1250    -7.6110    24.6030     4.4490     3.5470     4.2200    23.5820     2.3660 
  198.2500    -8.4050    27.6310     4.4040     3.5370     4.2110    23.5480     2.3550 
  198.3750    -9.1920    30.1230     4.3540     3.5140     4.0870    23.5020     2.3520 
  198.5000    -9.9090    30.9970     4.3110     3.4860     4.0020    23.4190     2.3590 
  198.6250   -10.5590    30.4930     4.2840     3.4640     4.0340    23.3450     2.3670 
  198.7500   -11.0760    29.7280     4.2790     3.4560     4.1420    23.3420     2.3730 
  198.8750   -11.4500    29.4500     4.2970     3.4650     4.2440    23.3470     2.3750 
  199.0000   -11.6820    30.0200     4.3310     3.4880     4.2780    23.2890     2.3750 
  199.1250   -11.7460    31.0450     4.3610     3.5120     4.2510    23.1860     2.3770 
  199.2500   -11.6960    32.2370     4.3780     3.5280     4.2000    23.1520     2.3790 
  199.3750   -11.6150    32.0770     4.3810     3.5310     4.1970    23.2120     2.3750 
  199.5000   -11.4470    29.7200     4.3710     3.5220     4.2010    23.3730     2.3580 
  199.6250   -11.2700    27.9040     4.3570     3.5080     4.1390    23.4470     2.3340 
  199.7500   -11.1340    28.0280     4.3380     3.4950     3.9890    23.3900     2.3140 
  199.8750   -10.9500    29.9290     4.3160     3.4880     3.8510    23.2640     2.3060 
  200.0000   -10.7350    31.2080     4.2940     3.4850     3.8070    23.2340     2.3200 
  200.1250   -10.5900    31.2140     4.2730     3.4780     3.8100    23.3100     2.3440 
  200.2500   -10.4450    30.5560     4.2420     3.4540     3.8380    23.4260     2.3640 
  200.3750   -10.2970    30.1270     4.1850     3.4050     3.8990    23.4950     2.3680 
  200.5000   -10.2430    28.8650     4.1170     3.3430     3.9860    23.5100     2.3570 
  200.6250   -10.2050    26.3410     4.1130     3.3240     4.0340    23.5390     2.3500 
  200.7500   -10.1490    25.0890     4.2680     3.4190     4.1000    23.5740     2.3640 
  200.8750   -10.1680    26.9830     4.6630     3.6970     4.3950    23.5860     2.4060 
  201.0000   -10.2480    30.0980     5.3500     4.2200     5.6150    23.5880     2.4700 
  201.1250   -10.3210    31.9000     6.1420     4.8730     8.0330    23.6440     2.5220 
  201.2500   -10.4540    31.5270     6.7520     5.4520    10.6110    23.7190     2.5390 
  201.3750   -10.6140    29.9430     6.8540     5.6870    11.4650    23.7420     2.5160 
  201.5000   -10.7700    28.6340     6.2740     5.3660     9.2930    23.6710     2.4700 
  201.6250   -10.9370    28.5520     5.4420     4.7570     6.5210    23.5730     2.4230 
  201.7500   -11.1050    29.4820     4.7350     4.1390     4.7470    23.4620     2.3860 
  201.8750   -11.2670    30.9610     4.3560     3.7120     4.0950    23.3790     2.3660 
  202.0000   -11.4150    34.4710     4.3860     3.5960     4.3110    23.4200     2.3620 
  202.1250   -11.5260    40.2950     4.6850     3.7300     4.9190    23.5670     2.3670 
  202.2500   -11.6060    45.2090     5.1440     4.0540     5.8020    23.7280     2.3740 
  202.3750   -11.6940    45.9890     5.6400     4.4800     6.7890    23.8400     2.3790 
  202.5000   -11.7030    43.5250     6.0260     4.8880     7.3260    23.9140     2.3800 
  202.6250   -11.6730    42.6130     6.2230     5.1710     7.1010    23.9680     2.3790 
  202.7500   -11.6740    44.1860     6.2060     5.2780     6.6310    23.9960     2.3800 
  202.8750   -11.6330    46.7990     6.0060     5.2080     6.3270    23.9300     2.3860 
  203.0000   -11.5420    49.2650     5.6890     4.9830     6.0700    23.8260     2.3970 
  203.1250   -11.4990    49.7450     5.3580     4.6910     5.5390    23.7350     2.4070 
  203.2500   -11.4610    46.7330     5.0600     4.3870     4.8640    23.6840     2.4100 
  203.3750   -11.3830    40.6600     4.8090     4.1090     4.4530    23.6650     2.4040 
  203.5000   -11.3800    34.4540     4.6110     3.8930     4.2430    23.6510     2.3910 
  203.6250   -11.4100    30.5720     4.4610     3.7360     4.1110    23.6770     2.3770 
  203.7500   -11.4090    29.0960     4.3690     3.6390     4.0270    23.7270     2.3650 
  203.8750   -11.4620    28.5320     4.3340     3.5910     4.0050    23.7440     2.3560 
  204.0000   -11.5890    28.1220     4.3430     3.5830     4.0210    23.6690     2.3500 
  204.1250   -11.7070    29.1980     4.3560     3.5880     4.0990    23.5780     2.3490 
