~V
VERS. 2.00: Ver 2.00
~W
STRT.M 50.0000:
STOP.M 217.0000:
STEP.M 0.1250:
NULL. -999.2500:
UWI. F10606:
~C
DEPT.M :
DEN.GM/CC :
GR.API :
RML.OHMM :
RI. :
RXO.OHMM :
CALI.CM :
SP.MV :
~A
# ...
  140.0000     2.4090    48.0460    21.6540    19.6390    20.2060    23.1290   -14.5320 
  140.1250     2.4000    47.3730    22.0830    19.9500    20.1850    23.1510   -14.6910 
  140.2500     2.3870    47.5220    22.8650    20.5360    21.1670    23.1330   -14.8500 
  140.3750     2.3710    47.4770    23.9310    21.3910    23.2460    23.1120   -14.9490 
  140.5000     2.3610    46.7250    25.0100    22.3500    26.5140    23.1540   -15.0450 
  140.6250     2.3640    47.2750    25.5670    23.0000    27.0530    23.2690   -15.0890 
  140.7500     2.3790    47.8600    25.3340    23.0410    26.7470    23.3730   -15.1000 
  140.8750     2.3970    47.5580    24.3120    22.3850    25.7240    23.4200   -15.0880 
  141.0000     2.4130    47.9570    22.7830    21.2040    23.5940    23.4640   -15.0570 
  141.1250     2.4210    49.3980    21.2100    19.8490    21.5400    23.5150   -15.0300 
  141.2500     2.4210    49.1760    19.9590    18.6780    20.3110    23.5070   -14.9410 
  141.3750     2.4140    49.2970    19.1560    17.8390    19.1310    23.3710   -14.8350 
  141.5000     2.4040    50.9950    18.8010    17.3690    16.8770    23.1360   -14.7340 
  141.6250     2.4010    50.1140    18.8550    17.2750    15.5170    22.9570   -14.6580 
  141.7500     2.4060    46.9470    19.0820    17.3830    15.5540    22.9090   -14.5870 
  141.8750     2.4150    46.5890    19.3110    17.5530    16.1710    22.9390   -14.5490 
  142.0000     2.4210    49.3590    19.4220    17.6650    17.1480    23.0490   -14.5260 
  142.1250     2.4190    50.5580    19.3570    17.6430    18.3110    23.2230   -14.5190 
  142.2500     2.4130    49.2220    19.2130    17.5360    18.6880    23.2070   -14.5600 
  142.3750     2.4090    47.1170    19.1100    17.4300    18.1870    23.0250   -14.6510 
  142.5000     2.4120    45.0050    19.1700    17.4250    17.8730    22.8980   -14.7640 
  142.6250     2.4270    44.9030    19.5130    17.6320    18.6670    22.8780   -14.8770 
  142.7500     2.4490    46.4250    20.0750    18.0340    20.4930    22.9450   -15.0050 
  142.8750     2.4710    47.9270    20.7410    18.5570    22.7460    23.0300   -15.1060 
  143.0000     2.4830    47.9460    21.3570    19.0810    24.8600    23.0910   -15.2040 
  143.1250     2.4790    47.5660    21.7940    19.4830    25.3580    23.0930   -15.2510 
  143.2500     2.4650    47.2730    22.0930    19.7610    25.3750    23.1080   -15.3110 
  143.3750     2.4500    46.5200    22.3290    19.9620    24.0920    23.1410   -15.3340 
  143.5000     2.4430    45.9660    22.5490    20.1310    23.4400    23.1390   -15.2950 
  143.6250     2.4510    46.8490    22.6800    20.2300    24.3400    23.1090   -15.2680 
  143.7500     2.4660    48.1260    22.5770    20.1500    25.3080    23.0890   -15.1670 
  143.8750     2.4780    47.8380    22.1270    19.7890    24.7600    23.1130   -15.0300 
  144.0000     2.4810    44.7120    21.3380    19.1310    22.8200    23.1450   -14.8560 
  144.1250     2.4720    42.7210    20.3330    18.2530    21.0690    23.1250   -14.6760 
  144.2500     2.4590    44.4040    19.3700    17.3650    19.6840    23.1100   -14.4960 
  144.3750     2.4430    47.5100    18.6280    16.6270    18.7060    23.1250   -14.3020 
  144.5000     2.4260    48.8640    18.2030    16.1390    17.9130    23.1550   -14.1300 
  144.6250     2.4090    48.1580    18.1110    15.9480    17.6210    23.1400   -13.9740 
  144.7500     2.3970    47.5830    18.1840    15.9290    17.3210    23.1150   -13.8550 
  144.8750     2.3970    46.9750    18.3000    15.9820    17.4360    23.1230   -13.7860 
  145.0000     2.4110    46.1990    18.3520    16.0130    18.2810    23.1410   -13.7510 
  145.1250     2.4320    45.8580    18.2650    15.9470    18.1350    23.1300   -13.7470 
  145.2500     2.4460    45.7240    18.0760    15.7980    17.6030    23.0630   -13.7630 
  145.3750     2.4460    46.5860    17.8390    15.5990    17.1280    22.9930   -13.8080 
  145.5000     2.4360    47.9740    17.5970    15.3790    17.0460    22.9500   -13.8730 
  145.6250     2.4270    48.4090    17.3820    15.1670    17.1370    22.9300   -13.9340 
  145.7500     2.4270    47.9960    17.1930    14.9750    16.9280    22.9010   -14.0040 
  145.8750     2.4340    47.5060    17.0200    14.8030    16.7530    22.8630   -14.0700 
  146.0000     2.4400    46.6930    16.8640    14.6450    16.7630    22.8380   -14.1360 
  146.1250     2.4350    44.0220    16.7530    14.5120    16.8540    22.8170   -14.2000 
  146.2500     2.4220    40.9640    16.6930    14.4130    17.0030    22.8170   -14.2180 
  146.3750     2.4090    39.8900    16.6520    14.3350    16.6990    22.8440   -14.2360 
  146.5000     2.4040    40.7970    16.5600    14.2420    16.3660    22.8470   -14.1780 
  146.6250     2.4100    41.9280    16.3180    14.0670    16.3230    22.8910   -14.0430 
  146.7500     2.4220    42.9320    15.9300    13.7900    16.0610    22.9950   -13.8920 
  146.8750     2.4340    43.7390    15.4520    13.4340    15.2640    23.0860   -13.6900 
  147.0000     2.4430    43.7220    14.9800    13.0590    14.1350    23.1410   -13.4770 
  147.1250     2.4490    42.5410    14.6270    12.7480    13.5020    23.2080   -13.2460 
  147.2500     2.4530    41.6210    14.4190    12.5340    13.6080    23.2570   -12.9970 
  147.3750     2.4560    40.7430    14.3390    12.4240    14.1860    23.2630   -12.7490 
  147.5000     2.4610    39.4090    14.3300    12.3900    14.5190    23.2360   -12.5730 
  147.6250     2.4720    38.5070    14.3050    12.3840    14.4830    23.1650   -12.4630 
  147.7500     2.4900    38.9070    14.2160    12.3580    14.5470    23.0940   -12.3960 
  147.8750     2.5130    40.1350    14.0740    12.3120    14.8530    23.0750   -12.4110 
  148.0000     2.5340    41.5060    13.9350    12.2750    15.0900    23.1190   -12.5060 
  148.1250     2.5440    43.6730    13.8800    12.2990    14.4700    23.2040   -12.6620 
  148.2500     2.5420    46.1540    13.9370    12.4040    14.1460    23.2510   -12.8940 
  148.3750     2.5310    47.7060    14.0850    12.5760    14.3550    23.2440   -13.1850 
  148.5000     2.5150    45.9420    14.2710    12.7760    14.7090    23.1800   -13.4830 
  148.6250     2.4950    43.0760    14.3900    12.9260    14.7260    23.1710   -13.8370 
  148.7500     2.4730    43.2530    14.3260    12.9300    14.5720    23.2700   -14.2060 
  148.8750     2.4520    46.8640    13.9700    12.6870    14.0980    23.3670   -14.5750 
  149.0000     2.4340    50.5400    13.2680    12.1350    13.6080    23.3510   -14.8860 
  149.1250     2.4200    51.0610    12.2340    11.2600    13.2270    23.2270   -15.1550 
  149.2500     2.4070    52.8290    11.1000    10.2560    12.3510    23.1240   -15.3530 
  149.3750     2.3960    59.9230    10.0870     9.3080    11.2540    23.0850   -15.4460 
  149.5000     2.3900    70.3640     9.3970     8.5890    10.4050    23.1010   -15.5030 
  149.6250     2.3920    75.2620     9.2320     8.2840     9.9100    23.0840   -15.4750 
  149.7500     2.3930    73.3220     9.5230     8.3690    10.0920    23.0440   -15.3750 
  149.8750     2.3800    70.4120    10.1640     8.7960    11.0420    23.0200   -15.2150 
  150.0000     2.3490    70.9680    10.9560     9.4360    12.8270    23.0410   -15.0630 
  150.1250     2.3070    72.9900    11.6130    10.0680    14.0300    23.0770   -14.9150 
  150.2500     2.2790    72.4050    12.0100    10.5190    14.1080    23.0880   -14.7740 
  150.3750     2.2800    70.5840    12.2300    10.7920    13.5280    23.0730   -14.7000 
  150.5000     2.3100    70.3010    12.4620    11.0100    13.1500    23.0920   -14.7030 
  150.6250     2.3410    71.2980    12.8690    11.3190    13.3740    23.1010   -14.7720 
  150.7500     2.3450    69.6210    13.3780    11.7180    14.2520    23.0900   -14.8830 
  150.8750     2.3210    65.8560    13.8500    12.1260    16.0470    23.0800   -15.0220 
  151.0000     2.2920    64.0430    14.1910    12.4590    17.2220    23.0950   -15.1730 
  151.1250     2.2840    66.5230    14.4780    12.7260    17.2060    23.0890   -15.3370 
