~V
VERS. 2.00: Ver 2.00
~W
STRT.M 55.0000:
STOP.M 226.0000:
STEP.M 0.1250:
NULL. -999.2500:
UWI. F10689:
~C
DEPT.M :
DEN.GM/CC :
GR.API :
RML.OHMM :
RI. :
RXO.OHMM :
CALI.CM :
SP.MV :
~A
# ...
  190.0000     2.2650    48.1480    50.2070    42.2600    43.9440    24.1910   -21.9810 
  190.1250     2.2580    46.4360    55.3870    47.0830    49.2340    24.1900   -21.9430 
  190.2500     2.2560    45.4960    59.1300    51.0520    58.3140    24.2140   -21.8900 
  190.3750     2.2590    43.4540    60.7260    53.3540    65.9050    24.2380   -21.8130 
  190.5000     2.2650    42.2370    60.2260    53.7780    64.4780    24.2390   -21.7190 
  190.6250     2.2720    45.1170    58.1480    52.5190    55.6710    24.2530   -21.6120 
  190.7500     2.2780    48.4980    55.6020    50.5440    51.5390    24.3080   -21.4960 
  190.8750     2.2830    47.8260    53.1540    48.4490    52.2360    24.2920   -21.3570 
  191.0000     2.2850    44.9010    51.0870    46.6210    51.5380    24.2720   -21.1940 
  191.1250     2.2810    45.7910    49.5270    45.2870    45.6490    24.2660   -21.0430 
  191.2500     2.2740    49.9450    48.3870    44.3810    40.1400    24.2610   -20.9130 
  191.3750     2.2670    53.2880    47.7120    43.9290    39.1440    24.2690   -20.7970 
  191.5000     2.2610    53.1180    47.5480    43.9790    41.8730    24.2930   -20.6870 
  191.6250     2.2590    50.4180    47.9390    44.5990    44.4160    24.3720   -20.5930 
  191.7500     2.2600    49.6910    48.7420    45.6400    44.9700    24.4700   -20.4890 
  191.8750     2.2600    50.3480    49.9740    47.1060    45.9160    24.4860   -20.3900 
  192.0000     2.2570    50.1630    51.6590    49.0520    50.4840    24.4880   -20.3030 
  192.1250     2.2540    50.6160    53.6210    51.4220    49.2220    24.4880   -20.2040 
  192.2500     2.2540    52.0660    55.2150    53.6470    46.8520    24.4880   -20.1010 
  192.3750     2.2620    51.5080    55.6590    54.9270    55.8810    24.4880   -20.0040 
  192.5000     2.2790    46.8770    54.3490    54.4940    69.1750    24.4880   -19.9120 
  192.6250     2.3000    41.8930    51.2760    52.0040    65.6930    24.4810   -19.8130 
  192.7500     2.3190    41.3970    47.8930    48.7470    49.5100    24.4410   -19.7230 
  192.8750     2.3280    44.9560    45.5270    46.0230    38.2920    24.3880   -19.6600 
  193.0000     2.3270    50.3820    45.1730    44.9410    37.3620    24.3470   -19.6190 
  193.1250     2.3140    52.6890    47.6120    46.5250    39.6330    24.2680   -19.6150 
  193.2500     2.2940    49.6120    52.0160    50.2570    46.0610    24.1460   -19.6280 
  193.3750     2.2700    44.8240    57.2820    55.2380    57.1570    24.1090   -19.6600 
  193.5000     2.2470    42.6000    61.8790    60.0020    71.9650    24.0880   -19.7230 
  193.6250     2.2320    44.0220    64.1150    62.7140    70.5120    24.0460   -19.7880 
  193.7500     2.2240    45.1440    64.4530    63.3920    57.7670    23.9500   -19.8750 
  193.8750     2.2210    45.2370    64.3910    63.1970    47.1010    23.8110   -19.9720 
  194.0000     2.2210    46.4560    65.7510    63.8180    47.3430    23.2180   -20.0830 
  194.1250     2.2210    48.4970    70.4990    67.2440    51.7510    22.6600   -20.1560 
  194.2500     2.2190    48.6830    78.5870    73.7800    59.3610    23.2620   -20.2170 
  194.3750     2.2190    45.8390    89.1240    82.8720    71.3600    23.9100   -20.2780 
  194.5000     2.2220    43.0480    99.7910    92.5890    86.6560    24.0680   -20.3030 
  194.6250     2.2270    43.5370   106.2120    99.1020    91.4670    24.0480   -20.2980 
  194.7500     2.2290    43.5930   106.7250   100.4730    82.9560    23.9440   -20.2540 
  194.8750     2.2230    41.3840   102.5980    97.2370    67.0390    23.7560   -20.1590 
  195.0000     2.2090    40.3070    97.0130    91.8900    50.8600    23.5620   -20.0160 
  195.1250     2.1930    43.7830    93.2660    87.5850    42.0470    23.5020   -19.8660 
  195.2500     2.1890    45.8720    91.9140    85.5240    46.9350    23.6060   -19.6830 
  195.3750     2.2040    44.6540    91.7230    85.0150    66.8440    23.9730   -19.4630 
  195.5000     2.2400    43.5930    90.2840    84.0750    94.0270    24.4300   -19.2280 
  195.6250     2.2830    45.3620    84.4890    79.7830   105.9090    24.5950   -18.9800 
  195.7500     2.3100    47.3300    74.9410    71.9310    92.7840    24.6060   -18.7550 
  195.8750     2.3110    49.2070    63.9980    62.1210    70.3120    24.5000   -18.5400 
  196.0000     2.2880    52.9210    54.2930    52.7310    50.5190    24.2420   -18.3370 
  196.1250     2.2610    57.4860    47.7830    45.9250    40.0690    24.1730   -18.1280 
  196.2500     2.2550    58.7280    44.0970    41.7600    37.9030    24.1700   -17.9010 
  196.3750     2.2830    57.0560    42.7500    39.9150    39.6130    24.1740   -17.6640 
  196.5000     2.3470    56.4570    43.0840    39.8610    40.2780    24.1880   -17.4400 
  196.6250     2.4320    59.0080    44.2610    40.9670    41.5360    24.2280   -17.2570 
  196.7500     2.5060    61.3560    44.9790    41.9770    44.9870    24.2300   -17.0590 
  196.8750     2.5480    60.6270    44.2890    41.8920    53.4470    24.2210   -16.8370 
  197.0000     2.5520    58.1090    41.7990    40.1400    64.9830    24.1800   -16.5980 
  197.1250     2.5300    59.0610    37.8150    36.7630    53.5110    23.9700   -16.3800 
  197.2500     2.5020    63.1710    33.6550    32.9510    35.3850    23.9450   -16.1770 
  197.3750     2.4770    67.3530    30.1920    29.5820    26.1750    23.9740   -15.9740 
  197.5000     2.4550    67.6520    27.7610    27.0990    24.8400    23.9710   -15.7620 
  197.6250     2.4350    64.3130    26.0360    25.3590    24.6920    23.8720   -15.5110 
  197.7500     2.4230    61.0500    24.0440    23.5090    23.2260    23.8540   -15.2400 
  197.8750     2.4210    57.9280    21.1430    20.8960    22.4640    23.8360   -14.9640 
  198.0000     2.4280    54.3980    17.2550    17.3500    24.5010    23.7870   -14.6690 
  198.1250     2.4290    49.0550    15.8270    13.4470    20.7060    23.8220   -14.3590 
  198.2500     2.4150    41.6800    11.8560    10.0730    12.9110    23.8950   -14.0680 
  198.3750     2.3830    34.6920     8.5000     7.5720     8.0330    23.8640   -13.8130 
  198.5000     2.3440    30.6600     6.5210     5.9280     6.7360    23.7830   -13.5890 
  198.6250     2.3120    31.7010     5.5770     5.0700     5.1680    23.7700   -13.4240 
  198.7500     2.2920    35.8210     5.1480     4.6800     4.6010    23.7760   -13.3140 
  198.8750     2.2820    40.3710     5.0350     4.5770     4.6850    23.8320   -13.2320 
  199.0000     2.2800    42.2250     5.0660     4.6050     4.8380    23.8990   -13.1620 
  199.1250     2.2880    40.9050     5.1310     4.6640     4.4960    23.9290   -13.1140 
  199.2500     2.3070    39.4740     5.2020     4.7290     4.2630    23.9460   -13.0700 
  199.3750     2.3340    37.9350     5.3090     4.8260     4.2890    23.9850   -13.0400 
  199.5000     2.3640    35.3200     5.4930     4.9930     4.4370    24.0030   -13.0400 
  199.6250     2.3850    34.1670     5.7770     5.2520     4.7630    24.0060   -13.0700 
  199.7500     2.3930    36.7630     6.0850     5.5320     5.2960    24.0070   -13.1130 
  199.8750     2.3930    40.3160     6.3230     5.7480     5.8930    24.0110   -13.1880 
  200.0000     2.3910    41.2300     6.4140     5.8310     6.3370    24.0280   -13.3020 
  200.1250     2.3920    40.2730     6.3180     5.7440     6.4400    24.0840   -13.4260 
  200.2500     2.3960    38.5490     6.1250     5.5680     6.1800    24.0980   -13.5520 
  200.3750     2.3950    35.7550     5.9190     5.3810     5.7040    24.1340   -13.6650 
  200.5000     2.3890    33.6760     5.7700     5.2450     5.3420    24.1640   -13.7540 
  200.6250     2.3790    35.2650     5.7230     5.2030     5.2850    24.1700   -13.8310 
  200.7500     2.3690    38.9220     5.7500     5.2270     5.3820    24.1710   -13.9180 
  200.8750     2.3630    41.3450     5.8140     5.2850     5.6020    24.1710   -14.0240 
  201.0000     2.3630    42.8190     5.8680     5.3340     5.8650    24.1740   -14.1140 
  201.1250     2.3670    43.4910     5.8650     5.3320     5.9790    24.1920   -14.2050 
