~V
VERS. 2.00: Ver 2.00
~W
STRT.M 61.0000:
STOP.M 247.0000:
STEP.M 0.1250:
NULL. -999.2500:
UWI. F10600:
~C
DEPT.M :
GR.API :
RML.OHMM :
RI. :
RXO.OHMM :
CALI.CM :
DEN.GM/CC :
SP.MV :
~A
# ...
  173.5000    43.9000     7.1520     6.8370     6.8780    25.1310     2.4410   -25.8030 
  173.6250    40.2710     7.2400     6.9210     6.8200    25.1740     2.4430   -25.6540 
  173.7500    41.5080     7.3210     6.9340     6.7660    25.1990     2.4430   -25.5570 
  173.8750    45.5040     7.3610     6.8530     6.7210    25.2050     2.4410   -25.4360 
  174.0000    48.0790     7.3670     6.6770     6.6730    25.2030     2.4390   -25.2560 
  174.1250    48.5050     7.3290     6.4230     6.6260    25.2010     2.4410   -25.0610 
  174.2500    48.4340     7.2300     6.1520     6.4990    25.2010     2.4470   -24.8710 
  174.3750    47.9060     7.0560     5.9070     6.3860    25.2010     2.4550   -24.6450 
  174.5000    45.6500     6.8040     5.7180     6.3410    25.2010     2.4630   -24.4540 
  174.6250    42.1330     6.5580     5.5970     6.4240    25.2010     2.4680   -24.2820 
  174.7500    39.9580     6.3700     5.5150     6.5250    25.2020     2.4700   -24.0970 
  174.8750    40.6790     6.1710     5.4500     6.5020    25.2050     2.4720   -23.9430 
  175.0000    43.5350     6.0220     5.3970     6.3710    25.2090     2.4770   -23.8200 
  175.1250    44.6820     5.9590     5.3780     6.3770    25.2190     2.4840   -23.6770 
  175.2500    44.7530     5.9500     5.4020     6.5590    25.2500     2.4890   -23.5180 
  175.3750    46.2440     5.9520     5.4710     6.7970    25.3140     2.4880   -23.3590 
  175.5000    48.5900     5.9790     5.5680     6.9830    25.4040     2.4800   -23.2090 
  175.6250    49.2120     6.0720     5.6710     7.2190    25.4490     2.4660   -23.0440 
  175.7500    48.4490     6.2320     5.7660     7.3160    25.4450     2.4510   -22.8550 
  175.8750    48.4100     6.3950     5.8550     7.0970    25.3960     2.4400   -22.6730 
  176.0000    48.4620     6.4980     5.9450     6.7130    25.3580     2.4350   -22.5020 
  176.1250    47.6970     6.5850     6.0470     6.4680    25.3450     2.4370   -22.3640 
  176.2500    47.2270     6.7260     6.1600     6.4190    25.3450     2.4450   -22.2450 
  176.3750    46.1960     6.8990     6.2810     6.4540    25.3450     2.4550   -22.1610 
  176.5000    44.1150     7.0290     6.3980     6.3900    25.3450     2.4660   -22.0500 
  176.6250    44.0340     7.0870     6.4920     6.3520    25.3530     2.4720   -22.0100 
  176.7500    45.9120     7.0990     6.5480     6.2550    25.3730     2.4710   -21.9870 
  176.8750    46.9840     7.0690     6.5580     6.1370    25.3960     2.4610   -21.9210 
  177.0000    45.9530     7.0310     6.5250     6.0060    25.4080     2.4460   -21.8830 
  177.1250    45.7360     6.9920     6.4570     5.8940    25.4020     2.4320   -21.8180 
  177.2500    48.1250     6.9350     6.3830     5.8110    25.3770     2.4210   -21.7680 
  177.3750    52.9280     6.8800     6.3180     5.7400    25.3500     2.4140   -21.7310 
  177.5000    60.5180     6.8490     6.2780     5.6990    25.3380     2.4120   -21.7570 
  177.6250    68.9220     6.8710     6.2770     5.6970    25.3380     2.4160   -21.7680 
  177.7500    74.4730     6.9360     6.3070     5.7460    25.3380     2.4280   -21.7680 
  177.8750    77.7550     7.0020     6.3570     5.9740    25.3380     2.4450   -21.8100 
  178.0000    81.1520     7.0310     6.4060     6.3140    25.3380     2.4630   -21.8600 
  178.1250    86.2180     7.0000     6.4310     6.9060    25.3380     2.4730   -21.9610 
  178.2500    90.1790     6.9270     6.4270     7.5010    25.3380     2.4720   -22.0780 
  178.3750    90.8330     6.8370     6.3980     7.6860    25.3380     2.4630   -22.1950 
  178.5000    88.6490     6.7510     6.3500     7.5630    25.3380     2.4470   -22.2880 
  178.6250    87.0920     6.6890     6.2810     7.8900    25.3380     2.4330   -22.4010 
  178.7500    88.5960     6.6250     6.1860     8.2610    25.3380     2.4240   -22.5860 
  178.8750    92.4530     6.5690     6.0560     7.8760    25.3380     2.4220   -22.7940 
  179.0000    95.9480     6.5340     5.8910     7.3650    25.3380     2.4240   -23.0180 
  179.1250    95.3340     6.5180     5.7100     7.3680    25.3380     2.4270   -23.2640 
  179.2500    91.8260     6.5380     5.5500     7.3240    25.3380     2.4270   -23.5020 
  179.3750    88.0990     6.6330     5.4470     6.9700    25.3380     2.4240   -23.7820 
  179.5000    86.8440     6.8470     5.4400     6.7090    25.3380     2.4170   -24.1050 
  179.6250    88.6350     7.1870     5.5850     6.8920    25.3360     2.4060   -24.4270 
  179.7500    89.8180     7.6140     5.8760     7.4760    25.3280     2.3910   -24.6960 
  179.8750    88.0750     7.9690     6.2960     8.1110    25.3070     2.3780   -24.9070 
  180.0000    85.3110     8.2090     6.7940     8.5560    25.2690     2.3710   -25.0890 
  180.1250    84.3500     8.3040     7.2750     9.0610    25.2450     2.3740   -25.2140 
  180.2500    84.7180     8.3330     7.6490     9.3460    25.2360     2.3870   -25.3110 
  180.3750    85.3020     8.3370     7.8770     9.4610    25.2350     2.4010   -25.3250 
  180.5000    85.9950     8.3390     7.9690     9.5260    25.2350     2.4120   -25.2160 
  180.6250    86.7460     8.3510     7.9650     9.5750    25.2370     2.4130   -25.0570 
  180.7500    87.3810     8.4020     7.9470     9.4320    25.2520     2.4050   -24.9140 
  180.8750    88.2190     8.5140     7.9710     9.6040    25.2870     2.3920   -24.8010 
  181.0000    88.7590     8.6820     8.0800     9.3430    25.3220     2.3810   -24.6370 
  181.1250    86.7280     8.9180     8.3010     8.9810    25.3330     2.3790   -24.4300 
  181.2500    83.7830     9.1430     8.5840     9.0580    25.3270     2.3890   -24.2360 
  181.3750    82.9200     9.2690     8.8610     9.6230    25.3200     2.4050   -24.0540 
  181.5000    84.9500     9.3380     9.0660    10.4150    25.3170     2.4190   -23.8750 
  181.6250    88.5980     9.4550     9.1490    10.2790    25.3140     2.4210   -23.6990 
  181.7500    90.0180     9.6870     9.1660     9.4810    25.3110     2.4100   -23.5260 
  181.8750    88.0420    10.0850     9.2080     9.3790    25.3090     2.3910   -23.3300 
  182.0000    83.5410    10.5080     9.3840     9.9920    25.3070     2.3690   -23.1370 
  182.1250    79.2420    10.8520     9.8200    10.5590    25.3060     2.3560   -22.9670 
  182.2500    77.2990    11.2820    10.4800    10.8380    25.3050     2.3590   -22.7800 
  182.3750    75.2350    11.9380    11.2380    11.7280    25.3040     2.3810   -22.6060 
  182.5000    72.5210    12.6980    11.8610    13.6420    25.3040     2.4170   -22.5180 
  182.6250    72.5880    13.1430    12.0070    16.3830    25.3070     2.4510   -22.4610 
  182.7500    76.0850    13.1130    11.6670    16.2730    25.3200     2.4660   -22.3560 
  182.8750    80.0280    12.7790    11.0260    13.6900    25.3650     2.4550   -22.2270 
  183.0000    81.8860    12.4860    10.4030    10.8990    25.4500     2.4260   -22.0900 
  183.1250    81.2360    12.7040    10.1940    10.5290    25.5230     2.3940   -21.9470 
  183.2500    77.3880    13.5680    10.5380    11.9000    25.5390     2.3730   -21.8440 
  183.3750    71.5120    15.0280    11.4620    15.3200    25.5370     2.3620   -21.7470 
  183.5000    68.0010    16.8380    12.8510    19.6660    25.5360     2.3540   -21.5900 
  183.6250    70.6380    18.5860    14.4650    21.6080    25.5360     2.3430   -21.4630 
  183.7500    74.6870    19.9690    15.9760    21.2330    25.5370     2.3270   -21.3920 
  183.8750    75.8010    20.9320    17.2600    20.1680    25.5400     2.3110   -21.3320 
  184.0000    73.1350    21.5980    18.3670    19.9170    25.5420     2.2980   -21.2880 
  184.1250    69.8150    22.1590    19.4610    21.8430    25.5420     2.2910   -21.2860 
  184.2500    68.9570    22.7690    20.6400    24.0460    25.5380     2.2890   -21.2570 
  184.3750    70.9240    23.4460    21.8610    25.8900    25.5330     2.2900   -21.2150 
  184.5000    72.0480    24.1280    22.9960    27.6750    25.5300     2.2940   -21.2330 
  184.6250    69.4040    24.6980    23.8750    28.1190    25.5300     2.2960   -21.2030 
