~V
VERS. 2.00: Ver 2.00
~W
STRT.M 58.0000:
STOP.M 221.0000:
STEP.M 0.1250:
NULL. -999.2500:
UWI. F10613:
~C
DEPT.M :
SP.MV :
GR.API :
RML.OHMM :
RI. :
RXO.OHMM :
CALI.CM :
DEN.GM/CC :
~A
# ...
   69.2500   -14.6770    55.8730    12.4270    10.9050    12.3290    24.8660     2.1560 
   69.3750   -14.4650    59.1140    11.9320    10.3800    10.8970    24.8180     2.1680 
   69.5000   -14.2260    60.3440    11.5120     9.8970    10.0420    24.7290     2.1850 
   69.6250   -13.9560    59.0440    11.1820     9.5070     9.6450    24.5930     2.2060 
   69.7500   -13.6580    59.0680    10.9250     9.2210     9.4340    24.4820     2.2300 
   69.8750   -13.4030    63.8950    10.6980     9.0070     9.2370    24.4400     2.2540 
   70.0000   -13.1700    69.7920    10.4580     8.8120     9.1610    24.4400     2.2730 
   70.1250   -12.9330    71.5400    10.1960     8.5910     9.1360    24.4420     2.2840 
   70.2500   -12.7610    69.0730     9.9240     8.3350     9.0110    24.4430     2.2880 
   70.3750   -12.6160    66.3480     9.6570     8.0670     8.7510    24.4480     2.2880 
   70.5000   -12.5010    66.5140     9.4440     7.8360     8.6950    24.4480     2.2870 
   70.6250   -12.4600    66.9040     9.3460     7.6980     8.6120    24.4450     2.2850 
   70.7500   -12.4240    65.6440     9.4450     7.7110     8.5670    24.4400     2.2810 
   70.8750   -12.3960    63.5910     9.8040     7.9230     8.6000    24.4070     2.2680 
   71.0000   -12.4450    63.3600    10.4850     8.3950     8.8350    24.2940     2.2420 
   71.1250   -12.5030    63.5330    11.3770     9.0590     9.3330    24.1430     2.2090 
   71.2500   -12.5660    62.7250    12.3370     9.8280    10.1830    24.1000     2.1760 
   71.3750   -12.6460    61.8530    13.1700    10.5650    11.3490    24.2430     2.1500 
   71.5000   -12.7150    62.2940    13.6480    11.0780    12.3300    24.3550     2.1390 
   71.6250   -12.7440    63.5030    13.7970    11.3380    13.1440    24.4760     2.1390 
   71.7500   -12.7690    63.8310    13.7310    11.3970    13.3910    24.6630     2.1450 
   71.8750   -12.7690    61.5030    13.6040    11.3650    13.0790    24.8770     2.1520 
   72.0000   -12.6540    56.5820    13.5610    11.3580    12.9890    25.0190     2.1520 
   72.1250   -12.5030    52.9940    13.6420    11.4300    13.4740    25.1900     2.1440 
   72.2500   -12.3150    52.0170    13.8390    11.5880    14.1200    25.3520     2.1270 
   72.3750   -12.0790    52.8510    14.1320    11.8240    14.1900    25.4230     2.1090 
   72.5000   -11.8330    55.0360    14.5010    12.1330    13.6150    25.3870     2.1020 
   72.6250   -11.6150    58.0070    14.8740    12.4690    13.3700    25.3540     2.1060 
   72.7500   -11.3780    60.5180    15.1360    12.7530    13.9840    25.1930     2.1150 
   72.8750   -11.1390    60.0530    15.1160    12.8520    14.4940    24.9880     2.1230 
   73.0000   -11.0120    57.5850    14.5560    12.5330    14.2780    24.9350     2.1310 
   73.1250   -10.9220    58.7590    13.5110    11.7910    13.7680    24.9670     2.1490 
   73.2500   -10.8550    65.2200    12.1880    10.7500    12.6520    24.9400     2.1800 
   73.3750   -10.8700    72.5550    10.9130     9.6540    10.7760    24.7650     2.2170 
   73.5000   -10.8840    73.2240    10.0460     8.7990     8.6960    24.5150     2.2370 
   73.6250   -10.9160    70.8840     9.6510     8.2950     8.0200    24.3890     2.2330 
   73.7500   -11.0080    69.2650     9.7070     8.1680     8.1380    24.3220     2.2140 
   73.8750   -11.1140    68.5520    10.1140     8.3760     9.0150    24.2600     2.1930 
   74.0000   -11.2400    66.6320    10.6990     8.8310     9.7480    24.3170     2.1800 
   74.1250   -11.3830    65.3280    11.2050     9.3160    10.2580    24.4210     2.1750 
   74.2500   -11.5310    64.8130    11.4810     9.6790    10.6500    24.5280     2.1760 
   74.3750   -11.6390    63.3370    11.4920     9.8340    10.7250    24.5590     2.1840 
   74.5000   -11.7450    60.7630    11.3070     9.7820    10.3840    24.4470     2.2010 
   74.6250   -11.8160    59.7080    11.0970     9.6590    10.1260    24.3100     2.2190 
   74.7500   -11.8330    60.1420    10.9580     9.5600    10.0160    24.2230     2.2290 
   74.8750   -11.8410    60.1110    10.9350     9.5480    10.1050    24.3050     2.2220 
   75.0000   -11.7750    58.4900    11.0570     9.6650    10.2870    24.4340     2.1960 
   75.1250   -11.6550    57.2920    11.2810     9.8800    10.7590    24.5850     2.1630 
   75.2500   -11.5160    58.4030    11.5680    10.1600    11.1330    24.6860     2.1360 
   75.3750   -11.3710    60.8720    11.8830    10.4700    11.5760    24.6790     2.1240 
   75.5000   -11.2050    59.8910    12.1930    10.7790    11.8790    24.6070     2.1310 
   75.6250   -11.0630    57.0210    12.4810    11.0700    11.9380    24.5060     2.1470 
   75.7500   -10.9440    57.1560    12.7020    11.3100    11.8310    24.4300     2.1610 
   75.8750   -10.8150    60.4570    12.7310    11.4020    11.6520    24.3930     2.1670 
   76.0000   -10.7420    61.5410    12.2990    11.1100    11.6820    24.3970     2.1710 
   76.1250   -10.7120    59.9340    11.3730    10.3720    11.4890    24.3860     2.1860 
   76.2500   -10.6860    61.0300    10.1120     9.2880    10.9920    24.3040     2.2200 
   76.3750   -10.7180    65.8440     8.8570     8.1240     9.8530    24.1330     2.2620 
   76.5000   -10.8020    69.9950     8.0450     7.2410     7.8890    24.0070     2.2820 
   76.6250   -10.9070    71.9530     7.8100     6.7960     6.5090    23.8720     2.2700 
   76.7500   -11.0850    72.1980     8.1710     6.8410     6.9690    23.7290     2.2340 
   76.8750   -11.2910    70.3610     9.0540     7.3560     9.0310    23.7180     2.1920 
   77.0000   -11.4960    65.6910    10.3300     8.3020    11.3840    23.9480     2.1650 
   77.1250   -11.7280    61.9090    11.6910     9.4450    13.0100    24.2900     2.1650 
   77.2500   -11.9600    61.5070    12.9470    10.6090    13.4870    24.4940     2.2040 
   77.3750   -12.1760    63.1820    14.0200    11.6680    13.2910    24.5100     2.2790 
   77.5000   -12.3730    64.4300    14.9430    12.5610    14.0830    24.2060     2.3630 
   77.6250   -12.5490    63.5900    15.8010    13.3340    17.6460    23.6860     2.4080 
   77.7500   -12.6690    62.4050    16.5430    13.9720    23.7850    23.2100     2.3920 
   77.8750   -12.7690    64.0470    17.0420    14.4070    25.5300    23.0940     2.3290 
   78.0000   -12.8660    67.1120    17.1420    14.5310    19.8730    23.4570     2.2550 
   78.1250   -12.9150    65.1860    16.9490    14.4140    17.1830    24.0970     2.2000 
   78.2500   -12.9410    57.6830    16.5950    14.1430    17.3500    24.6060     2.1690 
   78.3750   -12.9460    51.1840    16.2060    13.8140    17.8970    24.8070     2.1590 
   78.5000   -12.9170    52.2230    15.8540    13.4990    17.1850    24.8080     2.1610 
   78.6250   -12.8600    54.5840    15.5170    13.2030    16.1120    24.7620     2.1670 
   78.7500   -12.8130    55.8150    15.1730    12.9060    15.3320    24.7080     2.1710 
   78.8750   -12.7440    57.1070    14.8460    12.6180    14.8410    24.6950     2.1720 
   79.0000   -12.6390    57.8600    14.5980    12.3830    14.6120    24.7260     2.1700 
   79.1250   -12.5880    55.5270    14.4260    12.2120    14.2950    24.7140     2.1690 
   79.2500   -12.5610    52.5320    14.2940    12.0850    14.0050    24.6840     2.1740 
   79.3750   -12.5430    53.4160    14.1510    11.9620    14.0440    24.6800     2.1810 
   79.5000   -12.5810    57.8150    13.9510    11.7960    13.9680    24.6930     2.1830 
   79.6250   -12.6100    60.9870    13.6920    11.5780    13.6230    24.7070     2.1800 
   79.7500   -12.6430    62.1200    13.4020    11.3310    13.5310    24.7310     2.1710 
   79.8750   -12.7200    61.7750    13.1310    11.0990    13.7130    24.7860     2.1630 
   80.0000   -12.7940    58.3150    12.9440    10.9430    13.5800    24.8740     2.1580 
   80.1250   -12.8570    53.7920    12.8500    10.8720    12.6710    25.0230     2.1580 
   80.2500   -12.9010    53.8830    12.8210    10.8650    12.0660    25.1780     2.1620 
   80.3750   -12.9330    59.5810    12.8090    10.8810    12.5290    25.2530     2.1660 
