~V
VERS. 2.00: Ver 2.00
~W
STRT.M 55.0000:
STOP.M 226.0000:
STEP.M 0.1250:
NULL. -999.2500:
UWI. F10689:
~C
DEPT.M :
DEN.GM/CC :
GR.API :
RML.OHMM :
RI. :
RXO.OHMM :
CALI.CM :
SP.MV :
~A
# ...
  167.5000     2.3850    60.9450    16.7560    12.1340    17.9580    24.2140   -18.7040 
  167.6250     2.3340    60.2770    19.8800    14.7030    22.0200    24.3830   -18.7360 
  167.7500     2.2870    58.3280    22.2540    16.8670    22.0110    24.4590   -18.7800 
  167.8750     2.2520    56.1170    23.6770    18.2710    20.3440    24.4810   -18.8240 
  168.0000     2.2350    56.6530    24.5730    19.0760    20.4230    24.4840   -18.8620 
  168.1250     2.2510    60.6370    25.8780    19.9230    21.8830    24.5160   -18.8840 
  168.2500     2.3010    63.1670    28.2010    21.4020    22.8130    24.5660   -18.8930 
  168.3750     2.3810    60.6840    31.6990    23.7570    24.4980    24.5660   -18.8970 
  168.5000     2.4710    55.7710    36.1770    26.9550    30.7490    24.5400   -18.8930 
  168.6250     2.5390    51.7900    41.0450    30.6780    39.1140    24.3760   -18.9080 
  168.7500     2.5710    51.3360    45.2130    34.1350    43.7350    24.3270   -18.9170 
  168.8750     2.5700    52.9320    47.7000    36.6030    42.8890    24.2540   -18.9220 
  169.0000     2.5450    54.3190    47.9490    37.5910    42.8540    24.3100   -18.9170 
  169.1250     2.5000    54.1040    45.9190    36.8660    44.1860    24.3230   -18.9250 
  169.2500     2.4490    53.1570    42.8350    35.1270    42.1240    24.3400   -18.9450 
  169.3750     2.4030    52.1760    39.5240    32.8720    35.1260    24.3470   -18.9780 
  169.5000     2.3750    50.4930    36.5870    30.5270    29.7490    24.4000   -19.0090 
  169.6250     2.3740    50.6230    34.4360    28.4730    28.0100    24.4090   -19.0060 
  169.7500     2.3830    51.8390    32.9170    26.8430    27.6540    24.4150   -18.9970 
  169.8750     2.3850    52.0570    31.8050    25.6380    25.8840    24.4330   -19.0010 
  170.0000     2.3690    52.5220    30.7860    24.7210    24.4640    24.4780   -19.0390 
  170.1250     2.3430    54.2730    29.5160    23.8400    23.5580    24.4880   -19.1030 
  170.2500     2.3230    54.8010    27.9730    22.8160    22.8570    24.5010   -19.1670 
  170.3750     2.3190    53.6490    26.4060    21.7120    21.3110    24.5490   -19.2130 
  170.5000     2.3290    54.4780    25.2260    20.7700    19.6500    24.5720   -19.2650 
  170.6250     2.3390    58.6820    25.0510    20.4400    17.6980    24.5750   -19.3460 
  170.7500     2.3410    61.6920    26.0940    20.9600    18.2620    24.5750   -19.4510 
  170.8750     2.3300    61.7730    28.4220    22.4850    21.4520    24.5750   -19.5750 
  171.0000     2.3090    59.3280    31.7480    24.9660    27.0310    24.5740   -19.7050 
  171.1250     2.2810    56.5200    35.2510    27.9900    34.4050    24.5660   -19.8420 
  171.2500     2.2510    54.2980    37.7180    30.5390    38.0800    24.5410   -19.9850 
  171.3750     2.2230    52.5250    38.3330    31.7560    38.1910    24.5060   -20.1520 
  171.5000     2.2010    51.4250    37.0350    31.3120    35.6090    24.4990   -20.3330 
  171.6250     2.1910    50.7520    34.5230    29.5460    32.2910    24.4980   -20.4750 
  171.7500     2.1980    51.0410    31.9960    27.5230    28.9460    24.4990   -20.5930 
  171.8750     2.2220    52.4720    29.9380    25.7690    26.6040    24.4990   -20.6730 
  172.0000     2.2580    55.1390    28.4690    24.4870    25.2230    24.4990   -20.7180 
  172.1250     2.2930    56.3860    27.5400    23.7070    24.9580    24.4880   -20.7150 
  172.2500     2.3100    55.2370    26.8510    23.2040    24.6850    24.4290   -20.6900 
  172.3750     2.3030    55.0050    26.2340    22.8420    24.0170    24.2750   -20.6430 
  172.5000     2.2770    56.4850    25.6160    22.5380    23.3520    24.3170   -20.5710 
  172.6250     2.2450    57.0970    25.0090    22.2610    22.7870    24.3700   -20.5270 
  172.7500     2.2190    57.4090    24.4370    21.9950    21.7680    24.4910   -20.4920 
  172.8750     2.2040    59.0980    23.8410    21.6820    20.9390    24.5990   -20.4710 
  173.0000     2.2000    60.4450    23.0640    21.1860    20.9500    24.5760   -20.4610 
  173.1250     2.2080    59.5680    21.8520    20.2660    20.4760    24.5290   -20.4600 
  173.2500     2.2220    59.2360    20.2860    18.9590    19.0990    24.4530   -20.4610 
  173.3750     2.2350    60.0400    18.6490    17.4890    17.1950    24.4170   -20.4770 
  173.5000     2.2400    59.3640    17.3390    16.1960    14.9160    24.4080   -20.5160 
  173.6250     2.2320    58.6200    16.8340    15.4930    12.9220    24.3780   -20.5930 
  173.7500     2.2180    60.6000    17.1740    15.4660    12.8530    24.2750   -20.7120 
  173.8750     2.2070    63.7430    18.2780    16.1110    15.3020    24.1980   -20.8580 
  174.0000     2.2040    64.3870    19.8880    17.2840    18.2540    24.1780   -21.0050 
  174.1250     2.2090    61.1580    21.5790    18.7080    18.3600    24.1430   -21.1770 
  174.2500     2.2140    59.0990    22.9690    20.0000    17.1010    24.0320   -21.3680 
  174.3750     2.2150    59.6600    24.0000    21.0170    15.9050    23.7440   -21.5630 
  174.5000     2.2090    59.8560    24.8850    21.8540    15.6250    23.6580   -21.7250 
  174.6250     2.1940    57.5240    26.0110    22.8130    15.8520    23.8370   -21.7490 
  174.7500     2.1770    55.5870    27.5120    24.0840    16.5180    23.8460   -21.8500 
  174.8750     2.1650    56.6230    29.2610    25.6400    18.3550    23.5330   -21.9000 
  175.0000     2.1650    58.9090    30.9420    27.2750    21.6170    23.3370   -21.9260 
  175.1250     2.1810    58.5620    32.0510    28.5720    24.3780    23.2340   -21.9640 
  175.2500     2.2030    55.4290    32.3630    29.2400    24.3000    23.0890   -22.0060 
  175.3750     2.2190    52.6010    31.8090    29.1380    23.9950    23.2550   -22.0650 
  175.5000     2.2240    53.1410    30.5020    28.3040    23.7580    23.4600   -22.1150 
  175.6250     2.2160    56.4420    28.6380    26.8770    24.1690    23.0250   -22.1490 
  175.7500     2.2070    59.6300    26.5950    25.2180    24.8680    23.5070   -22.1580 
  175.8750     2.2030    62.9300    24.5630    23.5070    24.9360    23.7150   -22.1350 
  176.0000     2.2070    64.9260    22.6560    21.8380    23.6170    23.9760   -22.0850 
  176.1250     2.2180    63.3060    21.0190    20.3170    21.2200    24.2240   -22.0300 
  176.2500     2.2330    59.6980    19.7240    19.0270    19.5890    24.3380   -21.9630 
  176.3750     2.2470    56.4730    18.8550    18.0620    18.2160    24.3910   -21.8770 
  176.5000     2.2550    55.7610    18.4710    17.4970    16.6690    24.4070   -21.7920 
  176.6250     2.2550    58.3130    18.6500    17.4520    16.5510    24.3980   -21.7600 
  176.7500     2.2470    61.6060    19.2210    17.8360    17.9410    24.3630   -21.7610 
  176.8750     2.2370    62.3500    20.0540    18.5700    20.6500    24.3340   -21.8090 
  177.0000     2.2270    59.8980    21.0060    19.5290    21.9340    24.3010   -21.8840 
  177.1250     2.2210    55.6340    21.9510    20.5520    21.2170    24.1460   -21.9490 
  177.2500     2.2170    52.3930    22.8260    21.4930    20.9290    23.7540   -22.0030 
  177.3750     2.2160    51.9400    23.6330    22.3030    22.3000    23.5870   -22.0510 
  177.5000     2.2140    53.1160    24.4090    22.9980    23.8760    23.6390   -22.1090 
  177.6250     2.2110    52.4760    25.1970    23.6250    24.4070    23.9220   -22.1700 
  177.7500     2.2070    50.7520    25.9740    24.2070    24.9200    24.2040   -22.2380 
  177.8750     2.2060    49.9930    26.6500    24.6910    25.5390    24.2950   -22.3090 
  178.0000     2.2080    50.9840    27.1170    24.9980    26.1800    24.3200   -22.4020 
  178.1250     2.2130    54.7020    27.2430    25.0170    27.3040    24.3170   -22.5260 
  178.2500     2.2210    59.4120    27.0830    24.7810    27.2380    24.2810   -22.6430 
  178.3750     2.2280    62.0490    26.7350    24.3640    25.7470    24.2450   -22.7290 
  178.5000     2.2340    62.3850    26.3450    23.8960    23.7550    24.2570   -22.7690 
  178.6250     2.2390    61.9600    26.0410    23.5030    23.4760    24.1840   -22.7500 
