~V
VERS. 2.00: Ver 2.00
~W
STRT.M 55.0000:
STOP.M 213.0000:
STEP.M 0.1250:
NULL. -999.2500:
UWI. F10686:
~C
DEPT.M :
SP.MV :
DEN.GM/CC :
GR.API :
RML.OHMM :
RI. :
RXO.OHMM :
CALI.CM :
~A
# ...
  167.5000   -20.9370     2.1870    51.8400    18.0910    16.4120    14.9620    23.0310 
  167.6250   -20.9640     2.1870    55.1490    19.6000    17.7390    16.0850    23.1900 
  167.7500   -20.8940     2.2000    56.2720    21.0050    19.1630    20.2350    23.2540 
  167.8750   -20.7730     2.2150    56.3420    21.6020    20.0500    24.2130    23.0760 
  168.0000   -20.6490     2.2260    55.9500    20.9460    19.8730    24.9870    22.9510 
  168.1250   -20.4990     2.2300    56.0440    19.1470    18.5320    21.6820    22.9380 
  168.2500   -20.3340     2.2360    57.4300    17.2060    16.8490    17.4360    22.9880 
  168.3750   -20.1730     2.2490    58.3730    15.7530    15.4060    14.2340    23.1210 
  168.5000   -20.0120     2.2670    57.5800    15.0010    14.4750    13.8990    23.1810 
  168.6250   -19.8680     2.2820    56.2340    14.8930    14.1180    15.3330    23.2330 
  168.7500   -19.7700     2.2840    55.4920    15.0930    14.1050    16.0590    23.2240 
  168.8750   -19.6860     2.2730    54.6450    15.4680    14.3240    15.5810    23.1500 
  169.0000   -19.6200     2.2560    54.3310    16.0190    14.7360    15.2900    23.1380 
  169.1250   -19.6220     2.2490    57.8740    16.9300    15.4420    15.7030    23.3060 
  169.2500   -19.6740     2.2630    61.0920    18.2920    16.5120    16.7590    23.6410 
  169.3750   -19.7390     2.2990    59.5460    20.1270    18.0060    18.2780    23.8440 
  169.5000   -19.8260     2.3510    53.1500    22.3160    19.8850    21.6300    23.8790 
  169.6250   -19.9780     2.4040    46.3600    24.5880    21.9750    26.5240    23.8790 
  169.7500   -20.1880     2.4390    42.1850    26.6150    23.9510    29.7450    23.8780 
  169.8750   -20.4710     2.4410    41.1770    28.2240    25.5960    29.8980    23.8540 
  170.0000   -20.7640     2.4060    43.3630    29.3950    26.8200    28.4040    23.7290 
  170.1250   -21.0040     2.3400    46.3440    30.2110    27.6500    25.2430    23.0930 
  170.2500   -21.1930     2.2680    47.1290    30.8810    28.3000    22.2720    22.4130 
  170.3750   -21.3680     2.2090    45.9080    31.4720    28.8700    22.1350    22.0970 
  170.5000   -21.5310     2.1730    45.7290    31.9690    29.3770    24.6830    22.5620 
  170.6250   -21.6240     2.1640    47.2100    32.3110    29.7780    28.9370    23.6640 
  170.7500   -21.6370     2.1720    48.1230    32.5220    30.0680    31.3360    24.1110 
  170.8750   -21.5950     2.1880    48.1530    32.6550    30.2650    31.9120    24.1900 
  171.0000   -21.5410     2.2050    48.8160    32.7870    30.4160    31.5250    24.1970 
  171.1250   -21.4870     2.2200    50.3830    32.9800    30.5580    31.4570    24.1970 
  171.2500   -21.4310     2.2270    49.6900    33.2000    30.6770    30.6140    24.1970 
  171.3750   -21.3550     2.2250    47.4930    33.3810    30.7450    30.2270    24.1970 
  171.5000   -21.2770     2.2150    46.2340    33.4690    30.7470    31.0690    24.1970 
  171.6250   -21.2830     2.1980    46.8010    33.4670    30.7060    32.0600    24.1960 
  171.7500   -21.3490     2.1800    47.7260    33.5190    30.7200    31.5430    24.1920 
  171.8750   -21.4300     2.1670    48.3090    33.7850    30.8990    29.8070    24.1800 
  172.0000   -21.5250     2.1660    48.8380    34.3460    31.3110    28.9490    24.1320 
  172.1250   -21.6500     2.1810    49.2020    35.1370    31.9280    31.5220    23.9520 
  172.2500   -21.8330     2.2020    49.8810    35.9040    32.5590    35.4670    24.0510 
  172.3750   -22.0470     2.2180    50.9180    36.4720    33.0600    37.8820    24.1770 
  172.5000   -22.2680     2.2220    50.2300    36.8090    33.3820    35.9470    24.2550 
  172.6250   -22.4250     2.2140    48.1110    37.0720    33.6230    33.4810    24.3250 
  172.7500   -22.5300     2.2020    47.1520    37.4980    33.9720    32.2160    24.3370 
  172.8750   -22.6070     2.1900    47.3950    38.1760    34.5200    32.8750    24.3420 
  173.0000   -22.6630     2.1820    46.2970    39.0560    35.2440    36.4660    24.3510 
  173.1250   -22.6630     2.1800    45.7230    39.9720    36.0360    39.3380    24.4050 
  173.2500   -22.5920     2.1870    48.2950    40.7710    36.7570    39.1440    24.4080 
  173.3750   -22.5210     2.2040    50.9810    41.4560    37.3720    36.3150    24.3830 
  173.5000   -22.4720     2.2250    51.1310    42.1510    37.9460    36.6990    24.2540 
  173.6250   -22.4530     2.2340    49.9540    42.9780    38.5960    39.8200    24.1330 
  173.7500   -22.4560     2.2230    50.2230    43.8260    39.3050    42.5170    24.1110 
  173.8750   -22.4770     2.1960    51.5980    44.4410    39.9050    41.2030    24.0960 
  174.0000   -22.5310     2.1700    52.1150    44.5580    40.1570    39.9830    24.0200 
  174.1250   -22.6810     2.1640    52.1940    44.1090    39.9000    39.3730    23.8540 
  174.2500   -22.9180     2.1750    52.8710    43.6220    39.4900    37.6750    23.5230 
  174.3750   -23.1510     2.1920    52.5880    43.6550    39.3840    34.8690    23.1400 
  174.5000   -23.3780     2.2020    50.1210    44.6280    39.9840    32.9770    22.9440 
  174.6250   -23.7000     2.2000    47.1130    46.8360    41.6340    34.1040    22.8250 
  174.7500   -24.1160     2.2060    46.8110    49.7650    44.0310    39.2190    22.8550 
  174.8750   -24.6050     2.2410    49.9680    52.6460    46.6510    48.6690    22.9280 
  175.0000   -25.1280     2.3130    54.3610    54.4060    48.6620    57.3880    23.0090 
  175.1250   -25.6140     2.4130    55.0590    54.3450    48.7730    57.0810    23.0200 
  175.2500   -26.0550     2.5080    57.2180    53.2850    48.7160    52.4570    23.0680 
  175.3750   -26.4720     2.5760    55.7920    50.3100    47.0180    43.9260    23.0880 
  175.5000   -26.8170     2.6070    52.5100    46.5850    44.4470    38.8250    23.0910 
  175.6250   -26.9110     2.6110    51.8500    43.9030    42.3970    35.2700    23.0910 
  175.7500   -26.7520     2.6070    54.6530    43.4660    42.0150    34.9350    23.0940 
  175.8750   -26.3640     2.6030    57.4410    46.0730    44.2150    35.9530    23.1090 
  176.0000   -25.8200     2.6020    56.7960    52.0030    49.7870    39.4070    23.1720 
  176.1250   -25.1710     2.6060    55.3450    70.0730    59.1170    44.9920    23.2220 
  176.2500   -24.4430     2.6130    56.7110    77.0630    68.1180    58.2780    23.3290 
  176.3750   -23.6780     2.6200    59.4660    73.3570    69.1980    75.4190    23.3960 
  176.5000   -22.9310     2.6170    60.6630    55.7980    56.7150    86.5350    23.4020 
  176.6250   -22.3240     2.5850    61.3920    34.3500    36.8970    75.7310    23.3610 
  176.7500   -21.8650     2.5150    62.7770    19.8240    21.3550    43.6450    23.2690 
  176.8750   -21.5120     2.4160    63.3920    10.6610    12.0590    16.6380    23.1890 
  177.0000   -21.2140     2.3090    62.6390     6.4520     7.3180     6.5720    23.1610 
  177.1250   -20.9940     2.2270    61.7150     5.0850     5.4380     4.6870    23.1700 
  177.2500   -20.8660     2.1850    61.1890     4.9100     4.8360     4.4950    23.2660 
  177.3750   -20.7830     2.1820    59.7190     5.5030     5.0890     5.0190    23.5700 
  177.5000   -20.7370     2.2040    56.9140     6.6430     5.9690     5.9830    24.2900 
  177.6250   -20.7320     2.2310    54.8210     8.0680     7.2810     6.9460    24.8050 
  177.7500   -20.7570     2.2490    54.4660     9.3420     8.6160     7.7870    25.2610 
  177.8750   -20.8420     2.2580    55.0620    10.1860     9.6500     8.7030    25.4610 
  178.0000   -20.9730     2.2670    56.9150    10.4740    10.1470     9.6360    25.6240 
  178.1250   -21.0910     2.2870    59.3950    10.2260    10.0120    10.4840    25.6550 
  178.2500   -21.1490     2.3190    60.5610     9.8560     9.6150    10.6230    25.6620 
  178.3750   -21.1840     2.3610    59.5350     9.7300     9.2810    10.1850    25.6640 
  178.5000   -21.2270     2.4060    58.6160    10.1700     9.2760     9.5650    25.6680 
  178.6250   -21.2700     2.4450    59.0790    11.5680     9.8880    10.2560    25.6950 
