~V
VERS. 2.00: Ver 2.00
~W
STRT.M 57.0000:
STOP.M 248.0000:
STEP.M 0.1250:
NULL. -999.2500:
UWI. F10637:
~C
DEPT.M :
SP.MV :
GR.API :
RML.OHMM :
RI. :
RXO.OHMM :
CALI.CM :
DEN.GM/CC :
~A
# ...
  203.2500   -16.7800    93.5420     8.2690     6.8150     7.8570    25.2320     2.3700 
  203.3750   -16.8710    91.3140     9.4120     7.4850     8.4910    25.2150     2.3910 
  203.5000   -16.9860    82.3290    11.5070     8.8310     9.6910    25.2090     2.4380 
  203.6250   -17.1280    69.5630    14.7890    11.0650    13.5680    25.1920     2.4980 
  203.7500   -17.3020    62.6640    19.4320    14.5010    26.3070    25.1120     2.5290 
  203.8750   -17.4960    61.1610    24.6310    18.7260    38.5710    25.0270     2.5100 
  204.0000   -17.7020    60.9950    29.3870    23.0270    36.7960    24.9700     2.4510 
  204.1250   -17.9130    61.8550    32.8890    26.5650    32.3380    24.9770     2.3750 
  204.2500   -18.1210    65.1870    35.0340    28.8780    32.6730    25.0280     2.3120 
  204.3750   -18.3170    67.4810    36.9470    30.6850    35.3830    25.0630     2.2690 
  204.5000   -18.4970    66.6350    39.3720    32.6360    38.0350    25.0790     2.2420 
  204.6250   -18.6650    63.7710    42.4490    35.0150    41.6390    25.0790     2.2250 
  204.7500   -18.8160    61.4670    45.6270    37.5700    46.9530    25.0980     2.2100 
  204.8750   -18.9520    59.6440    48.1380    39.7370    50.5830    25.1910     2.2010 
  205.0000   -19.0810    59.7130    49.6590    41.2320    51.8540    25.3290     2.2060 
  205.1250   -19.2050    60.6330    50.3170    42.0920    50.6440    25.4820     2.2340 
  205.2500   -19.3300    58.0540    50.5480    42.5970    48.1730    25.5680     2.2790 
  205.3750   -19.4530    53.4270    50.8940    43.1600    46.9410    25.5630     2.3100 
  205.5000   -19.5750    52.7920    51.5210    43.9420    48.8940    25.4770     2.3090 
  205.6250   -19.6890    57.1310    52.3480    44.9100    50.5400    25.4190     2.2760 
  205.7500   -19.7840    59.9300    52.9750    45.7840    49.7810    25.4030     2.2260 
  205.8750   -19.8620    59.5090    52.9160    46.1500    49.2240    25.4150     2.1830 
  206.0000   -19.9220    58.9020    51.8570    45.6860    48.6410    25.4140     2.1550 
  206.1250   -19.9620    59.4580    49.8150    44.3190    48.3950    25.3990     2.1470 
  206.2500   -19.9660    59.9470    47.1390    42.2390    47.1650    25.3880     2.1580 
  206.3750   -19.9450    59.4940    44.6050    40.0770    41.2280    25.3450     2.1780 
  206.5000   -19.9070    59.7560    42.8970    38.3980    34.3730    25.3120     2.1950 
  206.6250   -19.8570    61.3020    42.6750    37.7750    33.4900    25.3080     2.2020 
  206.7500   -19.8130    64.1120    44.9760    39.1190    36.3600    25.3220     2.1990 
  206.8750   -19.7830    65.3920    50.0920    42.8100    39.0790    25.3250     2.2000 
  207.0000   -19.7690    63.3220    58.4830    49.3990    46.8890    25.3320     2.2190 
  207.1250   -19.7730    58.1020    70.3340    59.2200    63.4270    25.3360     2.2550 
  207.2500   -19.8070    54.3900    99.2550    72.4150    88.4640    25.3190     2.2930 
  207.3750   -19.8690    54.3560   118.3210    87.0990   111.4980    25.2890     2.3080 
  207.5000   -19.9530    55.3240   136.2170   101.3690   121.1910    25.2710     2.2930 
  207.6250   -20.0520    54.5180   150.7950   113.5590   120.5490    25.2780     2.2550 
  207.7500   -20.1530    53.4210   160.9360   122.6410   120.0080    25.2940     2.2130 
  207.8750   -20.2510    52.9110   168.4240   129.6890   121.1550    25.3160     2.1810 
  208.0000   -20.3440    51.4420   174.4000   135.4990   122.2270    25.3290     2.1610 
  208.1250   -20.4300    48.7150   179.5660   140.6380   135.8800    25.3380     2.1530 
  208.2500   -20.5040    48.4180   184.2490   145.4180   152.1680    25.3690     2.1580 
  208.3750   -20.5620    50.7590   188.9050   150.2840   154.8240    25.4310     2.1680 
  208.5000   -20.5990    52.5400   193.3680   155.4180   153.1700    25.5060     2.1800 
  208.6250   -20.6220    52.1630   195.1970   159.4950   156.6750    25.5810     2.1870 
  208.7500   -20.6320    49.9640   186.6550   156.9210   164.6930    25.6030     2.1850 
  208.8750   -20.6330    48.0060   165.8740   144.5200   184.7060    25.5870     2.1780 
  209.0000   -20.6240    47.3060   138.2750   124.2940   193.8060    25.5800     2.1660 
  209.1250   -20.6070    49.1410   112.9550   102.8240   166.3260    25.6030     2.1510 
  209.2500   -20.5850    53.8990    97.6970    87.7910    98.5030    25.6060     2.1490 
  209.3750   -20.5710    58.1140    92.2620    81.1100    60.0220    25.6150     2.1820 
  209.5000   -20.5780    59.0160    95.1600    82.4010    61.3490    25.5860     2.2580 
  209.6250   -20.6170    57.4290   103.6150    89.5740   119.3030    25.4970     2.3510 
  209.7500   -20.6960    56.2830   113.2200    99.0300   212.5460    25.4390     2.3990 
  209.8750   -20.8090    56.4440   119.1040   106.1150   193.7270    25.4630     2.3830 
  210.0000   -20.9580    56.9220   119.7240   108.6910   130.0940    25.5140     2.3240 
  210.1250   -21.1430    57.8250   117.5100   107.8770    90.1300    25.5130     2.2590 
  210.2500   -21.3640    58.7730   117.9560   108.0930    82.8390    25.4770     2.2180 
  210.3750   -21.6060    58.3490   123.8490   112.7820   106.7060    25.4540     2.1940 
  210.5000   -21.8610    57.0130   134.7100   122.2740   139.5500    25.4680     2.1790 
  210.6250   -22.1120    55.2710   147.4860   134.2400   152.1990    25.4880     2.1700 
  210.7500   -22.3440    52.2100   156.2330   143.4860   155.4930    25.4900     2.1690 
  210.8750   -22.5590    48.1380   157.3920   146.1470   158.3260    25.4630     2.1730 
  211.0000   -22.7520    45.1140   151.4600   141.8570   155.3580    25.4100     2.1820 
  211.1250   -22.9180    44.4710   142.1790   133.4930   139.8890    25.3810     2.1940 
  211.2500   -23.0540    46.1600   134.2650   125.3650   113.0320    25.3710     2.2080 
  211.3750   -23.1660    48.0600   130.2930   120.4170    98.7870    25.3520     2.2180 
  211.5000   -23.2460    48.3470   131.4070   119.9960   108.1840    25.3400     2.2230 
  211.6250   -23.2970    47.8590   138.0540   124.7300   118.8600    25.3380     2.2210 
  211.7500   -23.3230    49.7630   150.7360   135.3430   128.2250    25.3540     2.2120 
  211.8750   -23.3340    51.8270   166.9940   149.6830   147.2710    25.3920     2.2010 
  212.0000   -23.3390    51.0570   184.1340   165.2810   177.9640    25.4300     2.1900 
  212.1250   -23.3500    47.7720   198.8380   178.9960   210.7410    25.4300     2.1810 
  212.2500   -23.3660    44.6520   207.5400   187.4170   218.5640    25.4020     2.1760 
  212.3750   -23.3850    43.6060   211.0840   191.0660   207.5120    25.3720     2.1740 
  212.5000   -23.4130    45.3210   211.7310   191.8020   188.8270    25.3430     2.1740 
  212.6250   -23.4580    48.7920   212.2870   192.1140   177.5540    25.3170     2.1760 
  212.7500   -23.5140    49.0450   214.4930   193.7330   185.2550    25.3200     2.1790 
  212.8750   -23.5640    46.3230   216.9220   195.6730   200.2040    25.3290     2.1810 
  213.0000   -23.5940    45.1180   217.0640   195.8760   215.3310    25.3270     2.1790 
  213.1250   -23.5890    46.8450   212.7080   192.3980   214.8840    25.3050     2.1730 
  213.2500   -23.5300    49.8900   202.9210   184.0940   194.3800    25.2860     2.1660 
  213.3750   -23.4250    50.5630   191.1530   173.5310   169.2060    25.2590     2.1610 
  213.5000   -23.2720    49.4520   180.7600   163.5180   149.8680    25.2430     2.1600 
  213.6250   -23.0680    50.3800   174.3000   156.5210   145.0130    25.2420     2.1640 
  213.7500   -22.8210    53.6590   173.9490   154.8100   147.9670    25.2420     2.1700 
  213.8750   -22.5550    54.9780   179.0280   158.0310   158.1200    25.2460     2.1760 
  214.0000   -22.2810    52.1700   189.0250   165.7710   175.2500    25.2650     2.1770 
  214.1250   -22.0130    49.3130   202.8200   176.9500   194.1380    25.2860     2.1720 
  214.2500   -21.7780    49.1150   218.9030   190.0310   208.4050    25.3110     2.1650 
  214.3750   -21.5790    48.7170   234.9530   202.8280   216.0490    25.3400     2.1620 
