~V
VERS. 2.00: Ver 2.00
~W
STRT.M 54.0000:
STOP.M 246.0000:
STEP.M 0.1250:
NULL. -999.2500:
UWI. F10643:
~C
DEPT.M :
SP.MV :
GR.API :
RML.OHMM :
RI. :
RXO.OHMM :
CALI.CM :
DEN.GM/CC :
~A
# ...
  110.2500   -20.1580    82.9190     6.5130     5.4590     5.3560    22.5120     2.3100 
  110.3750   -20.3820    81.3570     6.0100     5.0110     6.0760    22.6620     2.3400 
  110.5000   -20.5830    79.7340     5.6810     4.6510     6.6000    23.0740     2.3670 
  110.6250   -20.7460    77.2770     5.5610     4.4370     5.6860    23.5940     2.3860 
  110.7500   -20.8390    76.8100     5.6160     4.3650     4.8460    23.9190     2.3950 
  110.8750   -20.9270    77.9290     5.7600     4.3870     4.8380    24.0020     2.3950 
  111.0000   -20.9930    78.0590     5.9030     4.4510     5.2610    23.9970     2.3910 
  111.1250   -21.0130    76.7530     6.0200     4.5280     5.4460    24.0130     2.3850 
  111.2500   -21.0150    75.3510     6.1530     4.6320     5.4010    24.0400     2.3730 
  111.3750   -21.0200    75.4790     6.3890     4.8050     5.2540    24.0690     2.3520 
  111.5000   -21.0040    76.8980     6.8620     5.1360     5.5150    24.0360     2.3170 
  111.6250   -20.9630    75.4540     7.6070     5.6630     6.4380    23.8870     2.2770 
  111.7500   -20.9320    69.1250     8.6400     6.4120     7.6880    23.6980     2.2370 
  111.8750   -20.8690    61.9320     9.9370     7.3680     8.6710    23.5910     2.2030 
  112.0000   -20.7980    57.3170    11.4360     8.4900     9.2970    23.5680     2.1790 
  112.1250   -20.7510    54.6630    12.8930     9.6110     9.8760    23.6080     2.1620 
  112.2500   -20.7000    54.1770    13.9550    10.5010    10.6390    23.7610     2.1490 
  112.3750   -20.6700    55.6830    14.1980    10.8660    11.6330    23.9530     2.1390 
  112.5000   -20.6920    56.7810    13.2300    10.3770    12.2120    24.1220     2.1380 
  112.6250   -20.7530    57.8220    11.5560     9.3000    11.6500    24.1910     2.1510 
  112.7500   -20.8420    62.8860     9.7550     7.9990     9.6470    24.2100     2.1790 
  112.8750   -20.9770    72.7160     8.2790     6.8160     7.1510    24.2030     2.2180 
  113.0000   -21.1300    80.3670     7.3940     6.0050     6.0880    24.1330     2.2530 
  113.1250   -21.2710    82.7160     6.9760     5.5420     6.7500    24.0410     2.2780 
  113.2500   -21.4120    81.0750     6.9510     5.3930     8.2180    24.0370     2.2900 
  113.3750   -21.4730    79.5520     7.2700     5.5300     7.4890    24.1490     2.2930 
  113.5000   -21.4890    79.6300     7.9210     5.9640     6.6650    24.2390     2.3000 
  113.6250   -21.4290    79.4850     8.7210     6.5700     6.6480    24.2690     2.3220 
  113.7500   -21.3410    76.4300     9.4490     7.1990     7.7390    24.2920     2.3590 
  113.8750   -21.2130    69.9770     9.8260     7.6370     9.8530    24.2700     2.3950 
  114.0000   -21.0130    66.9370     9.5110     7.5970    11.9020    24.1940     2.4110 
  114.1250   -20.7930    71.6440     8.6530     7.1100    10.1610    24.1490     2.4080 
  114.2500   -20.5120    79.8460     7.5700     6.3570     7.0910    24.1470     2.3980 
  114.3750   -20.2260    84.4770     6.5970     5.5880     5.3220    24.1180     2.3910 
  114.5000   -19.9260    86.0910     6.0000     5.0330     5.0860    24.0630     2.3920 
  114.6250   -19.6200    87.9390     5.7830     4.7470     5.2370    24.0460     2.3890 
  114.7500   -19.3090    87.4010     5.9230     4.7430     5.4150    24.0710     2.3760 
  114.8750   -19.0070    82.5490     6.3720     5.0010     5.5090    24.0760     2.3590 
  115.0000   -18.7470    75.7860     7.0660     5.4960     5.7210    24.0840     2.3490 
  115.1250   -18.5470    72.0330     7.7980     6.0780     6.3700    24.1170     2.3480 
  115.2500   -18.4260    69.5120     8.3550     6.5910     7.5220    24.1420     2.3500 
  115.3750   -18.3250    67.6660     8.5350     6.8700     8.7940    24.1350     2.3470 
  115.5000   -18.2830    69.1260     8.2240     6.7790     8.4110    24.1580     2.3360 
  115.6250   -18.2870    73.8860     7.6880     6.4630     6.9040    24.1640     2.3240 
  115.7500   -18.2950    79.2270     7.1790     6.0920     5.6980    24.1550     2.3150 
  115.8750   -18.3340    81.1830     6.8800     5.8160     5.2680    24.1730     2.3100 
  116.0000   -18.3320    81.2230     6.9030     5.7460     5.5720    24.1900     2.3020 
  116.1250   -18.2760    81.2030     7.1460     5.8480     6.0100    24.1980     2.2910 
  116.2500   -18.1470    79.1260     7.5080     6.0680     6.3070    24.1720     2.2790 
  116.3750   -17.9750    75.7090     7.8920     6.3420     6.3250    24.0920     2.2690 
  116.5000   -17.6950    74.7800     8.2050     6.6090     6.4490    23.9650     2.2630 
  116.6250   -17.3200    77.6680     8.4190     6.8320     6.6990    23.9550     2.2560 
  116.7500   -16.8810    79.8150     8.5440     7.0000     6.7710    23.9830     2.2490 
  116.8750   -16.3350    78.0360     8.6110     7.1160     7.1840    23.8660     2.2490 
  117.0000   -15.6980    75.5330     8.6530     7.1830     7.9450    23.5620     2.2530 
  117.1250   -15.0060    76.3870     8.7360     7.2440     8.0050    23.3980     2.2510 
  117.2500   -14.2810    78.3140     8.9670     7.3770     7.8730    23.3370     2.2390 
  117.3750   -13.5050    75.9310     9.4780     7.6940     8.6620    23.3340     2.2260 
  117.5000   -12.7310    68.7640    10.4720     8.3670    10.4580    23.3340     2.2360 
  117.6250   -11.9650    64.0890    11.9830     9.4480    11.1080    23.3590     2.2740 
  117.7500   -11.1950    63.1660    14.0170    10.9880    12.5360    23.4070     2.3160 
  117.8750   -10.4550    62.5430    16.4150    12.9240    16.2870    23.4290     2.3280 
  118.0000    -9.7530    59.5980    18.8030    15.0150    17.1440    23.4030     2.2860 
  118.1250    -9.1040    55.9390    20.8120    16.8900    16.3180    23.5770     2.2210 
  118.2500    -8.5340    51.8850    22.2750    18.3380    16.9080    24.0220     2.1600 
  118.3750    -8.0460    49.1600    23.1950    19.3080    18.6310    24.5010     2.1210 
  118.5000    -7.6460    50.5400    23.6200    19.8190    19.6200    24.6850     2.1060 
  118.6250    -7.3240    53.8890    23.6950    20.0220    19.6700    24.7250     2.1030 
  118.7500    -7.0710    55.9810    23.4010    19.9020    19.2530    24.7340     2.1050 
  118.8750    -6.8400    54.9280    22.7800    19.4650    17.9450    24.7050     2.1090 
  119.0000    -6.6340    53.0650    22.0960    18.8860    16.3170    24.6370     2.1130 
  119.1250    -6.3710    51.9610    21.7310    18.4970    15.2640    24.4980     2.1160 
  119.2500    -6.0430    52.4400    21.9270    18.5200    15.0800    24.2790     2.1170 
  119.3750    -5.6760    53.3290    22.7900    19.0810    15.9280    23.9850     2.1160 
  119.5000    -5.2400    53.0490    24.3420    20.2650    18.7990    23.8890     2.1150 
  119.6250    -4.7920    52.2030    26.1860    21.7970    23.2950    24.2210     2.1150 
  119.7500    -4.3120    50.3110    27.9150    23.3640    25.9120    24.5890     2.1180 
  119.8750    -3.8770    47.4870    29.1410    24.6140    25.0150    24.7410     2.1220 
  120.0000    -3.4900    46.2500    29.5510    25.2090    23.5500    24.7290     2.1260 
  120.1250    -3.1460    46.7110    29.3940    25.2700    22.3660    24.7080     2.1270 
  120.2500    -2.8790    46.8340    28.9720    25.0190    21.5090    24.6880     2.1280 
  120.3750    -2.6590    46.0780    28.5630    24.7060    22.1540    24.6330     2.1300 
  120.5000    -2.4880    47.3280    28.3430    24.5140    22.2610    24.3970     2.1270 
  120.6250    -2.3570    49.7680    28.3200    24.4780    22.0990    24.1020     2.1170 
  120.7500    -2.2630    49.7740    28.4870    24.6050    22.0870    23.8530     2.1010 
  120.8750    -2.1970    46.8290    28.7990    24.8660    22.1770    23.9310     2.0860 
  121.0000    -2.1990    46.6390    29.1140    25.1610    22.8970    24.4320     2.0810 
  121.1250    -2.2460    49.5810    29.2360    25.3250    23.3560    24.7100     2.0880 
  121.2500    -2.3080    51.9250    29.0100    25.2280    23.7100    24.8310     2.1040 
  121.3750    -2.4180    50.1510    28.3790    24.8060    23.4140    24.8620     2.1230 
