~V
VERS. 2.00: Ver 2.00
~W
STRT.M 50.0000:
STOP.M 219.0000:
STEP.M 0.1250:
NULL. -999.2500:
UWI. F10688:
~C
DEPT.M :
SP.MV :
DEN.GM/CC :
GR.API :
RML.OHMM :
RI. :
RXO.OHMM :
CALI.CM :
~A
# ...
  128.7500    -8.5600     2.1370    51.6460    41.9250    32.1710    46.1410    25.0270 
  128.8750    -8.3020     2.1270    51.5690    43.1090    33.1070    45.4380    24.9280 
  129.0000    -8.0930     2.1220    51.0890    44.0320    33.8540    42.7060    24.8390 
  129.1250    -7.9310     2.1250    52.0230    44.3500    34.1520    42.8310    24.7680 
  129.2500    -7.8220     2.1360    55.1930    44.0740    33.9980    42.6250    24.7150 
  129.3750    -7.8030     2.1510    57.3850    43.3110    33.4590    41.0680    24.6800 
  129.5000    -7.8610     2.1640    55.9280    42.2260    32.6400    38.8300    24.6520 
  129.6250    -8.0230     2.1720    53.1450    40.9170    31.5910    35.8870    24.6220 
  129.7500    -8.2700     2.1800    52.0180    39.4780    30.3880    34.4450    24.5870 
  129.8750    -8.5770     2.1910    52.2720    37.9810    29.1000    33.6560    24.5410 
  130.0000    -8.9600     2.2050    52.9510    36.5720    27.8600    32.2920    24.4890 
  130.1250    -9.4330     2.2180    55.4810    35.6070    26.9480    30.9230    24.4320 
  130.2500    -9.9910     2.2240    56.8040    35.3750    26.5790    30.4680    24.3740 
  130.3750   -10.6320     2.2230    54.6590    36.0830    26.9290    31.7890    24.3170 
  130.5000   -11.3950     2.2170    51.5130    37.7350    28.0540    33.2540    24.2600 
  130.6250   -12.2570     2.2080    51.2890    40.1440    29.9160    36.4360    24.2160 
  130.7500   -13.1840     2.2010    51.6710    42.6610    32.0630    40.3390    24.2150 
  130.8750   -14.2290     2.1970    51.0910    44.7030    34.0690    42.1370    24.2740 
  131.0000   -15.3810     2.1950    51.6760    45.6780    35.4570    40.8370    24.3860 
  131.1250   -16.5830     2.1970    52.8300    44.8020    35.5370    41.9270    24.5380 
  131.2500   -17.8280     2.2120    51.7700    42.2670    34.2600    47.8160    24.7050 
  131.3750   -19.1650     2.2380    49.7390    38.5630    31.8610    54.3180    24.8720 
  131.5000   -20.5810     2.2610    49.2120    34.5010    28.9080    55.4880    25.0310 
  131.6250   -21.9620     2.2540    49.6010    31.0340    26.1450    49.7460    25.1630 
  131.7500   -23.3150     2.2170    49.1090    28.5850    24.0280    42.4180    25.2560 
  131.8750   -24.6140     2.1700    48.8400    27.1420    22.6420    38.2160    25.2950 
  132.0000   -25.7450     2.1570    48.7600    26.2390    21.7170    38.2470    25.2830 
  132.1250   -26.7390     2.2410    48.0440    24.9560    20.6130    37.7420    25.2190 
  132.2500   -27.6520     2.3990    46.9270    22.7110    18.8580    37.8060    25.1340 
  132.3750   -28.4220     2.5480    47.3110    19.6360    16.5020    37.0890    25.0310 
  132.5000   -28.9670     2.6100    50.3410    16.4720    14.0480    33.7170    24.9200 
  132.6250   -29.2620     2.5920    53.9310    14.4060    12.3030    21.2530    24.8260 
  132.7500   -29.4100     2.5640    54.3100    14.0090    11.6700    10.3160    24.7750 
  132.8750   -29.4430     2.5370    51.0200    15.6380    12.4290    10.6250    24.8030 
  133.0000   -29.3820     2.4850    47.4460    19.5800    14.8940    14.0280    24.9420 
  133.1250   -29.1870     2.3890    46.6090    26.3340    19.7570    17.9990    25.1250 
  133.2500   -28.8820     2.2870    46.2400    36.4640    26.4660    28.4780    25.2640 
  133.3750   -28.5170     2.2310    45.4310    46.6580    33.5980    39.4010    25.3400 
  133.5000   -28.1490     2.2640    44.8310    52.1360    38.7570    42.2880    25.3610 
  133.6250   -27.7210     2.4110    44.8870    51.9530    39.6600    37.9690    25.2990 
  133.7500   -27.1820     2.6060    45.6210    48.3120    37.6140    35.1520    25.1830 
  133.8750   -26.4880     2.7750    46.7700    43.3770    34.1960    34.3400    25.0270 
  134.0000   -25.6160     2.8670    47.4370    38.7720    30.7290    34.8840    24.8550 
  134.1250   -24.5850     2.8790    48.3290    35.5610    28.1330    35.0540    24.7540 
  134.2500   -23.3890     2.8580    49.7250    33.7910    26.5650    36.0860    24.7430 
  134.3750   -21.9630     2.8140    49.3880    33.3390    26.0140    34.9280    24.7840 
  134.5000   -20.3120     2.7440    46.7670    33.7480    26.2560    31.2000    24.8480 
  134.6250   -18.6130     2.6570    44.6750    34.0200    26.7170    35.8920    24.9250 
  134.7500   -16.8880     2.5720    45.3450    33.0210    26.4850    32.1160    25.0010 
  134.8750   -15.1280     2.5010    47.3310    30.1360    24.9000    28.6760    25.0740 
  135.0000   -13.4580     2.4480    48.9770    25.6000    21.9060    24.6800    25.1380 
  135.1250   -11.9000     2.4160    50.0350    20.5460    18.2120    19.1090    25.1840 
  135.2500   -10.4340     2.3970    50.8010    16.3010    14.9180    13.8440    25.2170 
  135.3750    -9.1050     2.3910    54.4290    13.3630    12.4970    10.4340    25.2360 
  135.5000    -7.9590     2.3950    61.2320    11.7240    11.0320     7.9990    25.2440 
  135.6250    -7.0140     2.3930    67.4090    11.2720    10.5260     6.8530    25.2500 
  135.7500    -6.2190     2.3800    69.4120    11.4800    10.6180     7.7430    25.2480 
  135.8750    -5.5890     2.3610    67.1610    12.0120    11.0620     9.5480    25.2240 
  136.0000    -5.1090     2.3520    63.1850    12.5720    11.6020    10.1970    25.1830 
  136.1250    -4.7700     2.3630    60.6880    12.9410    12.0120     9.3540    25.1230 
  136.2500    -4.5470     2.3820    60.9660    13.1630    12.2680     8.7000    25.0530 
  136.3750    -4.4160     2.3970    61.2300    13.4400    12.5000     8.3440    24.9790 
  136.5000    -4.3400     2.4100    58.5310    14.0690    12.9410     9.2110    24.9070 
  136.6250    -4.3290     2.4420    54.0120    15.4450    13.9180    11.4520    24.8470 
  136.7500    -4.3880     2.5040    50.6990    17.5790    15.4790    13.8400    24.8040 
  136.8750    -4.4800     2.5840    50.5670    20.3680    17.5870    15.4170    24.7840 
  137.0000    -4.5840     2.6450    52.1500    23.4500    20.0070    18.3410    24.7810 
  137.1250    -4.7440     2.6470    51.8140    25.9880    22.1210    23.5160    24.7900 
  137.2500    -4.9440     2.5970    49.2310    27.2680    23.2930    27.2240    24.8070 
  137.3750    -5.1670     2.5180    47.0770    27.0570    23.2680    24.0490    24.8290 
  137.5000    -5.4200     2.4400    48.3730    25.7370    22.2960    18.3940    24.8440 
  137.6250    -5.6780     2.3840    53.0060    24.0790    20.9620    16.4850    24.8470 
  137.7500    -5.8990     2.3530    56.3140    22.8380    19.8800    17.5120    24.8370 
  137.8750    -6.1710     2.3440    55.3970    22.2980    19.2970    20.2510    24.8140 
  138.0000    -6.4880     2.3540    51.9050    22.4470    19.2460    20.5310    24.7780 
  138.1250    -6.7370     2.3890    51.0130    23.0360    19.5870    20.9550    24.7370 
  138.2500    -6.9310     2.4400    52.2460    23.5560    19.9360    18.2850    24.6980 
  138.3750    -7.1150     2.4970    52.7420    23.7340    20.0740    16.8960    24.6630 
  138.5000    -7.2940     2.5510    51.9590    23.5390    19.9650    18.8050    24.6380 
  138.6250    -7.3520     2.5920    50.4180    23.1980    19.7670    22.8990    24.6270 
  138.7500    -7.3700     2.6250    48.3990    23.1250    19.7510    22.7720    24.6190 
  138.8750    -7.3560     2.6540    46.9630    23.6310    20.1300    19.6750    24.6150 
  139.0000    -7.2570     2.6740    46.6690    24.8540    21.0160    19.9630    24.6150 
  139.1250    -7.0880     2.6780    46.2310    26.6510    22.3620    24.3590    24.6160 
  139.2500    -6.8730     2.6720    45.0580    28.2700    23.6640    25.9630    24.6160 
  139.3750    -6.6350     2.6680    45.5140    28.9750    24.3530    25.3750    24.6170 
  139.5000    -6.3900     2.6740    47.9340    28.3910    24.0730    25.2080    24.6170 
  139.6250    -6.1680     2.6950    49.1160    26.7860    22.9330    26.8990    24.6170 
  139.7500    -5.9300     2.7170    47.8210    25.2260    21.7220    23.9990    24.6170 
  139.8750    -5.6780     2.7260    46.1030    24.3800    20.9650    19.8790    24.6170 
