~V
VERS. 2.00: Ver 2.00
~W
STRT.M 57.0000:
STOP.M 248.0000:
STEP.M 0.1250:
NULL. -999.2500:
UWI. F10637:
~C
DEPT.M :
SP.MV :
GR.API :
RML.OHMM :
RI. :
RXO.OHMM :
CALI.CM :
DEN.GM/CC :
~A
   57.0000   135.1520    45.0380     0.9590     0.6400     0.7490    24.7750  -999.2500 
   57.1250   134.7550    44.3100     0.9810     0.6460     0.7490    24.8070  -999.2500 
   57.2500   134.2540    44.5880     0.9910     0.6530     0.7520    24.8220  -999.2500 
   57.3750   133.6100    45.8240     0.9900     0.6600     0.7610    24.8310  -999.2500 
   57.5000   132.7620    47.6180     0.9820     0.6640     0.7730    24.8440     2.0140 
   57.6250   131.6360    48.1510     0.9720     0.6650     0.7840    24.8780     2.0140 
   57.7500   130.0530    47.2510     0.9660     0.6600     0.7940    24.9300     2.0070 
   57.8750   127.9510    46.0680     0.9430     0.6460     0.8020    25.0120     1.9990 
   58.0000   125.2140    44.3800     0.8660     0.6150     0.8080    25.1100     1.9960 
   58.1250   121.7170    43.2010     0.7110     0.5630     0.8120    25.1890     2.0060 
   58.2500   117.1610    44.1270     0.5180     0.4930     0.8180    25.2150     2.0510 
   58.3750   111.5570    44.5220     0.3730     0.4250     0.8280    25.2240     2.1700 
   58.5000   104.8070    42.1040     0.3170     0.3760     0.8590    25.2390     2.3800 
   58.6250    96.8510    39.9090     0.3460     0.3590     1.0190    25.3810     2.6030 
   58.7500    87.4940    40.2440     0.4790     0.3970     1.6840    26.1090     2.7150 
   58.8750    77.0270    41.5130     0.7470     0.5040     3.2980    27.8400     2.7100 
   59.0000    65.6330    43.6840     1.2470     0.7230     6.2640    30.6860     2.6290 
   59.1250    53.6280    47.3570     2.1110     1.1260    10.9390    34.3940     2.5180 
   59.2500    41.4880    50.4680     3.4970     1.8660    16.6700    37.4820     2.4130 
   59.3750    29.7500    50.3660     5.0760     2.9210    19.3080    38.5630     2.3230 
   59.5000    18.7840    48.6420     6.3410     4.1120    15.0980    38.0610     2.2310 
   59.6250     8.8650    47.9390     6.9800     5.1200     9.9640    37.4140     2.1240 
   59.7500     0.4100    48.8140     7.0780     5.6760     7.4870    36.9110     2.0110 
   59.8750    -6.6610    49.5080     7.0470     5.9160     6.6920    35.7160     1.9150 
   60.0000   -12.3450    51.0270     7.0490     5.9910     6.6470    33.1920     1.8530 
   60.1250   -16.7540    53.8710     7.1240     6.0150     6.8910    29.6380     1.8390 
   60.2500   -19.9790    55.7010     7.2750     6.0650     7.1610    27.2150     1.8830 
   60.3750   -22.4770    54.7130     7.4730     6.1690     7.3610    25.9840     1.9600 
   60.5000   -24.4400    53.5880     7.7060     6.3290     7.5770    25.3410     2.0500 
   60.6250   -25.9910    54.5550     7.9620     6.5280     7.7610    24.8740     2.1300 
   60.7500   -27.1550    56.6490     8.2150     6.7310     7.9360    24.7170     2.1800 
   60.8750   -28.0480    58.0770     8.4290     6.8940     8.0580    24.6090     2.2010 
   61.0000   -28.7140    58.4200     8.5680     6.9840     8.1420    24.4510     2.2020 
   61.1250   -29.1950    57.5650     8.6170     6.9860     8.2190    24.2890     2.1930 
   61.2500   -29.5150    56.8090     8.5750     6.9010     8.1590    24.1920     2.1820 
   61.3750   -29.7280    57.3620     8.4980     6.7810     7.9510    24.1140     2.1740 
   61.5000   -29.8530    58.1620     8.4320     6.6660     7.7200    24.0600     2.1680 
   61.6250   -29.9060    57.2970     8.4010     6.5830     7.6690    24.0230     2.1620 
   61.7500   -29.9120    57.6150     8.3960     6.5420     7.8230    24.0140     2.1550 
   61.8750   -29.9090    60.7430     8.3790     6.5140     7.9020    24.0010     2.1500 
   62.0000   -29.9140    63.1880     8.3310     6.4780     7.8000    23.9690     2.1520 
   62.1250   -29.9330    62.0850     8.2530     6.4220     7.6160    23.9280     2.1610 
   62.2500   -29.9630    59.8010     8.1600     6.3420     7.4920    23.8890     2.1750 
   62.3750   -30.0040    60.2600     8.0700     6.2530     7.4060    23.8690     2.1850 
   62.5000   -30.0640    62.6570     7.9810     6.1640     7.3010    23.8560     2.1880 
   62.6250   -30.1450    63.9300     7.8940     6.0800     7.1370    23.8780     2.1830 
   62.7500   -30.2400    63.5260     7.8200     6.0170     6.9830    23.9510     2.1770 
   62.8750   -30.3390    64.7980     7.7850     5.9870     6.9230    24.0010     2.1760 
   63.0000   -30.4400    69.4190     7.8080     6.0030     6.7870    24.0130     2.1810 
   63.1250   -30.5380    75.2230     7.8900     6.0630     6.6830    24.0010     2.1840 
   63.2500   -30.6330    76.3440     8.0020     6.1490     6.9010    23.9970     2.1800 
   63.3750   -30.7220    73.5670     8.0770     6.2100     7.2940    23.9870     2.1690 
   63.5000   -30.8030    71.0580     8.0510     6.1970     7.3780    23.9500     2.1530 
   63.6250   -30.8780    71.5420     7.9040     6.0830     7.1480    23.9060     2.1370 
   63.7500   -30.9580    73.4990     7.6770     5.8800     6.9860    23.8850     2.1290 
   63.8750   -31.0470    73.9710     7.4880     5.6770     6.9320    23.9240     2.1300 
   64.0000   -31.1490    73.2710     7.4350     5.5540     6.8610    23.9730     2.1380 
   64.1250   -31.2720    71.9420     7.5800     5.5750     6.6960    23.9800     2.1480 
   64.2500   -31.4210    70.0000     7.9610     5.7970     7.4460    23.9290     2.1530 
   64.3750   -31.5950    66.8590     8.4820     6.1620     8.0390    23.8620     2.1500 
   64.5000   -31.7960    62.3920     9.0480     6.6060     8.4090    23.8490     2.1450 
   64.6250   -32.0140    56.9710     9.5490     7.0430     8.5330    23.8940     2.1420 
   64.7500   -32.2340    54.2170     9.8550     7.3600     8.5940    23.9110     2.1440 
   64.8750   -32.4370    55.7240     9.9550     7.5180     8.5720    23.8600     2.1470 
   65.0000   -32.6160    58.6300     9.8730     7.5140     8.5740    23.7780     2.1480 
   65.1250   -32.7680    59.7420     9.6620     7.3810     8.6290    23.6910     2.1490 
   65.2500   -32.8900    60.1750     9.3720     7.1580     8.6320    23.6260     2.1510 
   65.3750   -32.9860    62.3860     9.0790     6.9120     8.6050    23.5830     2.1590 
   65.5000   -33.0540    64.0920     8.8260     6.6800     8.4320    23.5520     2.1700 
   65.6250   -33.0940    61.9220     8.6460     6.4870     8.1260    23.5580     2.1740 
   65.7500   -33.1130    57.5080     8.5600     6.3560     7.8730    23.6860     2.1640 
   65.8750   -33.1170    54.8150     8.5380     6.2800     7.6490    24.0070     2.1460 
   66.0000   -33.1050    52.9320     8.5490     6.2460     7.4590    24.4780     2.1290 
   66.1250   -33.0660    50.7980     8.5570     6.2380     7.4670    24.7760     2.1220 
   66.2500   -32.9800    51.1230     8.5290     6.2260     7.4820    24.4650     2.1280 
   66.3750   -32.8390    53.8510     8.4700     6.1960     7.4350    24.0540     2.1350 
   66.5000   -32.6280    56.3780     8.4090     6.1570     7.2970    23.8230     2.1360 
   66.6250   -32.3440    56.9000     8.3850     6.1330     7.1320    23.7310     2.1340 
   66.7500   -31.9730    56.8710     8.4390     6.1630     7.0480    23.6320     2.1380 
   66.8750   -31.5240    56.7430     8.5460     6.2440     7.0900    23.5210     2.1490 
   67.0000   -30.9940    55.7090     8.6310     6.3330     7.2310    23.4640     2.1640 
   67.1250   -30.3830    54.2310     8.5920     6.3550     7.3960    23.4760     2.1740 
   67.2500   -29.6830    52.9220     8.3350     6.2190     7.4830    23.5600     2.1770 
   67.3750   -28.9240    52.7300     7.9390     5.9570     7.4380    23.6730     2.1790 
   67.5000   -28.1190    56.9580     7.4990     5.6340     7.2800    23.7900     2.1870 
   67.6250   -27.2750    66.5680     7.1030     5.3180     7.0320    23.8960     2.2040 
   67.7500   -26.4050    76.1620     6.8160     5.0700     6.6800    23.9780     2.2310 
   67.8750   -25.5360    79.2870     6.6120     4.8910     6.2700    23.9790     2.2590 
   68.0000   -24.6980    77.9260     6.4510     4.7610     5.8970    23.9880     2.2800 
   68.1250   -23.9230    75.5630     6.3010     4.6530     5.6420    24.0550     2.2890 
