~V
VERS. 2.00: Ver 2.00
~W
STRT.M 49.0000:
STOP.M 217.0000:
STEP.M 0.1250:
NULL. -999.2500:
UWI. F10685:
~C
DEPT.M :
SP.MV :
DEN.GM/CC :
GR.API :
RML.OHMM :
RI. :
RXO.OHMM :
CALI.CM :
~A
# ...
  195.2500   -15.6340     2.3030    84.9580     9.4380     7.9450     8.7930    22.9340 
  195.3750   -15.2400     2.2960    81.6330     9.4220     7.9310     9.2860    22.9200 
  195.5000   -14.6910     2.2870    77.7770     9.3380     7.8600     9.3800    22.8450 
  195.6250   -13.9820     2.2800    74.0350     9.1320     7.6870     8.6800    22.7620 
  195.7500   -13.1740     2.2780    72.2750     8.8350     7.4370     7.8650    22.7160 
  195.8750   -12.2890     2.2840    71.2240     8.5020     7.1560     7.1310    22.7900 
  196.0000   -11.4140     2.2970    69.1780     8.2000     6.9020     6.8390    22.7730 
  196.1250   -10.6120     2.3110    66.4180     8.0060     6.7390     6.9030    22.5580 
  196.2500    -9.8910     2.3220    64.0480     7.9180     6.6650     7.0200    22.5200 
  196.3750    -9.2420     2.3310    60.1900     7.9010     6.6510     7.1350    22.4850 
  196.5000    -8.7650     2.3420    54.8550     7.8990     6.6490     7.3600    22.6940 
  196.6250    -8.4960     2.3560    51.9690     7.8510     6.6080     7.3030    22.5960 
  196.7500    -8.3620     2.3700    52.3840     7.7490     6.5230     6.9750    22.4530 
  196.8750    -8.3560     2.3740    54.0600     7.6140     6.4090     6.6170    22.6200 
  197.0000    -8.4110     2.3630    55.9080     7.4740     6.2910     6.4600    23.2600 
  197.1250    -8.4440     2.3360    55.9090     7.3750     6.2080     6.3830    23.4190 
  197.2500    -8.4750     2.3100    54.3840     7.3440     6.1820     6.3910    23.4520 
  197.3750    -8.5420     2.2980    54.5130     7.3860     6.2170     6.4720    23.4580 
  197.5000    -8.5510     2.3070    57.0360     7.4760     6.2930     6.5490    23.4770 
  197.6250    -8.4880     2.3310    56.4310     7.5630     6.3660     6.5510    23.6030 
  197.7500    -8.4630     2.3580    53.1030     7.6130     6.4080     6.5760    23.9250 
  197.8750    -8.4410     2.3780    52.2830     7.6260     6.4190     6.6400    24.2610 
  198.0000    -8.4170     2.3900    54.6390     7.6160     6.4110     6.6080    24.3710 
  198.1250    -8.4640     2.4000    55.1100     7.5890     6.3880     6.4420    24.4560 
  198.2500    -8.5050     2.4120    53.2510     7.5390     6.3460     6.3400    24.4270 
  198.3750    -8.5460     2.4240    51.6980     7.4640     6.2830     6.3140    24.1900 
  198.5000    -8.6060     2.4330    51.2700     7.3800     6.2120     6.4720    24.0080 
  198.6250    -8.5880     2.4320    51.6000     7.3120     6.1550     6.5180    23.9690 
  198.7500    -8.5110     2.4210    53.0110     7.2790     6.1270     6.5430    23.9280 
  198.8750    -8.3800     2.4000    54.2490     7.2830     6.1310     6.7150    23.8900 
  199.0000    -8.1970     2.3740    54.1170     7.3170     6.1590     7.2920    23.8840 
  199.1250    -7.9680     2.3490    53.3700     7.3690     6.2030     8.6140    23.8900 
  199.2500    -7.7060     2.3380    53.5710     7.4340     6.2580    10.2310    23.9550 
  199.3750    -7.4340     2.3500    54.6830     7.5210     6.3310    10.9220    23.9920 
  199.5000    -7.1660     2.3880    55.5760     7.6430     6.4340    10.5760    24.0360 
  199.6250    -6.9240     2.4460    56.2870     7.8050     6.5700    10.8670    23.9860 
  199.7500    -6.7110     2.4950    55.3270     7.9630     6.7030    11.9220    23.9150 
  199.8750    -6.5480     2.5140    52.1690     8.0580     6.7830    12.9520    23.9990 
  200.0000    -6.4030     2.4930    49.2790     8.0400     6.7680    11.8480    23.9850 
  200.1250    -6.2880     2.4440    50.2920     7.8920     6.6430    10.9410    23.8360 
  200.2500    -6.2380     2.4000    53.5710     7.6980     6.4800     9.7640    23.6950 
  200.3750    -6.1870     2.3820    54.5720     7.5410     6.3470     8.9580    23.7110 
  200.5000    -6.1950     2.4030    51.6320     7.4880     6.3030     8.8100    23.7170 
  200.6250    -6.2940     2.4640    48.3660     7.5980     6.3960     9.1770    23.7040 
  200.7500    -6.3840     2.5440    48.6330     7.8150     6.5780     9.4640    23.6190 
  200.8750    -6.4880     2.6210    52.9720     8.0490     6.7750     9.7410    23.4740 
  201.0000    -6.6470     2.6790    57.0110     8.1950     6.8980     9.7930    23.3100 
  201.1250    -6.8010     2.7090    57.3370     8.1620     6.8700     9.0090    23.2480 
  201.2500    -6.9760     2.7190    56.4640     8.0020     6.7350     8.1560    23.1620 
  201.3750    -7.1700     2.7150    56.6600     7.7990     6.5650     7.4900    23.1290 
  201.5000    -7.3300     2.6990    56.4260     7.6300     6.4220     7.2790    23.1440 
  201.6250    -7.4860     2.6690    54.2330     7.5290     6.3370     7.3790    23.2650 
  201.7500    -7.6540     2.6300    52.0600     7.4690     6.2870     7.3980    23.3430 
  201.8750    -7.8120     2.5900    51.8460     7.4320     6.2560     7.0490    23.3570 
  202.0000    -7.9650     2.5570    52.3920     7.4050     6.2330     6.7780    23.3230 
  202.1250    -8.1190     2.5340    52.1050     7.3910     6.2210     6.6860    23.4510 
  202.2500    -8.2430     2.5190    51.9470     7.3860     6.2180     6.7300    23.6130 
  202.3750    -8.3570     2.5120    52.4060     7.3900     6.2210     6.8080    23.4670 
  202.5000    -8.4350     2.5130    53.4070     7.3920     6.2220     6.8870    23.3390 
  202.6250    -8.4490     2.5280    53.1000     7.3840     6.2150     6.7270    23.3250 
  202.7500    -8.4630     2.5490    50.6850     7.3840     6.2160     6.8690    23.2410 
  202.8750    -8.4760     2.5680    48.0650     7.4150     6.2420     6.9310    23.1930 
  203.0000    -8.4660     2.5710    47.7320     7.4890     6.3040     6.8590    23.1290 
  203.1250    -8.4260     2.5510    49.6440     7.5910     6.3900     6.7130    23.1510 
  203.2500    -8.3400     2.5200    49.4980     7.6730     6.4590     6.6480    23.1990 
  203.3750    -8.2500     2.4890    47.1280     7.6960     6.4780     6.6570    23.3110 
  203.5000    -8.1790     2.4650    46.1080     7.6440     6.4340     6.7080    23.5160 
  203.6250    -8.1190     2.4460    48.7150     7.5570     6.3610     6.9800    23.6120 
  203.7500    -8.0720     2.4260    51.6660     7.5070     6.3190     7.2620    23.6790 
  203.8750    -8.0340     2.4040    53.1040     7.4980     6.3120     7.3040    23.6050 
  204.0000    -7.9650     2.3900    53.4040     7.5010     6.3140     7.1450    23.4420 
  204.1250    -7.8950     2.4030    53.3260     7.4710     6.2890     7.0980    23.4550 
  204.2500    -7.8920     2.4490    52.8880     7.4070     6.2350     7.2590    23.4510 
  204.3750    -7.8890     2.5230    51.4610     7.3480     6.1860     7.3620    23.4190 
  204.5000    -7.8740     2.6020    49.9260     7.3590     6.1940     7.3170    23.3970 
  204.6250    -7.8780     2.6530    50.0790     7.5040     6.3170     7.4940    23.3990 
  204.7500    -7.8520     2.6620    50.9710     7.7460     6.5200     8.0530    23.4490 
  204.8750    -7.7900     2.6310    51.2600     8.0210     6.7520     8.6260    23.3870 
  205.0000    -7.7510     2.5780    50.6440     8.2520     6.9460     9.1130    23.2210 
  205.1250    -7.7480     2.5220    50.2300     8.3170     7.0010     9.4640    23.1580 
  205.2500    -7.7300     2.4760    50.5240     8.2020     6.9040     9.5260    23.1840 
  205.3750    -7.7350     2.4450    51.8590     7.9490     6.6910     9.1010    23.2390 
  205.5000    -7.8000     2.4290    53.4060     7.6260     6.4190     8.4790    23.3410 
  205.6250    -7.9030     2.4230    53.0020     7.3110     6.1540     7.9410    23.0750 
  205.7500    -8.0170     2.4210    51.1670     7.0630     5.9450     7.6220    22.9890 
  205.8750    -8.1270     2.4230    49.9950     6.9050     5.8130     7.3840    22.8960 
  206.0000    -8.2280     2.4290    50.5330     6.8480     5.7640     7.0730    22.7320 
  206.1250    -8.2860     2.4380    51.6990     6.9060     5.8130     6.6630    22.7860 
  206.2500    -8.3530     2.4420    52.3090     7.0670     5.9490     6.3420    22.9930 
  206.3750    -8.4750     2.4360    52.7900     7.3040     6.1480     6.2460    23.1060 
