~V
VERS. 2.00: Ver 2.00
~W
STRT.M 52.0000:
STOP.M 260.0000:
STEP.M 0.1250:
NULL. -999.2500:
UWI. F10654:
~C
DEPT.M :
SP.MV :
GR.API :
RML.OHMM :
RI. :
RXO.OHMM :
CALI.CM :
DEN.GM/CC :
~A
# ...
  175.7500    -9.7690    51.2990    20.1000    19.5740    14.9210    22.0540     2.4990 
  175.8750    -9.7790    53.7410    20.0600    19.6030    12.5760    21.2110     2.4960 
  176.0000    -9.8240    55.0640    19.9880    19.5370    10.1230    20.0900     2.5020 
  176.1250    -9.8270    54.1080    19.9720    19.4640     8.7210    19.0180     2.5120 
  176.2500    -9.8080    54.1790    19.9720    19.4300     8.1340    18.1670     2.5190 
  176.3750    -9.8230    56.2940    19.9980    19.4340     7.9940    17.6610     2.5170 
  176.5000    -9.8260    58.9420    20.0210    19.4060     8.1180    17.5610     2.5040 
  176.6250    -9.7950    60.2790    19.9910    19.2750     8.5280    17.6580     2.4870 
  176.7500    -9.7940    59.5950    19.7550    19.0170     9.1470    17.9330     2.4690 
  176.8750    -9.8060    58.0530    19.3740    18.6700     9.9720    18.4210     2.4530 
  177.0000    -9.7710    57.7000    18.9800    18.3320    11.2900    19.2320     2.4410 
  177.1250    -9.7570    59.5740    18.6980    18.0960    12.9920    20.2310     2.4350 
  177.2500    -9.7770    62.3910    18.5700    17.9950    14.8290    21.2720     2.4360 
  177.3750    -9.7990    62.5090    18.5470    17.9950    16.5430    22.1750     2.4430 
  177.5000    -9.8200    58.4320    18.5270    18.0180    17.2920    22.7490     2.4530 
  177.6250    -9.8370    55.4560    18.4510    17.9960    17.3510    23.0490     2.4600 
  177.7500    -9.8560    56.4270    18.3470    17.9290    17.1890    23.1640     2.4620 
  177.8750    -9.8920    59.2010    18.2920    17.8570    17.0290    23.2260     2.4590 
  178.0000    -9.9400    59.3940    18.3810    17.8490    16.8100    23.3090     2.4510 
  178.1250   -10.0160    57.9630    18.5860    17.9050    16.6980    23.4070     2.4400 
  178.2500   -10.0820    56.8090    18.8010    17.9630    16.9200    23.4500     2.4250 
  178.3750   -10.1040    56.4340    18.8720    17.9230    17.2590    23.4120     2.4120 
  178.5000   -10.1580    57.4670    18.6290    17.6620    17.4620    23.3300     2.4070 
  178.6250   -10.2370    57.9600    18.1190    17.2020    17.1870    23.2920     2.4100 
  178.7500   -10.2650    57.9010    17.4720    16.6210    16.4140    23.3430     2.4190 
  178.8750   -10.2660    58.0980    16.8640    16.0510    15.4550    23.4330     2.4270 
  179.0000   -10.3150    57.8300    16.4890    15.6490    14.6380    23.5400     2.4330 
  179.1250   -10.3350    57.7390    16.3550    15.4380    14.6150    23.6310     2.4380 
  179.2500   -10.3120    58.0470    16.3990    15.3690    14.6800    23.6610     2.4480 
  179.3750   -10.2860    57.5540    16.5010    15.3440    14.3780    23.6200     2.4630 
  179.5000   -10.2520    56.2260    16.4950    15.2410    13.7010    23.4620     2.4800 
  179.6250   -10.2010    58.3460    16.2920    15.0230    12.8830    23.2180     2.4890 
  179.7500   -10.1520    62.2390    15.8830    14.7080    12.0790    22.9950     2.4880 
  179.8750   -10.1120    61.7490    15.3430    14.3440    11.3770    22.8520     2.4790 
  180.0000   -10.0200    58.1390    14.7900    13.9610    10.9110    22.7240     2.4700 
  180.1250    -9.8990    58.4540    14.2780    13.5270    10.6710    22.5750     2.4680 
  180.2500    -9.7930    61.9720    13.7440    12.9590    10.3550    22.4660     2.4740 
  180.3750    -9.7070    61.9880    13.0510    12.1690     9.9000    22.3510     2.4830 
  180.5000    -9.5880    57.1550    12.0220    11.0720     9.6430    22.1620     2.4830 
  180.6250    -9.4490    54.7820    10.7310     9.7940     9.0960    21.9050     2.4710 
  180.7500    -9.3420    56.1070     9.3590     8.5010     8.2210    21.7070     2.4510 
  180.8750    -9.2560    58.9200     8.1360     7.3760     7.2840    21.6910     2.4340 
  181.0000    -9.1920    60.7620     7.3080     6.6070     6.4450    21.9300     2.4310 
  181.1250    -9.1430    63.0150     6.8670     6.1710     5.6700    22.3420     2.4380 
  181.2500    -9.1210    65.0360     6.7510     6.0130     5.3170    22.8970     2.4480 
  181.3750    -9.1370    65.8770     6.8450     6.0450     5.4330    23.4830     2.4550 
  181.5000    -9.1540    64.9890     7.0180     6.1770     5.7130    23.8620     2.4550 
  181.6250    -9.1820    62.6230     7.1490     6.3200     5.8600    24.0080     2.4530 
  181.7500    -9.2250    58.2280     7.1960     6.4390     5.8430    24.0400     2.4480 
  181.8750    -9.2660    53.0240     7.1580     6.5180     5.8180    24.0460     2.4420 
  182.0000    -9.2720    49.1710     7.0520     6.5350     5.9810    24.0490     2.4340 
  182.1250    -9.2930    48.6090     6.9110     6.4810     6.2040    24.0320     2.4280 
  182.2500    -9.3300    50.5050     6.7400     6.3470     6.3350    23.9810     2.4260 
  182.3750    -9.3420    52.0020     6.5660     6.1400     6.2130    23.9230     2.4300 
  182.5000    -9.3490    50.3530     6.4190     5.8990     5.9050    23.8920     2.4390 
  182.6250    -9.3420    49.0190     6.2900     5.6830     5.5780    23.8610     2.4490 
  182.7500    -9.2920    49.0810     6.1590     5.5280     5.3320    23.7920     2.4560 
  182.8750    -9.2250    49.2700     6.0570     5.4430     5.1490    23.6570     2.4580 
  183.0000    -9.2070    47.6470     5.9590     5.4190     4.9970    23.4100     2.4500 
  183.1250    -9.1960    44.6070     5.9280     5.4170     4.8720    23.0480     2.4370 
  183.2500    -9.1450    42.1130     5.9680     5.4190     4.7510    22.6180     2.4220 
  183.3750    -9.0790    40.9930     6.0430     5.4220     4.6530    22.2520     2.4110 
  183.5000    -9.0250    41.2650     6.0820     5.4260     4.6460    21.9690     2.4090 
  183.6250    -8.9640    40.7040     6.0580     5.4260     4.7110    21.7440     2.4140 
  183.7500    -8.9090    38.6500     5.9900     5.4150     4.7860    21.7040     2.4220 
  183.8750    -8.8550    36.8480     5.9180     5.3890     4.7530    21.9040     2.4290 
  184.0000    -8.8250    37.7110     5.8680     5.3560     4.6570    22.2240     2.4340 
  184.1250    -8.8230    40.7260     5.8780     5.3340     4.6840    22.4470     2.4390 
  184.2500    -8.8420    43.1370     5.9400     5.3400     4.8830    22.4140     2.4430 
  184.3750    -8.8630    43.6600     6.0070     5.3780     5.1530    22.1940     2.4470 
  184.5000    -8.8680    42.9850     6.0580     5.4450     5.4190    21.9960     2.4470 
  184.6250    -8.8880    43.2190     6.0860     5.5200     5.6320    21.9820     2.4430 
  184.7500    -8.9020    44.1560     6.0830     5.5830     5.7000    22.2200     2.4360 
  184.8750    -8.9010    44.8710     6.0440     5.6140     5.6410    22.6520     2.4290 
  185.0000    -8.8670    44.6770     5.9560     5.5860     5.5240    23.0270     2.4260 
  185.1250    -8.8090    42.2550     5.8300     5.5040     5.3950    23.2420     2.4250 
  185.2500    -8.7180    38.8540     5.6780     5.3770     5.2120    23.2630     2.4280 
  185.3750    -8.6120    36.6150     5.5210     5.2300     5.0440    23.2040     2.4320 
  185.5000    -8.5010    36.7640     5.3730     5.0920     4.8990    23.1130     2.4330 
  185.6250    -8.3780    37.8210     5.2390     4.9820     4.7740    23.0320     2.4320 
  185.7500    -8.2690    39.1020     5.1220     4.9080     4.6810    22.9700     2.4290 
  185.8750    -8.1800    41.0140     5.0330     4.8720     4.6110    22.9410     2.4250 
  186.0000    -8.1210    43.3320     4.9910     4.8750     4.5450    22.9300     2.4210 
  186.1250    -8.0810    44.0680     5.0040     4.9040     4.5260    22.9080     2.4190 
  186.2500    -8.0640    42.8130     5.0830     4.9550     4.5430    22.8710     2.4190 
  186.3750    -8.0540    40.2870     5.2250     5.0230     4.5600    22.8480     2.4210 
  186.5000    -8.0660    38.9870     5.4100     5.1050     4.5570    22.8690     2.4250 
  186.6250    -8.1040    40.7500     5.5910     5.1890     4.5540    22.9260     2.4300 
  186.7500    -8.1560    44.7820     5.7270     5.2630     4.5870    23.0300     2.4330 
  186.8750    -8.2050    49.1800     5.7890     5.3120     4.6640    23.1820     2.4340 
