~V
VERS. 2.00: Ver 2.00
~W
STRT.M 50.0000:
STOP.M 219.0000:
STEP.M 0.1250:
NULL. -999.2500:
UWI. F10688:
~C
DEPT.M :
SP.MV :
DEN.GM/CC :
GR.API :
RML.OHMM :
RI. :
RXO.OHMM :
CALI.CM :
~A
# ...
  140.0000    -5.4380     2.7080    46.4210    24.5190    20.9200    22.5730    24.6170 
  140.1250    -5.2320     2.6570    48.7630    25.6480    21.6870    25.4490    24.6170 
  140.2500    -5.0720     2.5920    51.0340    27.2630    22.9390    24.0840    24.6150 
  140.3750    -4.9530     2.5320    52.2990    28.9850    24.3980    20.5050    24.6090 
  140.5000    -4.8580     2.4900    51.9980    30.4510    25.7500    19.9040    24.5990 
  140.6250    -4.7780     2.4780    50.8370    31.3700    26.6960    22.5010    24.5860 
  140.7500    -4.7120     2.4900    49.7430    31.8880    27.2970    24.9060    24.5690 
  140.8750    -4.6370     2.5110    47.7730    32.1450    27.6540    26.3490    24.5470 
  141.0000    -4.5350     2.5270    45.5470    32.1930    27.8000    25.4400    24.5250 
  141.1250    -4.4400     2.5320    45.8220    32.0350    27.7040    25.0430    24.5060 
  141.2500    -4.3760     2.5330    49.6370    31.8090    27.4790    25.5020    24.4900 
  141.3750    -4.3260     2.5350    53.9160    31.6390    27.2400    25.8390    24.4760 
  141.5000    -4.2240     2.5400    53.7570    31.6220    27.0860    25.3120    24.4620 
  141.6250    -4.0650     2.5480    48.6280    31.8250    27.1010    25.9800    24.4490 
  141.7500    -3.9000     2.5560    45.8590    32.1780    27.2630    26.2860    24.4370 
  141.8750    -3.6800     2.5620    47.5650    32.6150    27.5430    26.4000    24.4270 
  142.0000    -3.4420     2.5670    50.4720    33.0820    27.8990    27.6890    24.4180 
  142.1250    -3.2580     2.5690    50.4570    33.5820    28.3120    29.2640    24.4070 
  142.2500    -3.0980     2.5650    49.2860    34.1800    28.8040    30.4870    24.3930 
  142.3750    -2.9330     2.5540    48.5320    34.9130    29.3940    30.9360    24.3730 
  142.5000    -2.7830     2.5370    47.3700    35.7170    30.0340    29.2810    24.3490 
  142.6250    -2.7130     2.5140    46.7520    36.3760    30.5600    28.5580    24.3410 
  142.7500    -2.7310     2.4920    47.3930    36.6470    30.7840    28.9430    24.3500 
  142.8750    -2.8550     2.4760    49.4210    36.3190    30.5350    29.8330    24.3740 
  143.0000    -3.0400     2.4660    52.4900    35.3320    29.7560    27.5220    24.4060 
  143.1250    -3.2150     2.4550    54.3690    33.7940    28.5390    25.9300    24.4420 
  143.2500    -3.3970     2.4400    54.2160    32.1220    27.2190    24.9280    24.4760 
  143.3750    -3.6150     2.4230    53.8720    30.6360    26.0240    22.6750    24.5000 
  143.5000    -3.9060     2.4120    55.3130    29.6080    25.1390    20.2380    24.5050 
  143.6250    -4.2240     2.4130    57.2680    29.3010    24.7590    20.1010    24.4870 
  143.7500    -4.5440     2.4280    57.2290    29.6050    24.8330    21.8680    24.4590 
  143.8750    -4.9060     2.4540    56.1270    30.3950    25.3080    23.0220    24.4310 
  144.0000    -5.2730     2.4890    55.6140    31.4600    26.0580    23.9730    24.4080 
  144.1250    -5.6470     2.5280    55.1710    32.4570    26.8320    26.9230    24.3890 
  144.2500    -6.0150     2.5600    53.7470    33.0810    27.3470    29.0830    24.3710 
  144.3750    -6.3280     2.5780    51.4170    33.2160    27.4820    26.9120    24.3560 
  144.5000    -6.5060     2.5840    49.0850    32.9620    27.2990    23.6050    24.3430 
  144.6250    -6.5840     2.5910    48.7470    32.6140    27.0060    24.0230    24.3180 
  144.7500    -6.5920     2.6050    50.0510    32.4590    26.8280    25.1640    24.2660 
  144.8750    -6.4580     2.6220    51.4190    32.5160    26.8010    25.9540    24.1630 
  145.0000    -6.2380     2.6290    51.8220    32.5790    26.8040    25.0030    24.0240 
  145.1250    -5.9490     2.6160    51.2300    32.2540    26.5610    25.1800    23.8710 
  145.2500    -5.5790     2.5890    51.1370    31.3900    25.9370    26.1180    23.7210 
  145.3750    -5.1480     2.5580    51.6010    30.0340    24.9350    25.0390    23.5900 
  145.5000    -4.7240     2.5310    52.8580    28.3890    23.6770    22.7900    23.4900 
  145.6250    -4.3560     2.5110    53.7620    26.7300    22.3460    19.9430    23.4060 
  145.7500    -4.0190     2.4980    53.9400    25.3140    21.1560    19.6750    23.3150 
  145.8750    -3.7050     2.4950    54.1200    24.3500    20.2740    20.1080    23.2110 
  146.0000    -3.4240     2.5020    55.6680    23.9830    19.8270    17.5230    23.0780 
  146.1250    -3.2090     2.5170    57.8230    24.3700    19.9660    16.6220    22.9130 
  146.2500    -3.0760     2.5300    57.6000    25.3650    20.6060    17.5360    22.7780 
  146.3750    -3.0210     2.5350    54.1520    26.8220    21.6520    21.0010    22.7280 
  146.5000    -3.0330     2.5310    50.2510    28.4430    22.8830    25.1860    22.7910 
  146.6250    -3.0620     2.5290    49.4010    29.7310    23.9090    27.1160    22.9820 
  146.7500    -3.1070     2.5370    50.8860    30.3530    24.4460    26.2940    23.2530 
  146.8750    -3.2240     2.5560    51.8030    30.1430    24.3640    25.0730    23.5500 
  147.0000    -3.3810     2.5760    50.8510    29.1310    23.6920    21.5370    23.8280 
  147.1250    -3.5420     2.5810    49.5430    27.4830    22.5550    19.3340    24.0470 
  147.2500    -3.6990     2.5710    49.0450    25.6300    21.2580    18.3070    24.1940 
  147.3750    -3.8420     2.5570    47.6280    23.8350    19.9770    17.9250    24.2620 
  147.5000    -3.9310     2.5450    45.3850    22.3300    18.8620    16.2540    24.2740 
  147.6250    -3.9950     2.5440    44.8750    21.3200    18.0480    14.5490    24.2760 
  147.7500    -4.0470     2.5470    45.0660    20.6370    17.4460    14.1930    24.2850 
  147.8750    -4.0390     2.5460    44.7430    20.0600    16.9310    14.5250    24.2990 
  148.0000    -4.0410     2.5350    44.9100    19.3750    16.3710    14.7630    24.3080 
  148.1250    -4.0470     2.5160    48.6350    18.4410    15.6720    14.2210    24.3050 
  148.2500    -3.9890     2.4980    52.1920    17.3860    14.8860    12.7490    24.2930 
  148.3750    -3.8570     2.4860    53.8960    16.3940    14.1140    11.2350    24.2810 
  148.5000    -3.7170     2.4820    56.1380    15.6170    13.4540    10.2350    24.2820 
  148.6250    -3.6000     2.4880    59.0410    15.1320    12.9920     9.9800    24.3090 
  148.7500    -3.4730     2.5000    60.6100    14.8520    12.7070    10.2010    24.3580 
  148.8750    -3.3600     2.5160    60.8860    14.7330    12.5920    10.6230    24.4300 
  149.0000    -3.2410     2.5320    61.6390    14.7590    12.6370    10.8360    24.5200 
  149.1250    -3.1080     2.5420    62.0810    14.9560    12.8560    10.6260    24.6130 
  149.2500    -3.0150     2.5420    60.2970    15.3210    13.2110    11.4100    24.6880 
  149.3750    -2.9860     2.5320    59.2720    15.8650    13.6870    12.5730    24.7390 
  149.5000    -3.0030     2.5220    60.3640    16.5460    14.2460    13.7410    24.7640 
  149.6250    -3.0550     2.5160    61.7720    17.1730    14.7590    14.0380    24.7670 
  149.7500    -3.1370     2.5100    60.5180    17.4610    15.0260    13.8200    24.7680 
  149.8750    -3.2330     2.4940    57.0740    17.2140    14.8960    14.4480    24.7640 
  150.0000    -3.3450     2.4680    54.9960    16.4520    14.3570    15.6610    24.7530 
  150.1250    -3.4900     2.4430    57.2610    15.4350    13.5530    14.6780    24.7350 
  150.2500    -3.6680     2.4310    61.8450    14.5700    12.7740    11.1920    24.7120 
  150.3750    -3.8330     2.4340    64.3790    14.0570    12.1940     8.7100    24.6850 
  150.5000    -3.9790     2.4410    63.1210    13.9210    11.8980     8.8850    24.6560 
  150.6250    -4.1400     2.4400    60.6390    14.0960    11.9130    10.7990    24.6140 
  150.7500    -4.2940     2.4320    60.0520    14.4320    12.1360    11.2240    24.5640 
  150.8750    -4.4340     2.4250    61.6570    14.9180    12.5310    10.3680    24.5060 
  151.0000    -4.5840     2.4250    64.1290    15.6140    13.1070    10.5120    24.4180 
  151.1250    -4.7240     2.4310    66.8530    16.6230    13.9280    11.0590    24.2370 
