~V
VERS. 2.00: Ver 2.00
~W
STRT.M 55.0000:
STOP.M 213.0000:
STEP.M 0.1250:
NULL. -999.2500:
UWI. F10686:
~C
DEPT.M :
SP.MV :
DEN.GM/CC :
GR.API :
RML.OHMM :
RI. :
RXO.OHMM :
CALI.CM :
~A
# ...
  122.5000   -17.3160     2.4470    65.3340     9.3270     9.2150    13.0660    24.2840 
  122.6250   -17.3900     2.4190    67.5540     7.7860     7.8840     8.4210    24.2840 
  122.7500   -17.4550     2.3870    74.0160     6.3580     6.5000     6.2220    24.2840 
  122.8750   -17.5290     2.3670    80.1940     5.3950     5.4320     5.3960    24.2840 
  123.0000   -17.6430     2.3630    79.2870     4.9420     4.7940     4.8880    24.2840 
  123.1250   -17.7630     2.3660    73.5970     4.9310     4.5980     4.6500    24.2840 
  123.2500   -17.8500     2.3630    73.0220     5.1500     4.6710     4.6820    24.2880 
  123.3750   -17.9780     2.3530    77.5110     5.5010     4.9160     4.9230    24.3070 
  123.5000   -18.1300     2.3410    80.5900     5.9030     5.2500     5.2580    24.3600 
  123.6250   -18.1970     2.3280    79.1300     6.2640     5.5890     5.5970    24.3690 
  123.7500   -18.2330     2.3160    75.9950     6.5100     5.8560     5.8640    24.3670 
  123.8750   -18.2690     2.3040    74.0250     6.6090     6.0050     5.9500    24.3420 
  124.0000   -18.2440     2.2910    74.1690     6.5790     6.0260     5.8450    24.2610 
  124.1250   -18.1930     2.2810    75.9750     6.4750     5.9390     5.6700    24.2170 
  124.2500   -18.1850     2.2760    77.5250     6.3830     5.8180     5.6500    24.2090 
  124.3750   -18.1540     2.2790    77.8930     6.3620     5.7180     5.7080    24.2070 
  124.5000   -18.1200     2.2850    76.4490     6.4560     5.6880     5.7740    24.2070 
  124.6250   -18.1350     2.2830    71.9370     6.7120     5.7770     5.8580    24.2080 
  124.7500   -18.1410     2.2680    65.7230     7.1070     5.9740     6.0570    24.2120 
  124.8750   -18.1420     2.2420    60.6420     7.6200     6.2670     6.2830    24.2350 
  125.0000   -18.1730     2.2130    59.0130     8.2150     6.6320     6.7050    24.3420 
  125.1250   -18.1870     2.1940    62.0140     8.8330     7.0330     7.2340    24.4210 
  125.2500   -18.1690     2.1900    66.0290     9.4020     7.4180     7.7090    24.4350 
  125.3750   -18.1700     2.1970    68.2530     9.8930     7.7580     8.1340    24.4370 
  125.5000   -18.1470     2.2080    67.6410    10.3240     8.0580     8.5870    24.4370 
  125.6250   -18.1010     2.2110    66.2310    10.7650     8.3510     9.0870    24.4370 
  125.7500   -18.1060     2.2040    65.4740    11.3320     8.7010     9.1840    24.4370 
  125.8750   -18.1580     2.1940    65.1560    12.1620     9.1940     9.5460    24.4370 
  126.0000   -18.2310     2.1880    64.7250    13.3760     9.9220    10.6340    24.4370 
  126.1250   -18.3260     2.1930    62.8200    15.0750    11.0000    12.4120    24.4370 
  126.2500   -18.4500     2.2050    60.7760    17.0930    12.3640    14.1350    24.4370 
  126.3750   -18.5910     2.2150    59.9750    19.2430    13.9220    16.3130    24.4370 
  126.5000   -18.7350     2.2170    59.7410    21.2700    15.5110    19.9780    24.4370 
  126.6250   -18.8970     2.2090    56.7330    22.8890    16.8920    20.7770    24.4410 
  126.7500   -19.0490     2.1980    53.6780    24.1570    18.0070    19.4920    24.4670 
  126.8750   -19.1510     2.1880    54.8310    25.2540    18.9260    19.3160    24.5560 
  127.0000   -19.2220     2.1820    58.0450    26.3690    19.7750    20.9860    24.5950 
  127.1250   -19.2870     2.1790    56.5010    27.5930    20.6650    23.0380    24.6010 
  127.2500   -19.3250     2.1770    51.4460    28.8080    21.5940    24.0230    24.6010 
  127.3750   -19.3300     2.1750    48.1200    29.8260    22.4600    24.1650    24.6010 
  127.5000   -19.3300     2.1710    47.9840    30.5530    23.1610    24.6830    24.6000 
  127.6250   -19.3130     2.1650    49.4020    31.2050    23.7830    25.1370    24.5890 
  127.7500   -19.3020     2.1560    50.8160    32.2470    24.6330    25.4350    24.5490 
  127.8750   -19.3320     2.1470    52.0220    34.0480    26.0050    25.6650    24.5190 
  128.0000   -19.3590     2.1380    52.7640    36.7950    28.0990    26.7600    24.5140 
  128.1250   -19.3230     2.1320    52.3430    40.4840    31.0440    29.8310    24.5140 
  128.2500   -19.2780     2.1300    49.0880    44.4220    34.3920    34.3200    24.5250 
  128.3750   -19.2480     2.1360    42.6480    47.7840    37.5390    38.2290    24.6820 
  128.5000   -19.1920     2.1520    36.7150    49.6550    39.7380    39.2280    24.8150 
  128.6250   -19.1260     2.1730    38.5060    48.9580    40.0180    37.4490    24.8440 
  128.7500   -19.0660     2.1900    44.8080    46.0560    38.4430    35.6150    24.8750 
  128.8750   -18.9700     2.2020    49.2460    41.6060    35.3790    33.8400    24.8950 
  129.0000   -18.8670     2.2100    50.0120    36.5260    31.5090    32.2060    24.8660 
  129.1250   -18.8340     2.2140    49.1430    31.8140    27.6350    27.4770    24.7110 
  129.2500   -18.8050     2.2130    49.4910    28.0810    24.3750    22.1120    24.6190 
  129.3750   -18.7210     2.2060    51.7010    25.6410    22.0460    18.7290    24.6030 
  129.5000   -18.6640     2.1900    55.2410    24.6330    20.7950    17.9180    24.6010 
  129.6250   -18.6230     2.1720    57.5190    25.3640    20.8940    17.7330    24.6010 
  129.7500   -18.5440     2.1610    56.1160    27.5620    22.2040    17.6270    24.6010 
  129.8750   -18.4730     2.1690    52.0260    31.0730    24.7070    19.8060    24.5980 
  130.0000   -18.3870     2.1990    47.7600    35.5300    28.2110    26.1790    24.5690 
  130.1250   -18.2400     2.2450    45.5250    40.2250    32.2450    33.4080    24.3810 
  130.2500   -18.1020     2.2830    45.4070    44.2010    35.9400    39.2280    24.0450 
  130.3750   -18.0010     2.2960    45.5020    46.8360    38.6670    41.3300    23.9100 
  130.5000   -17.8910     2.2780    45.2480    48.0280    40.1990    42.1850    24.0260 
  130.6250   -17.8080     2.2370    45.2270    48.1380    40.7170    39.1640    24.1200 
  130.7500   -17.7560     2.1970    45.4920    47.9930    40.9330    37.9130    24.4550 
  130.8750   -17.6810     2.1680    44.6570    47.9150    41.2100    37.7900    24.8420 
  131.0000   -17.6390     2.1550    42.0100    47.9040    41.6340    37.2880    24.6820 
  131.1250   -17.7000     2.1600    40.0310    47.7250    42.0320    37.0640    24.6740 
  131.2500   -17.7880     2.1750    40.1540    47.2780    42.2000    39.1370    25.1320 
  131.3750   -17.8660     2.1920    41.4910    46.6340    42.1200    40.6620    25.2350 
  131.5000   -17.9610     2.1980    43.7330    45.8310    41.8500    40.3060    25.0670 
  131.6250   -18.0640     2.1830    46.3870    44.3580    41.0550    36.8150    24.7080 
  131.7500   -18.1490     2.1550    48.1880    41.4570    39.0430    32.4980    24.7210 
  131.8750   -18.2290     2.1280    48.4230    36.6150    35.1660    32.3710    24.7480 
  132.0000   -18.3250     2.1190    48.4480    30.2740    29.6280    33.9830    24.7420 
  132.1250   -18.3720     2.1470    49.3390    24.0180    23.8180    30.6760    24.6510 
  132.2500   -18.3670     2.2020    50.4530    19.3110    19.2150    21.8870    24.3860 
  132.3750   -18.3940     2.2650    54.2380    16.7010    16.3460    14.1280    24.0930 
  132.5000   -18.4150     2.3050    61.1920    16.2010    15.2260    11.3310    23.9250 
  132.6250   -18.3960     2.3010    63.9940    17.9030    16.0080    12.9930    23.9310 
  132.7500   -18.4140     2.2720    58.9690    21.1700    18.3500    17.8310    24.0160 
  132.8750   -18.4590     2.2440    50.9590    25.5100    22.0730    23.0710    23.9590 
  133.0000   -18.4800     2.2340    47.0780    30.1200    26.6220    25.9940    23.7570 
  133.1250   -18.5360     2.2320    47.7020    33.7950    30.8190    27.7330    23.6630 
  133.2500   -18.6290     2.2120    45.7970    36.1260    33.8200    29.9190    23.6180 
  133.3750   -18.6800     2.1670    42.0780    37.3440    35.6040    32.0860    23.5900 
  133.5000   -18.7040     2.1100    41.2050    37.8450    36.5130    33.1090    23.6080 
  133.6250   -18.7480     2.0830    42.9390    37.6100    36.5630    32.1140    23.7410 
