~V
VERS. 2.00: Ver 2.00
~W
STRT.M 50.0000:
STOP.M 263.0000:
STEP.M 0.1250:
NULL. -999.2500:
UWI. F10656:
~C
DEPT.M :
DEN.GM/CC :
GR.API :
RML.OHMM :
RI. :
RXO.OHMM :
CALI.CM :
SP.MV :
~A
# ...
  106.2500     2.3370    80.5920     5.0710     4.5830     5.2370    24.3160    -4.4460 
  106.3750     2.3360    82.4450     5.2320     4.7630     5.2110    24.2630    -4.3850 
  106.5000     2.3300    80.8820     5.3780     4.9570     5.2240    24.1840    -4.3460 
  106.6250     2.3200    77.0770     5.4870     5.1300     5.3700    24.0890    -4.3240 
  106.7500     2.3100    76.4580     5.5530     5.2590     5.5650    24.0000    -4.3240 
  106.8750     2.3040    78.5300     5.5690     5.3240     5.6770    23.9330    -4.3660 
  107.0000     2.3010    79.8930     5.5360     5.3140     5.7540    23.8710    -4.4190 
  107.1250     2.3020    78.7530     5.4550     5.2200     5.6940    23.8050    -4.4300 
  107.2500     2.3060    76.6480     5.3470     5.0710     5.6030    23.7580    -4.3670 
  107.3750     2.3150    75.1340     5.2220     4.8910     5.3840    23.7370    -4.2820 
  107.5000     2.3300    74.4840     5.0880     4.7020     5.1820    23.7120    -4.2300 
  107.6250     2.3460    73.5870     4.9500     4.5230     5.0900    23.6540    -4.2420 
  107.7500     2.3590    74.6120     4.8200     4.3650     5.0400    23.5760    -4.2660 
  107.8750     2.3620    77.3010     4.7210     4.2450     5.0400    23.5000    -4.2860 
  108.0000     2.3530    78.8540     4.6890     4.1870     5.1470    23.4380    -4.3270 
  108.1250     2.3340    77.3810     4.8320     4.2690     5.3600    23.3900    -4.4770 
  108.2500     2.3120    75.2580     5.2650     4.5780     5.7590    23.3570    -4.7300 
  108.3750     2.2960    73.4000     6.1550     5.2590     6.5340    23.3600    -5.0200 
  108.5000     2.2970    71.0650     7.6430     6.4610     7.9430    23.4130    -5.2670 
  108.6250     2.3240    68.6540     9.7790     8.3140    10.4240    23.5260    -5.4290 
  108.7500     2.3720    65.6060    12.0780    10.4740    13.8420    23.6460    -5.5570 
  108.8750     2.4330    61.6890    13.9130    12.4240    18.0360    23.7340    -5.6530 
  109.0000     2.4930    59.1430    14.6170    13.5170    21.3960    23.7590    -5.7190 
  109.1250     2.5310    62.1890    13.6170    13.0590    22.0820    23.7080    -5.7100 
  109.2500     2.5360    69.2150    11.5850    11.4760    20.6960    23.6140    -5.6520 
  109.3750     2.5060    76.0380     9.3330     9.4500    15.1690    23.4840    -5.5710 
  109.5000     2.4520    78.5770     7.5090     7.6180     9.1940    23.3920    -5.5360 
  109.6250     2.3920    76.8790     6.4540     6.3740     6.8240    23.3760    -5.5660 
  109.7500     2.3440    76.3400     5.9480     5.6240     6.2530    23.3730    -5.5970 
  109.8750     2.3100    77.7700     5.8120     5.2600     6.1340    23.3520    -5.6410 
  110.0000     2.2870    79.0890     5.8870     5.1660     6.0600    23.3120    -5.7430 
  110.1250     2.2690    78.3050     6.0830     5.2710     5.9010    23.2670    -5.9490 
  110.2500     2.2510    76.5460     6.3500     5.4950     5.8740    23.2090    -6.2100 
  110.3750     2.2320    73.9180     6.6980     5.8260     6.0760    23.1350    -6.5310 
  110.5000     2.2130    70.5220     7.1250     6.2510     6.5050    23.0530    -6.8480 
  110.6250     2.1920    68.6960     7.5760     6.7290     7.0410    22.9530    -7.1900 
  110.7500     2.1730    69.0450     7.9450     7.1650     7.4690    22.8790    -7.5530 
  110.8750     2.1580    69.5640     8.1470     7.4700     7.7160    22.8430    -7.9070 
  111.0000     2.1530    68.6850     8.1350     7.5840     7.8260    22.8110    -8.1970 
  111.1250     2.1610    69.3790     7.9140     7.4740     7.8310    22.7630    -8.3310 
  111.2500     2.1790    73.6450     7.6170     7.2400     7.7020    22.7460    -8.3400 
  111.3750     2.2010    80.2000     7.3470     6.9690     7.4420    22.7800    -8.2400 
  111.5000     2.2230    84.7720     7.1720     6.7280     7.1510    22.8660    -8.1300 
  111.6250     2.2400    81.5090     7.1150     6.5560     7.0250    22.9770    -7.9740 
  111.7500     2.2520    73.9070     7.0990     6.4200     7.1330    23.0770    -7.8060 
  111.8750     2.2560    67.6680     7.0410     6.2690     7.3220    23.1580    -7.6340 
  112.0000     2.2540    66.0800     6.8680     6.0580     7.2340    23.2530    -7.4890 
  112.1250     2.2440    68.7200     6.5410     5.7580     6.8600    23.4050    -7.4110 
  112.2500     2.2280    70.7410     6.1660     5.4330     6.4700    23.5400    -7.4220 
  112.3750     2.2090    71.1380     5.8960     5.1870     6.2180    23.6250    -7.5010 
  112.5000     2.1940    72.3050     5.9000     5.1430     6.1360    23.6740    -7.6350 
  112.6250     2.1930    75.9940     6.3520     5.4490     6.1020    23.6610    -7.8800 
  112.7500     2.2090    77.6470     7.1590     6.0640     6.3110    23.5620    -8.2280 
  112.8750     2.2430    73.0640     8.1550     6.8940     6.9170    23.3890    -8.6810 
  113.0000     2.2840    66.5050     9.0870     7.7560     7.8080    23.2580    -9.1670 
  113.1250     2.3120    63.8160     9.6130     8.3730     8.4780    23.1520    -9.6600 
  113.2500     2.3160    63.0350     9.6690     8.6210     8.8600    22.9900   -10.0710 
  113.3750     2.2980    64.0400     9.3640     8.5250     9.1050    22.8460   -10.3760 
  113.5000     2.2710    67.2380     8.9290     8.2320     9.3490    22.7930   -10.5590 
  113.6250     2.2490    68.9110     8.5880     7.9200     9.4740    22.7910   -10.5830 
  113.7500     2.2320    65.4440     8.3620     7.6640     9.5390    22.7760   -10.4770 
  113.8750     2.2190    60.0790     8.1630     7.4310     9.5840    22.7680   -10.2420 
  114.0000     2.2060    58.6790     7.8970     7.1660     9.4590    22.7800    -9.8820 
  114.1250     2.2010    62.5280     7.5280     6.8370     8.9900    22.8220    -9.3630 
  114.2500     2.2110    67.0180     7.1450     6.4950     8.2780    22.9040    -8.7740 
  114.3750     2.2420    70.7130     6.8300     6.1950     7.5030    23.0160    -8.1710 
  114.5000     2.2870    73.3220     6.6260     5.9720     6.9360    23.0930    -7.5810 
  114.6250     2.3350    75.0310     6.5210     5.8300     6.9030    23.1560    -7.0210 
  114.7500     2.3660    75.3900     6.4290     5.7140     7.3040    23.2330    -6.4790 
  114.8750     2.3710    77.1030     6.2940     5.5850     7.6080    23.2810    -5.9510 
  115.0000     2.3510    81.6300     6.0990     5.4220     7.3220    23.3190    -5.4990 
  115.1250     2.3120    84.5910     5.8700     5.2390     6.3870    23.4130    -5.1640 
  115.2500     2.2730    82.7850     5.6690     5.0800     5.6860    23.5190    -4.9130 
  115.3750     2.2450    79.3410     5.5420     4.9810     5.5140    23.5660    -4.7040 
  115.5000     2.2360    80.7410     5.5060     4.9600     5.5660    23.5840    -4.5040 
  115.6250     2.2520    86.5790     5.5560     5.0120     5.6360    23.6550    -4.2980 
  115.7500     2.2840    88.5280     5.6330     5.0860     5.6860    23.7640    -4.1080 
  115.8750     2.3200    84.5030     5.6900     5.1390     5.8590    23.8280    -3.9440 
  116.0000     2.3480    79.5930     5.6820     5.1340     5.9630    23.8230    -3.7660 
  116.1250     2.3550    78.8310     5.5630     5.0320     5.8500    23.8010    -3.5900 
  116.2500     2.3480    79.1440     5.3630     4.8620     5.4200    23.8030    -3.4180 
  116.3750     2.3340    79.3700     5.1310     4.6630     5.2250    23.8100    -3.2590 
  116.5000     2.3230    81.9740     4.9380     4.4910     5.1500    23.8190    -3.0880 
  116.6250     2.3210    85.8500     4.8820     4.4240     5.1000    23.8320    -2.9170 
  116.7500     2.3270    86.9990     4.9890     4.4840     5.1630    23.8430    -2.7440 
  116.8750     2.3360    87.5000     5.2440     4.6700     5.3030    23.8380    -2.6290 
  117.0000     2.3440    88.4950     5.5840     4.9410     5.4840    23.8300    -2.5760 
  117.1250     2.3490    87.8850     5.8920     5.2180     5.6940    23.8250    -2.5620 
  117.2500     2.3470    85.0150     6.0590     5.4050     5.9150    23.8180    -2.5390 
  117.3750     2.3400    82.1740     6.0300     5.4400     6.0440    23.8040    -2.4890 
