~V
VERS. 2.00: Ver 2.00
~W
STRT.M 61.0000:
STOP.M 247.0000:
STEP.M 0.1250:
NULL. -999.2500:
UWI. F10600:
~C
DEPT.M :
GR.API :
RML.OHMM :
RI. :
RXO.OHMM :
CALI.CM :
DEN.GM/CC :
SP.MV :
~A
# ...
  117.2500    94.9310     6.4560     5.8660     6.1610    24.7960     2.3620   -18.3750 
  117.3750    97.6180     6.4810     5.8850     5.9600    25.0350     2.3840   -18.3380 
  117.5000   101.6370     6.3150     5.7330     5.8640    25.2550     2.4030   -18.3650 
  117.6250   102.2890     6.0710     5.4910     5.9680    25.3480     2.4110   -18.3590 
  117.7500    99.6990     5.9250     5.3260     5.8740    25.3710     2.4100   -18.3840 
  117.8750    96.5780     5.9950     5.3500     5.6490    25.3720     2.4080   -18.4680 
  118.0000    92.8070     6.3190     5.6090     5.8100    25.3720     2.4120   -18.5290 
  118.1250    88.3240     6.8520     6.0750     6.5920    25.3720     2.4220   -18.6770 
  118.2500    87.0650     7.3880     6.5710     8.1240    25.3720     2.4290   -18.8760 
  118.3750    90.8060     7.7430     6.9380     9.5630    25.3700     2.4220   -19.0040 
  118.5000    94.4390     7.7840     7.0490    10.5110    25.3610     2.3980   -19.0410 
  118.6250    91.9870     7.4450     6.8160     8.1120    25.3380     2.3640   -19.0660 
  118.7500    88.2380     6.9010     6.3720     6.6490    25.3110     2.3350   -19.0830 
  118.8750    87.8810     6.3140     5.8490     6.0550    25.2820     2.3220   -19.0470 
  119.0000    91.5030     5.8300     5.3800     6.0280    25.2660     2.3300   -18.9660 
  119.1250    96.9390     5.5900     5.0910     5.7890    25.2680     2.3540   -18.8820 
  119.2500   101.2530     5.5820     4.9990     5.5020    25.2780     2.3790   -18.7940 
  119.3750   103.5720     5.7490     5.0890     5.4160    25.2880     2.3950   -18.6880 
  119.5000   104.0240     5.9740     5.3050     5.7370    25.2980     2.3960   -18.6220 
  119.6250   102.7080     6.0990     5.5450     6.1420    25.3060     2.3840   -18.5850 
  119.7500   100.3130     6.0500     5.6890     5.8610    25.3100     2.3680   -18.4810 
  119.8750    98.9550     5.8310     5.6780     5.5470    25.3460     2.3550   -18.3600 
  120.0000   101.0220     5.5250     5.5220     5.6280    25.4660     2.3460   -18.3170 
  120.1250   105.0620     5.3070     5.3090     5.6710    25.6380     2.3390   -18.2210 
  120.2500   107.2840     5.3230     5.1740     5.7140    25.6550     2.3320   -18.1170 
  120.3750   105.6820     5.6220     5.2030     5.8970    25.4540     2.3270   -18.1020 
  120.5000   100.9540     6.1250     5.4200     6.4440    25.2110     2.3260   -18.0920 
  120.6250    96.8110     6.6200     5.7930     7.6320    25.0540     2.3300   -18.0250 
  120.7500    96.6260     6.9020     6.1870     8.9910    24.9800     2.3340   -18.0350 
  120.8750    99.6640     6.9200     6.4940     8.6380    24.9110     2.3340   -18.0730 
  121.0000   102.2760     6.7710     6.6480     7.4550    24.8450     2.3330   -18.0410 
  121.1250   100.6780     6.6460     6.6360     6.8600    24.7930     2.3320   -18.0740 
  121.2500    96.7830     6.6970     6.5740     6.6910    24.7550     2.3290   -18.1260 
  121.3750    92.4510     7.0010     6.5820     6.7150    24.7050     2.3220   -18.1260 
  121.5000    89.4260     7.5790     6.7670     7.0370    24.6340     2.3130   -18.1490 
  121.6250    87.3170     8.3640     7.2070     7.7320    24.5990     2.3080   -18.2190 
  121.7500    85.3740     9.1020     7.7760     8.7250    24.7380     2.3110   -18.2180 
  121.8750    84.1690     9.5570     8.2960     9.5280    25.0080     2.3210   -18.2180 
  122.0000    84.4990     9.5810     8.5770    10.5610    25.2500     2.3320   -18.2880 
  122.1250    87.0450     9.1700     8.4720     9.2700    25.3440     2.3390   -18.3350 
  122.2500    89.4990     8.6060     8.1120     7.6750    25.3550     2.3390   -18.3580 
  122.3750    90.0720     8.0720     7.6530     6.9310    25.3080     2.3330   -18.3870 
  122.5000    87.9650     7.6630     7.2380     6.9290    25.2240     2.3210   -18.4200 
  122.6250    86.1620     7.4690     6.9870     7.0290    25.1200     2.3060   -18.4720 
  122.7500    87.4190     7.4910     6.9100     7.4040    25.0800     2.2920   -18.5130 
  122.8750    89.3390     7.6900     6.9960     7.7550    25.0710     2.2840   -18.5300 
  123.0000    90.5040     7.9390     7.2100     7.5780    25.0710     2.2820   -18.5430 
  123.1250    91.6010     8.0740     7.4790     7.3760    25.0710     2.2830   -18.4890 
  123.2500    92.0650     8.0040     7.6890     7.1720    25.0710     2.2830   -18.4230 
  123.3750    91.0350     7.8050     7.7490     7.2490    25.0710     2.2820   -18.4040 
  123.5000    91.0630     7.6010     7.6020     7.3030    25.0710     2.2850   -18.3650 
  123.6250    96.5330     7.3140     7.2370     6.9020    25.0710     2.2950   -18.3070 
  123.7500   101.9060     6.8010     6.7740     6.3910    25.0690     2.3060   -18.3640 
  123.8750   102.1480     6.2450     6.3250     5.9000    25.0600     2.3130   -18.4800 
  124.0000    96.7350     5.9790     6.0090     5.8690    25.0290     2.3130   -18.5840 
  124.1250    90.6280     6.2230     5.9980     6.3460    24.9460     2.3100   -18.8040 
  124.2500    86.9210     6.9280     6.3740     6.9420    24.8290     2.3050   -19.0940 
  124.3750    83.5120     8.1470     7.2470     7.5670    24.7580     2.2990   -19.3730 
  124.5000    78.7860     9.8690     8.7040     8.5420    24.7610     2.2850   -19.6600 
  124.6250    74.5880    12.0420    10.8450    11.1310    24.7980     2.2620   -19.9930 
  124.7500    72.1620    14.3310    13.3590    14.4350    24.7770     2.2340   -20.3170 
  124.8750    70.1690    16.3810    15.8330    16.9980    24.7190     2.2090   -20.6060 
  125.0000    68.4630    17.8310    17.7640    18.5010    24.6940     2.1910   -20.8790 
  125.1250    67.9710    18.3340    18.6130    19.4560    24.7370     2.1810   -21.1080 
  125.2500    68.7430    18.1290    18.5670    20.9400    24.7970     2.1740   -21.2660 
  125.3750    69.5610    17.5300    17.9820    20.4740    24.8240     2.1730   -21.4000 
  125.5000    69.4820    16.9530    17.3080    18.6760    24.8040     2.1770   -21.5660 
  125.6250    68.1780    16.9220    17.0050    17.5150    24.7360     2.1850   -21.6880 
  125.7500    67.2640    17.8220    17.2430    17.2310    24.6660     2.1950   -21.7580 
  125.8750    66.8190    19.7270    18.0730    17.8690    24.5980     2.2010   -21.8170 
  126.0000    64.6800    22.1560    19.4330    20.4600    24.6230     2.2040   -21.9040 
  126.1250    61.8480    23.9350    21.1490    23.7870    24.8670     2.2010   -21.9400 
  126.2500    61.5850    24.8700    22.8210    24.8310    25.2200     2.1970   -21.9730 
  126.3750    63.0750    25.3120    24.1180    24.6290    25.4550     2.1930   -22.0360 
  126.5000    64.0620    25.6500    24.8020    25.4330    25.4480     2.1930   -22.0590 
  126.6250    65.0310    25.5990    24.6970    26.4710    25.2690     2.1950   -22.0760 
  126.7500    66.6510    25.0130    24.0490    25.0720    25.1980     2.1980   -22.1050 
  126.8750    68.2310    23.9430    23.0610    23.2900    25.2430     2.1980   -22.1220 
  127.0000    69.3200    22.5900    21.9300    21.8680    25.2730     2.1950   -22.1350 
  127.1250    70.3410    21.1760    20.8130    19.9390    25.2690     2.1900   -22.1420 
  127.2500    71.2220    19.8790    19.7840    18.3090    25.2500     2.1870   -22.1690 
  127.3750    72.4880    18.7690    18.8590    16.8430    25.2160     2.1870   -22.1720 
  127.5000    73.7530    17.8580    18.0370    15.4980    25.1810     2.1900   -22.1400 
  127.6250    73.1220    17.1750    17.3510    15.1910    25.1700     2.1980   -22.1330 
  127.7500    72.6930    16.6940    16.8130    14.9730    25.1660     2.2090   -22.1220 
  127.8750    75.2130    16.4340    16.4450    14.9470    25.1470     2.2220   -22.1050 
  128.0000    78.5600    16.3910    16.2400    15.8530    25.0820     2.2360   -22.0890 
  128.1250    77.4380    16.5040    16.1590    15.4380    24.9570     2.2470   -22.1020 
  128.2500    73.5980    16.6150    16.1290    14.2270    24.8450     2.2530   -22.1190 
  128.3750    71.4840    16.6610    16.1510    13.3090    24.7900     2.2500   -22.1780 
