~V
VERS. 2.00: Ver 2.00
~W
STRT.M 50.0000:
STOP.M 217.0000:
STEP.M 0.1250:
NULL. -999.2500:
UWI. F10606:
~C
DEPT.M :
DEN.GM/CC :
GR.API :
RML.OHMM :
RI. :
RXO.OHMM :
CALI.CM :
SP.MV :
~A
# ...
   72.5000     2.1990    61.2050    12.4570    10.1550    12.7810    23.9410   -24.2980 
   72.6250     2.2000    60.9610    12.3660    10.1320    13.5910    23.8800   -24.0770 
   72.7500     2.2100    60.5420    12.0280     9.9400    13.0520    23.6000   -23.9070 
   72.8750     2.2240    59.8290    11.5240     9.6030    11.6870    23.2110   -23.7790 
   73.0000     2.2350    60.9390    11.0320     9.2260    10.7920    22.9150   -23.7000 
   73.1250     2.2350    63.9780    10.8360     8.9910    10.4450    22.7920   -23.7530 
   73.2500     2.2200    64.5640    11.0810     9.0340    10.1930    22.7550   -23.8770 
   73.3750     2.1930    62.6020    11.7860     9.4200    11.5600    22.7760   -24.0460 
   73.5000     2.1640    61.2420    12.7890    10.1010    13.5240    22.8210   -24.2800 
   73.6250     2.1470    62.2520    13.7190    10.8810    14.3440    22.9090   -24.6000 
   73.7500     2.1420    62.7390    14.2370    11.4690    14.8490    23.1010   -24.9390 
   73.8750     2.1460    60.5880    14.2520    11.7210    15.9320    23.4830   -25.2640 
   74.0000     2.1500    56.0970    13.9480    11.6810    15.9210    23.9590   -25.5800 
   74.1250     2.1530    51.9140    13.7420    11.5870    14.4450    24.2960   -25.8330 
   74.2500     2.1590    51.1860    13.9060    11.6800    14.9630    24.4370   -26.0130 
   74.3750     2.1680    53.0860    14.4170    12.0120    17.2020    24.4280   -26.1470 
   74.5000     2.1740    55.0670    15.0190    12.4630    18.2850    24.2880   -26.1960 
   74.6250     2.1780    55.7080    15.2180    12.6980    17.9650    24.0290   -26.0700 
   74.7500     2.1790    56.1410    14.7520    12.4520    16.4360    23.8000   -25.8760 
   74.8750     2.1760    56.2100    13.6690    11.6910    14.9520    23.6500   -25.6130 
   75.0000     2.1700    56.8140    12.3200    10.6370    13.1020    23.5650   -25.3230 
   75.1250     2.1770    58.5750    11.2030     9.6550    11.3340    23.4740   -25.0060 
   75.2500     2.2080    60.4090    10.5470     8.9740    10.2420    23.3080   -24.7220 
   75.3750     2.2590    62.0230    10.3740     8.6580    10.1180    23.0660   -24.4700 
   75.5000     2.3070    62.9890    10.5890     8.6860    10.3430    22.8750   -24.2430 
   75.6250     2.3130    63.6090    11.0410     8.9950    10.5530    22.9420   -24.1150 
   75.7500     2.2830    62.3020    11.4910     9.3960    11.2960    23.2240   -24.0510 
   75.8750     2.2370    59.0280    11.8070     9.7620    12.3940    23.6450   -24.0650 
   76.0000     2.2040    55.3470    11.9400    10.0130    13.1810    24.0070   -24.0970 
   76.1250     2.1940    52.8660    11.9200    10.1290    12.6810    24.2550   -24.1530 
   76.2500     2.1920    52.9320    11.8760    10.1850    12.4760    24.4470   -24.1760 
   76.3750     2.1900    55.6040    11.9040    10.2450    12.5610    24.5290   -24.1810 
   76.5000     2.1880    60.0080    12.0790    10.3660    12.4250    24.5510   -24.1760 
   76.6250     2.1860    64.0670    12.4220    10.5750    12.3600    24.5370   -24.1610 
   76.7500     2.1820    65.0950    12.7440    10.7660    12.2580    24.4440   -24.0810 
   76.8750     2.1800    62.9110    12.7580    10.7400    11.8890    24.2290   -23.9430 
   77.0000     2.1840    60.1440    12.1890    10.2840    11.2890    23.9980   -23.7850 
   77.1250     2.2040    61.3180    10.9060     9.2830    11.0810    23.9200   -23.5720 
   77.2500     2.2330    65.6690     9.3590     8.0580     9.9010    24.0680   -23.3430 
   77.3750     2.2560    71.3100     8.0000     6.9260     7.7430    24.2850   -23.0860 
   77.5000     2.2620    75.9250     7.1830     6.1390     6.3460    24.3910   -22.8760 
   77.6250     2.2520    75.6870     7.2170     5.9370     6.5520    24.2490   -22.6790 
   77.7500     2.2420    72.8700     8.0190     6.3030     7.6460    23.9420   -22.5130 
   77.8750     2.2380    73.5450     9.5460     7.2540     8.8570    23.6950   -22.4060 
   78.0000     2.2390    78.6430    11.6310     8.7410     9.9480    23.5920   -22.3330 
   78.1250     2.2320    78.3960    13.8120    10.5400    11.9030    23.6140   -22.2840 
   78.2500     2.2140    69.7960    15.4020    12.0860    14.0020    23.6310   -22.2780 
   78.3750     2.1860    60.8060    15.9440    12.9020    14.7600    23.6250   -22.2990 
   78.5000     2.1550    58.1600    15.3280    12.7460    14.3070    23.5490   -22.2720 
   78.6250     2.1330    60.9080    13.6930    11.6190    13.4420    23.5150   -22.2460 
   78.7500     2.1310    64.1720    11.7370    10.1060    11.8860    23.5760   -22.2320 
   78.8750     2.1550    67.3900     9.9750     8.6480    10.1520    23.6400   -22.2090 
   79.0000     2.1990    70.7370     8.7720     7.5550     8.4070    23.5920   -22.2350 
   79.1250     2.2370    71.5890     8.4860     7.0920     7.5420    23.4500   -22.3330 
   79.2500     2.2490    67.7180     9.1060     7.2660     8.2540    23.2600   -22.4700 
   79.3750     2.2320    62.5010    10.5870     8.1030    11.7030    23.1440   -22.6490 
   79.5000     2.1930    59.8470    12.6830     9.5250    15.1460    23.2550   -22.8640 
   79.6250     2.1520    60.1140    14.8190    11.2550    16.6080    23.6950   -23.0590 
   79.7500     2.1370    60.4860    16.1910    12.6440    18.3200    24.0750   -23.2090 
   79.8750     2.1680    61.0840    16.2290    13.1000    18.8670    24.1950   -23.3120 
   80.0000     2.2460    61.6970    14.8430    12.3610    17.0900    24.0930   -23.3150 
   80.1250     2.3440    62.4210    12.4780    10.6490    15.1490    24.1620   -23.2850 
   80.2500     2.4120    66.1340    10.0880     8.7610    15.3600    24.3310   -23.1990 
   80.3750     2.4340    73.1820     8.1840     7.1360    14.5270    24.4360   -23.0960 
   80.5000     2.4170    79.5000     7.0530     6.0190     8.9210    24.4420   -23.0160 
   80.6250     2.3750    80.9530     6.9270     5.6040     6.6110    24.4310   -22.9550 
   80.7500     2.3190    78.2940     7.6020     5.7850     7.7450    24.4280   -22.9770 
   80.8750     2.2570    72.0080     8.9450     6.5180    11.7340    24.3750   -23.0620 
   81.0000     2.1960    64.3940    10.6790     7.6970    13.1130    24.3350   -23.1750 
   81.1250     2.1510    59.6870    12.1830     9.0020    13.0440    24.3340   -23.2020 
   81.2500     2.1250    58.6500    12.8100     9.8650    13.1900    24.3760   -23.1750 
   81.3750     2.1170    58.8200    12.3620     9.9570    13.4860    24.3870   -23.0740 
   81.5000     2.1330    59.6380    11.2190     9.3960    12.1460    24.3640   -22.8640 
   81.6250     2.1910    65.7860    10.0190     8.5760     9.8200    24.3620   -22.6120 
   81.7500     2.2820    73.7350     9.1480     7.8570     7.9900    24.3830   -22.3050 
   81.8750     2.3760    77.3860     8.6510     7.3340     8.1350    24.3870   -21.9620 
   82.0000     2.4340    75.7580     8.4140     6.9840     9.7880    24.2670   -21.6490 
   82.1250     2.4300    75.8740     8.2490     6.7220    10.9010    23.9970   -21.4260 
   82.2500     2.3960    78.9110     8.0160     6.4500     8.3400    23.6770   -21.3130 
   82.3750     2.3590    80.4740     7.7110     6.1490     6.4040    23.3950   -21.2600 
   82.5000     2.3360    80.2700     7.3940     5.8460     5.7290    23.1880   -21.2770 
   82.6250     2.3280    80.1070     7.1590     5.6020     5.8530    23.0130   -21.3380 
   82.7500     2.3260    81.4810     7.0270     5.4460     5.9750    22.8910   -21.4110 
   82.8750     2.3200    84.4490     6.9850     5.3840     5.8990    22.8720   -21.4930 
   83.0000     2.3080    87.8670     7.0050     5.3950     5.9600    23.0090   -21.5510 
   83.1250     2.2870    88.5250     7.1050     5.4750     6.1900    23.2570   -21.6080 
   83.2500     2.2630    86.1560     7.3140     5.6260     6.6100    23.4700   -21.6000 
   83.3750     2.2450    82.2760     7.6510     5.8660     7.1520    23.5210   -21.5790 
   83.5000     2.2450    78.6760     8.0860     6.1840     7.5920    23.4440   -21.5330 
   83.6250     2.2720    77.4910     8.5200     6.5240     7.4240    23.2380   -21.4190 
