~V
VERS. 2.00: Ver 2.00
~W
STRT.M 58.0000:
STOP.M 221.0000:
STEP.M 0.1250:
NULL. -999.2500:
UWI. F10613:
~C
DEPT.M :
SP.MV :
GR.API :
RML.OHMM :
RI. :
RXO.OHMM :
CALI.CM :
DEN.GM/CC :
~A
# ...
  181.7500   -20.7610    54.9730   136.7730   106.3760   106.6370    24.2210     2.2710 
  181.8750   -20.9470    54.7260   152.4650   118.6530   130.5710    24.1970     2.2810 
  182.0000   -21.1290    56.9990   165.8020   129.6760   151.5360    24.2080     2.2630 
  182.1250   -21.3620    59.0060   172.4270   136.0220   152.0330    24.2380     2.2390 
  182.2500   -21.5820    59.4140   170.3410   135.8220   157.4210    24.2750     2.2250 
  182.3750   -21.8380    58.7030   161.7640   130.1160   161.1680    24.2970     2.2250 
  182.5000   -22.2110    57.7830   152.8790   123.0140   132.8930    24.3000     2.2270 
  182.6250   -22.6350    57.5650   149.2490   119.3350    98.7740    24.2830     2.2200 
  182.7500   -23.0590    58.2150   153.1720   121.5490    82.4470    24.2680     2.2090 
  182.8750   -23.5470    59.7020   164.9340   130.3880    88.0000    24.2660     2.1980 
  183.0000   -24.0690    60.7700   183.3610   145.3120   116.4430    24.2790     2.1920 
  183.1250   -24.4990    60.2720   202.1430   161.4540   149.7410    24.2860     2.1870 
  183.2500   -24.8110    58.2990   214.3450   173.5720   161.3240    24.2930     2.1820 
  183.3750   -25.0300    56.4390   215.0540   177.4400   158.1190    24.2960     2.1770 
  183.5000   -25.0530    57.1630   204.6280   171.9120   155.1130    24.2960     2.1700 
  183.6250   -24.8900    57.3510   191.2050   162.6930   138.1270    24.2960     2.1610 
  183.7500   -24.6490    55.3880   179.0380   153.5430   123.5950    24.2960     2.1500 
  183.8750   -24.2800    53.2400   169.5100   146.1930   137.0370    24.2960     2.1380 
  184.0000   -23.7460    53.7550   162.6390   141.0030   151.6180    24.2960     2.1350 
  184.1250   -23.1810    54.5880   157.2910   137.1460   152.2520    24.2960     2.1420 
  184.2500   -22.5890    54.0430   153.0250   134.2840   142.8220    24.2960     2.1580 
  184.3750   -21.9050    52.8000   149.7390   132.3070   132.8060    24.2960     2.1760 
  184.5000   -21.1750    51.4920   147.8500   131.5060   131.1700    24.2960     2.1910 
  184.6250   -20.4190    51.4300   147.0820   131.6700   136.1090    24.2970     2.2010 
  184.7500   -19.5590    52.4390   146.6220   132.1650   137.2140    24.3000     2.2080 
  184.8750   -18.6580    53.1900   145.3200   131.9650   135.6840    24.3060     2.2160 
  185.0000   -17.8050    55.4810   142.4130   130.1710   138.2620    24.3060     2.2240 
  185.1250   -16.9590    58.8590   138.9920   127.4890   141.6880    24.2990     2.2280 
  185.2500   -16.1440    59.9460   136.6230   125.1770   127.6730    24.2720     2.2250 
  185.3750   -15.4360    56.3370   136.8370   124.6500   112.7790    24.2400     2.2120 
  185.5000   -14.8710    53.5680   141.2290   127.4770   113.0960    24.2380     2.1950 
  185.6250   -14.3950    56.3400   149.3060   133.4140   133.4110    24.2260     2.1840 
  185.7500   -14.0330    61.6830   160.5630   142.0480   151.9300    24.2090     2.1820 
  185.8750   -13.8120    65.2550   174.1770   152.6770   158.0790    24.1800     2.1870 
  186.0000   -13.6430    65.2710   189.5440   164.8020   167.5180    24.1530     2.1930 
  186.1250   -13.4860    63.0690   206.4900   178.2670   174.5100    24.0960     2.1910 
  186.2500   -13.4060    61.6980   226.3480   194.2060   190.0490    24.0000     2.1820 
  186.3750   -13.3540    61.5730   250.9040   214.1480   203.1260    23.8650     2.1790 
  186.5000   -13.2220    59.8280   281.9910   239.5690   194.1750    23.7530     2.2070 
  186.6250   -13.0920    57.5320   317.3330   268.9110   200.8290    23.7470     2.2680 
  186.7500   -12.9490    57.3600   351.8970   300.1690   254.1390    23.7950     2.3320 
  186.8750   -12.6950    57.6840   369.5590   325.7380   360.5400    23.8370     2.3630 
  187.0000   -12.3870    54.7690   325.1850   314.6280   443.0390    23.8550     2.3400 
  187.1250   -12.0360    51.7580   226.2510   248.3220   349.8090    23.8400     2.2890 
  187.2500   -11.5840    49.8130   126.9460   153.0730   253.6920    23.8360     2.2340 
  187.3750   -11.0960    46.1840    62.2410    76.1540   143.9350    23.8910     2.1920 
  187.5000   -10.6020    41.2710    31.9270    36.9810    52.0760    23.9880     2.1730 
  187.6250   -10.0370    38.7790    17.1500    18.3330    17.7220    23.9950     2.1710 
  187.7500    -9.4960    37.8240    10.2650    10.1260     6.5970    23.9330     2.1770 
  187.8750    -9.0580    35.2540     7.2140     6.6190     4.0080    23.8690     2.1870 
  188.0000    -8.6760    31.7730     6.1420     5.2830     3.9310    23.8520     2.2050 
  188.1250    -8.4290    29.5200     5.8170     4.7770     3.9400    23.8730     2.2350 
  188.2500    -8.3830    28.9200     5.8450     4.7300     3.9960    23.9430     2.2800 
  188.3750    -8.4470    28.3290     5.9810     4.8900     4.1170    24.0390     2.3300 
  188.5000    -8.6670    27.2540     6.0420     5.0480     4.2470    24.0780     2.3600 
  188.6250    -9.0850    25.5330     5.9660     5.0810     4.3680    24.0610     2.3590 
  188.7500    -9.5990    24.8060     5.7710     4.9650     4.3910    23.9930     2.3330 
  188.8750   -10.1440    26.8470     5.5080     4.7420     4.1480    23.8990     2.3010 
  189.0000   -10.7830    30.1790     4.3420     4.4870     3.9500    23.7580     2.2890 
  189.1250   -11.4070    31.1980     4.1880     4.2690     3.7450    23.6230     2.3020 
  189.2500   -11.9220    29.4820     4.1100     4.1150     3.7370    23.5850     2.3320 
  189.3750   -12.3900    27.7890     4.1030     4.0210     3.9250    23.6510     2.3620 
  189.5000   -12.7460    28.7710     4.1430     3.9770     4.1770    23.7440     2.3710 
  189.6250   -12.9640    30.5910     4.1870     3.9520     4.2480    23.8140     2.3590 
  189.7500   -13.0900    31.2470     4.2200     3.9300     4.2230    23.8170     2.3330 
  189.8750   -13.1350    30.7310     4.2420     3.9020     4.2120    23.7690     2.3030 
  190.0000   -13.1040    30.4680     4.2610     3.8700     4.1340    23.7700     2.2790 
  190.1250   -13.0370    30.0710     4.2820     3.8390     4.0880    23.7620     2.2690 
  190.2500   -12.9420    28.5630     4.3010     3.8150     4.1230    23.7290     2.2810 
  190.3750   -12.8230    27.2590     4.3160     3.7990     4.3280    23.6910     2.3110 
  190.5000   -12.7490    27.9070     4.3240     3.7870     4.4630    23.7110     2.3440 
  190.6250   -12.6650    29.7590     4.3290     3.7750     4.4510    23.7940     2.3590 
  190.7500   -12.5760    31.1490     4.3330     3.7600     4.3350    23.8160     2.3520 
  190.8750   -12.5490    31.3830     4.3350     3.7440     4.2620    23.7290     2.3290 
  191.0000   -12.4940    30.4980     4.3390     3.7250     4.2290    23.6140     2.3040 
  191.1250   -12.4180    30.1380     4.3420     3.7040     4.1010    23.5000     2.2920 
  191.2500   -12.4010    31.5550     4.3430     3.6780     4.0510    23.4010     2.3010 
  191.3750   -12.3960    32.9370     4.3360     3.6480     3.9700    23.3150     2.3280 
  191.5000   -12.3400    32.4460     4.3190     3.6170     3.9030    23.2750     2.3610 
  191.6250   -12.3290    31.5170     4.2990     3.5910     3.8810    23.3360     2.3810 
  191.7500   -12.3690    31.4570     4.2870     3.5740     3.9030    23.4230     2.3790 
  191.8750   -12.3960    32.1050     4.2890     3.5660     3.9320    23.4930     2.3590 
  192.0000   -12.4630    32.4670     4.3040     3.5640     3.9860    23.5130     2.3350 
  192.1250   -12.5820    32.5180     4.3170     3.5590     4.1090    23.4840     2.3200 
  192.2500   -12.6560    32.0330     4.3160     3.5450     4.1700    23.4360     2.3180 
  192.3750   -12.7140    30.5030     4.3000     3.5200     4.0330    23.4210     2.3220 
  192.5000   -12.8220    28.7830     4.2670     3.4860     3.9400    23.4500     2.3250 
  192.6250   -12.8880    28.7870     4.2310     3.4500     3.8730    23.4760     2.3280 
  192.7500   -12.9260    31.1990     4.2040     3.4210     3.8500    23.5010     2.3340 
  192.8750   -12.9520    33.7030     4.1980     3.4080     3.8820    23.5330     2.3450 
