~V
VERS. 2.00: Ver 2.00
~W
STRT.M 54.0000:
STOP.M 246.0000:
STEP.M 0.1250:
NULL. -999.2500:
UWI. F10643:
~C
DEPT.M :
SP.MV :
GR.API :
RML.OHMM :
RI. :
RXO.OHMM :
CALI.CM :
DEN.GM/CC :
~A
   54.0000     0.0000  -999.2500  -999.2500  -999.2500  -999.2500  -999.2500  -999.2500 
   54.1250     0.0000  -999.2500  -999.2500  -999.2500  -999.2500  -999.2500  -999.2500 
   54.2500     0.0000  -999.2500  -999.2500  -999.2500  -999.2500  -999.2500  -999.2500 
   54.3750     0.0000  -999.2500  -999.2500  -999.2500  -999.2500  -999.2500  -999.2500 
   54.5000    12.2480  -999.2500  -999.2500  -999.2500  -999.2500  -999.2500  -999.2500 
   54.6250    48.7960  -999.2500  -999.2500  -999.2500  -999.2500  -999.2500  -999.2500 
   54.7500    48.3140  -999.2500  -999.2500  -999.2500  -999.2500  -999.2500  -999.2500 
   54.8750    47.8850  -999.2500  -999.2500  -999.2500  -999.2500  -999.2500  -999.2500 
   55.0000    47.5230  -999.2500  -999.2500  -999.2500  -999.2500  -999.2500  -999.2500 
   55.1250    47.2430  -999.2500  -999.2500  -999.2500  -999.2500  -999.2500  -999.2500 
   55.2500    47.0510  -999.2500  -999.2500  -999.2500  -999.2500  -999.2500  -999.2500 
   55.3750    46.9190    32.0210     0.6190     0.0890     1.2790    25.3060     1.8290 
   55.5000    46.8270    32.0210     0.6190     0.0890     1.2790    25.3060     1.8290 
   55.6250    46.7380    33.2640     0.6150     0.0910     1.2810    25.3050     1.8560 
   55.7500    46.6210    33.7330     0.6060     0.0930     1.2340    25.2980     1.9440 
   55.8750    46.4350    31.5440     0.5910     0.0940     1.1550    25.2840     2.0610 
   56.0000    46.1750    29.1020     0.5690     0.0960     1.0970    25.2560     2.1800 
   56.1250    45.8660    29.2200     0.5480     0.0970     1.1150    25.2290     2.2740 
   56.2500    45.5120    31.6000     0.5310     0.0970     1.1450    25.2120     2.3360 
   56.3750    45.1270    33.8160     0.5220     0.0980     1.1720    25.1920     2.3590 
   56.5000    44.6940    33.5940     0.5190     0.0980     1.1680    25.1660     2.3240 
   56.6250    44.2290    33.3000     0.5180     0.0980     1.1150    25.1450     2.2420 
   56.7500    43.7490    34.3360     0.5160     0.0980     1.0140    25.1220     2.1350 
   56.8750    43.2820    36.7390     0.5130     0.0980     0.8270    25.0990     2.0360 
   57.0000    42.8420    37.2980     0.5050     0.0980     0.5300    25.1190     1.9780 
   57.1250    42.4140    36.5260     0.4950     0.0980     0.2260    25.1430     1.9610 
   57.2500    42.0090    36.3700     0.4850     0.0990     0.1100    25.1340     1.9630 
   57.3750    41.6010    37.3490     0.4800     0.0990     0.0800    25.0720     1.9620 
   57.5000    41.2090    39.6490     0.4840     0.0960     0.0380    24.9190     1.9420 
   57.6250    40.8190    40.7270     0.4850     0.0890     0.0300    24.7380     1.9160 
   57.7500    40.3930    39.5540     0.4500     0.0750     0.0800    24.6440     1.8970 
   57.8750    39.8600    37.5500     0.3500     0.0550     0.1470    24.6200     1.9080 
   58.0000    38.9930    36.6850     0.2120     0.0340     0.0890    24.6000     2.0040 
   58.1250    37.6400    36.8440     0.1040     0.0170     0.0970    24.5770     2.1830 
   58.2500    35.5000    37.2230     0.0430     0.0070     0.1770    24.5560     2.3770 
   58.3750    32.3140    39.2060     0.0210     0.0040     0.2120    24.5240     2.4940 
   58.5000    27.7140    44.1230     0.0440     0.0240     0.6830    24.4570     2.4800 
   58.6250    22.1320    50.0880     0.1290     0.0990     1.5740    24.5620     2.3880 
   58.7500    15.9460    55.5110     0.3320     0.2870     3.3200    24.9270     2.2760 
   58.8750     9.4730    59.3200     0.7460     0.6670     4.8810    24.7740     2.1780 
   59.0000     3.0270    58.9180     1.5140     1.3530     5.8380    24.5110     2.1190 
   59.1250    -3.1050    55.9160     2.4570     2.2470     5.8020    24.4500     2.0970 
   59.2500    -8.5810    53.9430     3.2630     3.1730     6.0510    24.5880     2.0960 
   59.3750   -13.0880    55.0780     3.8020     3.9870     6.4370    24.6080     2.1030 
   59.5000   -16.2760    56.8650     4.2060     4.6540     6.6640    24.4040     2.1130 
   59.6250   -18.4750    56.1910     4.6100     5.2280     6.7600    24.2760     2.1220 
   59.7500   -20.0110    54.8320     4.9710     5.6740     6.9020    24.2320     2.1250 
   59.8750   -21.0850    55.0380     5.1940     5.9260     7.1870    24.2330     2.1280 
   60.0000   -21.8090    56.4130     5.1870     5.9190     7.1550    24.2420     2.1430 
   60.1250   -22.2760    59.2180     5.0440     5.7550     6.6620    24.2440     2.1750 
   60.2500   -22.5880    62.5560     4.8760     5.5340     5.7120    24.2280     2.2150 
   60.3750   -22.8080    64.4230     4.7650     5.3470     4.8420    24.2160     2.2510 
   60.5000   -22.9140    63.3040     4.7470     5.2510     4.7940    24.2040     2.2690 
   60.6250   -22.9620    61.4880     4.7760     5.2180     5.6260    24.1570     2.2730 
   60.7500   -22.9500    60.7360     4.7980     5.2000     6.1310    24.0550     2.2720 
   60.8750   -22.9200    60.5800     4.7740     5.1500     6.0180    23.9360     2.2710 
   61.0000   -22.8550    62.7660     4.6920     5.0440     5.4470    23.8890     2.2690 
   61.1250   -22.8260    67.3400     4.6130     4.9230     5.2890    23.9390     2.2680 
   61.2500   -22.8250    71.1800     4.6130     4.8570     4.7810    23.9940     2.2710 
   61.3750   -22.8370    71.4170     4.7560     4.9240     5.0690    23.9480     2.2760 
   61.5000   -22.8540    68.5500     5.1110     5.2050     4.9280    23.7160     2.2700 
   61.6250   -22.8990    65.8390     5.6270     5.6580     5.2000    23.5210     2.2470 
   61.7500   -22.9750    62.8420     6.2090     6.1990     6.3340    23.4040     2.2150 
   61.8750   -23.0890    58.1170     6.6750     6.6750     7.3820    23.3710     2.1890 
   62.0000   -23.2850    55.5750     6.7510     6.8440     7.5010    23.3100     2.1880 
   62.1250   -23.5410    57.9570     6.4730     6.6770     6.6570    23.2790     2.2110 
   62.2500   -23.8030    64.0340     6.0150     6.2730     6.0390    23.4770     2.2490 
   62.3750   -24.0790    71.3660     5.5880     5.8130     5.4220    23.9030     2.2850 
   62.5000   -24.3610    75.6850     5.3750     5.4970     5.2160    24.1690     2.3010 
   62.6250   -24.6450    75.4630     5.3910     5.4000     5.5260    24.2110     2.2990 
   62.7500   -24.9430    72.7330     5.6170     5.5200     6.4920    24.1520     2.2870 
   62.8750   -25.2410    71.0750     5.9990     5.8090     7.7110    24.0990     2.2710 
   63.0000   -25.4960    69.7290     6.4640     6.1950     6.9650    24.0660     2.2550 
   63.1250   -25.6840    66.5520     6.9070     6.5730     7.1370    24.0090     2.2380 
   63.2500   -25.8220    64.6000     7.2520     6.8780     7.0970    23.9940     2.2210 
   63.3750   -25.8840    65.5010     7.4390     7.0550     6.8730    24.0270     2.2070 
   63.5000   -25.8750    65.3000     7.3800     7.0250     6.6030    24.0530     2.2040 
   63.6250   -25.8050    63.6880     7.1200     6.8060     6.7080    24.0580     2.2130 
   63.7500   -25.6670    64.4790     6.7330     6.4380     6.6790    24.0580     2.2320 
   63.8750   -25.4950    68.9810     6.3040     5.9930     6.5820    24.0560     2.2500 
   64.0000   -25.2880    74.3170     5.8990     5.5440     5.3730    24.0450     2.2590 
   64.1250   -25.0870    76.1880     5.5630     5.1480     4.9230    23.9730     2.2630 
   64.2500   -24.8950    75.1810     5.3590     4.8570     5.0610    23.7610     2.2690 
   64.3750   -24.7400    75.1910     5.3710     4.7370     5.2360    23.4570     2.2850 
   64.5000   -24.6110    77.0080     5.7390     4.9010     5.3170    23.2900     2.3030 
   64.6250   -24.5610    76.0310     6.4680     5.3670     5.0650    23.3020     2.3060 
   64.7500   -24.5840    68.9540     7.5460     6.1530     6.0300    23.1880     2.2840 
   64.8750   -24.6380    61.1900     8.8790     7.2150     8.3010    22.9840     2.2410 
   65.0000   -24.7430    60.2340    10.2310     8.3920     9.5280    22.9180     2.1950 
   65.1250   -24.8560    61.9280    11.2860     9.3920     9.2130    23.0220     2.1610 
