~V
VERS. 2.00: Ver 2.00
~W
STRT.M 50.0000:
STOP.M 224.0000:
STEP.M 0.1250:
NULL. -999.2500:
UWI. F10690:
~C
DEPT.M :
SP.MV :
DEN.GM/CC :
GR.API :
RML.OHMM :
RI. :
RXO.OHMM :
CALI.CM :
~A
# ...
  196.2500   -30.0250     2.3470    53.7860    53.1350    51.0460    45.2520    25.1280 
  196.3750   -29.9060     2.3850    53.2160    47.6920    45.7980    39.3110    25.1890 
  196.5000   -29.7630     2.4200    53.4010    41.2280    39.5640    38.5280    25.2860 
  196.6250   -29.6170     2.4680    54.9560    35.5350    34.0750    36.8720    25.3560 
  196.7500   -29.4920     2.5230    56.0200    31.6600    30.3380    31.0760    25.3920 
  196.8750   -29.3930     2.5760    56.1490    29.9170    28.6570    25.8560    25.4020 
  197.0000   -29.2920     2.6120    55.9870    30.2900    29.0160    26.9140    25.3970 
  197.1250   -29.1560     2.6160    57.1220    32.4560    31.1050    30.6110    25.3830 
  197.2500   -28.9800     2.5970    60.8330    34.3060    32.8890    29.8280    25.3620 
  197.3750   -28.7850     2.5640    65.2540    33.1470    31.7720    25.7490    25.3440 
  197.5000   -28.6000     2.5190    64.8380    27.6900    26.5100    28.9080    25.3100 
  197.6250   -28.4640     2.4430    56.7520    20.0960    19.1860    29.3730    25.2470 
  197.7500   -28.3750     2.3440    47.6360    13.7460    13.0630    16.9970    25.2150 
  197.8750   -28.3270     2.2550    42.1370     9.4440     8.9140     7.2590    25.2970 
  198.0000   -28.2980     2.2030    38.7900     6.8920     6.4530     4.0100    25.5740 
  198.1250   -28.2680     2.1990    34.6820     5.6950     5.2990     3.4750    25.8920 
  198.2500   -28.2270     2.2180    31.2620     5.2230     4.8430     3.4810    26.1170 
  198.3750   -28.1700     2.2450    29.6880     5.2120     4.8330     3.5130    26.2290 
  198.5000   -28.1150     2.2760    30.0040     5.4370     5.0500     3.5490    26.2650 
  198.6250   -28.0800     2.3040    31.7130     5.6910     5.2950     3.5680    26.2660 
  198.7500   -28.0660     2.3210    31.6600     5.8630     5.4610     3.5260    26.2540 
  198.8750   -28.0760     2.3280    29.3020     5.9510     5.5460     3.4640    26.2310 
  199.0000   -28.1160     2.3280    27.7060     5.9840     5.5770     3.4600    26.2090 
  199.1250   -28.1860     2.3270    29.5170     5.9820     5.5760     3.5020    26.1680 
  199.2500   -28.2440     2.3220    31.2250     5.9550     5.5500     3.5490    26.0890 
  199.3750   -28.2530     2.3140    31.5820     5.8900     5.4870     3.5320    26.0020 
  199.5000   -28.1990     2.3050    31.3340     5.7730     5.3750     3.4960    25.9560 
  199.6250   -28.1300     2.2990    29.9510     5.6030     5.2110     3.5010    25.9460 
  199.7500   -28.1340     2.2990    27.3310     5.4200     5.0330     3.5450    25.9560 
  199.8750   -28.2350     2.3030    25.4570     5.2510     4.8710     3.5380    25.9890 
  200.0000   -28.3800     2.3030    25.8360     5.1150     4.7390     3.4970    26.0580 
  200.1250   -28.4560     2.2980    28.5850     5.0210     4.6490     3.4670    26.0930 
  200.2500   -28.4320     2.2970    31.4690     4.9530     4.5830     3.4380    26.1050 
  200.3750   -28.3500     2.3040    32.1530     4.9020     4.5340     3.4010    26.1040 
  200.5000   -28.3010     2.3190    30.2820     4.8660     4.4990     3.4140    26.1030 
  200.6250   -28.3870     2.3330    28.6520     4.8500     4.4840     3.4720    26.1040 
  200.7500   -28.5850     2.3360    29.3060     4.8540     4.4880     3.6000    26.1030 
  200.8750   -28.8230     2.3300    30.9540     4.8790     4.5120     3.7060    26.1020 
  201.0000   -29.0380     2.3280    31.7490     4.9230     4.5540     3.6720    26.1010 
  201.1250   -29.1960     2.3400    32.5190     4.9780     4.6080     3.6520    26.0750 
  201.2500   -29.3140     2.3540    33.7170     5.0310     4.6590     3.6570    26.0200 
  201.3750   -29.4170     2.3600    33.5990     5.0750     4.7010     3.7390    25.9640 
  201.5000   -29.5140     2.3610    32.5810     5.1100     4.7350     3.8830    25.9240 
  201.6250   -29.6060     2.3640    32.6140     5.1420     4.7660     4.0290    25.8640 
  201.7500   -29.6870     2.3550    34.6310     5.1810     4.8030     4.2260    25.7830 
  201.8750   -29.7670     2.3300    37.2880     5.2330     4.8540     4.5110    25.7120 
  202.0000   -29.8680     2.3050    38.4480     5.3010     4.9190     4.8130    25.6680 
  202.1250   -29.9810     2.3050    37.5160     5.3820     4.9970     5.0910    25.5890 
  202.2500   -30.0950     2.3300    36.9780     5.4620     5.0740     5.9170    25.4480 
  202.3750   -30.2280     2.3590    38.9590     5.5250     5.1350     6.9710    25.3340 
  202.5000   -30.3940     2.3750    41.4920     5.5640     5.1720     6.7300    25.2900 
  202.6250   -30.5660     2.3680    40.3050     5.5830     5.1910     5.7570    25.2700 
  202.7500   -30.6800     2.3470    37.7090     5.6090     5.2160     4.5490    25.2120 
  202.8750   -30.7180     2.3260    37.8700     5.6640     5.2690     3.9400    25.1120 
  203.0000   -30.7150     2.3130    42.8240     5.7690     5.3700     3.8020    24.9840 
  203.1250   -30.7330     2.3080    49.5500     5.9420     5.5370     3.9810    24.8960 
  203.2500   -30.7900     2.3030    52.2540     6.1610     5.7490     4.2410    24.8730 
  203.3750   -30.8380     2.2990    50.3840     6.3970     5.9760     4.5390    24.8970 
  203.5000   -30.8090     2.3040    47.8410     6.6020     6.1740     5.1660    24.9170 
  203.6250   -30.6750     2.3200    47.3230     6.7100     6.2780     6.5680    24.8770 
  203.7500   -30.5220     2.3310    47.8170     6.7050     6.2730     8.3860    24.8440 
  203.8750   -30.4390     2.3250    48.4180     6.5950     6.1670     9.7230    24.9350 
  204.0000   -30.4750     2.3090    48.1640     6.4160     5.9940     9.5510    25.0790 
  204.1250   -30.6210     2.2990    47.1700     6.2210     5.8060     7.9810    25.1680 
  204.2500   -30.7780     2.2980    46.2520     6.0610     5.6520     6.5680    25.2200 
  204.3750   -30.8530     2.3060    45.6340     5.9650     5.5600     6.1160    25.2360 
  204.5000   -30.7810     2.3280    44.4130     5.9490     5.5440     5.9210    25.2480 
  204.6250   -30.5650     2.3710    42.6050     6.0360     5.6280     5.7520    25.2800 
  204.7500   -30.3320     2.4250    41.5380     6.2220     5.8070     5.8060    25.3220 
  204.8750   -30.1850     2.4800    40.2270     6.5100     6.0850     6.2590    25.3430 
  205.0000   -30.1540     2.5340    39.2900     6.8880     6.4490     7.0660    25.3540 
  205.1250   -30.1720     2.5800    39.8160     7.3050     6.8520     7.5940    25.3790 
  205.2500   -30.1510     2.5960    39.5780     7.6660     7.2000     7.5350    25.4170 
  205.3750   -30.0740     2.5650    38.8980     7.8890     7.4140     7.2730    25.4420 
  205.5000   -29.9870     2.5060    39.0410     7.9350     7.4590     7.1960    25.4450 
  205.6250   -29.9660     2.4620    40.7000     7.8150     7.3430     7.4210    25.4290 
  205.7500   -29.9980     2.4470    41.6490     7.6320     7.1670     7.6450    25.4110 
  205.8750   -30.0210     2.4530    41.7510     7.4400     6.9820     7.6310    25.4040 
  206.0000   -29.9840     2.4660    42.4030     7.2490     6.7980     7.4950    25.4040 
  206.1250   -29.8780     2.4760    42.3140     7.0160     6.5730     7.5760    25.4040 
  206.2500   -29.7430     2.4790    40.9340     6.7020     6.2700     7.5150    25.4020 
  206.3750   -29.5840     2.4720    39.4910     6.2990     5.8810     6.7490    25.4010 
  206.5000   -29.3910     2.4540    38.2430     5.8450     5.4440     5.6570    25.4020 
  206.6250   -29.1770     2.4260    36.9260     5.4200     5.0340     4.8660    25.4020 
  206.7500   -29.0010     2.4020    35.6210     5.0790     4.7050     4.4520    25.4010 
  206.8750   -28.9270     2.3910    34.6080     4.8480     4.4820     4.2630    25.4010 
  207.0000   -28.9670     2.3920    32.9730     4.7220     4.3610     4.1800    25.4000 
  207.1250   -29.0450     2.3940    31.2560     4.6850     4.3250     4.1550    25.3990 
  207.2500   -29.0530     2.3890    31.0220     4.6790     4.3190     4.1870    25.3990 
  207.3750   -28.9590     2.3740    31.9920     4.6730     4.3130     4.2170    25.3990 
