~V
VERS. 2.00: Ver 2.00
~W
STRT.M 55.0000:
STOP.M 242.0000:
STEP.M 0.1250:
NULL. -999.2500:
UWI. F10652:
~C
DEPT.M :
SP.MV :
GR.API :
RML.OHMM :
RI. :
RXO.OHMM :
CALI.CM :
DEN.GM/CC :
~A
# ...
  223.7500   -14.5870    73.2870     8.1490     6.7910     8.2590    24.1700     2.2640 
  223.8750   -14.6770    71.1230     8.1130     6.7610     8.0620    24.2240     2.2620 
  224.0000   -14.7460    69.1540     8.0510     6.7090     7.8900    24.2340     2.2640 
  224.1250   -14.8190    68.9500     8.0190     6.6830     7.8430    24.1980     2.2710 
  224.2500   -14.8650    69.9820     8.0380     6.6980     7.7500    24.1320     2.2800 
  224.3750   -14.9470    71.3310     8.1140     6.7620     7.7880    24.1000     2.2880 
  224.5000   -15.0270    72.3530     8.2370     6.8640     7.9230    24.2150     2.2930 
  224.6250   -15.1690    73.7420     8.3700     6.9750     8.1090    24.2970     2.2920 
  224.7500   -15.3200    75.1610     8.4770     7.0640     8.1960    24.3110     2.2870 
  224.8750   -15.4890    76.4310     8.5450     7.1210     8.3000    24.2450     2.2850 
  225.0000   -15.6680    77.5090     8.5710     7.1430     8.2600    24.1770     2.2930 
  225.1250   -15.8080    77.2420     8.5490     7.1250     8.2060    24.1620     2.3140 
  225.2500   -15.9390    74.9500     8.4940     7.0790     7.8060    24.1750     2.3320 
  225.3750   -16.0250    73.0890     8.4150     7.0120     7.2070    24.1830     2.3360 
  225.5000   -16.0830    74.3310     8.3150     6.9290     6.5960    24.1760     2.3220 
  225.6250   -16.0750    78.0010     8.2130     6.8450     6.5350    24.2080     2.3020 
  225.7500   -16.0370    80.0410     8.1490     6.7910     6.8710    24.2840     2.2890 
  225.8750   -15.9900    79.1220     8.1640     6.8040     7.2960    24.3410     2.2910 
  226.0000   -15.9420    77.5870     8.2950     6.9120     7.7270    24.3360     2.3070 
  226.1250   -15.9650    77.2380     8.5800     7.1500     8.5970    24.2750     2.3220 
  226.2500   -16.0430    77.5390     8.9660     7.4720     9.9180    24.2510     2.3270 
  226.3750   -16.1570    77.9680     9.3770     7.8140    11.4170    24.2540     2.3190 
  226.5000   -16.2840    78.3970     9.7210     8.1010    12.6850    24.2520     2.3040 
  226.6250   -16.4280    79.2370     9.8990     8.2490    13.2510    24.2620     2.2920 
  226.7500   -16.5590    80.8510     9.9130     8.2610    12.0750    24.2670     2.2960 
  226.8750   -16.6580    82.3290     9.7870     8.1560    10.4080    24.2570     2.3180 
  227.0000   -16.7240    82.3690     9.5660     7.9720     9.5070    24.2440     2.3450 
  227.1250   -16.7130    80.7290     9.3080     7.7570     9.0530    24.2340     2.3540 
  227.2500   -16.6780    79.2260     9.0670     7.5560     8.6910    24.2290     2.3400 
  227.3750   -16.6150    78.3090     8.8610     7.3840     8.2560    24.2390     2.3090 
  227.5000   -16.5530    78.0060     8.6820     7.2350     8.2630    24.2700     2.2720 
  227.6250   -16.5020    79.0660     8.4870     7.0720     8.4710    24.2810     2.2450 
  227.7500   -16.4700    82.9250     8.2480     6.8730     8.1710    24.2660     2.2310 
  227.8750   -16.4750    87.4180     7.9780     6.6490     7.3860    24.2430     2.2290 
  228.0000   -16.5040    89.5290     7.7260     6.4390     6.6730    24.2320     2.2330 
  228.1250   -16.5620    87.3690     7.5670     6.3060     6.4450    24.2310     2.2360 
  228.2500   -16.6110    84.3490     7.5250     6.2710     6.9160    24.2270     2.2350 
  228.3750   -16.6820    84.0040     7.5970     6.3310     7.4010    24.2300     2.2310 
  228.5000   -16.7790    85.7940     7.7430     6.4530     7.7890    24.2460     2.2310 
  228.6250   -16.8760    85.6180     7.9020     6.5850     7.8600    24.2810     2.2390 
  228.7500   -16.9740    82.4670     8.0230     6.6860     7.8690    24.2970     2.2530 
  228.8750   -17.0530    79.8050     8.0910     6.7420     7.9230    24.3010     2.2660 
  229.0000   -17.1020    79.8290     8.1020     6.7510     8.1080    24.3010     2.2700 
  229.1250   -17.1460    80.2440     8.0370     6.6980     8.0320    24.3020     2.2640 
  229.2500   -17.1720    79.4300     7.9000     6.5840     7.6110    24.3070     2.2550 
  229.3750   -17.1520    79.0900     7.7000     6.4170     7.1220    24.3170     2.2530 
  229.5000   -17.0650    81.4320     7.4720     6.2270     6.8850    24.3280     2.2590 
  229.6250   -16.9370    84.9430     7.2690     6.0570     6.7490    24.3190     2.2710 
  229.7500   -16.8090    85.4510     7.1140     5.9280     6.7690    24.3130     2.2790 
  229.8750   -16.6850    82.5280     7.0110     5.8420     6.8670    24.3120     2.2820 
  230.0000   -16.5770    78.8030     6.9500     5.7910     6.9160    24.3130     2.2840 
  230.1250   -16.4640    76.9700     6.9170     5.7640     6.7930    24.3140     2.2910 
  230.2500   -16.3570    76.5310     6.8940     5.7450     6.5360    24.3130     2.2970 
  230.3750   -16.2830    76.9730     6.8630     5.7200     6.4490    24.3140     2.3020 
  230.5000   -16.2780    78.0350     6.8130     5.6780     6.5350    24.3210     2.3030 
  230.6250   -16.3020    78.2900     6.7500     5.6250     6.5710    24.3260     2.3040 
  230.7500   -16.3510    78.0850     6.7080     5.5900     6.6340    24.3270     2.3080 
  230.8750   -16.4500    79.0620     6.7130     5.5940     6.7860    24.3320     2.3120 
  231.0000   -16.6140    82.0400     6.7750     5.6450     7.0370    24.3430     2.3130 
  231.1250   -16.8430    85.4950     6.8890     5.7410     7.3150    24.3410     2.3110 
  231.2500   -17.0900    87.1740     7.0250     5.8550     7.4450    24.3180     2.3100 
  231.3750   -17.3690    87.4630     7.1550     5.9620     7.5280    24.3040     2.3110 
  231.5000   -17.6330    87.4630     7.2540     6.0450     7.6230    24.3010     2.3120 
  231.6250   -17.8740    87.4630     7.3050     6.0870     7.7770    24.3010     2.3120 
  231.7500   -18.0880    87.4630     7.3140     6.0950     7.9270    24.3010     2.3120 
  231.8750   -18.2600    87.4630     7.2960     6.0800     7.7570    24.3010     2.3100 
  232.0000   -18.3900    87.4630     7.2730     6.0600     7.3640    24.3010     2.3030 
  232.1250   -18.4680    87.4630     7.2670     6.0560     7.1990    24.3010     2.2860 
  232.2500   -18.5360    87.4630     7.2750     6.0620     7.3310    24.3030     2.2630 
  232.3750   -18.5590    87.4630     7.2780     6.0650     7.6770    24.3060     2.2410 
  232.5000   -18.5910    87.4630     7.2700     6.0580     7.9890    24.3080     2.2260 
  232.6250   -18.6490    87.4630     7.2670     6.0550     7.3610    24.3080     2.2190 
  232.7500   -18.6770    87.4630     7.3030     6.0860     6.7490    24.3100     2.2150 
  232.8750   -18.6680    87.4630     7.4110     6.1760     6.8430    24.3120     2.2080 
  233.0000   -18.6340    87.4630     7.5920     6.3270     7.4340    24.3140     2.1980 
  233.1250   -18.5260    87.4630     7.7850     6.4870     7.9420    24.3090     2.1930 
  233.2500   -18.3620    87.4630     7.8730     6.5610     8.1440    24.3090     2.1990 
  233.3750   -18.1080    87.4630     7.7790     6.4830     7.8910    24.3130     2.2190 
  233.5000   -17.7060    87.4630     7.5000     6.2500     7.1280    24.3080     2.2500 
  233.6250   -17.1800    87.4630     7.1200     5.9330     6.5430    24.2390     2.2870 
  233.7500   -16.6380    87.4630     6.7910     5.6590     6.3580    24.1890     2.3160 
  233.8750   -16.1240    87.4630     6.5990     5.5000     6.6500    24.1730     2.3300 
  234.0000   -15.6370    87.4630     6.5630     5.4700     7.3050    24.1900     2.3300 
  234.1250   -15.2820    87.4630     6.6710     5.5590     8.1610    24.2010     2.3180 
  234.2500   -15.0270    87.4630     6.8540     5.7120     8.0640    24.1980     2.3040 
  234.3750   -14.8680    87.4630     7.0710     5.8930     7.6620    24.1910     2.2920 
  234.5000   -14.8190    87.4630     7.2880     6.0740     7.6060    24.2110     2.2840 
  234.6250   -14.8450    87.4630     7.4820     6.2350     7.8700    24.2300     2.2810 
  234.7500   -14.8770    87.4630     7.6480     6.3730     8.1270    24.2520     2.2780 
  234.8750   -14.8960    87.4630     7.7890     6.4900     8.2660    24.2650     2.2800 
