~V
VERS. 2.00: Ver 2.00
~W
STRT.M 55.0000:
STOP.M 253.0000:
STEP.M 0.1250:
NULL. -999.2500:
UWI. F10665:
~C
DEPT.M :
SP.MV :
DEN.GM/CC :
GR.API :
RML.OHMM :
RI. :
RXO.OHMM :
CALI.CM :
~A
# ...
   66.2500   -26.4180     2.1290    54.7250     8.6660     6.8500    10.5410    24.0840 
   66.3750   -26.0540     2.1130    51.5420     8.5510     6.7930    10.0760    24.1250 
   66.5000   -25.6130     2.0880    51.1370     8.4660     6.7470     9.8410    24.0660 
   66.6250   -25.0510     2.0620    55.3970     8.4300     6.7130     9.8940    23.9960 
   66.7500   -24.3770     2.0460    58.6810     8.4330     6.6940     9.4200    23.9310 
   66.8750   -23.5740     2.0490    56.9020     8.4490     6.6900     8.6650    23.8150 
   67.0000   -22.6340     2.0730    53.4900     8.4290     6.6800     8.5020    23.5680 
   67.1250   -21.5680     2.1040    54.8670     8.2860     6.6040     9.0410    23.4680 
   67.2500   -20.3790     2.1250    57.1290     8.0460     6.4590     9.2600    23.5800 
   67.3750   -19.1260     2.1400    57.4050     7.7960     6.2900     9.0840    23.7040 
   67.5000   -17.8670     2.1710    59.3200     7.6340     6.1640     8.5830    23.7140 
   67.6250   -16.6830     2.2390    64.5890     7.6400     6.1430     7.6910    23.6750 
   67.7500   -15.6340     2.3190    68.6010     7.7780     6.2150     7.6680    23.6720 
   67.8750   -14.7440     2.3750    69.7250     7.9680     6.3420     8.9650    23.6710 
   68.0000   -14.0470     2.3940    70.3630     8.0910     6.4550    10.5000    23.6760 
   68.1250   -13.5980     2.3790    70.9230     8.0210     6.4620     9.3510    23.7770 
   68.2500   -13.3900     2.3560    71.8110     7.7790     6.3500     8.2590    23.8850 
   68.3750   -13.3750     2.3370    73.9480     7.4240     6.1350     8.5020    23.9320 
   68.5000   -13.5100     2.3230    76.2230     7.0570     5.8740     8.4960    23.9270 
   68.6250   -13.7960     2.3130    76.8080     6.8430     5.6800     7.3440    23.9470 
   68.7500   -14.1290     2.3000    76.2320     6.8680     5.6410     6.9790    23.9680 
   68.8750   -14.5300     2.2810    75.3640     7.1720     5.8060     6.8360    23.9380 
   69.0000   -14.9500     2.2500    73.2950     7.7420     6.1800     7.0420    23.8550 
   69.1250   -15.3590     2.2100    70.5120     8.4570     6.7050     7.9820    23.8310 
   69.2500   -15.6580     2.1780    68.7180     8.9920     7.1500     8.9690    23.9210 
   69.3750   -15.8650     2.1730    68.0660     9.0300     7.2650     9.6210    24.0510 
   69.5000   -15.9880     2.1980    68.2040     8.4480     6.9080     9.4240    24.1110 
   69.6250   -16.0490     2.2400    69.2110     7.4780     6.1890     8.0270    24.0850 
   69.7500   -16.1100     2.2700    70.8980     6.6700     5.5060     6.6070    24.0360 
   69.8750   -16.1660     2.2780    72.0070     6.3980     5.1320     6.0360    24.0240 
   70.0000   -16.2320     2.2690    72.1860     6.9810     5.2830     6.7600    23.9970 
   70.1250   -16.3230     2.2660    70.4200     9.0440     6.3860    10.0090    23.8850 
   70.2500   -16.5120     2.2930    65.0870    12.8010     8.6890    17.3540    23.8200 
   70.3750   -16.7980     2.3590    57.9060    18.3170    12.4780    25.3210    23.8660 
   70.5000   -17.1720     2.4550    51.9130    24.6660    17.4690    33.4440    23.9670 
   70.6250   -17.5790     2.5330    49.2440    28.3470    21.3400    45.8860    23.9180 
   70.7500   -17.9590     2.5420    49.0550    26.8920    21.5030    56.2860    23.8270 
   70.8750   -18.3110     2.4790    52.5910    21.7300    18.3880    45.8330    23.7670 
   71.0000   -18.6240     2.3810    59.4140    16.2380    14.4040    24.0950    23.8050 
   71.1250   -18.9110     2.2840    65.0660    12.6280    11.3650    13.5740    23.8680 
   71.2500   -19.1370     2.2110    66.2640    10.6420     9.4090    10.8140    23.8360 
   71.3750   -19.3220     2.1660    63.2780     9.8100     8.3350    10.7550    23.8020 
   71.5000   -19.4180     2.1440    59.4580     9.6960     7.9120    10.8740    23.8550 
   71.6250   -19.4220     2.1430    59.6550     9.9860     7.9690    10.6040    23.9640 
   71.7500   -19.3480     2.1580    62.2360    10.3550     8.2350    10.5900    24.0490 
   71.8750   -19.1900     2.1740    63.1840    10.6180     8.5410    10.6070    24.0760 
   72.0000   -18.9540     2.1720    61.1680    10.6230     8.7180    10.6660    24.0110 
   72.1250   -18.6210     2.1520    59.8500    10.2260     8.5690    10.8820    23.9250 
   72.2500   -18.2490     2.1260    61.7890     9.5260     8.0970    11.1730    23.8370 
   72.3750   -17.8580     2.1070    67.9480     8.6590     7.3970    10.5260    23.7230 
   72.5000   -17.5380     2.1100    76.7270     7.8040     6.6320     8.6550    23.7160 
   72.6250   -17.3040     2.1350    82.1730     7.1620     5.9900     6.8150    23.8860 
   72.7500   -17.1810     2.1660    82.4250     6.7810     5.5420     6.4590    24.0280 
   72.8750   -17.1580     2.1950    81.3100     6.6510     5.3020     6.3710    24.1010 
   73.0000   -17.2510     2.2190    81.8040     6.7080     5.2450     6.1600    24.1120 
   73.1250   -17.5040     2.2280    83.5300     6.8600     5.3310     6.0750    24.0820 
   73.2500   -17.8610     2.2230    83.7410     7.0060     5.4700     6.1980    24.0450 
   73.3750   -18.3010     2.2110    80.5870     7.1310     5.6250     6.7020    23.9880 
   73.5000   -18.7400     2.2020    75.3640     7.2730     5.7960     7.4120    23.8890 
   73.6250   -19.1380     2.1980    72.3220     7.4990     6.0070     7.7600    23.7840 
   73.7500   -19.4360     2.1900    71.8840     7.8220     6.2720     7.8490    23.7680 
   73.8750   -19.6010     2.1730    71.1620     8.2080     6.5820     8.6240    23.9860 
   74.0000   -19.6190     2.1460    68.5680     8.5730     6.8900     9.3840    24.3950 
   74.1250   -19.4510     2.1210    67.7510     8.7910     7.1010     9.7750    24.8210 
   74.2500   -19.1950     2.1080    69.3590     8.8080     7.1550    10.0380    24.9990 
   74.3750   -18.8740     2.1110    72.7440     8.6280     7.0340     9.9040    24.7210 
   74.5000   -18.5750     2.1340    75.7230     8.3390     6.7910     9.0790    24.0870 
   74.6250   -18.3280     2.1680    78.2020     8.0760     6.5310     7.8810    23.7250 
   74.7500   -18.2210     2.1950    81.5260     7.9070     6.3290     7.5430    23.7860 
   74.8750   -18.2700     2.2030    84.7720     7.8010     6.1830     7.2880    23.9340 
   75.0000   -18.4960     2.1970    85.9500     7.6890     6.0530     7.1430    23.9930 
   75.1250   -18.9080     2.1930    85.7900     7.5020     5.8950     7.5330    24.0100 
   75.2500   -19.4670     2.2070    86.6800     7.2690     5.7130     7.5040    24.0170 
   75.3750   -20.1530     2.2390    89.7890     7.0770     5.5520     6.6520    24.0100 
   75.5000   -20.9250     2.2760    93.8800     7.0280     5.4790     6.0540    24.0080 
   75.6250   -21.8030     2.2900    93.1340     7.2350     5.5770     6.2200    24.0230 
   75.7500   -22.7070     2.2760    86.1220     7.6670     5.8430     6.7980    24.0060 
   75.8750   -23.6120     2.2390    76.7150     8.2730     6.2510     7.4610    23.9620 
   76.0000   -24.4710     2.1950    69.4150     8.9380     6.7330     8.3640    23.9130 
   76.1250   -25.2180     2.1560    65.4380     9.4510     7.1490     9.7150    23.9560 
   76.2500   -25.7900     2.1270    62.5280     9.6630     7.3790    10.3290    24.0580 
   76.3750   -26.1560     2.1030    62.2170     9.5470     7.3860    10.6250    24.0920 
   76.5000   -26.3150     2.0720    63.4210     9.2580     7.2430    10.7800    24.0200 
   76.6250   -26.1990     2.0330    62.5020     9.2410     7.1910    10.7360    23.9600 
   76.7500   -25.9060     2.0070    59.2190    10.0200     7.5330    10.6780    23.9410 
   76.8750   -25.4800     2.0230    56.6110    12.1520     8.6180    10.7780    23.9660 
   77.0000   -25.0020     2.1200    56.5540    16.1550    10.8690    12.2630    23.9950 
   77.1250   -24.5490     2.3270    56.4140    22.4970    14.9060    19.8840    23.9680 
   77.2500   -24.1850     2.5470    53.7910    29.4960    19.9680    41.6170    23.9490 
   77.3750   -23.9020     2.6430    50.9650    33.6760    23.8020    72.3230    23.9400 
