~V
VERS. 2.00: Ver 2.00
~W
STRT.M 55.0000:
STOP.M 213.0000:
STEP.M 0.1250:
NULL. -999.2500:
UWI. F10686:
~C
DEPT.M :
SP.MV :
DEN.GM/CC :
GR.API :
RML.OHMM :
RI. :
RXO.OHMM :
CALI.CM :
~A
# ...
  133.7500   -18.7700     2.1100    42.5200    36.5200    35.6540    29.8360    23.9500 
  133.8750   -18.7610     2.1940    39.2500    34.5350    33.7070    29.0010    23.8870 
  134.0000   -18.7450     2.3080    37.2790    31.9460    31.0030    30.0470    23.4850 
  134.1250   -18.7220     2.4080    38.5310    29.3310    28.1620    28.2250    23.6080 
  134.2500   -18.6920     2.4620    39.7400    27.2220    25.8050    23.8020    23.8920 
  134.3750   -18.6580     2.4700    40.4460    25.8270    24.1910    20.8810    24.0860 
  134.5000   -18.6640     2.4540    40.5820    25.5980    23.9210    20.4480    24.1000 
  134.6250   -18.6710     2.4400    40.7450    25.0260    23.2540    20.8340    24.1200 
  134.7500   -18.6510     2.4380    41.8320    24.7520    23.0340    21.7280    24.1200 
  134.8750   -18.6490     2.4430    44.1480    24.5350    23.0040    20.9020    24.1200 
  135.0000   -18.6500     2.4490    44.7720    24.2990    23.0010    20.4270    24.1200 
  135.1250   -18.6070     2.4500    41.8020    24.2460    23.0750    20.8740    24.1110 
  135.2500   -18.5570     2.4510    38.1560    24.6580    23.4350    20.6280    24.0610 
  135.3750   -18.5220     2.4570    37.2350    25.6880    24.2590    20.4310    23.9440 
  135.5000   -18.4530     2.4730    39.1920    27.2280    25.5480    21.9070    23.8930 
  135.6250   -18.3960     2.5000    41.6200    28.7860    26.9900    24.7560    23.8650 
  135.7500   -18.3570     2.5280    43.7420    29.6400    27.9420    26.5730    23.8220 
  135.8750   -18.3230     2.5470    44.3650    29.2950    27.8720    27.2440    23.8130 
  136.0000   -18.3110     2.5500    42.7600    27.7520    26.6480    26.4340    23.8020 
  136.1250   -18.3600     2.5350    41.4760    25.6200    24.7010    23.6760    23.7100 
  136.2500   -18.4780     2.5120    42.2700    23.8530    22.9070    20.8360    23.4500 
  136.3750   -18.6360     2.4890    44.2480    22.9410    21.7390    18.4990    23.1600 
  136.5000   -18.8150     2.4730    45.1310    23.0400    21.4000    17.6790    23.0950 
  136.6250   -19.0090     2.4650    43.2680    24.1310    21.9930    18.4830    23.3670 
  136.7500   -19.2140     2.4670    40.5430    25.7000    23.1540    21.1960    23.7590 
  136.8750   -19.4060     2.4780    38.3330    27.3830    24.5850    22.6220    23.8600 
  137.0000   -19.5950     2.5000    37.5490    28.9200    26.0130    23.6050    23.8040 
  137.1250   -19.7640     2.5320    38.8600    30.2110    27.2510    25.4800    23.6920 
  137.2500   -19.8560     2.5680    41.4870    31.4160    28.3600    26.8390    23.6060 
  137.3750   -19.9260     2.6020    43.8080    32.6320    29.4190    27.5410    23.6450 
  137.5000   -20.0200     2.6310    43.4820    33.7890    30.4080    29.3060    23.7120 
  137.6250   -20.0980     2.6480    41.0840    34.5560    31.0950    31.4420    23.7240 
  137.7500   -20.1570     2.6530    39.3380    34.7130    31.2980    32.1020    23.7260 
  137.8750   -20.2570     2.6420    39.1940    34.1770    30.9180    29.2080    23.7230 
  138.0000   -20.3600     2.6190    39.3010    33.0560    29.9960    25.0070    23.7010 
  138.1250   -20.3920     2.5910    38.5310    31.6090    28.6970    23.9510    23.5750 
  138.2500   -20.4420     2.5700    39.0870    30.1900    27.3520    23.7540    23.4430 
  138.3750   -20.5010     2.5580    42.5240    28.9340    26.1110    22.9780    23.4650 
  138.5000   -20.5230     2.5570    45.2430    27.8880    25.0370    20.7610    23.5740 
  138.6250   -20.5470     2.5610    42.9200    27.1250    24.2010    20.0270    23.7010 
  138.7500   -20.6170     2.5680    39.6120    26.6400    23.5970    20.8180    23.8570 
  138.8750   -20.6960     2.5760    38.2600    26.4510    23.2460    21.5140    23.9360 
  139.0000   -20.7900     2.5880    38.0290    26.5400    23.1550    21.3210    23.9630 
  139.1250   -20.9040     2.6030    38.2760    26.8660    23.3190    21.3560    23.9670 
  139.2500   -20.9690     2.6160    39.7710    27.2830    23.6120    22.5900    23.9660 
  139.3750   -21.0020     2.6260    40.8690    27.6740    23.9370    24.0210    23.9580 
  139.5000   -21.0450     2.6300    41.1450    27.9220    24.1980    24.5020    23.9150 
  139.6250   -21.0790     2.6250    42.2270    27.8910    24.2780    23.2480    23.7890 
  139.7500   -21.0920     2.6110    43.1140    27.6200    24.1790    22.3080    23.6660 
  139.8750   -21.0600     2.5930    44.2370    27.1930    23.9440    21.0610    23.5220 
  140.0000   -20.9820     2.5740    46.1400    26.7210    23.6400    20.1080    23.4440 
  140.1250   -20.9290     2.5610    46.6420    26.3390    23.3450    20.0100    23.5210 
  140.2500   -20.9380     2.5560    45.7760    26.1260    23.1440    20.8040    23.5870 
  140.3750   -21.0020     2.5550    44.3360    26.1050    23.0860    22.6040    23.7220 
  140.5000   -21.0470     2.5540    42.6420    26.2630    23.1760    23.7650    23.7990 
  140.6250   -21.0470     2.5510    40.4400    26.6000    23.4010    23.3640    23.8130 
  140.7500   -21.0580     2.5490    40.3640    27.0310    23.6820    24.3750    23.8140 
  140.8750   -21.0980     2.5530    41.9590    27.4420    23.9270    25.7580    23.8140 
  141.0000   -21.1310     2.5650    42.1610    27.6510    24.0170    25.1220    23.8140 
  141.1250   -21.1870     2.5830    40.3110    27.3210    23.7550    24.3700    23.8040 
  141.2500   -21.2370     2.5970    38.9370    26.3080    23.0530    24.8400    23.7500 
  141.3750   -21.2450     2.6000    38.3760    24.6130    21.8850    23.9600    23.6320 
  141.5000   -21.2630     2.5890    39.8670    22.4870    20.3850    21.2410    23.5670 
  141.6250   -21.2790     2.5680    44.4560    20.3720    18.8190    18.0560    23.5080 
  141.7500   -21.2680     2.5500    48.0350    18.6560    17.4640    16.4900    23.3310 
  141.8750   -21.2710     2.5380    47.5300    17.5290    16.4890    15.6120    23.2020 
  142.0000   -21.3040     2.5320    44.6210    17.0110    15.9620    14.7550    23.1790 
  142.1250   -21.3140     2.5220    43.8850    17.0480    15.9060    14.7240    23.1790 
  142.2500   -21.3120     2.5020    45.5190    17.3780    16.1350    14.9410    23.1790 
  142.3750   -21.3330     2.4720    47.9250    17.8540    16.5370    15.3820    23.1860 
  142.5000   -21.3820     2.4400    49.7380    18.3330    16.9880    15.9130    23.2380 
  142.6250   -21.4670     2.4210    48.2800    18.5900    17.2940    15.7810    23.4530 
  142.7500   -21.5460     2.4200    43.8320    18.4490    17.2780    15.7630    23.7380 
  142.8750   -21.5920     2.4340    38.9890    17.7750    16.7990    16.5330    23.8040 
  143.0000   -21.6300     2.4480    38.0820    16.5760    15.8280    17.1480    23.8000 
  143.1250   -21.7010     2.4450    43.5970    15.0630    14.5120    15.6650    23.7230 
  143.2500   -21.7660     2.4280    49.5460    13.6990    13.2510    13.0500    23.5570 
  143.3750   -21.7810     2.4080    51.6800    12.8220    12.3340    11.3440    23.5480 
  143.5000   -21.7930     2.4020    50.6050    12.6410    11.9550    10.9050    23.7350 
  143.6250   -21.8410     2.4170    49.3000    13.3230    12.3130    11.1090    24.0090 
  143.7500   -21.8960     2.4430    48.4300    14.5960    13.2660    12.1730    24.1580 
  143.8750   -21.9270     2.4660    47.4120    16.1730    14.6490    13.7410    24.1100 
  144.0000   -21.9620     2.4760    47.2930    17.6470    16.1530    15.3220    24.0570 
  144.1250   -21.9450     2.4680    47.4060    18.4430    17.2490    16.6420    24.0140 
  144.2500   -21.9000     2.4550    47.3230    18.3910    17.6100    17.4590    23.9760 
  144.3750   -21.8780     2.4440    46.9110    17.5800    17.1810    17.5790    23.9770 
  144.5000   -21.8440     2.4400    45.7790    16.3410    16.1940    17.0960    24.0240 
  144.6250   -21.7660     2.4420    44.3950    15.1120    15.0280    16.5480    24.0390 
  144.7500   -21.6940     2.4430    43.3270    14.1870    14.0260    14.6720    24.0430 
  144.8750   -21.6580     2.4430    42.6240    13.6680    13.3310    13.1050    24.0430 
