~V
VERS. 2.00: Ver 2.00
~W
STRT.M 56.0000:
STOP.M 256.0000:
STEP.M 0.1250:
NULL. -999.2500:
UWI. F10668:
~C
DEPT.M :
SP.MV :
GR.API :
RML.OHMM :
RI. :
RXO.OHMM :
CALI.CM :
DEN.GM/CC :
~A
# ...
  112.2500   -18.8570    81.8930     6.9320     5.2370     6.1510    24.7380     2.2530 
  112.3750   -18.9430    82.3160     7.0680     5.3620     6.6280    24.7970     2.2300 
  112.5000   -19.0200    83.1580     7.0990     5.4040     6.8020    24.8320     2.2230 
  112.6250   -19.0700    84.4740     7.0190     5.3510     6.3360    24.8280     2.2340 
  112.7500   -19.0980    86.9390     6.8590     5.2200     5.8550    24.8090     2.2560 
  112.8750   -19.0920    89.0000     6.6570     5.0370     5.5950    24.7810     2.2800 
  113.0000   -19.0530    89.7200     6.4250     4.8270     5.6420    24.7520     2.2980 
  113.1250   -18.9910    90.7790     6.1360     4.5890     5.6030    24.7460     2.3100 
  113.2500   -18.9170    93.9580     5.7800     4.3210     5.3110    24.7740     2.3120 
  113.3750   -18.8730    95.1600     5.4640     4.0830     5.1040    24.8080     2.3030 
  113.5000   -18.8540    91.1520     5.4070     3.9990     4.8990    24.8630     2.2960 
  113.6250   -18.8760    86.4090     5.8460     4.2210     4.7710    24.9440     2.3170 
  113.7500   -18.9380    83.1990     6.9940     4.8970     5.1590    25.0250     2.3910 
  113.8750   -19.0830    77.9390     9.0870     6.2250     8.9600    24.9530     2.5160 
  114.0000   -19.2780    68.7930    11.7000     8.0000    21.6540    24.8170     2.6100 
  114.1250   -19.5410    60.6050    13.9690     9.7190    40.7120    24.6720     2.6150 
  114.2500   -19.8620    57.0770    14.7310    10.5890    40.2760    24.5580     2.5340 
  114.3750   -20.2350    56.1920    13.4010    10.0310    20.4670    24.5870     2.4180 
  114.5000   -20.6350    56.7960    11.4180     8.8490    10.9770    24.7430     2.3170 
  114.6250   -21.0720    59.3850     9.8260     7.7340     8.3650    24.9200     2.2500 
  114.7500   -21.5430    62.8060     9.0190     7.0360     8.1920    25.1160     2.2230 
  114.8750   -22.0250    62.4650     8.9830     6.8540     8.8950    25.3960     2.2200 
  115.0000   -22.4960    58.9390     9.2870     6.9640     9.4430    25.6850     2.2090 
  115.1250   -22.9120    55.0350     9.6620     7.1980     9.7890    26.0050     2.1800 
  115.2500   -23.2720    53.4280     9.9260     7.4140     9.9440    26.4090     2.1380 
  115.3750   -23.5370    54.7980     9.9900     7.5190     9.7090    26.8490     2.1040 
  115.5000   -23.7190    56.2920     9.9280     7.5350     9.4170    26.8660     2.0960 
  115.6250   -23.8010    58.3470     9.8010     7.4980     9.3300    26.1800     2.1180 
  115.7500   -23.7810    60.6750     9.6580     7.4410     9.3720    25.1770     2.1530 
  115.8750   -23.6280    61.7140     9.5490     7.4010     9.4530    24.4260     2.1780 
  116.0000   -23.4040    60.1600     9.5450     7.4220     9.1830    24.0870     2.1840 
  116.1250   -23.1120    56.0210     9.7320     7.5630     8.8840    24.1970     2.1730 
  116.2500   -22.7340    51.6250    10.1550     7.8690     8.9980    24.6660     2.1510 
  116.3750   -22.2810    49.9430    10.7210     8.3090     9.2180    25.2360     2.1310 
  116.5000   -21.7560    51.6400    11.1130     8.6650     9.3630    25.5280     2.1240 
  116.6250   -21.1700    55.0240    11.0070     8.6860     9.4730    25.3960     2.1410 
  116.7500   -20.5450    58.9920    10.2390     8.2040     9.4100    25.0820     2.1830 
  116.8750   -19.9350    66.4130     8.9320     7.2450     8.3220    24.9030     2.2420 
  117.0000   -19.3320    78.4970     7.6020     6.1800     6.5210    24.8550     2.3020 
  117.1250   -18.7740    91.0130     6.5440     5.2470     5.1350    24.8350     2.3490 
  117.2500   -18.2950    96.7420     5.8610     4.5630     4.6920    24.7980     2.3770 
  117.3750   -17.9340    94.1180     5.5600     4.1770     4.6890    24.7870     2.3870 
  117.5000   -17.6890    89.8810     5.4950     4.0040     4.6240    24.8210     2.3930 
  117.6250   -17.5500    88.2350     5.6130     4.0090     4.6770    24.8380     2.4020 
  117.7500   -17.4980    88.0020     5.8980     4.1750     4.9650    24.8170     2.4090 
  117.8750   -17.5110    87.2760     6.3970     4.5320     5.5110    24.7230     2.3940 
  118.0000   -17.5850    85.1080     7.0740     5.0480     6.0320    24.7130     2.3570 
  118.1250   -17.6910    79.9430     7.8700     5.6870     7.2030    24.7420     2.3070 
  118.2500   -17.8240    73.8160     8.6790     6.3770     9.1550    24.7840     2.2580 
  118.3750   -17.9510    67.6020     9.4340     7.0490     9.7660    24.8070     2.2150 
  118.5000   -18.0880    62.1720    10.2460     7.7390     9.5860    24.8060     2.1750 
  118.6250   -18.2200    57.8910    11.3070     8.5630     9.6950    24.8080     2.1410 
  118.7500   -18.3390    55.3620    12.7250     9.6140    10.1040    24.8460     2.1260 
  118.8750   -18.4210    54.0010    14.3280    10.8370    12.0660    24.9280     2.1620 
  119.0000   -18.4660    51.5040    15.4510    11.8060    14.8650    24.9240     2.2550 
  119.1250   -18.4780    50.6980    15.3430    11.9520    16.1100    24.6690     2.3790 
  119.2500   -18.4640    56.2900    13.7140    10.9620    11.9830    24.1800     2.4830 
  119.3750   -18.4170    68.0140    11.1520     9.1230     9.6840    23.6010     2.5160 
  119.5000   -18.3190    78.2010     8.8330     7.2940     8.6560    23.2250     2.5040 
  119.6250   -18.1880    82.2470     7.2090     5.8690     7.1940    23.0220     2.4770 
  119.7500   -18.0390    81.2540     6.3070     4.9540     5.5410    22.9440     2.4530 
  119.8750   -17.9040    79.0430     6.0180     4.5530     5.1480    22.9180     2.4360 
  120.0000   -17.7780    77.7360     6.0310     4.4580     5.1490    22.8660     2.4210 
  120.1250   -17.6560    77.9090     6.1890     4.5480     5.3260    22.7600     2.4070 
  120.2500   -17.5350    78.7920     6.3840     4.7210     5.3990    22.6450     2.3940 
  120.3750   -17.4210    78.9840     6.5560     4.9120     5.4280    22.6270     2.3860 
  120.5000   -17.3380    78.3790     6.6950     5.0800     5.4650    22.5940     2.3820 
  120.6250   -17.2730    77.2110     6.7970     5.2070     5.5200    22.5290     2.3780 
  120.7500   -17.2440    77.4840     6.8540     5.2840     5.6530    22.5140     2.3730 
  120.8750   -17.2270    79.3190     6.8490     5.2940     5.9550    22.6250     2.3720 
  121.0000   -17.2180    80.3850     6.7790     5.2440     6.1640    22.7900     2.3800 
  121.1250   -17.2090    80.3380     6.6330     5.1260     5.9940    22.9870     2.3930 
  121.2500   -17.2040    78.9150     6.4150     4.9430     5.7730    23.2350     2.4000 
  121.3750   -17.1980    80.5860     6.1710     4.7250     5.8440    23.6410     2.3920 
  121.5000   -17.1840    84.7880     5.9830     4.5380     5.9380    24.1390     2.3750 
  121.6250   -17.1510    86.3900     5.9270     4.4400     5.5070    24.4820     2.3590 
  121.7500   -17.0780    83.6020     6.0530     4.4740     5.1650    24.4760     2.3510 
  121.8750   -16.9840    81.0950     6.3900     4.6730     5.3370    24.1400     2.3510 
  122.0000   -16.8660    80.0560     6.8440     4.9820     5.9920    23.7500     2.3530 
  122.1250   -16.7290    78.2740     7.3260     5.3490     6.6710    23.6020     2.3520 
  122.2500   -16.5620    76.4270     7.7400     5.7110     6.9900    23.7690     2.3440 
  122.3750   -16.3600    78.2650     7.9670     5.9730     6.8920    24.0290     2.3250 
  122.5000   -16.1330    78.8070     7.9910     6.0920     6.8490    23.9750     2.2990 
  122.6250   -15.8880    77.0190     7.8390     6.0610     6.9740    23.8700     2.2780 
  122.7500   -15.6300    76.8440     7.5690     5.9130     7.1600    24.0800     2.2740 
  122.8750   -15.3640    77.4380     7.2560     5.6950     6.6820    24.4190     2.2920 
  123.0000   -15.0980    78.6690     6.9760     5.4740     5.9980    24.6070     2.3190 
  123.1250   -14.8490    81.8110     6.7670     5.2860     5.9360    24.6480     2.3430 
  123.2500   -14.6380    85.2260     6.6330     5.1470     6.3820    24.6410     2.3570 
  123.3750   -14.4660    86.0090     6.5520     5.0560     6.2360    24.6490     2.3610 
