~V
VERS. 2.00: Ver 2.00
~W
STRT.M 48.0000:
STOP.M 229.0000:
STEP.M 0.1250:
NULL. -999.2500:
UWI. F10623:
~C
DEPT.M :
GR.API :
RML.OHMM :
RI. :
RXO.OHMM :
CALI.CM :
DEN.GM/CC :
SP.MV :
~A
# ...
   59.2500    87.9980     4.2480     5.5870     5.9550    23.9880     2.2080    -2.2480 
   59.3750    91.0250     4.1260     5.5380     5.5740    23.6040     2.2220    -2.6170 
   59.5000    92.7420     4.1040     5.5200     5.2040    23.4400     2.2230    -2.9840 
   59.6250    93.9320     4.2310     5.6410     5.3350    23.4200     2.2150    -3.4710 
   59.7500    93.2410     4.5020     5.9280     5.8350    23.4260     2.2040    -4.0670 
   59.8750    89.5970     4.9130     6.3840     6.2490    23.4200     2.1920    -4.7460 
   60.0000    84.4450     5.4400     6.9760     6.5690    23.3950     2.1820    -5.4830 
   60.1250    80.9780     6.0410     7.6480     6.7660    23.3340     2.1780    -6.2470 
   60.2500    78.4120     6.6440     8.3100     6.9090    23.2570     2.1800    -7.0150 
   60.3750    74.6470     7.1950     8.9010     7.0930    23.2350     2.1880    -7.7800 
   60.5000    72.2510     7.6480     9.3710     7.5020    23.3040     2.1990    -8.5250 
   60.6250    72.9280     7.9470     9.6660     7.9230    23.3840     2.2060    -9.2480 
   60.7500    71.6810     8.1160     9.8190     8.0830    23.4460     2.2040    -9.9510 
   60.8750    67.6510     8.1950     9.8700     8.1290    23.6180     2.1920   -10.5970 
   61.0000    64.6700     8.2360     9.8710     8.1800    24.0220     2.1710   -11.1610 
   61.1250    64.6970     8.2810     9.8670     8.4360    24.3880     2.1480   -11.6400 
   61.2500    64.2430     8.3380     9.8690     8.7660    24.6200     2.1280   -12.0710 
   61.3750    63.2260     8.3880     9.8650     9.1110    24.8180     2.1140   -12.4630 
   61.5000    63.4960     8.4110     9.8340     9.4010    25.0480     2.1080   -12.8230 
   61.6250    64.6790     8.4030     9.7750     9.6290    25.2080     2.1100   -13.1540 
   61.7500    66.4740     8.4020     9.7290     9.7690    25.2680     2.1210   -13.4580 
   61.8750    67.0770     8.4490     9.7380     9.8220    25.2620     2.1390   -13.7450 
   62.0000    65.0710     8.5720     9.8340    10.0540    25.2480     2.1600   -14.0220 
   62.1250    63.2410     8.7770    10.0290    10.4970    25.3530     2.1760   -14.2870 
   62.2500    63.3030     9.0100    10.2660    10.8430    25.5580     2.1820   -14.5120 
   62.3750    63.2430     9.2270    10.4930    10.9940    25.7710     2.1750   -14.7040 
   62.5000    62.6270     9.3880    10.6590    10.9740    25.8620     2.1580   -14.8640 
   62.6250    65.5680     9.4560    10.7100    10.7160    25.8200     2.1370   -14.9790 
   62.7500    69.0880     9.4250    10.6410    10.3650    25.7310     2.1200   -15.0570 
   62.8750    67.8680     9.2760    10.4360    10.0600    25.5380     2.1110   -15.1130 
   63.0000    63.1170     8.9890    10.0830     9.8490    25.1210     2.1110   -15.1500 
   63.1250    61.6920     8.5660     9.5870     9.5290    24.4510     2.1240   -15.1740 
   63.2500    64.2290     8.1130     9.0490     8.9890    23.8400     2.1440   -15.2070 
   63.3750    67.5120     7.7500     8.5810     8.3140    23.4840     2.1670   -15.2660 
   63.5000    70.4540     7.5880     8.2910     7.6560    23.3890     2.1820   -15.3590 
   63.6250    73.9410     7.7290     8.2960     7.5530    23.6180     2.1770   -15.4680 
   63.7500    74.1990     8.1020     8.5440     8.2570    24.1700     2.1530   -15.5910 
   63.8750    70.2720     8.6110     8.9610     9.2680    24.8730     2.1190   -15.7270 
   64.0000    65.0060     9.1360     9.4380     9.8530    25.4630     2.0910   -15.8610 
   64.1250    62.4150     9.5430     9.8430    10.0120    25.6160     2.0840   -15.9850 
   64.2500    63.0890     9.8030    10.1180    10.1090    25.4000     2.0970   -16.1040 
   64.3750    65.7840     9.9360    10.2590    10.2530    24.9090     2.1240   -16.2030 
   64.5000    70.3840     9.9920    10.2980    10.4190    24.3110     2.1550   -16.2840 
   64.6250    72.7980    10.0070    10.2660    10.4490    23.9930     2.1790   -16.3530 
   64.7500    70.8350    10.0000    10.1990    10.4080    23.9800     2.1920   -16.4150 
   64.8750    67.4580     9.9750    10.1070    10.3180    24.0660     2.1940   -16.4720 
   65.0000    65.9210     9.9440    10.0050    10.1610    24.0980     2.1880   -16.5250 
   65.1250    65.9490     9.9270     9.9100    10.0580    24.1560     2.1790   -16.5550 
   65.2500    65.6200     9.9290     9.8300    10.0300    24.2630     2.1700   -16.5530 
   65.3750    65.1950     9.9410     9.7610     9.9790    24.3410     2.1610   -16.5240 
   65.5000    65.9080     9.9370     9.6870     9.9200    24.2980     2.1480   -16.4640 
   65.6250    66.6470     9.8790     9.5780     9.8850    24.2780     2.1300   -16.3510 
   65.7500    66.0060     9.7590     9.4230     9.8160    24.2210     2.1110   -16.1910 
   65.8750    64.9580     9.5880     9.2260     9.6740    24.0520     2.0980   -15.9900 
   66.0000    64.2430     9.4070     9.0160     9.4650    23.6920     2.0960   -15.7690 
   66.1250    65.0020     9.2890     8.8500     9.2370    23.3220     2.1090   -15.5350 
   66.2500    67.5690     9.2800     8.7680     8.9430    23.1650     2.1310   -15.2810 
   66.3750    71.7850     9.3690     8.7730     8.7090    23.1890     2.1610   -15.0010 
   66.5000    77.1690     9.4730     8.8050     8.7110    23.2450     2.1960   -14.7140 
   66.6250    80.1240     9.4040     8.7190     8.9220    23.2710     2.2380   -14.4470 
   66.7500    81.0390     9.0400     8.4040     9.1400    23.2660     2.2830   -14.1890 
   66.8750    83.7750     8.3480     7.8160     9.2270    23.1780     2.3210   -13.9270 
   67.0000    88.9250     7.4100     7.0050     8.7250    22.9950     2.3420   -13.6680 
   67.1250    95.2290     6.4170     6.1130     7.1800    22.7890     2.3380   -13.4300 
   67.2500   100.1030     5.5870     5.3280     5.6260    22.6580     2.3210   -13.2200 
   67.3750   102.4340     5.0420     4.7630     4.9560    22.5660     2.3050   -13.0470 
   67.5000   102.9050     4.8340     4.4770     4.6910    22.4370     2.3020   -12.9160 
   67.6250   101.7550     4.9900     4.5150     4.6950    22.2880     2.3200   -12.8420 
   67.7500    99.9220     5.3610     4.7670     5.0640    22.1820     2.3490   -12.8260 
   67.8750    96.0150     5.8180     5.1340     5.7510    22.1190     2.3760   -12.8550 
   68.0000    92.6030     6.2230     5.5000     6.6680    22.1050     2.3890   -12.9140 
   68.1250    93.3940     6.4420     5.7410     7.1890    22.2150     2.3780   -13.0020 
   68.2500    94.3800     6.4870     5.8370     6.8130    22.5010     2.3510   -13.1250 
   68.3750    93.1050     6.4260     5.8250     6.0870    22.9900     2.3200   -13.2800 
   68.5000    90.2860     6.3480     5.7740     5.8050    23.6200     2.2920   -13.4510 
   68.6250    86.8540     6.3090     5.7340     5.8260    24.1850     2.2720   -13.6150 
   68.7500    83.0330     6.2750     5.6970     5.9650    24.4670     2.2580   -13.7550 
   68.8750    81.5310     6.1890     5.6270     6.0410    24.5310     2.2510   -13.8760 
   69.0000    85.4330     6.0250     5.4990     5.9900    24.5320     2.2530   -13.9780 
   69.1250    93.8550     5.8240     5.3310     5.8240    24.5710     2.2630   -14.0480 
   69.2500    99.4150     5.6940     5.2040     5.6310    24.6140     2.2770   -14.0780 
   69.3750    98.0940     5.7170     5.1830     5.4990    24.6180     2.2890   -14.0630 
   69.5000    91.9670     5.9150     5.2990     5.4940    24.6000     2.2940   -14.0010 
   69.6250    87.3230     6.2320     5.5300     5.6940    24.5810     2.2880   -13.8810 
   69.7500    86.2760     6.5140     5.7630     5.9600    24.5700     2.2760   -13.7180 
   69.8750    86.3350     6.6330     5.8960     6.2110    24.5780     2.2670   -13.5270 
   70.0000    86.2610     6.5200     5.8550     6.3420    24.5930     2.2650   -13.3120 
   70.1250    87.3010     6.1690     5.6120     6.0810    24.5670     2.2760   -13.0610 
   70.2500    90.2980     5.7350     5.2760     5.5690    24.4990     2.2960   -12.7860 
   70.3750    93.6460     5.3440     4.9460     5.0960    24.4060     2.3210   -12.4970 
