~V
VERS. 2.00: Ver 2.00
~W
STRT.M 49.0000:
STOP.M 217.0000:
STEP.M 0.1250:
NULL. -999.2500:
UWI. F10685:
~C
DEPT.M :
SP.MV :
DEN.GM/CC :
GR.API :
RML.OHMM :
RI. :
RXO.OHMM :
CALI.CM :
~A
# ...
  161.5000    -6.7140     2.2290    62.4530    26.2480    24.4080    22.2680    24.0690 
  161.6250    -6.7780     2.2140    59.3000    26.9800    24.5100    22.1570    23.9780 
  161.7500    -6.8150     2.2030    55.2040    27.8990    24.6030    21.3310    23.8880 
  161.8750    -6.8190     2.2080    52.4600    28.3430    24.5200    20.4790    23.9050 
  162.0000    -6.7870     2.2300    52.1040    27.9770    24.1300    21.2890    23.9660 
  162.1250    -6.7540     2.2630    53.3100    26.9010    23.3740    22.7510    23.9280 
  162.2500    -6.6990     2.2890    54.7140    25.7400    22.4740    22.1940    24.1150 
  162.3750    -6.6570     2.2980    56.6330    24.9060    21.6810    19.6540    24.4110 
  162.5000    -6.6890     2.2890    58.6140    24.5150    21.2440    18.3950    24.4540 
  162.6250    -6.7470     2.2700    58.3480    24.6210    21.4470    19.6650    24.5900 
  162.7500    -6.8480     2.2530    57.8410    25.1980    22.2760    21.7130    24.4970 
  162.8750    -7.0080     2.2400    58.9340    26.3050    23.6850    23.2290    24.5190 
  163.0000    -7.1720     2.2260    60.3110    27.9560    25.4970    24.8200    24.5710 
  163.1250    -7.3430     2.2090    59.2660    30.1550    27.3990    26.3010    24.5950 
  163.2500    -7.5100     2.1890    58.9360    32.5740    29.0590    27.6780    24.6010 
  163.3750    -7.6320     2.1700    60.5130    34.8000    30.3280    29.2930    24.5910 
  163.5000    -7.7150     2.1590    60.3050    36.4510    31.1840    30.6770    24.6100 
  163.6250    -7.7830     2.1640    57.1810    37.2680    31.6010    30.3820    24.7420 
  163.7500    -7.8310     2.1830    55.4460    37.6000    31.7230    28.8340    24.8910 
  163.8750    -7.8370     2.2060    54.9470    37.8070    31.6350    28.0990    24.9890 
  164.0000    -7.8800     2.2240    53.7680    38.0540    31.4190    28.5390    24.9610 
  164.1250    -7.9160     2.2310    53.4710    38.1630    31.1650    28.7210    24.5940 
  164.2500    -7.9620     2.2320    55.4910    38.0140    30.9690    28.4410    24.2360 
  164.3750    -8.0260     2.2290    58.1710    37.6610    30.8960    28.2350    24.1800 
  164.5000    -8.0750     2.2260    58.7540    37.1740    30.9770    27.9180    24.1070 
  164.6250    -8.1010     2.2210    58.4080    36.5690    31.2340    27.9140    24.0860 
  164.7500    -8.1210     2.2170    58.9050    35.9510    31.6220    28.3190    24.0310 
  164.8750    -8.1590     2.2160    59.1120    35.2330    31.9920    28.3760    23.9470 
  165.0000    -8.1360     2.2220    58.0050    34.1780    31.9520    28.0470    23.9200 
  165.1250    -8.0840     2.2410    56.0780    32.3380    30.8000    27.6760    23.9130 
  165.2500    -8.0200     2.2690    57.1070    29.7040    28.5230    27.3710    23.9060 
  165.3750    -7.9190     2.3010    59.5380    26.5260    25.5150    25.2910    23.8990 
  165.5000    -7.8430     2.3300    59.9410    24.6960    22.4510    20.3280    23.8870 
  165.6250    -7.7760     2.3450    59.7460    22.0510    20.0460    16.0850    23.8380 
  165.7500    -7.6840     2.3460    61.9900    20.2590    18.4170    15.2340    23.7500 
  165.8750    -7.6020     2.3350    63.4930    19.1960    17.4510    15.7030    23.6940 
  166.0000    -7.5380     2.3160    61.9660    18.6240    16.9310    15.9180    23.6720 
  166.1250    -7.5030     2.2920    60.5760    18.3120    16.6470    15.8150    23.5810 
  166.2500    -7.4950     2.2670    61.1410    18.0320    16.3930    15.2510    23.4360 
  166.3750    -7.5380     2.2430    60.7520    17.7660    16.1510    14.4960    23.3600 
  166.5000    -7.5930     2.2220    59.5920    17.6310    16.0280    14.8070    23.4710 
  166.6250    -7.6750     2.2060    61.6520    17.8610    16.2370    15.7740    23.7020 
  166.7500    -7.8220     2.1930    63.8160    18.5330    16.8480    16.0210    24.2150 
  166.8750    -8.0000     2.1810    62.4860    19.6970    17.9070    16.0160    24.4650 
  167.0000    -8.2210     2.1720    58.7910    21.3360    19.3970    17.1970    24.5340 
  167.1250    -8.4610     2.1700    56.9360    23.3610    21.2380    20.1930    24.5790 
  167.2500    -8.7130     2.1790    57.7620    25.4520    23.1380    22.8620    24.5910 
  167.3750    -8.9460     2.2010    58.8920    27.3050    24.8230    24.0260    24.5840 
  167.5000    -9.1800     2.2290    60.1300    28.6380    26.0340    24.7080    24.5620 
  167.6250    -9.4300     2.2470    61.9790    29.2350    26.5770    25.0030    24.4240 
  167.7500    -9.6340     2.2450    61.8630    29.3750    26.7040    24.8170    24.1520 
  167.8750    -9.8250     2.2210    60.4250    29.3470    26.6790    24.1880    23.8440 
  168.0000   -10.0040     2.1900    61.0110    29.4190    26.7450    24.2100    23.7230 
  168.1250   -10.1550     2.1710    63.9690    29.8320    27.1200    25.5890    23.5760 
  168.2500   -10.2970     2.1720    64.5330    30.5050    27.7320    26.9960    23.5730 
  168.3750   -10.4160     2.1880    61.6420    31.1590    28.3270    27.7460    23.6750 
  168.5000   -10.5040     2.2060    58.4400    31.4210    28.5640    28.4530    23.6320 
  168.6250   -10.5670     2.2140    56.6910    30.9420    28.1290    28.6350    23.2940 
  168.7500   -10.5990     2.2140    56.8870    29.9730    27.2480    26.4470    23.2360 
  168.8750   -10.6120     2.2130    58.7620    28.9080    26.2800    22.3490    23.5950 
  169.0000   -10.6080     2.2180    60.4090    28.1700    25.6090    19.6100    24.4480 
  169.1250   -10.6140     2.2300    59.0450    28.1450    25.5860    22.6710    24.7750 
  169.2500   -10.6140     2.2410    57.6810    28.6990    26.0900    25.4030    24.9340 
  169.3750   -10.6460     2.2430    58.2920    29.5370    26.8510    26.5670    24.7900 
  169.5000   -10.7120     2.2350    59.8180    30.2140    27.4670    26.3660    24.6950 
  169.6250   -10.7770     2.2230    61.2480    30.2090    27.4630    26.2330    24.6540 
  169.7500   -10.9130     2.2230    63.4870    29.6270    26.9340    25.5770    24.6040 
  169.8750   -11.0810     2.2520    65.2110    28.8780    26.2520    24.7540    24.6220 
  170.0000   -11.2790     2.3160    62.9870    28.4080    25.8250    24.1950    24.6730 
  170.1250   -11.5300     2.4040    59.1780    28.5230    25.9300    22.4020    24.6920 
  170.2500   -11.8220     2.4720    58.6110    29.0850    26.4410    23.2190    24.7140 
  170.3750   -12.1570     2.4870    58.0620    29.9100    27.1910    25.9940    24.6290 
  170.5000   -12.5430     2.4380    54.4240    30.7530    27.9570    26.6440    24.3540 
  170.6250   -13.0070     2.3490    51.9310    31.3230    28.4760    24.6360    23.6980 
  170.7500   -13.4430     2.2590    55.4910    31.5650    28.6960    24.3430    23.4540 
  170.8750   -13.8560     2.1880    62.8160    31.5900    28.7180    25.8170    23.1210 
  171.0000   -14.2700     2.1430    67.2410    31.6400    28.7640    26.6410    22.9430 
  171.1250   -14.5900     2.1300    65.3210    32.0810    29.1650    25.8610    22.9350 
  171.2500   -14.8710     2.1420    60.8310    33.0810    30.0730    25.9370    23.1440 
  171.3750   -15.0920     2.1740    58.6030    34.6600    31.5090    28.4920    23.5570 
  171.5000   -15.2280     2.2180    59.7140    36.6520    33.3200    33.2840    23.8740 
  171.6250   -15.3080     2.2610    60.3060    38.6640    35.1490    35.6620    24.0020 
  171.7500   -15.3780     2.2890    59.9430    40.1990    36.5450    37.1080    24.1760 
  171.8750   -15.4660     2.2970    59.9060    40.9050    37.1860    37.6030    24.1850 
  172.0000   -15.5520     2.2890    60.5070    40.7030    37.0020    34.7530    24.0360 
  172.1250   -15.7060     2.2720    59.9210    39.7910    36.1730    30.9280    24.0670 
  172.2500   -15.8900     2.2600    57.8950    38.7060    35.1870    29.7370    24.2480 
  172.3750   -16.0840     2.2570    56.6880    37.7290    34.3000    29.7340    24.4440 
  172.5000   -16.3330     2.2640    56.8850    37.0060    33.6420    30.1040    24.4690 
  172.6250   -16.6550     2.2730    57.7830    36.5900    33.2640    30.1680    24.3650 
