~V
VERS. 2.00: Ver 2.00
~W
STRT.M 57.0000:
STOP.M 248.0000:
STEP.M 0.1250:
NULL. -999.2500:
UWI. F10637:
~C
DEPT.M :
SP.MV :
GR.API :
RML.OHMM :
RI. :
RXO.OHMM :
CALI.CM :
DEN.GM/CC :
~A
# ...
  124.5000   -11.1070    86.3010     7.2580     6.5420     6.1740    23.1530     2.3210 
  124.6250   -11.1120    83.6640     7.1490     6.4260     6.2620    23.2130     2.3220 
  124.7500   -11.1460    83.0700     6.9350     6.1610     6.2500    23.3520     2.3170 
  124.8750   -11.1910    82.1550     6.8140     5.9260     6.1400    23.4600     2.3100 
  125.0000   -11.2290    78.8010     6.9960     5.8970     5.9890    23.5070     2.3020 
  125.1250   -11.2530    74.1830     7.7010     6.2500     6.2440    23.5280     2.3020 
  125.2500   -11.2480    71.4450     9.2760     7.2660     6.9790    23.5790     2.3180 
  125.3750   -11.2020    69.6880    11.6900     8.9790    14.1200    23.6760     2.3430 
  125.5000   -11.0990    65.3270    14.7140    11.3360    22.0610    23.8040     2.3620 
  125.6250   -10.9330    58.7110    17.6480    13.9270    25.5200    23.7910     2.3550 
  125.7500   -10.6850    56.4220    19.1250    15.6720    22.5280    23.6120     2.3110 
  125.8750   -10.3680    59.2770    18.8190    15.9860    17.5570    23.4620     2.2530 
  126.0000    -9.9920    62.4160    17.3910    15.1860    11.3800    23.4640     2.2050 
  126.1250    -9.5680    62.6140    15.9250    14.0880     9.8340    23.5130     2.1820 
  126.2500    -9.1020    61.5560    15.3010    13.4360    10.0570    23.5340     2.1820 
  126.3750    -8.6250    60.6570    15.5060    13.3750    10.6290    23.5240     2.1850 
  126.5000    -8.1640    59.5590    16.2580    13.7890    12.7150    23.5130     2.1790 
  126.6250    -7.7340    58.7730    17.0820    14.3800    14.7760    23.5090     2.1670 
  126.7500    -7.3440    59.5180    17.3210    14.6560    14.3310    23.4960     2.1580 
  126.8750    -6.9980    61.5800    16.8220    14.3990    13.3280    23.4750     2.1630 
  127.0000    -6.6980    64.9960    15.8930    13.7580    11.9010    23.4950     2.1810 
  127.1250    -6.4460    68.7300    15.1500    13.1400    11.3950    23.5870     2.2030 
  127.2500    -6.2350    69.3800    15.3630    13.1080    11.5230    23.7480     2.2110 
  127.3750    -6.0370    66.5770    16.6790    13.8750    13.1460    23.9110     2.1990 
  127.5000    -5.8300    61.0790    18.9650    15.4760    16.0630    24.0100     2.1720 
  127.6250    -5.6090    55.4790    21.7150    17.6720    20.0440    24.0460     2.1430 
  127.7500    -5.3810    52.9020    23.9340    19.7850    22.3360    24.0510     2.1240 
  127.8750    -5.1620    53.8350    24.9420    21.0810    21.7840    24.0510     2.1160 
  128.0000    -4.9550    56.5630    24.7880    21.3730    18.4920    24.0510     2.1160 
  128.1250    -4.7620    57.9430    24.1450    21.0470    15.2930    24.0500     2.1180 
  128.2500    -4.5920    56.3600    23.8860    20.7750    15.5080    24.0520     2.1220 
  128.3750    -4.4440    53.7060    24.2680    20.9300    17.8140    24.0580     2.1270 
  128.5000    -4.3210    50.6230    25.1000    21.4880    19.8860    24.0510     2.1320 
  128.6250    -4.2190    48.9540    25.9680    22.1900    21.1260    24.0270     2.1340 
  128.7500    -4.1330    50.0080    26.3400    22.5980    21.0950    23.9810     2.1300 
  128.8750    -4.0590    51.7220    26.1260    22.5320    19.6260    23.9550     2.1280 
  129.0000    -3.9900    52.9660    25.5330    22.0990    17.6570    23.9770     2.1310 
  129.1250    -3.9250    54.4990    24.8900    21.5560    16.0160    24.0490     2.1400 
  129.2500    -3.8740    57.5180    24.4700    21.1560    15.0260    24.1470     2.1490 
  129.3750    -3.8360    58.7920    24.2780    20.9450    15.1970    24.2470     2.1510 
  129.5000    -3.8110    56.4330    24.2440    20.8860    17.1160    24.3580     2.1450 
  129.6250    -3.7980    53.3540    24.2890    20.9140    18.5570    24.4500     2.1370 
  129.7500    -3.7920    53.2080    24.3840    20.9950    17.4740    24.4650     2.1370 
  129.8750    -3.7860    54.8360    24.5680    21.1430    15.6830    24.3470     2.1480 
  130.0000    -3.7790    57.2500    24.9230    21.4230    14.9530    24.1160     2.1640 
  130.1250    -3.7670    58.0330    25.4910    21.8810    16.6270    23.9740     2.1780 
  130.2500    -3.7410    55.3900    26.2270    22.5070    18.0900    24.0560     2.1870 
  130.3750    -3.7110    52.0720    26.9390    23.1400    17.8120    24.2550     2.1880 
  130.5000    -3.6890    50.2240    27.4730    23.6330    16.5620    24.4250     2.1810 
  130.6250    -3.6890    50.7620    27.7410    23.8830    15.5610    24.3700     2.1640 
  130.7500    -3.7270    52.3210    27.7560    23.8670    14.6900    23.9640     2.1430 
  130.8750    -3.7980    53.9700    27.6950    23.7390    14.0460    23.4300     2.1250 
  131.0000    -3.9040    53.5520    27.6450    23.5920    14.1610    23.1030     2.1170 
  131.1250    -4.0470    50.8930    27.6080    23.4550    15.8170    23.2870     2.1220 
  131.2500    -4.2350    51.7660    27.5080    23.2890    17.8250    23.8000     2.1340 
  131.3750    -4.4560    55.7070    27.2680    23.0410    18.5150    24.1730     2.1420 
  131.5000    -4.6970    57.8060    26.8420    22.6730    17.6270    24.3520     2.1460 
  131.6250    -4.9430    55.8530    26.2720    22.2020    16.1650    24.3870     2.1460 
  131.7500    -5.1730    53.0080    25.7180    21.7310    15.1790    24.3700     2.1470 
  131.8750    -5.3730    52.8840    25.3510    21.3870    14.4670    24.2990     2.1500 
  132.0000    -5.5320    54.0840    25.2630    21.2480    13.9470    24.1800     2.1560 
  132.1250    -5.6450    53.6380    25.4610    21.3320    13.5030    24.1250     2.1650 
  132.2500    -5.7100    52.7540    25.8380    21.5950    12.8010    24.1040     2.1740 
  132.3750    -5.7430    53.4260    26.1300    21.8460    12.4720    23.9800     2.1800 
  132.5000    -5.7520    54.2700    26.1320    21.9180    12.4810    23.7830     2.1790 
  132.6250    -5.7510    53.8900    25.7590    21.7150    12.6740    23.6910     2.1710 
  132.7500    -5.7630    53.9060    25.1090    21.2640    12.4640    23.7690     2.1540 
  132.8750    -5.8050    55.4550    24.5250    20.8070    11.4620    23.9220     2.1350 
  133.0000    -5.9000    55.8080    24.2400    20.5330    10.4070    23.9610     2.1270 
  133.1250    -6.0540    54.4380    24.3360    20.5350    10.3910    23.7440     2.1440 
  133.2500    -6.2630    54.0070    24.7180    20.7900    12.3380    23.3050     2.1970 
  133.3750    -6.5100    56.0850    25.0800    21.0850    16.3480    23.0580     2.2580 
  133.5000    -6.7950    59.0140    25.2010    21.2450    20.0450    23.1150     2.2970 
  133.6250    -7.1050    59.0730    24.9740    21.1580    16.5730    23.4290     2.2960 
  133.7500    -7.4240    58.0130    24.4430    20.8090    12.5170    23.6770     2.2620 
  133.8750    -7.7380    59.2830    23.8960    20.3890    10.9660    23.7260     2.2280 
  134.0000    -8.0220    60.9170    23.5610    20.0740    10.7330    23.6840     2.2060 
  134.1250    -8.2610    58.3660    23.5870    19.9940    11.0290    23.7520     2.1910 
  134.2500    -8.4490    53.5070    24.0610    20.2490    11.3150    24.0130     2.1700 
  134.3750    -8.6010    52.3740    24.8100    20.7420    11.7060    24.1840     2.1450 
  134.5000    -8.7140    55.1130    25.6280    21.3510    12.2660    24.0250     2.1230 
  134.6250    -8.7970    58.8060    26.2190    21.8830    13.1820    23.7300     2.1100 
  134.7500    -8.8600    61.0720    26.1130    21.9990    14.2490    23.4960     2.1040 
  134.8750    -8.9240    63.0970    25.2290    21.5590    14.4930    23.3340     2.0980 
  135.0000    -9.0140    64.5110    23.8100    20.6430    13.7470    23.2330     2.0910 
  135.1250    -9.1570    63.0510    22.5460    19.6580    12.2170    23.2590     2.0820 
  135.2500    -9.3780    57.9650    22.7140    19.4460    10.9940    23.4790     2.0790 
  135.3750    -9.6660    54.2410    24.8340    20.5680    10.7230    23.8630     2.0980 
  135.5000   -10.0290    54.2480    28.6990    23.2010    12.1120    24.2290     2.1580 
  135.6250   -10.4660    54.5140    32.9340    26.7070    17.5630    24.6180     2.2680 
