~V
VERS. 2.00: Ver 2.00
~W
STRT.M 48.0000:
STOP.M 229.0000:
STEP.M 0.1250:
NULL. -999.2500:
UWI. F10623:
~C
DEPT.M :
GR.API :
RML.OHMM :
RI. :
RXO.OHMM :
CALI.CM :
DEN.GM/CC :
SP.MV :
~A
# ...
   70.5000    94.3670     5.0890     4.7060     4.8000    24.2840     2.3460   -12.2110 
   70.6250    92.3810     5.0320     4.6250     4.6720    24.0950     2.3640   -11.9450 
   70.7500    90.7040     5.1230     4.6840     4.6460    23.8240     2.3710   -11.7030 
   70.8750    90.2100     5.3110     4.8550     4.7210    23.5510     2.3630   -11.5040 
   71.0000    90.9880     5.5390     5.0930     4.8440    23.3720     2.3420   -11.3410 
   71.1250    91.4900     5.7580     5.3510     4.9100    23.3050     2.3120   -11.2230 
   71.2500    88.0590     5.9440     5.5860     5.0040    23.2910     2.2820   -11.1370 
   71.3750    82.1470     6.0950     5.7820     5.0840    23.3100     2.2610   -11.0820 
   71.5000    80.0470     6.2170     5.9310     5.0380    23.3450     2.2490   -11.0530 
   71.6250    83.3480     6.3090     6.0180     4.9360    23.3560     2.2480   -11.0310 
   71.7500    84.5360     6.3520     6.0320     4.9680    23.3400     2.2540   -11.0100 
   71.8750    82.6540     6.3050     5.9430     5.1180    23.3120     2.2630   -10.9820 
   72.0000    82.0480     6.1190     5.7220     5.1570    23.3300     2.2770   -10.9640 
   72.1250    85.1040     5.7420     5.3400     4.9970    23.4760     2.2920   -10.9640 
   72.2500    89.3030     5.2480     4.8670     4.8290    23.6960     2.3050   -10.9740 
   72.3750    93.4760     4.7640     4.3920     4.6290    23.9090     2.3160   -11.0030 
   72.5000    97.5380     4.5040     4.0600     4.5250    24.0740     2.3280   -11.0340 
   72.6250   100.0770     4.9160     4.1740     4.5720    24.1040     2.3480   -11.1000 
   72.7500    98.2060     6.2860     4.9810     5.4430    24.0010     2.3870   -11.2230 
   72.8750    92.3350     8.7910     6.7000     7.8450    23.7370     2.4440   -11.3870 
   73.0000    84.2660    12.2440     9.3300    12.5650    23.4130     2.5110   -11.5720 
   73.1250    74.4210    15.8500    12.4540    18.2830    23.1670     2.5620   -11.7730 
   73.2500    65.2180    18.3580    15.0600    23.1920    23.0100     2.5700   -12.0050 
   73.3750    60.0590    18.8670    16.2600    24.5020    22.9260     2.5270   -12.2650 
   73.5000    59.2440    17.3160    15.7090    19.7510    22.9280     2.4430   -12.5460 
   73.6250    59.8550    14.7610    13.9520    14.3230    23.0630     2.3470   -12.8150 
   73.7500    60.5370    12.7070    12.2650    11.3450    23.3510     2.2670   -13.0330 
   73.8750    60.5820    11.5810    11.1410    10.5390    23.7500     2.2130   -13.1860 
   74.0000    60.0820    11.2500    10.6150    10.5470    24.2590     2.1860   -13.2820 
   74.1250    61.3980    11.4310    10.5620    10.7210    24.7650     2.1800   -13.3400 
   74.2500    63.7120    11.7420    10.6950    10.8480    25.0610     2.1820   -13.3440 
   74.3750    63.2910    12.0200    10.8710    10.9720    25.1680     2.1850   -13.2870 
   74.5000    60.8290    12.2030    11.0130    11.0280    25.1950     2.1880   -13.1940 
   74.6250    62.0370    12.2950    11.1000    11.1020    25.2430     2.1870   -13.0860 
   74.7500    65.6670    12.3530    11.1590    11.2480    25.3280     2.1850   -12.9680 
   74.8750    66.5740    12.4050    11.2110    11.4820    25.4300     2.1810   -12.8550 
   75.0000    64.7780    12.4590    11.2630    11.7100    25.5380     2.1780   -12.7610 
   75.1250    63.8500    12.5040    11.3130    11.8850    25.6530     2.1790   -12.6560 
   75.2500    64.9920    12.5270    11.3520    11.9620    25.7030     2.1850   -12.5520 
   75.3750    65.9170    12.5230    11.3770    11.8390    25.7060     2.1950   -12.4510 
   75.5000    64.7120    12.4980    11.3900    11.5770    25.7390     2.2040   -12.3500 
   75.6250    61.9540    12.4490    11.3800    11.3140    25.8460     2.2080   -12.2430 
   75.7500    59.2820    12.3510    11.3230    11.1280    26.0250     2.2040   -12.1250 
   75.8750    59.0350    12.1470    11.1660    10.9470    26.2220     2.1950   -11.9990 
   76.0000    62.0980    11.7550    10.8410    10.7680    26.3410     2.1810   -11.8560 
   76.1250    66.2330    11.0650    10.2470    10.4200    26.3090     2.1670   -11.6990 
   76.2500    67.7820    10.1270     9.4230     9.7090    26.2350     2.1580   -11.5220 
   76.3750    66.2800     9.0330     8.4450     8.7330    26.1240     2.1620   -11.3240 
   76.5000    66.1850     7.9340     7.4400     7.6790    25.8300     2.1850   -11.1210 
   76.6250    70.6890     7.0360     6.5810     6.6360    25.2170     2.2280   -10.9120 
   76.7500    77.0630     6.4410     5.9610     5.7740    24.6040     2.2770   -10.7240 
   76.8750    82.7840     6.2000     5.6320     5.3510    24.2470     2.3160   -10.5840 
   77.0000    86.2440     6.3090     5.6050     5.3500    24.0620     2.3360   -10.4940 
   77.1250    84.5810     6.7500     5.8870     5.6570    23.9230     2.3330   -10.4790 
   77.2500    80.4210     7.3550     6.3490     6.0600    23.8120     2.3170   -10.5290 
   77.3750    76.3090     7.9880     6.8860     6.5200    23.7170     2.2950   -10.6340 
   77.5000    72.4750     8.5140     7.3800     7.0100    23.6370     2.2730   -10.7800 
   77.6250    69.2130     8.7920     7.6990     7.1990    23.5420     2.2500   -10.9670 
   77.7500    69.3380     8.8400     7.8250     7.2970    23.5220     2.2290   -11.1640 
   77.8750    72.7010     8.7080     7.7840     7.3700    23.7050     2.2110   -11.3330 
   78.0000    75.3450     8.4850     7.6380     7.3200    24.0130     2.1970   -11.4620 
   78.1250    73.4360     8.2590     7.4600     7.1160    24.0570     2.1920   -11.5650 
   78.2500    71.1660     8.0880     7.3130     6.8300    23.7720     2.1940   -11.6420 
   78.3750    72.3350     7.9940     7.2180     6.5740    23.3170     2.2000   -11.6910 
   78.5000    75.4940     7.9830     7.1880     6.4120    22.9640     2.2080   -11.7110 
   78.6250    76.9870     8.0700     7.2400     6.3890    22.8020     2.2150   -11.6930 
   78.7500    75.8230     8.2280     7.3600     6.4690    22.7590     2.2190   -11.6470 
   78.8750    73.8920     8.4170     7.5290     6.6790    22.8660     2.2200   -11.5910 
   79.0000    71.4770     8.5620     7.6920     7.0350    23.1890     2.2160   -11.5280 
   79.1250    69.4150     8.5250     7.7330     7.4950    23.7360     2.2070   -11.4180 
   79.2500    69.6220     8.2500     7.5820     7.8300    24.2900     2.1960   -11.2850 
   79.3750    73.7680     7.7510     7.2250     7.8740    24.7140     2.1920   -11.1520 
   79.5000    81.1570     7.1380     6.7310     7.4050    24.9080     2.2020   -11.0110 
   79.6250    86.5630     6.6070     6.2500     6.4450    24.9000     2.2270   -10.8740 
   79.7500    88.4620     6.2950     5.9130     5.6120    24.7790     2.2590   -10.7480 
   79.8750    86.9520     6.2160     5.7600     5.3990    24.6500     2.2850   -10.6270 
   80.0000    82.4620     6.2810     5.7450     5.6890    24.5530     2.2980   -10.5160 
   80.1250    77.5040     6.3200     5.7550     5.9950    24.5050     2.2960   -10.4450 
   80.2500    77.8850     6.2140     5.6790     6.0010    24.4660     2.2920   -10.3880 
   80.3750    83.1510     5.9680     5.4960     5.6970    24.4270     2.2940   -10.3250 
   80.5000    86.3990     5.6990     5.2720     5.2040    24.3870     2.3050   -10.2560 
   80.6250    85.4340     5.6300     5.1680     4.9400    24.3720     2.3180   -10.2070 
   80.7500    83.7810     5.8680     5.2890     5.1460    24.4040     2.3250   -10.1710 
   80.8750    82.7310     6.4130     5.6690     5.7590    24.4400     2.3200   -10.1400 
   81.0000    81.2740     7.1600     6.2600     6.6390    24.4700     2.3020   -10.1210 
   81.1250    77.8040     7.9210     6.9420     7.3230    24.5530     2.2760   -10.1110 
   81.2500    71.8200     8.5310     7.5530     7.7650    24.6650     2.2510   -10.1050 
   81.3750    66.0800     8.9460     8.0190     8.0240    24.7350     2.2320   -10.0910 
   81.5000    65.9720     9.2400     8.3560     8.0800    24.7310     2.2220   -10.0600 
   81.6250    72.7350     9.5840     8.6720     8.1400    24.6980     2.2230    -9.9990 
