~V
VERS. 2.00: Ver 2.00
~W
STRT.M 50.0000:
STOP.M 263.0000:
STEP.M 0.1250:
NULL. -999.2500:
UWI. F10656:
~C
DEPT.M :
DEN.GM/CC :
GR.API :
RML.OHMM :
RI. :
RXO.OHMM :
CALI.CM :
SP.MV :
~A
# ...
  128.7500     2.1790    58.9630     9.5590     8.9910    11.3680    23.1130   -10.9920 
  128.8750     2.1840    57.5310     9.6340     9.0930    11.6130    23.1220   -10.9420 
  129.0000     2.1870    58.4060     9.7250     9.2120    11.9330    23.1760   -10.8460 
  129.1250     2.1870    60.0540     9.8300     9.3430    12.2030    23.1850   -10.7300 
  129.2500     2.1870    59.1640     9.9280     9.4630    12.4050    23.1370   -10.6230 
  129.3750     2.1880    56.5110     9.9820     9.5340    12.3790    23.0800   -10.4750 
  129.5000     2.1910    54.7230     9.9320     9.5030    11.9030    23.0460   -10.2840 
  129.6250     2.1950    56.7140     9.6800     9.2780    11.4170    23.0480    -9.9790 
  129.7500     2.2010    61.1030     9.2220     8.8540    10.9170    23.0560    -9.5790 
  129.8750     2.2100    66.3720     8.5930     8.2550    10.2800    23.0510    -9.1060 
  130.0000     2.2240    71.8250     7.8860     7.5620     9.5240    23.0400    -8.6060 
  130.1250     2.2470    75.5850     7.2600     6.9160     8.7750    23.0620    -8.1220 
  130.2500     2.2720    78.0050     6.8420     6.4380     8.0470    23.0950    -7.7760 
  130.3750     2.2910    79.6720     6.7140     6.2080     7.5670    23.1210    -7.5900 
  130.5000     2.2990    79.1950     6.9140     6.2680     7.4730    23.1250    -7.5740 
  130.6250     2.2920    76.0270     7.4750     6.6690     7.8870    23.1050    -7.7510 
  130.7500     2.2780    70.9420     8.2670     7.3160     8.7240    23.0690    -8.0660 
  130.8750     2.2630    65.9220     9.1730     8.1240     9.8370    23.0360    -8.4580 
  131.0000     2.2520    62.9240    10.0510     8.9730    10.9210    23.0190    -8.8810 
  131.1250     2.2440    61.5910    10.7150     9.6980    11.9660    23.0140    -9.2820 
  131.2500     2.2340    60.3210    11.0960    10.1980    12.7170    23.0120    -9.5730 
  131.3750     2.2240    59.5370    11.1880    10.4360    13.1140    23.0050    -9.7500 
  131.5000     2.2140    61.7950    11.0530    10.4420    13.1130    22.9870    -9.8080 
  131.6250     2.2070    66.4640    10.7990    10.2870    12.8300    22.9380    -9.7730 
  131.7500     2.2020    67.2930    10.5650    10.1030    12.4710    22.8470    -9.6340 
  131.8750     2.1980    63.8710    10.4250     9.9630    12.2350    22.7160    -9.4500 
  132.0000     2.1940    62.0040    10.3920     9.9030    12.1320    22.5460    -9.2040 
  132.1250     2.1870    65.7630    10.4340     9.9200    12.0100    22.3660    -8.8840 
  132.2500     2.1790    68.2050    10.4530     9.9360    11.7750    22.1990    -8.4960 
  132.3750     2.1700    65.4380    10.3610     9.8600    11.4790    22.0850    -8.0310 
  132.5000     2.1630    61.9050    10.0690     9.6050    11.1560    22.1850    -7.5010 
  132.6250     2.1640    62.4810     9.5570     9.0900    10.6690    22.5500    -6.8280 
  132.7500     2.1750    63.9650     8.9370     8.4100     9.9540    22.8470    -6.0910 
  132.8750     2.1980    66.9030     8.2910     7.6880     9.0280    22.9940    -5.2760 
  133.0000     2.2320    74.2690     7.6440     7.0640     8.0950    23.1030    -4.4740 
  133.1250     2.2710    82.8350     7.2230     6.6900     7.5620    23.2350    -3.6970 
  133.2500     2.3090    84.9160     7.0740     6.5590     7.6100    23.3150    -2.9540 
  133.3750     2.3400    79.9270     7.0830     6.6220     7.9570    23.3050    -2.2890 
  133.5000     2.3640    75.3680     7.2340     6.7800     8.3300    23.2480    -1.7330 
  133.6250     2.3780    75.6710     7.4280     6.8910     8.4820    23.1790    -1.3410 
  133.7500     2.3880    77.6800     7.5090     6.8600     8.3850    23.1180    -1.0770 
  133.8750     2.3930    78.9010     7.4010     6.6650     8.3230    23.0860    -0.9230 
  134.0000     2.3930    80.1380     7.1230     6.3540     8.1500    23.1090    -0.7750 
  134.1250     2.3870    83.5180     6.7100     6.0190     7.3980    23.1640    -0.6440 
  134.2500     2.3750    85.4400     6.4160     5.7550     6.7980    23.2230    -0.5580 
  134.3750     2.3620    84.9100     6.2650     5.5990     6.4810    23.2740    -0.5330 
  134.5000     2.3500    83.9880     6.2350     5.5520     6.4400    23.3370    -0.5130 
  134.6250     2.3390    84.3180     6.2760     5.5820     6.4940    23.4040    -0.5100 
  134.7500     2.3260    84.7490     6.3040     5.6150     6.5280    23.4610    -0.5220 
  134.8750     2.3120    83.8880     6.2680     5.5990     6.5050    23.4980    -0.5390 
  135.0000     2.3020    86.3500     6.1430     5.5020     6.3850    23.5210    -0.5800 
  135.1250     2.3040    94.2920     5.9300     5.3130     6.1960    23.5420    -0.6270 
  135.2500     2.3190    97.9650     5.6770     5.0730     6.0050    23.5500    -0.6810 
  135.3750     2.3440    93.6240     5.4220     4.8170     5.8420    23.5520    -0.7200 
  135.5000     2.3720    86.9910     5.2100     4.5880     5.7460    23.5520    -0.7390 
  135.6250     2.3900    87.5510     5.1370     4.4590     5.7280    23.5520    -0.7390 
  135.7500     2.3950    90.6930     5.2950     4.4990     5.8570    23.5530    -0.7390 
  135.8750     2.3900    91.0900     5.8000     4.7980     6.1930    23.5550    -0.7250 
  136.0000     2.3840    89.0500     6.7240     5.4330     6.8550    23.5590    -0.7140 
  136.1250     2.3890    83.6680     8.0500     6.4570     8.2640    23.5680    -0.7420 
  136.2500     2.4060    75.9530     9.4570     7.6690    10.5820    23.5750    -0.7690 
  136.3750     2.4230    66.6380    10.6300     8.8340    13.3920    23.5640    -0.7320 
  136.5000     2.4240    60.8090    11.3400     9.7150    15.9760    23.5260    -0.6710 
  136.6250     2.3970    60.9500    11.6300    10.2030    17.1270    23.4810    -0.6070 
  136.7500     2.3580    61.4390    12.1330    10.6960    15.2380    23.4200    -0.5370 
  136.8750     2.3340    60.1510    13.5520    11.7650    13.2240    23.3380    -0.4990 
  137.0000     2.3510    60.0550    16.3800    13.9350    15.1030    23.2540    -0.4760 
  137.1250     2.4190    62.4810    20.7080    17.5520    21.6520    23.2420    -0.4140 
  137.2500     2.5060    61.4860    25.3700    21.8320    29.8890    23.2850    -0.3170 
  137.3750     2.5710    56.7450    29.0250    25.6700    36.7250    23.3430    -0.2260 
  137.5000     2.5820    53.1210    30.4180    27.8080    37.8480    23.3400    -0.0920 
  137.6250     2.5340    53.1930    28.8780    27.2290    31.2110    23.2880     0.0760 
  137.7500     2.4610    55.1920    26.1190    25.1570    23.4120    23.2680     0.2500 
  137.8750     2.3860    57.4340    23.6270    22.9180    18.8530    23.3360     0.4430 
  138.0000     2.3140    57.8150    22.1900    21.3740    17.3070    23.3830     0.6590 
  138.1250     2.2490    54.5860    22.0270    20.9030    17.3970    23.3330     0.9060 
  138.2500     2.1980    49.8430    22.6280    21.1830    17.9430    23.2900     1.1630 
  138.3750     2.1720    47.8470    23.6180    21.9360    18.4020    23.2290     1.3920 
  138.5000     2.1780    51.0120    24.6510    22.8590    18.4390    23.2100     1.5930 
  138.6250     2.2070    56.9760    25.3930    23.6320    18.4500    23.1520     1.7840 
  138.7500     2.2360    58.6500    25.7530    24.0990    18.8040    23.0280     1.9810 
  138.8750     2.2480    55.1000    25.7670    24.2330    19.1380    22.9290     2.1730 
  139.0000     2.2440    52.3530    25.5650    24.1120    19.3160    22.8730     2.3070 
  139.1250     2.2330    56.2140    25.3020    23.8520    19.2360    22.8430     2.3130 
  139.2500     2.2280    61.0450    25.0660    23.5740    19.1360    22.8240     2.2580 
  139.3750     2.2260    61.1240    24.8500    23.3060    18.8660    22.8070     2.2260 
  139.5000     2.2210    57.1170    24.6200    23.0390    18.4700    22.8070     2.1910 
  139.6250     2.2070    53.9550    24.3490    22.7510    18.3320    22.8090     2.1710 
  139.7500     2.1920    53.4870    24.0730    22.4590    18.1000    22.8140     2.1550 
  139.8750     2.1800    55.1130    23.8610    22.2140    17.8790    22.8150     2.1330 
