~V
VERS. 2.00: Ver 2.00
~W
STRT.M 50.0000:
STOP.M 263.0000:
STEP.M 0.1250:
NULL. -999.2500:
UWI. F10656:
~C
DEPT.M :
DEN.GM/CC :
GR.API :
RML.OHMM :
RI. :
RXO.OHMM :
CALI.CM :
SP.MV :
~A
# ...
  207.5000     2.4570    68.0870     9.2120     8.5120     8.1100    22.9620    -5.5540 
  207.6250     2.4880    69.3490     9.0890     8.3750     8.3440    22.8200    -5.3890 
  207.7500     2.5160    70.8560     8.9290     8.2200     8.5200    22.9310    -5.2340 
  207.8750     2.5320    71.6700     8.8290     8.0830     8.5790    22.9880    -5.0740 
  208.0000     2.5310    73.2520     8.8690     8.0340     8.7090    22.9400    -4.9070 
  208.1250     2.5090    76.8740     9.3140     8.2380     8.9600    22.8990    -4.7650 
  208.2500     2.4730    78.7690    10.2710     8.8310     9.5200    22.9690    -4.6910 
  208.3750     2.4290    75.0860    11.7980     9.9730    10.8260    23.2120    -4.6800 
  208.5000     2.3850    67.7480    13.9270    11.7690    13.0990    23.5240    -4.6870 
  208.6250     2.3480    63.2910    16.6160    14.2260    16.2380    23.7670    -4.6770 
  208.7500     2.3220    61.9620    19.2380    16.8350    19.7910    23.9310    -4.6600 
  208.8750     2.3100    61.0440    21.1120    18.9610    23.2880    24.0730    -4.6660 
  209.0000     2.3090    60.4450    21.6060    19.9140    26.2230    24.2100    -4.6690 
  209.1250     2.3130    60.8290    20.1990    19.0200    28.0540    24.3140    -4.6570 
  209.2500     2.3190    63.3180    17.6030    16.8340    26.6550    24.3620    -4.6170 
  209.3750     2.3280    66.9150    14.6100    14.0900    20.9150    24.3810    -4.5640 
  209.5000     2.3410    69.6670    11.9720    11.5310    14.5250    24.3870    -4.5230 
  209.6250     2.3600    71.4580    10.2940     9.7520    10.7150    24.3870    -4.5140 
  209.7500     2.3770    72.9420     9.5180     8.7720     9.1040    24.3860    -4.5320 
  209.8750     2.3860    73.5760     9.4980     8.5240     8.8880    24.3850    -4.5460 
  210.0000     2.3820    73.3110     9.9850     8.8480     9.5790    24.3870    -4.5780 
  210.1250     2.3700    72.8550    10.6630     9.5220    10.6910    24.3870    -4.6540 
  210.2500     2.3630    72.0060    11.1900    10.1840    11.6750    24.3840    -4.7670 
  210.3750     2.3640    70.0420    11.4030    10.6120    12.1720    24.3740    -4.8890 
  210.5000     2.3730    68.3760    11.3030    10.7230    12.1880    24.3590    -5.0050 
  210.6250     2.3810    68.8680    11.0600    10.5940    11.9280    24.3420    -5.1210 
  210.7500     2.3820    71.2290    10.9550    10.4880    11.5150    24.3410    -5.2430 
  210.8750     2.3720    74.5960    11.1460    10.5710    11.4100    24.3430    -5.3700 
  211.0000     2.3560    74.3230    11.6570    10.9070    11.9770    24.3440    -5.5110 
  211.1250     2.3420    68.0650    12.3980    11.4540    13.0040    24.3530    -5.6260 
  211.2500     2.3360    63.4130    13.1380    12.0290    13.9070    24.3620    -5.7130 
  211.3750     2.3410    64.3240    13.7300    12.4950    14.5120    24.3710    -5.7950 
  211.5000     2.3520    66.0840    14.1220    12.7850    14.7710    24.3680    -5.8530 
  211.6250     2.3640    64.2930    14.4130    12.9530    14.6420    24.3570    -5.8870 
  211.7500     2.3710    63.5850    14.8540    13.1990    14.4850    24.3210    -5.8960 
  211.8750     2.3710    66.3600    15.6580    13.7040    14.5590    24.2910    -5.8780 
  212.0000     2.3630    68.8640    16.9330    14.5860    15.3280    24.2610    -5.8040 
  212.1250     2.3490    67.3840    18.6490    15.9050    17.2070    24.1990    -5.6930 
  212.2500     2.3310    64.3730    20.4610    17.4390    19.4410    24.1200    -5.5600 
  212.3750     2.3090    62.5290    22.0520    18.9420    21.7510    24.0810    -5.4370 
  212.5000     2.2870    62.7420    23.1640    20.1490    23.7620    24.0970    -5.3470 
  212.6250     2.2650    62.0890    23.6160    20.7920    23.7720    24.1770    -5.2600 
  212.7500     2.2460    58.5820    23.6340    20.9660    23.2860    24.2640    -5.1540 
  212.8750     2.2310    56.4430    23.4360    20.8390    23.0610    24.3140    -5.0450 
  213.0000     2.2230    59.2110    23.2310    20.6100    22.8560    24.3220    -4.9560 
  213.1250     2.2260    65.5620    23.2000    20.4680    22.4700    24.3100    -4.8770 
  213.2500     2.2410    68.2120    23.3590    20.4760    22.1530    24.2950    -4.8220 
  213.3750     2.2660    67.4760    23.6570    20.6250    22.0740    24.2850    -4.7760 
  213.5000     2.2970    66.2990    23.9890    20.8560    22.1670    24.2820    -4.7180 
  213.6250     2.3260    65.0730    24.1970    21.0520    22.4440    24.2750    -4.6420 
  213.7500     2.3470    64.1810    24.1770    21.0880    22.7380    24.2400    -4.5780 
  213.8750     2.3570    64.2910    23.8860    20.8840    22.8420    24.1710    -4.5550 
  214.0000     2.3580    63.9880    23.3620    20.4380    22.7160    24.0690    -4.5530 
  214.1250     2.3530    63.0610    22.7410    19.8590    22.1450    23.9820    -4.5790 
  214.2500     2.3470    63.2180    22.2640    19.3840    21.5120    23.9290    -4.6140 
  214.3750     2.3440    64.4040    22.1500    19.2220    21.2700    23.9070    -4.6360 
  214.5000     2.3470    63.8260    22.5880    19.5530    21.5230    23.9260    -4.6570 
  214.6250     2.3570    60.1150    23.8210    20.6120    23.0280    24.0300    -4.7500 
  214.7500     2.3710    57.8090    25.7400    22.3280    25.8210    24.1680    -4.8800 
  214.8750     2.3810    58.3340    28.2530    24.6520    29.1710    24.3000    -5.0090 
  215.0000     2.3820    59.6320    31.1960    27.4700    32.1680    24.3670    -5.1510 
  215.1250     2.3700    60.0600    34.2560    30.5560    35.3130    24.3750    -5.2990 
  215.2500     2.3590    59.0430    36.8460    33.3720    38.7290    24.3650    -5.4600 
  215.3750     2.3650    57.2560    38.2240    35.2330    41.9180    24.3510    -5.6240 
  215.5000     2.4010    57.1750    37.5620    35.3150    45.6610    24.3340    -5.7620 
  215.6250     2.4690    61.1120    33.8660    32.5150    48.6180    24.3020    -5.7820 
  215.7500     2.5430    65.3790    28.0150    27.4320    49.5020    24.2610    -5.7250 
  215.8750     2.5960    66.6640    21.3380    21.2160    47.1650    24.2370    -5.5590 
  216.0000     2.6080    64.9750    15.2930    15.3220    35.8810    24.2380    -5.3100 
  216.1250     2.5790    61.4030    10.9910    10.9560    18.4040    24.2350    -5.0130 
  216.2500     2.5320    56.2380     8.1950     8.0130     9.0070    24.2240    -4.6810 
  216.3750     2.4840    51.7860     6.5680     6.2100     5.9340    24.2230    -4.3550 
  216.5000     2.4430    50.0200     5.7500     5.2250     5.2560    24.2200    -4.0890 
  216.6250     2.4140    49.5410     5.5020     4.8520     5.1730    24.2180    -3.9150 
  216.7500     2.3950    49.7860     5.5150     4.7890     5.1690    24.2080    -3.8090 
  216.8750     2.3880    51.7250     5.6790     4.9050     5.3080    24.2090    -3.7890 
  217.0000     2.3930    54.1900     5.9340     5.1170     5.6060    24.1800    -3.8390 
  217.1250     2.4070    54.0900     6.3130     5.3980     6.1070    24.0770    -3.9180 
  217.2500     2.4230    54.3240     6.7420     5.7340     6.5990    23.9550    -4.0160 
  217.3750     2.4340    58.0670     7.1160     6.1260     6.9480    23.8850    -4.1050 
  217.5000     2.4400    67.1650     7.4400     6.5570     7.1000    23.9050    -4.1500 
  217.6250     2.4420    78.8520     7.7480     6.9840     7.6420    24.0030    -4.1660 
  217.7500     2.4440    88.8680     8.0330     7.3510     8.3290    24.1170    -4.1440 
  217.8750     2.4480    96.6880     8.3460     7.6190     8.6300    24.2170    -4.1090 
  218.0000     2.4510   103.2280     8.6620     7.7770     8.3720    24.2680    -4.0470 
  218.1250     2.4470   108.5570     8.8630     7.8400     8.1990    24.2870    -3.9950 
  218.2500     2.4330   109.5980     8.9960     7.8660     8.2900    24.2950    -3.9430 
  218.3750     2.4120   107.5420     9.0970     7.8880     8.4900    24.2900    -3.8910 
  218.5000     2.3870   107.3100     9.1840     7.9130     8.6690    24.2680    -3.8570 
  218.6250     2.3660   108.2900     9.2480     7.9180     8.7610    24.2480    -3.8680 
