~V
VERS. 2.00: Ver 2.00
~W
STRT.M 52.0000:
STOP.M 239.0000:
STEP.M 0.1250:
NULL. -999.2500:
UWI. F10645:
~C
DEPT.M :
SP.MV :
GR.API :
RML.OHMM :
RI. :
RXO.OHMM :
CALI.CM :
DEN.GM/CC :
~A
# ...
  220.7500   -28.0250    82.1010     8.4340     7.3690     6.4800    23.8970     2.2800 
  220.8750   -27.9950    80.8270     7.9050     6.8200     5.6520    23.8730     2.2810 
  221.0000   -28.0650    77.7760     7.6060     6.4940     5.4880    23.8900     2.2860 
  221.1250   -28.2400    75.7980     7.4790     6.3320     5.7800    23.9200     2.2860 
  221.2500   -28.4750    77.9210     7.5230     6.3220     5.9740    23.9210     2.2740 
  221.3750   -28.7870    81.9930     7.7150     6.4380     5.8780    23.9280     2.2550 
  221.5000   -29.1310    84.8410     8.0680     6.6890     6.0800    23.9090     2.2410 
  221.6250   -29.5110    84.7400     8.5520     7.0590     6.7050    23.8720     2.2410 
  221.7500   -29.8050    84.5520     9.0370     7.4740     7.4660    23.7890     2.2550 
  221.8750   -29.9980    85.2720     9.3560     7.8050     8.4300    23.7330     2.2690 
  222.0000   -30.0390    84.8320     9.3970     7.9480     9.6920    23.7060     2.2740 
  222.1250   -29.8980    82.7970     9.1420     7.8560    10.2330    23.7200     2.2680 
  222.2500   -29.6340    79.7170     8.6710     7.5500     8.3540    23.7000     2.2580 
  222.3750   -29.3280    76.7020     8.1890     7.1690     7.0720    23.6060     2.2570 
  222.5000   -28.9580    73.9660     7.8180     6.8050     7.0330    23.5100     2.2690 
  222.6250   -28.4780    74.0030     7.6100     6.5100     7.2550    23.5750     2.2890 
  222.7500   -27.9750    77.8330     7.5520     6.3180     6.9890    23.7140     2.3060 
  222.8750   -27.5020    80.5130     7.5500     6.2050     6.2670    23.8220     2.3110 
  223.0000   -27.1120    79.7340     7.5650     6.1620     6.1140    23.7990     2.3040 
  223.1250   -26.8140    77.3470     7.6000     6.1890     6.4810    23.7120     2.2880 
  223.2500   -26.5330    75.0580     7.6630     6.2730     6.6960    23.6250     2.2720 
  223.3750   -26.2500    73.2900     7.7130     6.3410     6.3670    23.4550     2.2670 
  223.5000   -26.0220    72.6250     7.6740     6.3080     6.2670    23.2050     2.2780 
  223.6250   -25.8880    72.2050     7.4760     6.1170     6.3990    23.1650     2.3030 
  223.7500   -25.8440    69.6020     7.1380     5.7990     6.3760    23.5270     2.3260 
  223.8750   -25.8250    65.9480     6.8840     5.5360     5.7740    23.8300     2.3290 
  224.0000   -25.8470    65.4450     6.9670     5.5170     5.4630    23.9740     2.3060 
  224.1250   -25.9570    67.8540     7.5840     5.9030     5.9940    24.1080     2.2770 
  224.2500   -26.1850    69.1450     8.8930     6.8460     7.6340    24.1630     2.2840 
  224.3750   -26.4340    68.6160    10.5560     8.1460    10.5870    24.1610     2.3480 
  224.5000   -26.6370    67.2580    11.9940     9.4370    16.4880    24.1040     2.4470 
  224.6250   -26.8320    66.0110    12.4980    10.1850    21.6040    24.0880     2.5210 
  224.7500   -27.0350    66.1130    11.6790     9.9170    18.4710    24.1670     2.5110 
  224.8750   -27.2300    68.9380    10.3740     9.0700    11.2440    24.2810     2.4420 
  225.0000   -27.3600    73.8500     9.2480     8.1300     7.6400    24.3550     2.3630 
  225.1250   -27.3710    77.3320     8.5840     7.4050     6.9700    24.3640     2.3130 
  225.2500   -27.2430    77.5180     8.3440     6.9980     7.8470    24.3630     2.3140 
  225.3750   -27.0270    77.8810     8.1700     6.7460     8.3570    24.3710     2.3350 
  225.5000   -26.7740    79.6600     7.8240     6.4940     7.7730    24.4290     2.3420 
  225.6250   -26.4820    79.8180     7.2470     6.1400     6.8620    24.6050     2.3180 
  225.7500   -26.1510    77.0210     6.5890     5.6900     5.8330    24.9330     2.2640 
  225.8750   -25.8360    76.0340     6.0790     5.2610     5.0420    25.2310     2.2030 
  226.0000   -25.5940    77.6390     5.8220     4.9430     4.5450    25.2310     2.1540 
  226.1250   -25.4710    78.4900     5.8150     4.7940     4.4160    24.8250     2.1260 
  226.2500   -25.4800    76.9510     6.0380     4.8810     4.7600    24.5200     2.1260 
  226.3750   -25.6120    75.3770     6.4260     5.1710     5.3480    24.3760     2.1450 
  226.5000   -25.8580    75.5770     6.9500     5.6180     5.8940    24.3080     2.1720 
  226.6250   -26.1500    77.5810     7.5280     6.1260     6.0760    24.3110     2.1950 
  226.7500   -26.4070    78.1450     7.9780     6.5240     6.4430    24.3540     2.2010 
  226.8750   -26.6150    76.9490     8.1480     6.7000     6.8730    24.3690     2.1910 
  227.0000   -26.7450    76.8440     7.9790     6.6290     7.0940    24.3560     2.1750 
  227.1250   -26.7560    79.5380     7.5410     6.3700     6.7930    24.3490     2.1690 
  227.2500   -26.6740    81.7310     7.0270     6.0380     6.0750    24.3720     2.1890 
  227.3750   -26.5830    81.1690     6.6490     5.7590     5.7750    24.3430     2.2260 
  227.5000   -26.4920    79.6250     6.4980     5.5960     5.8970    24.3030     2.2630 
  227.6250   -26.3980    78.7530     6.6060     5.5780     5.9960    24.2100     2.2800 
  227.7500   -26.3540    79.3200     6.9830     5.7150     5.9780    24.0670     2.2700 
  227.8750   -26.3630    80.2080     7.4710     5.9320     6.2480    23.9280     2.2500 
  228.0000   -26.3840    80.2940     7.9170     6.1550     6.5240    23.7810     2.2340 
  228.1250   -26.4310    78.3320     8.1690     6.3070     7.0220    23.4190     2.2320 
  228.2500   -26.4600    75.1940     8.0770     6.3130     7.1680    22.8310     2.2510 
  228.3750   -26.4350    74.1780     7.7250     6.1850     6.2520    22.2300     2.2780 
  228.5000   -26.3360    77.0550     7.2530     5.9640     5.1310    21.4440     2.3000 
  228.6250   -26.2310    82.3620     6.8180     5.7240     4.3560    20.5300     2.3030 
  228.7500   -26.1490    84.5950     6.5530     5.5550     4.3560    19.7920     2.2880 
  228.8750   -26.0710    84.5950     6.4660     5.5040     4.6120    19.6550     2.2700 
  229.0000   -26.0420    84.5950     6.5540     5.5870     4.8030    19.7890     2.2670 
  229.1250   -26.0620    84.5950     6.7740     5.7850     5.0030    20.0060     2.2880 
  229.2500   -26.1610    84.5950     7.0330     6.0260     4.9470    20.3190     2.3250 
  229.3750   -26.2740    84.5950     7.2100     6.2000     5.1400    20.7790     2.3510 
  229.5000   -26.4190    84.5950     7.2450     6.2460     5.5530    21.3900     2.3520 
  229.6250   -26.5770    84.5950     7.1590     6.1670     6.1570    22.1570     2.3300 
  229.7500   -26.7450    84.5950     7.0620     6.0260     6.0270    23.0570     2.2980 
  229.8750   -26.9870    84.5950     7.0810     5.9270     5.9300    23.8150     2.2710 
  230.0000   -27.3060    84.5950     7.2800     5.9320     6.1000    24.1970     2.2550 
  230.1250   -27.7080    84.5950     7.6580     6.0750     6.6820    24.2960     2.2520 
  230.2500   -28.1880    84.5950     8.1510     6.3800     7.6870    24.2920     2.2610 
  230.3750   -28.7070    84.5950     8.6290     6.7810     8.6230    24.2770     2.2820 
  230.5000   -29.1940    84.5950     9.0280     7.2190     9.2240    24.2640     2.3090 
  230.6250   -29.6020    84.5950     9.3730     7.6450     9.6810    24.2930     2.3320 
  230.7500   -29.8470    84.5950     9.7870     8.0740    10.0710    24.3370     2.3410 
  230.8750   -29.8750    84.5950    10.3530     8.5550    10.3060    24.3550     2.3420 
  231.0000   -29.6690    84.5950    10.9880     9.0710    10.7390    24.3600     2.3480 
  231.1250   -29.2200    84.5950    11.4310     9.4800    11.3740    24.3630     2.3690 
  231.2500   -28.4910    84.5950    11.2410     9.4760    11.8600    24.3650     2.3960 
  231.3750   -27.5420    84.5950    10.4030     8.9720    10.8020    24.3710     2.4100 
  231.5000   -26.4520    84.5950     9.1200     8.0580     8.4860    24.4060     2.4050 
  231.6250   -25.2790    84.5950     7.7290     6.9590     6.1110    24.4900     2.3840 
  231.7500   -24.0830    84.5950     6.5540     5.9290     5.1740    24.6160     2.3520 
  231.8750   -22.9090    84.5950     5.6520     5.0890     4.6560    24.7300     2.3180 
