~V
VERS. 2.00: Ver 2.00
~W
STRT.M 61.0000:
STOP.M 247.0000:
STEP.M 0.1250:
NULL. -999.2500:
UWI. F10600:
~C
DEPT.M :
GR.API :
RML.OHMM :
RI. :
RXO.OHMM :
CALI.CM :
DEN.GM/CC :
SP.MV :
~A
   61.0000    81.8230     5.5700     5.2430     8.1280    25.2620     2.2520    -6.9400 
   61.1250    82.2560     5.5780     5.7710     7.9320    25.2650     2.2560   -11.4140 
   61.2500    82.0460     5.8870     6.2460     8.0360    25.2580     2.2580   -14.6510 
   61.3750    81.4250     6.5990     6.7870     8.4320    25.2470     2.2540   -17.1310 
   61.5000    81.1730     7.5700     7.4270     9.0500    25.2420     2.2470   -19.2270 
   61.6250    82.0590     8.4390     8.0820    10.4460    25.2460     2.2380   -21.1130 
   61.7500    82.1110     8.9100     8.5950    11.0130    25.2510     2.2290   -22.8320 
   61.8750    79.7030     9.0080     8.8520    10.6440    25.2540     2.2210   -24.4200 
   62.0000    75.8990     9.0260     8.8330     9.5860    25.2560     2.2120   -25.8490 
   62.1250    73.6860     9.3210     8.6110     9.0080    25.2620     2.1980   -27.1600 
   62.2500    72.7310     9.8590     8.3780     9.0610    25.2750     2.1830   -28.3150 
   62.3750    72.2840    10.3970     8.2420     9.1520    25.2860     2.1690   -29.2870 
   62.5000    73.5290    10.6630     8.2290     8.7000    25.2900     2.1610   -30.0670 
   62.6250    76.5850    10.5050     8.2780     8.4500    25.3060     2.1610   -30.6560 
   62.7500    77.7980    10.1970     8.2810     8.2970    25.3440     2.1670   -31.1250 
   62.8750    76.4270    10.0350     8.1930     8.3700    25.3850     2.1770   -31.5110 
   63.0000    75.3380    10.1720     8.0380     8.4890    25.4050     2.1930   -31.8570 
   63.1250    79.1310    10.5140     7.9150     8.4950    25.4060     2.2140   -32.1800 
   63.2500    84.2080    10.7560     7.9120     8.4840    25.4060     2.2370   -32.5140 
   63.3750    86.4910    10.7350     8.0520     9.2460    25.4080     2.2550   -32.8600 
   63.5000    83.6820    10.4850     8.2850    10.4280    25.4340     2.2640   -33.2500 
   63.6250    76.5860    10.2320     8.4900    10.3160    25.5140     2.2600   -33.6780 
   63.7500    71.8640    10.1480     8.5650     9.4660    25.6260     2.2470   -34.1330 
   63.8750    72.3980    10.1760     8.4840     9.0890    25.6960     2.2300   -34.5650 
   64.0000    75.9680    10.1260     8.2870     9.1530    25.7010     2.2150   -35.0010 
   64.1250    76.7940     9.8380     8.0740     9.1440    25.7020     2.2030   -35.4320 
   64.2500    74.2210     9.4400     7.9410     9.0020    25.7260     2.1940   -35.8840 
   64.3750    70.7560     9.1130     7.9270     8.9840    25.8080     2.1880   -36.3530 
   64.5000    68.2890     8.9800     8.0180     9.1150    26.0140     2.1830   -36.7900 
   64.6250    67.8170     9.0300     8.1480     9.3210    26.1500     2.1770   -37.1510 
   64.7500    69.0840     9.0790     8.2220     9.2930    26.2570     2.1720   -37.4750 
   64.8750    71.1310     9.0200     8.1890     9.1740    26.1230     2.1690   -37.8060 
   65.0000    72.4390     8.8710     8.0550     8.9840    25.8700     2.1680   -38.0880 
   65.1250    71.5570     8.7890     7.8920     8.9330    25.7730     2.1670   -38.2660 
   65.2500    68.8030     8.7990     7.8190     8.9590    25.8580     2.1650   -38.3680 
   65.3750    65.9870     8.9070     7.9090     9.0860    25.9660     2.1620   -38.4230 
   65.5000    65.6270     9.0770     8.1580     8.9730    25.9900     2.1630   -38.4420 
   65.6250    66.0130     9.2220     8.4640     8.8880    25.9580     2.1720   -38.3960 
   65.7500    64.5950     9.1280     8.6470     8.7690    25.8580     2.1860   -38.3020 
   65.8750    62.2080     8.7390     8.5940     8.6550    25.8300     2.2010   -38.2020 
   66.0000    61.6130     8.3680     8.3020     8.5680    25.8250     2.2100   -38.0900 
   66.1250    63.5610     8.1820     7.9100     8.5360    25.8000     2.2030   -37.9340 
   66.2500    66.1140     8.2190     7.6650     8.6070    25.7140     2.1880   -37.7790 
   66.3750    69.4910     8.5120     7.7320     8.8130    25.5030     2.1740   -37.6170 
   66.5000    73.5850     9.0770     8.1690     9.7880    25.2430     2.1720   -37.4520 
   66.6250    75.7270     9.8190     8.8960    13.5880    24.9620     2.1900   -37.3120 
   66.7500    73.3470    10.4680     9.5960    21.3440    24.8000     2.2170   -37.2080 
   66.8750    69.5690    10.8150    10.0020    27.3950    24.7260     2.2400   -37.1340 
   67.0000    67.7290    10.7820     9.9710    26.3550    24.6890     2.2500   -37.0750 
   67.1250    68.4900    10.4470     9.5260    18.4000    24.6590     2.2430   -37.0710 
   67.2500    70.2980    10.0510     8.9680    12.3680    24.6660     2.2310   -37.1250 
   67.3750    71.2710     9.7060     8.4910     9.7350    24.7310     2.2190   -37.1800 
   67.5000    70.9790     9.4300     8.1700     9.0590    24.8560     2.2140   -37.1990 
   67.6250    69.5280     9.1910     7.9750     9.0150    24.9740     2.2180   -37.1980 
   67.7500    68.7720     8.9560     7.7890     8.9560    25.0120     2.2290   -37.1700 
   67.8750    71.3080     8.7330     7.5620     8.7280    25.0330     2.2440   -37.1290 
   68.0000    75.7340     8.5600     7.3070     8.3420    25.0660     2.2560   -37.1240 
   68.1250    78.2260     8.5010     7.1180     7.8650    25.1030     2.2590   -37.1570 
   68.2500    78.3680     8.5830     7.0790     7.9630    25.1700     2.2510   -37.1940 
   68.3750    78.4060     8.8080     7.2180     8.3350    25.2410     2.2370   -37.2730 
   68.5000    79.2940     9.1270     7.4930     8.8470    25.2820     2.2210   -37.4460 
   68.6250    78.0530     9.4260     7.7830     9.1780    25.3040     2.2080   -37.6900 
   68.7500    74.2780     9.5980     7.9590     9.3310    25.3560     2.1990   -37.9530 
   68.8750    71.0060     9.6170     7.9680     9.3990    25.4760     2.1890   -38.1920 
   69.0000    68.5620     9.5380     7.8420     9.4570    25.6580     2.1780   -38.3480 
   69.1250    67.1200     9.4590     7.6940     9.5090    25.7580     2.1680   -38.3880 
   69.2500    65.5320     9.4300     7.6330     9.4830    25.7470     2.1620   -38.3220 
   69.3750    64.1180     9.4260     7.6760     9.3360    25.6550     2.1620   -38.1900 
   69.5000    65.0200     9.3940     7.7520     9.2400    25.4270     2.1670   -37.9400 
   69.6250    68.3550     9.2840     7.7190     9.1470    25.1010     2.1730   -37.5740 
   69.7500    70.7060     9.1180     7.5130     8.9730    24.8800     2.1780   -37.1920 
   69.8750    71.9610     8.9440     7.1630     8.6050    24.7810     2.1800   -36.7930 
   70.0000    73.3650     8.8220     6.7710     8.1250    24.7320     2.1820   -36.3970 
   70.1250    72.7760     8.8180     6.5090     7.6960    24.6250     2.1850   -36.1070 
   70.2500    69.6340     8.9080     6.4710     7.6670    24.3930     2.1900   -35.8720 
   70.3750    68.0520     9.0350     6.6750     8.0350    24.0560     2.1970   -35.6670 
   70.5000    70.4670     9.1200     7.0460     8.4540    23.8020     2.2080   -35.5450 
   70.6250    73.0410     9.0850     7.4230     8.6240    23.7410     2.2210   -35.4860 
   70.7500    72.8530     8.9550     7.6420     8.4510    23.7500     2.2330   -35.3960 
   70.8750    71.9790     8.7810     7.6380     8.2630    23.7360     2.2420   -35.2530 
   71.0000    72.6590     8.6030     7.4560     8.0190    23.6790     2.2450   -35.0730 
   71.1250    73.1200     8.4420     7.2320     7.7330    23.6440     2.2410   -34.7870 
   71.2500    71.4210     8.3280     7.1120     7.5950    23.6720     2.2340   -34.4290 
   71.3750    68.9030     8.3130     7.1530     7.6520    23.7610     2.2230   -33.9520 
   71.5000    68.0980     8.4230     7.3320     7.8780    23.8990     2.2090   -33.3320 
   71.6250    68.8470     8.6070     7.5370     8.0820    24.0520     2.1940   -32.5500 
   71.7500    69.6440     8.7110     7.6110     8.0760    24.2060     2.1800   -31.6010 
   71.8750    72.4600     8.6060     7.4580     7.7230    24.3190     2.1730   -30.5450 
   72.0000    78.7970     8.2330     7.0580     7.2050    24.3640     2.1790   -29.3700 
   72.1250    86.8970     7.6240     6.4710     6.6250    24.3960     2.1990   -28.0680 
