~V
VERS. 2.00: Ver 2.00
~W
STRT.M 50.0000:
STOP.M 216.0000:
STEP.M 0.1250:
NULL. -999.2500:
UWI. F10607:
~C
DEPT.M :
GR.API :
RML.OHMM :
RI. :
RXO.OHMM :
CALI.CM :
DEN.GM/CC :
SP.MV :
~A
# ...
   83.7500    76.1130     7.4760     5.4760     6.3280    24.2200     2.2970   -21.6900 
   83.8750    71.2780     7.3970     5.4320     6.2720    24.3420     2.2890   -21.6690 
   84.0000    69.1740     7.3200     5.3810     6.2950    24.4400     2.2810   -21.7170 
   84.1250    74.6070     7.3300     5.3640     6.0950    24.4770     2.2840   -21.7670 
   84.2500    80.2640     7.4930     5.4270     6.2480    24.4320     2.2880   -21.8300 
   84.3750    79.1610     7.8330     5.5940     6.5900    24.3480     2.2780   -21.8550 
   84.5000    73.6330     8.2920     5.8530     6.8270    24.2980     2.2480   -21.8990 
   84.6250    71.0490     8.7070     6.1290     6.7990    24.2430     2.2100   -21.9480 
   84.7500    71.7710     8.8840     6.2960     7.4730    24.1840     2.1820   -22.0000 
   84.8750    71.5730     8.7060     6.2600     7.9460    24.1700     2.1800   -22.0650 
   85.0000    69.9270     8.2020     6.0010     7.6910    24.2030     2.2090   -22.0760 
   85.1250    70.2640     7.5630     5.6000     6.3410    24.2590     2.2570   -22.0280 
   85.2500    73.3100     7.0350     5.2180     5.7350    24.2730     2.2970   -21.9010 
   85.3750    76.8930     6.7270     4.9400     5.4930    24.2460     2.3190   -21.7560 
   85.5000    78.4180     6.6490     4.7990     5.5350    24.1760     2.3250   -21.5930 
   85.6250    78.3600     6.7320     4.7870     5.7410    24.1210     2.3240   -21.4060 
   85.7500    78.5000     6.8250     4.8190     5.8600    24.0720     2.3250   -21.1990 
   85.8750    80.1100     6.8460     4.8440     5.8910    24.0670     2.3290   -20.9680 
   86.0000    82.8480     6.7850     4.8370     5.9370    24.1490     2.3300   -20.7250 
   86.1250    83.1530     6.7190     4.8150     5.7450    24.2390     2.3180   -20.4960 
   86.2500    80.5610     6.7590     4.8360     5.7220    24.2550     2.2990   -20.2640 
   86.3750    77.3660     6.9650     4.9460     5.8270    24.2040     2.2850   -20.0410 
   86.5000    74.9770     7.3330     5.1610     6.2270    24.1460     2.2910   -19.7970 
   86.6250    73.5750     7.7850     5.4600     6.5810    24.1160     2.3170   -19.5650 
   86.7500    73.4530     8.1730     5.7530     7.2410    24.1090     2.3430   -19.3750 
   86.8750    73.0150     8.3880     5.9600     7.9670    24.1290     2.3530   -19.2000 
   87.0000    71.8740     8.3910     6.0260     7.0830    24.1930     2.3410   -19.0880 
   87.1250    73.9270     8.2180     5.9450     6.6370    24.2940     2.3190   -18.9810 
   87.2500    77.6400     8.0010     5.8020     6.5110    24.3240     2.2990   -18.9170 
   87.3750    78.4920     7.8100     5.6590     6.4470    24.3030     2.2850   -18.8620 
   87.5000    76.8420     7.6770     5.5530     6.3240    24.2720     2.2750   -18.8490 
   87.6250    75.6920     7.6140     5.5050     6.2450    24.2150     2.2740   -18.8570 
   87.7500    74.2640     7.6010     5.5010     6.2480    24.1710     2.2830   -18.8490 
   87.8750    74.4770     7.6320     5.5270     6.2870    24.1990     2.2990   -18.8590 
   88.0000    78.1190     7.6930     5.5700     6.3410    24.3460     2.3190   -18.8360 
   88.1250    79.6620     7.7430     5.6070     6.6710    24.4820     2.3380   -18.8240 
   88.2500    77.1060     7.7380     5.6120     7.4550    24.4930     2.3510   -18.7870 
   88.3750    75.1700     7.6560     5.5720     8.2320    24.4330     2.3590   -18.7370 
   88.5000    77.7030     7.5220     5.4960     7.5000    24.3920     2.3560   -18.6520 
   88.6250    81.0680     7.4150     5.4190     6.8130    24.3020     2.3390   -18.5330 
   88.7500    82.1880     7.3950     5.3830     6.4870    24.2770     2.3150   -18.3900 
   88.8750    80.8320     7.4830     5.4070     6.5880    24.3020     2.2940   -18.2230 
   89.0000    76.2930     7.6580     5.4940     6.7350    24.3110     2.2820   -18.0290 
   89.1250    71.2620     7.8840     5.6310     7.1310    24.3250     2.2810   -17.8210 
   89.2500    68.9000     8.1120     5.7840     7.2600    24.3530     2.2850   -17.6020 
   89.3750    68.5820     8.3040     5.9230     7.2650    24.4090     2.2910   -17.3770 
   89.5000    70.2580     8.3970     6.0070     7.2830    24.4620     2.3040   -17.1430 
   89.6250    72.8240     8.2870     5.9740     7.2140    24.5460     2.3290   -16.9570 
   89.7500    74.6440     8.0360     5.8500     7.4950    24.5970     2.3530   -16.8170 
   89.8750    75.1660     7.8090     5.7210     7.7600    24.6300     2.3600   -16.7130 
   90.0000    76.4770     7.8400     5.7180     7.3200    24.6810     2.3500   -16.6910 
   90.1250    79.1140     8.4230     6.0220     6.8850    24.6650     2.3490   -16.7240 
   90.2500    77.5500     9.5220     6.6510     8.3360    24.6350     2.3730   -16.8620 
   90.3750    68.9850    10.9440     7.5450    13.3600    24.6170     2.4040   -17.0630 
   90.5000    60.8350    12.2690     8.4970    22.0040    24.6120     2.4090   -17.3430 
   90.6250    60.6690    12.8420     9.0970    20.8720    24.6130     2.3630   -17.6440 
   90.7500    62.1610    12.5860     9.1660    14.4420    24.6790     2.2970   -17.9440 
   90.8750    60.6710    11.8340     8.8180    10.4890    24.8010     2.2410   -18.2540 
   91.0000    58.6690    11.1080     8.3530     9.2460    24.8840     2.2130   -18.5390 
   91.1250    60.2250    10.8540     8.0830     9.4010    24.9010     2.2060   -18.8000 
   91.2500    61.6510    11.0380     8.0810     9.9010    24.9140     2.1980   -18.9900 
   91.3750    62.1260    11.4880     8.2950    10.6420    24.9430     2.1820   -19.1350 
   91.5000    62.5370    11.9860     8.6090    11.2530    24.9540     2.1610   -19.2220 
   91.6250    60.5240    12.3330     8.8940    11.6920    24.9190     2.1470   -19.2370 
   91.7500    55.6240    12.4930     9.0780    11.8150    24.8950     2.1460   -19.2030 
   91.8750    51.3290    12.4870     9.1460    11.6870    24.8810     2.1530   -19.1100 
   92.0000    50.0730    12.3700     9.1180    11.5590    24.8490     2.1650   -18.9580 
   92.1250    50.5470    12.1970     9.0290    11.5510    24.8080     2.1720   -18.7680 
   92.2500    49.9750    12.0300     8.9360    11.4520    24.8180     2.1750   -18.5250 
   92.3750    50.0370    11.9130     8.8750    11.1240    24.8190     2.1750   -18.2540 
   92.5000    51.8590    11.8720     8.8710    10.8860    24.7650     2.1740   -17.9570 
   92.6250    51.6570    11.9190     8.9310    11.1550    24.7590     2.1700   -17.6770 
   92.7500    49.6630    12.0050     9.0250    11.5780    24.8210     2.1650   -17.4350 
   92.8750    49.0530    12.0890     9.1250    11.8410    24.8670     2.1600   -17.2100 
   93.0000    50.9580    12.1380     9.2090    11.9270    24.8700     2.1570   -17.0340 
   93.1250    52.7430    12.1460     9.2620    11.8240    24.8440     2.1530   -16.8710 
   93.2500    52.7760    12.1490     9.2910    11.6530    24.7850     2.1470   -16.7780 
   93.3750    51.5410    12.1720     9.3030    11.4780    24.7280     2.1420   -16.7160 
   93.5000    49.7740    12.1970     9.2960    11.4250    24.6940     2.1390   -16.6980 
   93.6250    49.9560    12.0760     9.1990    11.2790    24.6730     2.1370   -16.6670 
   93.7500    51.8290    11.6500     8.9180    11.3890    24.6420     2.1300   -16.6120 
   93.8750    53.2840    10.8940     8.4220    11.4980    24.6350     2.1170   -16.5390 
   94.0000    55.1370    10.0200     7.8240    11.4000    24.6290     2.1140   -16.4350 
   94.1250    60.5300     9.4510     7.3770    10.0700    24.5770     2.1640   -16.3120 
   94.2500    69.4010     9.3990     7.2310     8.5220    24.4840     2.2800   -16.1600 
   94.3750    75.4810     9.9010     7.4380     9.0070    24.3800     2.4210   -16.0070 
   94.5000    72.0370    10.8080     7.9490    13.8190    24.3280     2.5030   -15.8600 
   94.6250    61.3920    11.7220     8.5800    24.3210    24.3000     2.4610   -15.7580 
   94.7500    53.6910    12.1840     9.0160    22.5350    24.3370     2.3570   -15.6830 
   94.8750    54.1490    12.0180     9.0750    14.2450    24.5140     2.2470   -15.6350 
