~V
VERS. 2.00: Ver 2.00
~W
STRT.M 52.0000:
STOP.M 239.0000:
STEP.M 0.1250:
NULL. -999.2500:
UWI. F10645:
~C
DEPT.M :
SP.MV :
GR.API :
RML.OHMM :
RI. :
RXO.OHMM :
CALI.CM :
DEN.GM/CC :
~A
# ...
  130.7500   -23.0370    71.2320    11.5190     9.2680     7.2370    24.7220     2.2480 
  130.8750   -22.9200    69.6810    12.6610    10.1630     7.6850    25.0130     2.2230 
  131.0000   -22.8120    68.0810    13.9890    11.2710     8.5140    25.3300     2.1640 
  131.1250   -22.7230    64.0550    15.5520    12.6000    10.8370    25.9640     2.0780 
  131.2500   -22.6710    59.0140    17.5440    14.2580    11.7320    26.4460     1.9840 
  131.3750   -22.6530    55.0830    19.8460    16.1830    12.7450    25.8940     1.9040 
  131.5000   -22.6860    52.7330    21.9130    18.0470    14.5310    24.8010     1.8840 
  131.6250   -22.7310    52.1680    22.6980    19.0990    18.9180    23.9480     1.9670 
  131.7500   -22.8260    52.9740    20.8350    18.1390    25.3660    23.6870     2.1780 
  131.8750   -22.9360    57.0660    17.1270    15.4860    23.9670    23.6070     2.4050 
  132.0000   -23.0600    65.2290    12.9880    12.1370    14.5590    23.5720     2.5270 
  132.1250   -23.2030    73.1750     9.5560     9.0900     6.8830    23.7060     2.5120 
  132.2500   -23.3360    77.3660     7.3500     6.9420     5.0670    23.9950     2.4260 
  132.3750   -23.4720    83.0350     5.9970     5.5260     4.5910    24.2390     2.3460 
  132.5000   -23.5630    91.9110     5.2340     4.6680     4.2800    24.3620     2.2980 
  132.6250   -23.6810    96.9410     4.8450     4.1990     3.9490    24.4030     2.2840 
  132.7500   -23.7850    93.0090     4.6870     4.0020     3.7260    24.4150     2.2930 
  132.8750   -23.9040    89.2310     4.6260     3.9280     3.7750    24.4680     2.3060 
  133.0000   -24.0240    90.8470     4.6250     3.9290     3.9410    24.5320     2.3180 
  133.1250   -24.1160    94.7340     4.6680     3.9800     4.0350    24.5610     2.3260 
  133.2500   -24.1750    94.4530     4.7420     4.0660     3.9550    24.5470     2.3270 
  133.3750   -24.2020    91.1900     4.8290     4.1660     3.8850    24.4920     2.3260 
  133.5000   -24.2260    89.5180     4.9210     4.2690     3.9310    24.4060     2.3240 
  133.6250   -24.2100    90.2810     5.0140     4.3630     4.0110    24.2840     2.3270 
  133.7500   -24.1370    89.3690     5.0890     4.4270     4.0690    24.1640     2.3380 
  133.8750   -24.0430    86.7280     5.1230     4.4460     4.1160    24.0560     2.3530 
  134.0000   -23.9120    84.7470     5.1030     4.4100     4.1320    23.9880     2.3660 
  134.1250   -23.7600    85.1060     5.0440     4.3340     4.1330    23.9530     2.3730 
  134.2500   -23.5610    87.6100     5.0080     4.2660     4.0660    23.9360     2.3740 
  134.3750   -23.3400    90.8250     5.0580     4.2560     3.9550    23.9310     2.3730 
  134.5000   -23.1100    93.4390     5.2340     4.3390     3.9420    23.9330     2.3700 
  134.6250   -22.8590    96.0430     5.5370     4.5230     4.2220    23.9270     2.3600 
  134.7500   -22.6440    96.8520     5.9450     4.7970     4.8310    23.9210     2.3370 
  134.8750   -22.4020    91.2820     6.3940     5.1120     5.2470    23.9600     2.3030 
  135.0000   -22.1600    80.4400     6.8670     5.4520     5.3700    24.0020     2.2660 
  135.1250   -21.8900    73.7820     7.3740     5.8210     5.3970    24.0300     2.2370 
  135.2500   -21.6620    76.0890     7.9470     6.2380     5.6120    24.0460     2.2280 
  135.3750   -21.4360    76.4150     8.5820     6.7040     6.0060    24.0690     2.2360 
  135.5000   -21.2200    71.8980     9.2690     7.2220     6.6480    24.1430     2.2530 
  135.6250   -20.9890    66.6920    10.0070     7.7900     7.4220    24.2850     2.2670 
  135.7500   -20.6900    63.8650    10.8470     8.4300     7.5070    24.3760     2.2630 
  135.8750   -20.3790    62.0650    11.8610     9.1750     7.3080    24.4250     2.2430 
  136.0000   -20.0280    61.4500    13.1340    10.0800     7.8130    24.5740     2.2090 
  136.1250   -19.6660    61.9060    14.7040    11.1900     9.2260    24.8460     2.1710 
  136.2500   -19.2550    60.7920    16.5550    12.5340    10.7660    25.0390     2.1360 
  136.3750   -18.8160    58.5940    18.5070    14.0060    11.6580    25.0830     2.1120 
  136.5000   -18.3540    57.6550    20.4200    15.5030    12.0730    25.1290     2.1010 
  136.6250   -17.8980    59.1210    22.2000    16.9280    12.1540    25.1180     2.0980 
  136.7500   -17.4550    60.1390    23.7830    18.2150    12.3480    24.8170     2.0990 
  136.8750   -17.0270    60.2970    25.1610    19.3570    13.2520    24.2100     2.0970 
  137.0000   -16.6300    60.7510    26.2470    20.2970    14.5820    23.7760     2.0950 
  137.1250   -16.2890    61.1790    26.9470    20.9640    15.2850    23.6310     2.0950 
  137.2500   -15.9810    59.8140    27.1940    21.2870    14.0850    23.6070     2.1030 
  137.3750   -15.7220    58.3470    27.1930    21.3960    12.6980    23.5480     2.1210 
  137.5000   -15.4860    57.6190    27.1110    21.4130    12.5310    23.5430     2.1400 
  137.6250   -15.2900    56.5040    27.0670    21.4460    12.8040    23.6990     2.1510 
  137.7500   -15.1320    56.1250    27.1240    21.5700    12.8640    23.8570     2.1400 
  137.8750   -14.9920    58.0280    27.2410    21.7680    12.3650    23.7630     2.1150 
  138.0000   -14.9120    60.1010    27.3610    21.9940    11.9910    23.4780     2.0860 
  138.1250   -14.8340    60.0760    27.4520    22.2030    11.6890    23.2060     2.0670 
  138.2500   -14.8180    58.4160    27.5920    22.4220    11.4740    23.0800     2.0640 
  138.3750   -14.8200    56.9650    27.9020    22.7450    11.3430    23.0690     2.0710 
  138.5000   -14.8820    56.3820    28.4620    23.2430    11.4650    23.1250     2.0830 
  138.6250   -14.9640    56.7850    29.2600    23.9330    11.7450    23.1740     2.0950 
  138.7500   -15.0890    57.2880    30.1150    24.7250    12.2010    23.1580     2.1080 
  138.8750   -15.2520    57.4540    30.6440    25.3520    12.8130    23.0670     2.1230 
  139.0000   -15.4070    57.6250    30.5010    25.5230    13.1230    22.9320     2.1340 
  139.1250   -15.5710    57.8980    29.5610    25.0630    12.6510    22.8480     2.1340 
  139.2500   -15.7190    58.1530    28.0190    24.0120    12.3320    22.8790     2.1260 
  139.3750   -15.8590    58.7390    26.5010    22.8530    11.5920    22.9610     2.1270 
  139.5000   -15.9700    60.7490    25.4330    21.9710    10.7760    23.0090     2.1450 
  139.6250   -16.0300    63.3110    25.0390    21.6230    10.6310    23.1740     2.1710 
  139.7500   -16.0570    62.5320    25.4300    21.9760    11.6600    23.7950     2.1750 
  139.8750   -16.0310    59.7210    26.3120    22.8050    13.2500    24.4560     2.1540 
  140.0000   -15.9830    58.5480    27.4430    23.9060    14.9400    24.8680     2.1180 
  140.1250   -15.9290    59.6120    28.5640    25.0510    15.6430    25.1030     2.0840 
  140.2500   -15.8710    59.9930    29.4150    25.9860    16.8890    25.1960     2.0670 
  140.3750   -15.8290    58.0060    29.9200    26.6010    17.5640    25.2440     2.0720 
  140.5000   -15.7870    54.1220    30.0270    26.8320    17.1960    25.2750     2.0900 
  140.6250   -15.8390    50.3730    29.6910    26.6360    16.7310    25.3400     2.1070 
  140.7500   -15.9480    50.5670    28.8400    25.9440    16.7030    25.3670     2.1070 
  140.8750   -16.1420    54.0360    27.6960    24.9440    16.5220    25.3100     2.0950 
  141.0000   -16.4010    58.2320    26.5950    23.8980    15.0220    25.1310     2.0820 
  141.1250   -16.7260    61.0040    25.9890    23.1840    12.7970    24.7130     2.0800 
  141.2500   -17.1140    61.0650    26.5670    23.3800    11.6080    24.0310     2.1080 
  141.3750   -17.5450    58.5150    28.6000    24.7640    11.2630    23.6380     2.1710 
  141.5000   -18.0450    55.5890    32.3850    27.6570    12.2780    23.5440     2.2700 
  141.6250   -18.5470    54.9780    38.0650    32.2920    16.7120    23.5050     2.4000 
  141.7500   -19.0820    56.4340    45.4830    38.7130    32.9690    23.4510     2.4980 
  141.8750   -19.5950    57.6620    52.7370    45.3400    47.0670    23.6060     2.5060 
