~V
VERS. 2.00: Ver 2.00
~W
STRT.M 52.0000:
STOP.M 240.0000:
STEP.M 0.1250:
NULL. -999.2500:
UWI. F10646:
~C
DEPT.M :
GR.API :
RML.OHMM :
RI. :
RXO.OHMM :
CALI.CM :
DEN.GM/CC :
SP.MV :
~A
# ...
  198.2500    57.4340    75.1830    66.1490    67.4060    24.0100     2.2760   -16.2550 
  198.3750    56.0040    78.7720    69.1050    73.7850    23.9210     2.2700   -16.5050 
  198.5000    55.8850    88.2030    77.3860    89.5600    23.8720     2.2530   -16.7510 
  198.6250    54.8870   102.1000    90.2250   118.2490    24.0630     2.2290   -16.9840 
  198.7500    51.2380   118.7440   106.2770   130.4470    24.3160     2.2030   -17.1400 
  198.8750    47.6820   135.1090   123.0390   109.8980    24.5290     2.1790   -17.2010 
  199.0000    47.3650   145.0910   135.6860    89.5100    24.6380     2.1550   -17.2020 
  199.1250    48.7200   143.5990   139.5290    79.2990    24.6720     2.1270   -17.1610 
  199.2500    50.7240   127.6400   130.4210    80.0180    24.5430     2.0970   -17.0650 
  199.3750    52.3580   114.5750   108.0900    80.0830    24.1590     2.0770   -16.9260 
  199.5000    54.9060    83.9620    79.2090    68.1760    23.8230     2.0860   -16.7580 
  199.6250    58.9920    57.8160    54.5430    44.4560    23.7310     2.1250   -16.6030 
  199.7500    65.0830    40.1960    37.9210    22.5340    23.8200     2.1890   -16.4750 
  199.8750    72.1310    30.6670    28.9310    10.3230    24.0030     2.2600   -16.3590 
  200.0000    74.7020    28.3910    26.7840     8.8330    24.1040     2.3030   -16.2960 
  200.1250    70.7810    31.6820    29.8880    12.6020    24.1380     2.3040   -16.3310 
  200.2500    62.4780    41.6070    39.2520    26.9440    24.2340     2.2700   -16.4940 
  200.3750    55.3660    60.2790    56.8670    54.7360    24.4560     2.2240   -16.7250 
  200.5000    54.3620    91.1870    86.0250    82.1730    24.6360     2.1870   -16.9580 
  200.6250    55.8440   129.9650   122.6090    97.0530    24.7180     2.1620   -17.2370 
  200.7500    55.4110   168.6790   159.1310   119.9530    24.7320     2.1450   -17.6170 
  200.8750    52.4890   198.5930   187.3520   155.5240    24.7300     2.1270   -18.0920 
  201.0000    50.3840   214.0950   201.9760   194.0000    24.7130     2.1090   -18.5630 
  201.1250    51.2630   219.1410   206.7370   200.1560    24.6750     2.1010   -18.9740 
  201.2500    52.3930   216.4980   204.2440   198.9520    24.5780     2.1080   -19.3160 
  201.3750    51.7780   208.9960   197.1660   199.5130    24.4840     2.1250   -19.6480 
  201.5000    51.2590   199.5440   188.2490   200.6590    24.4090     2.1420   -19.9840 
  201.6250    52.9190   190.8450   180.0430   194.6690    24.3510     2.1570   -20.2250 
  201.7500    55.1680   184.2310   173.8020   176.2700    24.2990     2.1760   -20.3930 
  201.8750    54.9980   180.6490   170.4240   156.0210    24.2380     2.2010   -20.5030 
  202.0000    52.3050   181.1110   170.8590   141.4810    24.1990     2.2280   -20.5180 
  202.1250    50.9020   184.3620   173.9270   133.0760    24.1530     2.2440   -20.5090 
  202.2500    51.5790   188.9540   178.2590   128.0420    24.0920     2.2390   -20.5140 
  202.3750    53.7390   193.1490   182.2160   134.9030    24.0510     2.2160   -20.4910 
  202.5000    55.5560   194.9430   183.9090   167.1850    24.1060     2.1830   -20.4230 
  202.6250    54.7960   194.1200   183.1320   184.1390    24.1820     2.1500   -20.3590 
  202.7500    51.3640   191.4100   180.5760   175.1620    24.1960     2.1220   -20.2680 
  202.8750    48.8250   188.1950   177.5420   176.2240    24.2010     2.1040   -20.1670 
  203.0000    50.1340   186.0530   175.5220   182.2490    24.2280     2.0990   -20.1550 
  203.1250    52.2200   185.3680   174.8760   180.5670    24.2560     2.0990   -20.1760 
  203.2500    52.9730   185.5730   175.0690   171.1990    24.2510     2.1000   -20.1700 
  203.3750    53.0260   185.4210   174.9260   167.6540    24.2110     2.1010   -20.1610 
  203.5000    53.5790   183.1440   172.7770   167.2290    24.1780     2.1070   -20.2240 
  203.6250    55.2890   178.3130   168.2200   176.2270    24.1770     2.1240   -20.3750 
  203.7500    56.3800   171.1620   161.4730   168.5470    24.2000     2.1470   -20.5530 
  203.8750    56.7920   162.4310   153.2360   151.9760    24.2270     2.1650   -20.6980 
  204.0000    56.3430   153.0830   144.4180   142.0500    24.2180     2.1670   -20.8050 
  204.1250    54.4860   144.3010   136.1330   131.5700    24.2090     2.1580   -20.9240 
  204.2500    52.1990   137.0320   129.2750   122.1640    24.2280     2.1450   -21.0660 
  204.3750    52.4750   132.0220   124.5490   121.5300    24.2970     2.1360   -21.1740 
  204.5000    55.1660   130.2200   122.8490   117.1990    24.3390     2.1360   -21.1880 
  204.6250    55.2760   131.4900   124.0470   115.0220    24.3630     2.1400   -21.1560 
  204.7500    52.7730   136.0050   128.3060   120.1060    24.3660     2.1420   -21.0830 
  204.8750    51.3220   143.6810   135.5480   140.2010    24.3650     2.1430   -20.9610 
  205.0000    53.5360   154.4090   145.6690   152.0310    24.3640     2.1380   -20.8280 
  205.1250    55.7440   166.9060   157.4590   160.0720    24.3610     2.1280   -20.6680 
  205.2500    55.1550   180.4680   170.2530   174.7690    24.3600     2.1120   -20.4710 
  205.3750    51.5770   194.6780   183.6590   192.5970    24.3610     2.0960   -20.2590 
  205.5000    48.5640   209.7550   197.8820   209.0230    24.3570     2.0900   -20.0360 
  205.6250    49.1850   225.9900   213.1980   211.4530    24.3250     2.1050   -19.8130 
  205.7500    51.6100   243.0010   229.2460   219.1300    24.2480     2.1430   -19.6270 
  205.8750    51.8630   258.2470   243.6300   238.4030    24.1730     2.1950   -19.4710 
  206.0000    48.3510   264.0540   249.1080   249.3060    24.1650     2.2480   -19.2780 
  206.1250    45.9250   255.1880   240.7430   263.6190    24.1820     2.2970   -19.0840 
  206.2500    46.4340   231.1660   218.0810   252.6050    24.1930     2.3400   -18.9360 
  206.3750    48.8020   198.5210   187.2840   208.7580    24.2020     2.3700   -18.8370 
  206.5000    52.1240   167.9420   158.4350   150.2260    24.2380     2.3640   -18.7370 
  206.6250    56.2880   145.2810   137.0580   114.3430    24.2790     2.3210   -18.6020 
  206.7500    59.6370   130.8240   123.4190   101.7890    24.3480     2.2510   -18.4750 
  206.8750    60.2940   122.1070   115.1950   113.0200    24.3920     2.1800   -18.3970 
  207.0000    58.4120   115.6760   109.1290   136.6610    24.3000     2.1450   -18.3390 
  207.1250    55.9240   108.2560   102.1280   132.8600    24.2010     2.1610   -18.2540 
  207.2500    56.5980    98.9580    93.3560   104.7660    24.1170     2.2230   -18.1550 
  207.3750    61.9970    88.4930    83.4840    78.6650    24.0510     2.3050   -18.0550 
  207.5000    67.4380    78.6960    74.2420    68.8450    24.0980     2.3700   -17.9520 
  207.6250    68.4420    70.8200    66.8110    64.5000    24.1520     2.4030   -17.8570 
  207.7500    67.1010    65.2450    61.5520    59.9190    24.2030     2.4080   -17.7260 
  207.8750    67.0250    61.8170    58.3180    48.8390    24.2050     2.3920   -17.5300 
  208.0000    67.1030    60.2440    56.8340    44.3530    24.1590     2.3660   -17.3320 
  208.1250    67.2050    59.4970    56.1290    42.8170    24.0760     2.3450   -17.1580 
  208.2500    67.4050    58.9130    55.5780    41.9340    24.1070     2.3380   -16.9290 
  208.3750    66.4440    58.0200    54.7360    41.4580    24.1750     2.3480   -16.6390 
  208.5000    64.3770    56.5110    53.3130    51.2430    24.1990     2.3620   -16.3860 
  208.6250    63.2860    54.6030    51.5120    52.9620    24.2340     2.3680   -16.1630 
  208.7500    65.3480    52.6670    49.6860    45.7190    24.2040     2.3610   -15.9680 
  208.8750    68.9900    51.0980    48.2060    41.5900    24.1920     2.3440   -15.8030 
  209.0000    69.5340    50.2100    47.3680    46.1490    24.1850     2.3260   -15.6350 
  209.1250    66.2370    49.8520    47.0300    48.3530    24.1350     2.3170   -15.4890 
  209.2500    63.2290    49.7630    46.9460    48.3680    24.0230     2.3210   -15.4160 
  209.3750    64.9050    49.5210    46.7180    45.6680    23.8650     2.3350   -15.4000 
