~V
VERS. 2.00: Ver 2.00
~W
STRT.M 52.0000:
STOP.M 239.0000:
STEP.M 0.1250:
NULL. -999.2500:
UWI. F10645:
~C
DEPT.M :
SP.MV :
GR.API :
RML.OHMM :
RI. :
RXO.OHMM :
CALI.CM :
DEN.GM/CC :
~A
# ...
  164.5000   -20.7010    44.7780    15.3740    12.3190    11.2980    24.1820     2.4660 
  164.6250   -20.7320    43.8260    15.0250    11.9610    10.3640    24.1180     2.4580 
  164.7500   -20.7910    41.4530    14.9970    11.8770    10.4060    24.0170     2.4630 
  164.8750   -20.8740    40.9590    15.1930    12.0170    11.4940    23.9660     2.4790 
  165.0000   -21.0120    42.3400    15.5010    12.2940    12.4660    23.9750     2.5000 
  165.1250   -21.1800    43.5950    15.7900    12.5870    12.5240    24.0080     2.5150 
  165.2500   -21.3940    43.2540    15.9280    12.7620    12.2290    24.0460     2.5150 
  165.3750   -21.5930    43.0510    15.9110    12.8010    11.7910    24.0540     2.5040 
  165.5000   -21.8060    44.0790    15.7970    12.7450    11.6290    23.9590     2.4870 
  165.6250   -21.9880    44.3230    15.6620    12.6530    11.1190    23.7690     2.4740 
  165.7500   -22.1300    43.0570    15.5470    12.5570    10.6580    23.6430     2.4720 
  165.8750   -22.2270    42.5760    15.4260    12.4520    10.5320    23.4830     2.4810 
  166.0000   -22.2870    43.6940    15.2750    12.3270    10.9200    23.3290     2.4950 
  166.1250   -22.3010    44.3670    15.1080    12.1920    10.9180    23.3330     2.5050 
  166.2500   -22.2660    43.5690    15.0210    12.1050    10.1970    23.5230     2.5060 
  166.3750   -22.2010    43.9240    15.1120    12.1400     9.7640    23.6450     2.4990 
  166.5000   -22.0950    45.1720    15.4210    12.3420    10.3550    23.6790     2.4890 
  166.6250   -22.0040    46.0390    15.8970    12.7060    11.3890    23.7320     2.4750 
  166.7500   -21.9140    45.3530    16.3880    13.1610    12.4920    23.8870     2.4580 
  166.8750   -21.8770    44.2690    16.7270    13.5690    13.6540    24.1310     2.4410 
  167.0000   -21.8300    45.0420    16.8430    13.8410    14.1930    24.3050     2.4300 
  167.1250   -21.8290    45.8720    16.7770    13.9530    13.4740    24.3880     2.4350 
  167.2500   -21.8750    45.0960    16.6370    13.9530    12.2920    24.4110     2.4560 
  167.3750   -21.9700    44.3230    16.4800    13.9040    12.1410    24.4260     2.4760 
  167.5000   -22.1340    45.1400    16.2290    13.7730    12.6200    24.4190     2.4880 
  167.6250   -22.3250    46.5520    15.7670    13.4780    13.2490    24.4080     2.4910 
  167.7500   -22.6140    47.8220    14.9720    12.9080    13.3270    24.3580     2.4820 
  167.8750   -22.9150    51.8630    13.9570    12.1280    12.6390    24.2450     2.4600 
  168.0000   -23.2710    59.2450    12.9080    11.2660    10.9940    24.1020     2.4210 
  168.1250   -23.6400    66.8590    12.0490    10.4980     9.6150    24.0810     2.3680 
  168.2500   -23.9930    70.8520    11.6150    10.0220     9.3710    24.1160     2.3080 
  168.3750   -24.3460    70.5910    11.6140     9.8700     9.3860    24.1410     2.2580 
  168.5000   -24.6800    68.6220    12.0440    10.0560     9.3680    24.2280     2.2300 
  168.6250   -25.0150    66.9140    12.8650    10.5610     9.6390    24.2950     2.2250 
  168.7500   -25.2870    64.5040    14.0610    11.3870    10.4600    24.2870     2.2500 
  168.8750   -25.5470    61.8680    15.5180    12.4460    11.5220    24.2820     2.3030 
  169.0000   -25.7560    59.9940    17.1900    13.7010    12.9700    24.3390     2.3770 
  169.1250   -25.9260    57.8960    19.0410    15.1180    14.4150    24.3880     2.4520 
  169.2500   -26.0580    56.7720    21.1020    16.7050    16.0810    24.3610     2.4880 
  169.3750   -26.1680    58.3920    23.4220    18.4750    18.0350    24.2800     2.4740 
  169.5000   -26.2240    62.0870    26.1020    20.4960    19.4570    24.2410     2.4220 
  169.6250   -26.2330    64.4090    29.2130    22.8150    20.8590    24.3110     2.3540 
  169.7500   -26.1810    62.9640    32.7740    25.4540    23.9440    24.4020     2.2890 
  169.8750   -26.0850    59.6270    36.4590    28.1940    29.0350    24.4400     2.2420 
  170.0000   -25.9850    57.4940    39.8610    30.7520    33.4580    24.4230     2.2150 
  170.1250   -25.8690    58.6450    42.5450    32.8210    34.7360    24.4460     2.2070 
  170.2500   -25.8030    60.8180    44.0620    34.0630    34.7040    24.5090     2.2120 
  170.3750   -25.7270    60.1220    44.5710    34.5580    34.0130    24.5590     2.2180 
  170.5000   -25.6920    57.7330    44.2180    34.3810    32.8340    24.5720     2.2190 
  170.6250   -25.6700    57.0150    43.1680    33.6360    32.5120    24.6220     2.2160 
  170.7500   -25.6690    57.9700    41.4850    32.3610    32.7610    24.6240     2.2140 
  170.8750   -25.6890    58.2640    39.4270    30.7560    31.3340    24.5360     2.2200 
  171.0000   -25.6870    58.1040    37.1840    28.9700    27.8080    24.5170     2.2340 
  171.1250   -25.6960    59.2060    34.9840    27.1880    24.7940    24.6170     2.2530 
  171.2500   -25.6660    61.4820    33.1680    25.6890    21.9050    24.6470     2.2720 
  171.3750   -25.6450    61.8680    31.9430    24.6590    21.4330    24.5590     2.2800 
  171.5000   -25.5970    60.7340    31.4400    24.2280    21.6580    24.4880     2.2780 
  171.6250   -25.5400    60.6650    31.6350    24.4040    22.7530    24.4490     2.2770 
  171.7500   -25.4680    60.7070    32.4190    25.1270    26.7160    24.3850     2.3090 
  171.8750   -25.4030    57.4300    33.3740    26.0510    32.4810    24.2990     2.3830 
  172.0000   -25.3430    51.6440    34.1540    26.8660    33.4920    24.1280     2.4750 
  172.1250   -25.2910    47.7190    34.4890    27.2970    28.3140    23.9110     2.5300 
  172.2500   -25.2280    50.1320    34.2350    27.1360    24.2370    23.7850     2.5070 
  172.3750   -25.1490    55.1430    33.6390    26.5780    22.2230    23.8930     2.4490 
  172.5000   -25.0880    59.0600    32.9040    25.8260    22.0340    24.0840     2.3900 
  172.6250   -25.0060    60.0780    32.1930    25.0870    21.4310    24.1790     2.3540 
  172.7500   -24.9600    59.4570    31.6120    24.5540    21.0970    24.1090     2.3430 
  172.8750   -24.8880    58.8980    31.1530    24.2590    21.2390    23.9950     2.3380 
  173.0000   -24.8490    58.4220    30.8610    24.2320    21.5990    23.9230     2.3340 
  173.1250   -24.8130    57.2060    30.8300    24.5230    21.7550    23.9560     2.3320 
  173.2500   -24.7910    56.0530    31.0940    25.1630    22.6760    23.9880     2.3240 
  173.3750   -24.7590    56.3990    31.2980    25.8570    23.7330    24.0620     2.3010 
  173.5000   -24.7140    58.5080    30.9340    26.1710    23.7690    24.1740     2.2660 
  173.6250   -24.7240    60.8720    29.4650    25.5960    23.4040    24.1560     2.2320 
  173.7500   -24.7190    61.5720    26.3840    23.5440    22.2150    24.0340     2.2130 
  173.8750   -24.7550    61.6560    22.2960    20.4010    18.6540    23.9210     2.2170 
  174.0000   -24.7860    63.3660    17.9730    16.8090    14.0780    23.9400     2.2380 
  174.1250   -24.8230    66.3070    14.1370    13.4500    11.0530    24.0150     2.2700 
  174.2500   -24.8800    69.6700    11.3330    10.8650     8.7500    24.0320     2.3030 
  174.3750   -24.9490    73.3490     9.4530     9.0460     6.7570    23.9220     2.3310 
  174.5000   -25.0230    77.2950     8.3680     7.9250     5.8940    23.7940     2.3490 
  174.6250   -25.0510    80.0710     7.9220     7.3870     5.7380    23.7200     2.3570 
  174.7500   -25.0710    78.2190     8.0560     7.3860     5.8850    23.7000     2.3600 
  174.8750   -25.0550    74.6760     8.5810     7.7480     6.3350    23.7220     2.3580 
  175.0000   -25.0250    72.7240     9.4090     8.4010     6.9880    23.7690     2.3520 
  175.1250   -24.9610    72.1460    10.4270     9.2580     7.6520    23.8700     2.3410 
  175.2500   -24.8890    70.8620    11.5050    10.2180     8.3610    23.8350     2.3310 
  175.3750   -24.8100    68.1110    12.5490    11.1680     9.2760    23.8960     2.3230 
  175.5000   -24.7490    65.1670    13.5790    12.0840    10.2210    24.0460     2.3150 
  175.6250   -24.6950    63.1760    14.7180    13.0280    11.1000    24.2520     2.3010 
