~V
VERS. 2.00: Ver 2.00
~W
STRT.M 52.0000:
STOP.M 238.0000:
STEP.M 0.1250:
NULL. -999.2500:
UWI. F10653:
~C
DEPT.M :
GR.API :
RML.OHMM :
RI. :
RXO.OHMM :
CALI.CM :
DEN.GM/CC :
SP.MV :
~A
# ...
  187.0000    56.8660    34.5950    29.0860    37.7260    24.0140     2.2290   -13.7060 
  187.1250    56.1940    34.5770    29.4370    37.6900    24.0100     2.2450   -13.4380 
  187.2500    54.1520    34.4120    29.5800    37.4060    24.0170     2.2590   -13.2100 
  187.3750    51.0730    34.2800    29.5060    37.4980    24.0110     2.2620   -12.9770 
  187.5000    51.0700    34.3080    29.3220    36.6680    23.9870     2.2520   -12.7320 
  187.6250    54.8750    34.4920    29.1440    35.9110    23.9390     2.2360   -12.5370 
  187.7500    57.7160    34.4570    28.9340    35.3660    23.8360     2.2300   -12.3640 
  187.8750    57.3200    33.7750    28.5570    35.8680    23.7710     2.2450   -12.2050 
  188.0000    55.3450    32.1670    27.8540    37.4670    23.7900     2.2730   -12.0690 
  188.1250    54.3170    29.4880    26.4740    35.7870    23.7700     2.2950   -11.9650 
  188.2500    54.3170    26.2700    24.4330    29.1320    23.6820     2.2980   -11.8690 
  188.3750    56.4940    22.9310    21.9070    22.9760    23.6390     2.2840   -11.7690 
  188.5000    60.3930    19.7890    19.1240    20.2520    23.6270     2.2680   -11.7120 
  188.6250    62.5850    17.1410    16.3350    18.4330    23.5870     2.2710   -11.6970 
  188.7500    61.8750    15.0100    13.8920    15.6510    23.5230     2.2920   -11.6580 
  188.8750    60.8370    13.4650    12.0480    12.5520    23.4930     2.3230   -11.6560 
  189.0000    61.5610    12.5720    10.9660    11.4510    23.5080     2.3470   -11.6960 
  189.1250    62.9220    12.5480    10.8710    12.3630    23.5590     2.3570   -11.7350 
  189.2500    63.7860    13.3750    11.6260    14.3760    23.5730     2.3580   -11.7860 
  189.3750    63.9720    15.0390    13.1820    16.8550    23.5210     2.3520   -11.8460 
  189.5000    62.5580    17.4140    15.4040    18.8090    23.4240     2.3400   -11.8880 
  189.6250    60.3110    20.1480    17.9900    23.6130    23.3420     2.3210   -11.9110 
  189.7500    58.8370    22.5450    20.3260    25.1700    23.3010     2.2970   -11.9290 
  189.8750    57.3680    24.1190    21.9330    24.8760    23.3080     2.2740   -11.9140 
  190.0000    55.6800    24.7150    22.6760    24.9030    23.3530     2.2580   -11.9150 
  190.1250    56.1460    24.5540    22.7480    25.0840    23.3920     2.2540   -11.8830 
  190.2500    59.3140    24.2440    22.6490    24.8550    23.3700     2.2540   -11.7790 
  190.3750    62.4930    24.0800    22.6020    24.3010    23.3210     2.2530   -11.6830 
  190.5000    62.8910    24.1510    22.6540    24.1330    23.2630     2.2480   -11.6310 
  190.6250    61.4590    24.2960    22.7300    24.3230    23.2170     2.2470   -11.5640 
  190.7500    60.9110    24.2690    22.7210    25.2750    23.2130     2.2550   -11.5340 
  190.8750    60.2950    23.9110    22.5150    25.5310    23.2270     2.2710   -11.5410 
  191.0000    57.7200    23.1650    21.9980    25.0920    23.2490     2.2920   -11.5170 
  191.1250    54.8600    22.1310    21.1410    23.1930    23.2790     2.3120   -11.5330 
  191.2500    53.5950    21.0740    20.1470    21.7520    23.3030     2.3280   -11.6370 
  191.3750    53.8760    20.1820    19.2020    20.8540    23.3030     2.3360   -11.7560 
  191.5000    56.1270    19.5520    18.4380    20.5540    23.2760     2.3290   -11.8490 
  191.6250    59.9250    19.2240    17.8530    19.8600    23.2580     2.3070   -11.9860 
  191.7500    62.0780    19.0940    17.3620    19.4730    23.2520     2.2810   -12.1160 
  191.8750    61.6350    19.0510    16.9360    19.4450    23.2510     2.2630   -12.2510 
  192.0000    60.9980    19.0140    16.5780    19.3350    23.2380     2.2550   -12.4010 
  192.1250    61.5920    18.9480    16.3800    18.7460    23.1720     2.2510   -12.5440 
  192.2500    63.5420    18.8890    16.3440    18.3640    23.0480     2.2450   -12.6710 
  192.3750    65.4460    18.9220    16.4500    18.1440    22.9370     2.2420   -12.7660 
  192.5000    65.8090    19.1050    16.6870    18.3890    22.8670     2.2470   -12.8130 
  192.6250    64.2580    19.4930    17.0410    18.8560    22.8170     2.2580   -12.8190 
  192.7500    62.7280    19.9820    17.4560    19.1580    22.7530     2.2610   -12.8050 
  192.8750    62.7400    20.4790    17.8490    19.1930    22.7080     2.2550   -12.7080 
  193.0000    63.9400    20.9440    18.1020    18.8010    22.6550     2.2460   -12.5590 
  193.1250    63.7980    21.3920    18.2000    18.2510    22.5540     2.2510   -12.4070 
  193.2500    61.2370    21.9490    18.2840    18.3780    22.4730     2.2720   -12.2180 
  193.3750    57.5340    22.7150    18.5180    19.2400    22.4570     2.2990   -12.0390 
  193.5000    55.0160    23.7470    19.0670    20.4020    22.4820     2.3170   -11.9330 
  193.6250    53.4200    25.0850    20.1270    22.7880    22.5370     2.3140   -11.8540 
  193.7500    52.4660    26.5790    21.5590    26.1790    22.6830     2.3020   -11.7880 
  193.8750    53.6420    28.1330    23.1960    28.8450    22.8380     2.2930   -11.8030 
  194.0000    55.6910    29.6520    24.8710    30.1810    22.9290     2.2930   -11.9050 
  194.1250    56.7730    31.1100    26.5080    32.2830    22.9630     2.2940   -12.0320 
  194.2500    56.7200    32.5950    28.0700    33.1840    22.9750     2.2880   -12.2110 
  194.3750    55.7620    34.0540    29.5080    33.0880    23.0090     2.2760   -12.4410 
  194.5000    54.2780    35.2530    30.6310    34.3860    23.0030     2.2650   -12.6520 
  194.6250    52.5670    35.6010    30.9630    36.9410    22.9580     2.2630   -12.8800 
  194.7500    52.8780    34.9140    30.4590    38.7700    22.8950     2.2670   -13.1290 
  194.8750    56.5800    33.4300    29.3590    36.8040    22.8110     2.2690   -13.3420 
  195.0000    60.2870    31.7260    28.0490    31.1700    22.7310     2.2640   -13.5460 
  195.1250    60.8820    30.5950    26.9670    26.6120    22.7240     2.2520   -13.7390 
  195.2500    59.1240    30.3420    26.3430    24.9200    22.7260     2.2450   -13.8550 
  195.3750    57.2170    30.9830    26.3020    25.9280    22.7200     2.2490   -13.9210 
  195.5000    55.8620    32.3740    26.8550    29.2960    22.7800     2.2620   -13.9820 
  195.6250    55.0000    34.2320    28.0270    33.0120    22.9820     2.2780   -13.9530 
  195.7500    56.0620    36.1540    29.6090    34.8960    23.2410     2.2920   -13.8910 
  195.8750    56.8170    38.0210    31.4480    37.1800    23.4280     2.3020   -13.8570 
  196.0000    56.2390    40.0010    33.5890    39.8690    23.5080     2.3020   -13.7700 
  196.1250    54.7920    42.7440    36.4560    41.4710    23.4940     2.2880   -13.6490 
  196.2500    53.9000    46.7700    40.3530    44.4620    23.4700     2.2650   -13.5730 
  196.3750    53.4840    52.4060    45.5600    52.5040    23.4490     2.2430   -13.4840 
  196.5000    51.9600    59.0900    51.8110    72.0130    23.4510     2.2350   -13.3340 
  196.6250    48.6410    63.3680    56.7940    99.9120    23.5330     2.2600   -13.1980 
  196.7500    45.6100    60.5400    56.6830   124.3510    23.6790     2.3190   -13.0420 
  196.8750    44.4150    49.4110    49.2290   123.9890    23.8370     2.4050   -12.7750 
  197.0000    44.7840    34.7540    36.6570    89.7370    23.9160     2.5020   -12.4390 
  197.1250    46.8890    22.8880    24.5440    47.7600    23.8600     2.5760   -12.0660 
  197.2500    50.9400    15.0130    15.8560    23.0990    23.6850     2.6010   -11.6070 
  197.3750    54.1840    10.3120     9.6920    11.3650    23.5050     2.5740   -11.1210 
  197.5000    53.8220     7.7170     6.7170     8.5800    23.4750     2.5160   -10.7080 
  197.6250    51.4400     6.5480     5.5480     7.7560    23.5150     2.4630   -10.3230 
  197.7500    49.6660     5.9990     4.9990     6.4300    23.5210     2.4350    -9.9860 
  197.8750    48.3710     5.7070     4.7070     5.4160    23.4760     2.4290    -9.7360 
  198.0000    45.7460     5.4220     4.4220     5.1900    23.4330     2.4290    -9.5630 
  198.1250    43.3320     5.0300     4.0300     5.4160    23.4650     2.4170    -9.4840 
