~V
VERS. 2.00: Ver 2.00
~W
STRT.M 55.0000:
STOP.M 213.0000:
STEP.M 0.1250:
NULL. -999.2500:
UWI. F10686:
~C
DEPT.M :
SP.MV :
DEN.GM/CC :
GR.API :
RML.OHMM :
RI. :
RXO.OHMM :
CALI.CM :
~A
# ...
   77.5000   -14.3100     2.3460    58.6290     9.8200     7.8500     7.6390    23.4630 
   77.6250   -13.8520     2.3810    56.2570    12.8890    10.0810     9.5910    23.0530 
   77.7500   -13.3780     2.3700    53.6090    16.2840    12.8420    10.4780    22.5200 
   77.8750   -12.8910     2.3160    51.9280    19.1560    15.5360     9.7490    22.2020 
   78.0000   -12.4160     2.2440    51.1130    20.7200    17.4010     8.8760    22.1630 
   78.1250   -11.9240     2.1910    49.9070    20.7060    17.9190     8.7640    22.2710 
   78.2500   -11.4880     2.1660    48.7860    20.0740    17.7070     8.8550    22.3520 
   78.3750   -11.1510     2.1560    49.1720    19.4960    17.3180     8.8630    22.4060 
   78.5000   -10.8760     2.1470    50.8280    19.3050    17.1030     8.9190    22.4320 
   78.6250   -10.6130     2.1330    51.5130    19.6140    17.2240     9.3680    22.4920 
   78.7500   -10.3870     2.1230    50.7680    20.3030    17.6370    10.2600    22.6060 
   78.8750   -10.2160     2.1290    49.8150    21.3360    18.3420    11.0700    22.6450 
   79.0000   -10.0990     2.1560    48.5860    22.6290    19.3050    10.6990    22.6010 
   79.1250    -9.9780     2.1960    45.9380    23.9710    20.4000    10.2360    22.4140 
   79.2500    -9.8240     2.2270    42.6940    25.0460    21.3640    10.0000    22.2350 
   79.3750    -9.6560     2.2390    42.8380    25.6010    21.9590     9.6540    22.0340 
   79.5000    -9.5060     2.2300    47.9700    25.5130    22.0300     9.0370    21.9620 
   79.6250    -9.4440     2.2100    51.7320    24.8010    21.5210     8.6370    21.9540 
   79.7500    -9.4560     2.1920    49.3910    23.8410    20.7280     8.4530    22.0060 
   79.8750    -9.4950     2.1800    44.6470    22.9360    19.8930     8.3300    22.0510 
   80.0000    -9.5890     2.1730    43.5100    22.3900    19.2530     8.2400    22.1380 
   80.1250    -9.8050     2.1680    47.0410    22.7360    19.1960     8.2400    22.2620 
   80.2500   -10.0740     2.1700    50.4350    24.2500    19.9730     8.4250    22.3550 
   80.3750   -10.3870     2.1890    51.2350    27.0830    21.8060     8.8940    22.4900 
   80.5000   -10.7780     2.2340    49.2380    30.9820    24.6830    10.1380    22.7010 
   80.6250   -11.2070     2.3080    47.1150    34.8510    28.0550    15.1680    22.9680 
   80.7500   -11.6680     2.3800    47.3060    36.8310    30.4100    28.2660    23.1360 
   80.8750   -12.1880     2.4180    49.5790    35.5310    30.3240    41.3840    23.0420 
   81.0000   -12.7230     2.4010    52.1460    31.1430    27.4850    30.9230    22.8280 
   81.1250   -13.2140     2.3340    53.0770    25.7050    23.2160    17.8750    22.8170 
   81.2500   -13.7350     2.2740    52.8410    21.4510    19.5220    11.8720    22.8060 
   81.3750   -14.3020     2.2600    51.9280    19.0040    17.1020    10.0180    22.7960 
   81.5000   -14.8690     2.3040    50.2220    18.1730    15.9790     9.2440    22.7620 
   81.6250   -15.4110     2.3870    48.9210    18.4140    15.9120    10.1380    22.7040 
   81.7500   -15.9520     2.4560    50.0050    18.6860    16.1260    14.2010    23.0660 
   81.8750   -16.4610     2.4710    51.5380    18.3290    16.0260    20.5570    23.5260 
   82.0000   -16.8820     2.4240    50.7560    17.1550    15.3070    21.2890    23.6470 
   82.1250   -17.2490     2.3430    48.5620    15.6920    14.2250    14.9110    23.5410 
   82.2500   -17.5490     2.2850    48.8400    14.8280    13.4500    10.0890    23.2780 
   82.3750   -17.7170     2.2810    51.1190    15.0320    13.3950     8.6260    22.9950 
   82.5000   -17.7890     2.3300    52.4820    16.3490    14.2410     9.4040    22.7250 
   82.6250   -17.7540     2.4040    51.2800    18.2780    15.8490    13.1080    22.6650 
   82.7500   -17.6080     2.4630    50.3510    19.4980    17.1690    17.6650    22.8630 
   82.8750   -17.4170     2.4910    51.0890    18.9080    17.0850    15.9890    23.0210 
   83.0000   -17.2870     2.4860    53.7300    16.4120    15.2710    11.4200    23.0480 
   83.1250   -17.2380     2.4480    58.0900    13.1990    12.5980     9.4790    23.0480 
   83.2500   -17.2220     2.3910    62.3440    10.6460    10.2900     8.1270    23.0480 
   83.3750   -17.2430     2.3260    64.3940     9.0770     8.6970     6.7650    23.0470 
   83.5000   -17.2550     2.2660    62.5280     8.2870     7.7520     6.3460    23.0400 
   83.6250   -17.2820     2.2290    58.6090     7.9230     7.2510     7.0350    23.0000 
   83.7500   -17.3240     2.2160    58.7590     7.6210     6.8960     7.3090    22.9220 
   83.8750   -17.3480     2.2220    63.8860     7.2930     6.5880     6.5500    22.8970 
   84.0000   -17.3200     2.2420    69.6840     6.9940     6.3200     5.5160    22.8860 
   84.1250   -17.2240     2.2710    70.7520     6.8840     6.1800     5.2050    22.8840 
   84.2500   -17.1210     2.2990    68.2830     6.9980     6.2000     5.7900    22.8460 
   84.3750   -17.0590     2.3190    65.7320     7.2740     6.3620     6.7390    22.8160 
   84.5000   -17.0190     2.3230    64.6170     7.6000     6.6010     6.7670    22.8330 
   84.6250   -17.0040     2.3110    64.2030     7.8780     6.8440     6.2970    22.9670 
   84.7500   -17.0280     2.2990    64.1870     8.1290     7.0720     5.9560    23.1480 
   84.8750   -17.0510     2.2950    64.3880     8.4380     7.3260     6.0860    23.1940 
   85.0000   -17.0720     2.3020    64.1840     8.8660     7.6530     6.5170    23.2000 
   85.1250   -17.1410     2.3090    62.1150     9.3510     8.0340     7.5210    23.1830 
   85.2500   -17.1910     2.3060    60.6250     9.6860     8.3250     8.2100    23.1100 
   85.3750   -17.2080     2.2910    62.4460     9.7060     8.3790     7.6840    23.0500 
   85.5000   -17.2410     2.2780    66.6360     9.3650     8.1280     7.0480    23.0650 
   85.6250   -17.2140     2.2850    69.0590     8.7560     7.6090     6.5620    23.1840 
   85.7500   -17.1370     2.3100    68.5460     8.1670     7.0440     6.0350    23.4460 
   85.8750   -17.0830     2.3380    67.0610     7.7960     6.6000     5.7160    23.4840 
   86.0000   -17.0630     2.3500    66.2370     7.7300     6.3690     5.8160    23.3200 
   86.1250   -17.0260     2.3340    65.4330     7.9770     6.3880     6.1550    23.2170 
   86.2500   -17.0040     2.3080    63.6000     8.3850     6.5650     6.9230    23.1580 
   86.3750   -16.9770     2.2840    61.9140     8.8320     6.8290     8.0980    22.9700 
   86.5000   -16.9200     2.2750    60.9270     9.2230     7.1080     9.1300    22.7110 
   86.6250   -16.9320     2.2820    60.0940     9.5690     7.3800     7.8460    22.7070 
   86.7500   -16.9900     2.2920    60.4150    10.0180     7.7180     7.3940    22.8750 
   86.8750   -17.0150     2.2880    61.7530    10.7320     8.2280     7.8830    23.1900 
   87.0000   -16.9800     2.2540    60.5270    11.8470     9.0080     8.7360    23.2170 
   87.1250   -16.9010     2.1900    55.5010    13.5120    10.1920     8.5130    23.1450 
   87.2500   -16.8140     2.1200    52.2610    15.5530    11.7020     8.8880    23.1410 
   87.3750   -16.7130     2.0680    54.0700    17.6190    13.3520    10.5490    23.1880 
   87.5000   -16.6300     2.0490    56.7330    19.0850    14.7290    14.0510    23.2620 
   87.6250   -16.5790     2.0670    55.1900    18.9120    15.0210    16.6800    23.2740 
   87.7500   -16.5100     2.1050    51.7200    17.0170    13.9830    13.7070    23.2770 
   87.8750   -16.4820     2.1530    50.5500    13.9410    11.9020    10.5800    23.2770 
   88.0000   -16.5430     2.2030    52.9290    10.6820     9.4810     8.7310    23.2770 
   88.1250   -16.6350     2.2490    56.0660     8.2540     7.4680     6.9980    23.2770 
   88.2500   -16.7490     2.2880    60.3470     6.8370     6.1090     5.5790    23.2770 
   88.3750   -16.9000     2.3200    65.3100     6.3280     5.4130     4.9760    23.2770 
   88.5000   -17.0350     2.3500    68.4930     6.5270     5.2930     4.9380    23.2750 
   88.6250   -17.1460     2.3810    68.6030     7.2620     5.6770     5.2520    23.2280 
