~V
VERS. 2.00: Ver 2.00
~W
STRT.M 58.0000:
STOP.M 240.0000:
STEP.M 0.1250:
NULL. -999.2500:
UWI. F10642:
~C
DEPT.M :
SP.MV :
GR.API :
RML.OHMM :
RI. :
RXO.OHMM :
CALI.CM :
DEN.GM/CC :
~A
# ...
  103.0000   -27.9780    85.2890     6.4070     5.2190     5.3470    23.5470     2.3610 
  103.1250   -27.9420    88.3670     6.0880     4.9490     5.7820    23.6050     2.3630 
  103.2500   -27.8380    90.4580     5.9590     4.8030     5.4210    23.5220     2.3570 
  103.3750   -27.7110    89.7900     6.1370     4.8590     5.0880    23.1900     2.3480 
  103.5000   -27.5330    86.2950     6.7700     5.2190     5.2110    22.7590     2.3390 
  103.6250   -27.3440    81.6260     8.0690     6.0690     6.0430    22.4820     2.3400 
  103.7500   -27.1580    75.7730     9.9010     7.3770     7.4270    22.4890     2.3600 
  103.8750   -26.9990    68.0220    11.9750     9.0100     9.0080    22.7060     2.3960 
  104.0000   -26.8680    62.2430    13.7300    10.6050    11.0000    22.8860     2.4290 
  104.1250   -26.7620    61.7000    14.3770    11.5200    12.4520    22.9260     2.4220 
  104.2500   -26.7000    63.2150    14.0670    11.6480    11.4750    22.9170     2.3700 
  104.3750   -26.6690    64.4800    13.3590    11.2870     9.2810    22.9510     2.2950 
  104.5000   -26.6910    63.6820    12.8110    10.8530     8.5650    23.0740     2.2210 
  104.6250   -26.7580    59.9550    12.7430    10.6590     9.3260    23.1810     2.1650 
  104.7500   -26.8520    56.4070    13.0160    10.7140    10.8430    23.2350     2.1300 
  104.8750   -26.9610    56.2080    13.4110    10.9110    12.2900    23.3790     2.1160 
  105.0000   -27.0810    57.0690    13.6940    11.0850    10.4880    23.6640     2.1230 
  105.1250   -27.1770    55.8360    13.6830    11.0690     9.3870    23.8200     2.1370 
  105.2500   -27.2490    55.1330    13.4340    10.8740     8.9950    23.8050     2.1450 
  105.3750   -27.2750    55.3280    13.0030    10.5530     8.9370    23.6640     2.1420 
  105.5000   -27.2340    54.7070    12.4310    10.1550     8.5030    23.3460     2.1270 
  105.6250   -27.0950    53.9970    11.8040     9.7530     8.1010    22.8550     2.1000 
  105.7500   -26.8680    56.3050    11.3880     9.4910     7.7540    22.4060     2.0640 
  105.8750   -26.5580    59.4910    11.5790     9.5890     7.4210    22.2650     2.0360 
  106.0000   -26.1470    60.0010    12.8730    10.3710     7.5920    22.4290     2.0430 
  106.1250   -25.6000    56.6560    16.0690    12.5240     8.6940    22.5600     2.1260 
  106.2500   -24.9330    52.8080    21.0650    16.2190    13.1090    22.6830     2.2870 
  106.3750   -24.1330    50.6370    26.9040    21.0280    26.3310    22.9130     2.4860 
  106.5000   -23.2120    50.4070    30.4780    24.8630    52.0730    23.2200     2.6420 
  106.6250   -22.1620    52.5850    26.9650    23.6030    63.5530    23.4720     2.6710 
  106.7500   -21.1180    57.5260    19.5220    18.4300    40.4070    23.5510     2.6210 
  106.8750   -20.1390    65.8520    12.7290    12.7670    17.6680    23.5840     2.5470 
  107.0000   -19.2570    76.4110     8.3970     8.6390     7.2130    23.6500     2.4830 
  107.1250   -18.5450    85.1510     6.4180     6.4340     5.0940    23.6260     2.4510 
  107.2500   -17.9750    90.0130     5.6230     5.3250     5.0300    23.3640     2.4420 
  107.3750   -17.5870    90.7720     5.4880     4.8940     5.6960    22.9940     2.4340 
  107.5000   -17.4010    88.1820     5.6350     4.8390     6.2800    22.6220     2.4130 
  107.6250   -17.4500    85.3260     5.7480     4.8980     5.8660    22.3790     2.3780 
  107.7500   -17.5840    84.5830     5.6770     4.8670     5.3670    22.1490     2.3410 
  107.8750   -17.7510    84.5220     5.4630     4.7250     4.9450    21.9110     2.3150 
  108.0000   -17.9380    82.4830     5.2420     4.5480     4.9500    21.7190     2.3080 
  108.1250   -18.1460    80.7900     5.1720     4.4650     5.2320    21.7090     2.3230 
  108.2500   -18.3590    83.2130     5.3120     4.5440     5.4740    21.9050     2.3520 
  108.3750   -18.5640    86.5110     5.7010     4.8170     5.5870    22.1970     2.3840 
  108.5000   -18.7380    84.6460     6.3530     5.2940     5.8810    22.5390     2.3960 
  108.6250   -18.8740    76.6990     7.2920     5.9970     6.7980    23.0430     2.3720 
  108.7500   -18.9880    69.4890     8.4110     6.8540     7.8430    23.6410     2.3220 
  108.8750   -19.0700    64.4390     9.5980     7.7930     8.5140    23.9940     2.2570 
  109.0000   -19.1220    60.2930    10.7200     8.7170     8.6980    23.8820     2.1930 
  109.1250   -19.1100    58.0740    11.5980     9.4910     8.5550    23.5200     2.1410 
  109.2500   -19.0890    59.3340    12.1260    10.0080     8.5230    23.5690     2.1090 
  109.3750   -19.0030    62.4170    12.1690    10.1390     8.8030    23.8970     2.1060 
  109.5000   -18.8780    62.6720    11.6150     9.7810     9.2640    24.1710     2.1340 
  109.6250   -18.6610    60.5730    10.4140     8.8740     9.8250    24.0350     2.1890 
  109.7500   -18.3900    62.5200     8.9300     7.7000     9.5940    23.6020     2.2510 
  109.8750   -18.0860    71.1610     7.5000     6.5140     7.5970    23.2460     2.3080 
  110.0000   -17.7730    83.7630     6.3930     5.5250     5.2650    23.0920     2.3510 
  110.1250   -17.4700    90.7070     5.8040     4.8850     4.3320    23.0130     2.3780 
  110.2500   -17.1840    88.8720     5.6300     4.5500     4.3070    22.9140     2.3950 
  110.3750   -16.9590    83.5220     5.7660     4.4730     4.6470    22.8270     2.4050 
  110.5000   -16.8090    80.3850     6.0590     4.5770     4.9170    22.7910     2.4080 
  110.6250   -16.7560    80.1860     6.3060     4.7520     4.9830    22.8630     2.4070 
  110.7500   -16.7850    79.0620     6.3910     4.8790     5.1390    23.0560     2.4040 
  110.8750   -16.8590    77.5440     6.3290     4.9280     5.4540    23.2290     2.4000 
  111.0000   -16.9620    76.8810     6.2170     4.9260     5.6220    23.2880     2.3880 
  111.1250   -17.0620    79.5710     6.1890     4.9360     5.5260    23.3590     2.3680 
  111.2500   -17.1260    86.1400     6.3340     5.0320     5.5480    23.5170     2.3420 
  111.3750   -17.1450    91.3270     6.7010     5.2710     6.1060    23.6570     2.3120 
  111.5000   -17.0960    89.5660     7.2790     5.6770     7.2950    23.7290     2.2780 
  111.6250   -16.9690    83.3160     7.9910     6.2290     7.5810    23.7170     2.2370 
  111.7500   -16.7720    78.6980     8.6440     6.7830     7.6100    23.7590     2.2010 
  111.8750   -16.5390    75.4960     9.0560     7.1870     8.5540    23.8890     2.1850 
  112.0000   -16.2720    72.3710     9.0900     7.3160     9.3520    24.1400     2.1990 
  112.1250   -15.9960    71.7980     8.7200     7.1150     8.6620    24.3220     2.2450 
  112.2500   -15.7200    73.6300     8.1860     6.7600     7.3130    24.3480     2.2920 
  112.3750   -15.4530    77.2250     7.6640     6.3820     6.9730    24.2880     2.3170 
  112.5000   -15.1920    80.2270     7.2760     6.0790     6.7890    24.1230     2.3180 
  112.6250   -14.9780    81.5930     7.0930     5.9140     6.3830    23.7040     2.3090 
  112.7500   -14.7830    82.6390     7.0350     5.8420     6.0710    23.1370     2.3120 
  112.8750   -14.6190    84.3810     7.0270     5.8060     5.8990    22.6320     2.3310 
  113.0000   -14.4650    85.9480     7.0130     5.7560     5.8790    22.3670     2.3590 
  113.1250   -14.3490    84.9830     6.9520     5.6630     6.1530    22.3070     2.3800 
  113.2500   -14.2270    83.8650     6.8250     5.5350     6.1480    22.2800     2.3820 
  113.3750   -14.1230    84.3820     6.6250     5.3740     6.0430    22.4590     2.3670 
  113.5000   -14.0320    86.3670     6.3640     5.1890     5.6770    22.8810     2.3420 
  113.6250   -13.9420    87.4980     6.0980     5.0010     5.3760    23.4030     2.3190 
  113.7500   -13.8520    88.1610     5.9040     4.8490     5.2800    23.8310     2.3050 
  113.8750   -13.7390    90.8960     5.8290     4.7710     5.2880    24.2140     2.2990 
  114.0000   -13.6110    96.1870     5.8770     4.7870     5.3480    24.4630     2.2990 
  114.1250   -13.4440    99.5070     6.0430     4.9080     5.5410    24.5650     2.3030 
