~V
VERS. 2.00: Ver 2.00
~W
STRT.M 57.0000:
STOP.M 248.0000:
STEP.M 0.1250:
NULL. -999.2500:
UWI. F10637:
~C
DEPT.M :
SP.MV :
GR.API :
RML.OHMM :
RI. :
RXO.OHMM :
CALI.CM :
DEN.GM/CC :
~A
# ...
   90.7500   -26.2670    51.3390    10.6610     8.0970     8.7180    23.6980     2.1350 
   90.8750   -26.2170    50.9740    10.5390     7.9400     9.2500    23.8080     2.1370 
   91.0000   -26.1610    51.6460    10.3540     7.7460     9.7050    23.9020     2.1400 
   91.1250   -26.1020    50.2500    10.1120     7.5280     9.8970    23.9850     2.1470 
   91.2500   -26.0370    47.2830     9.9140     7.3450     9.7400    24.0920     2.1550 
   91.3750   -25.9620    46.3860     9.9850     7.3180     9.2170    24.2670     2.1580 
   91.5000   -25.8760    48.0750    10.6450     7.6270     8.8300    24.4800     2.1530 
   91.6250   -25.7740    49.4140    12.2660     8.4980     8.4980    24.7440     2.1500 
   91.7500   -25.6580    49.6360    15.3480    10.3320     8.0720    24.9500     2.1700 
   91.8750   -25.5360    50.7380    19.5270    13.0850    24.8810    24.9020     2.2310 
   92.0000   -25.4100    52.3210    23.8300    16.3380    69.9150    24.6120     2.3360 
   92.1250   -25.2870    51.9800    26.3360    18.8410    58.7620    24.2070     2.4530 
   92.2500   -25.1890    49.8820    24.6890    18.5820    21.0750    23.9690     2.5000 
   92.3750   -25.1230    49.5570    20.4880    16.1680    12.1130    23.7300     2.4600 
   92.5000   -25.0940    51.6840    16.0830    13.1410    10.4950    23.5320     2.3690 
   92.6250   -25.1040    53.8320    12.8950    10.6290     9.5480    23.4640     2.2760 
   92.7500   -25.1520    55.7180    11.2960     9.0920     9.1440    23.4910     2.2130 
   92.8750   -25.2220    58.2370    10.6310     8.2620     8.8760    23.5450     2.1790 
   93.0000   -25.3100    58.8740    10.4970     7.9320     8.1730    23.5840     2.1630 
   93.1250   -25.3990    56.4330    10.5840     7.8990     8.0000    23.6000     2.1530 
   93.2500   -25.4730    54.8270    10.6870     8.0000     7.9740    23.6380     2.1440 
   93.3750   -25.5270    55.2980    10.7260     8.1050     8.1240    23.7300     2.1410 
   93.5000   -25.5590    56.2800    10.6980     8.1700     8.3690    23.8420     2.1460 
   93.6250   -25.5610    57.0340    10.6170     8.1780     8.6810    23.9000     2.1550 
   93.7500   -25.5320    57.9320    10.4900     8.1170     8.9300    23.9120     2.1610 
   93.8750   -25.4770    57.6690    10.3420     8.0110     9.1050    23.9120     2.1620 
   94.0000   -25.3950    56.3730    10.2040     7.8870     9.2540    23.8910     2.1600 
   94.1250   -25.2970    55.9220    10.1090     7.7740     9.3580    23.8220     2.1600 
   94.2500   -25.1880    55.8070    10.0960     7.7100     9.2630    23.7130     2.1640 
   94.3750   -25.0760    54.9860    10.1460     7.6990     8.9580    23.6480     2.1680 
   94.5000   -24.9600    54.4870    10.2300     7.7320     8.5440    23.6160     2.1660 
   94.6250   -24.8490    53.9070    10.3140     7.7860     8.1630    23.6110     2.1620 
   94.7500   -24.7500    52.2690    10.3670     7.8360     7.9330    23.6460     2.1580 
   94.8750   -24.6720    51.1220    10.3880     7.8650     7.8400    23.7240     2.1590 
   95.0000   -24.6160    52.2240    10.3820     7.8730     7.9350    23.8170     2.1620 
   95.1250   -24.5720    55.2240    10.3540     7.8640     8.2930    23.9340     2.1650 
   95.2500   -24.5240    56.6320    10.3180     7.8500     8.8520    24.1160     2.1640 
   95.3750   -24.4590    55.6140    10.3040     7.8560     9.3640    24.3420     2.1610 
   95.5000   -24.3660    52.4580    10.3580     7.9140     9.7020    24.5000     2.1590 
   95.6250   -24.2260    50.8070    10.5020     8.0500     9.8690    24.5260     2.1570 
   95.7500   -23.9990    54.1790    10.6730     8.2400     9.8850    24.4820     2.1600 
   95.8750   -23.6800    58.8940    10.7160     8.3660     9.7980    24.4780     2.1720 
   96.0000   -23.2590    62.4460    10.4980     8.3000     9.6080    24.5160     2.1940 
   96.1250   -22.7390    65.2540     9.9690     7.9700     9.3400    24.5920     2.2240 
   96.2500   -22.1160    68.6510     9.1940     7.3780     8.9480    24.6930     2.2500 
   96.3750   -21.4200    71.9190     8.4020     6.7050     7.6280    24.8390     2.2650 
   96.5000   -20.6770    74.8570     7.7370     6.0870     6.3490    25.0050     2.2710 
   96.6250   -19.9200    77.2840     7.2570     5.6040     5.6690    25.1550     2.2730 
   96.7500   -19.1930    77.8700     6.9830     5.3040     5.4810    25.2510     2.2730 
   96.8750   -18.5250    78.1100     6.8720     5.1550     5.5530    25.2850     2.2700 
   97.0000   -17.9310    78.5010     6.9300     5.1570     5.6780    25.2920     2.2610 
   97.1250   -17.4260    78.5880     7.1690     5.3140     5.7100    25.2860     2.2580 
   97.2500   -17.0430    77.9600     7.5960     5.6320     6.3200    25.2660     2.2870 
   97.3750   -16.7690    76.6740     8.1030     6.0330     7.1430    25.2100     2.3450 
   97.5000   -16.5950    73.5060     8.5590     6.4240     7.8520    25.0750     2.4060 
   97.6250   -16.5170    70.1410     8.8340     6.6960     8.1780    24.8290     2.4330 
   97.7500   -16.5340    70.3130     8.8670     6.7700     8.2300    24.5280     2.4020 
   97.8750   -16.6150    70.8710     8.8190     6.7450     8.2090    24.2390     2.3430 
   98.0000   -16.7530    69.0110     8.8510     6.7390     8.0490    24.0040     2.2830 
   98.1250   -16.9340    65.3250     9.0750     6.8600     7.6770    23.8540     2.2410 
   98.2500   -17.1380    61.8820     9.5330     7.1870     7.2410    23.7400     2.2190 
   98.3750   -17.3390    58.8070    10.0480     7.6240     6.9840    23.6600     2.2070 
   98.5000   -17.5190    56.1330    10.4010     8.0120     6.9770    23.6290     2.1980 
   98.6250   -17.6580    55.1360    10.4150     8.1750     7.1620    23.6150     2.1920 
   98.7500   -17.7400    58.0370    10.0270     7.9950     7.4290    23.6000     2.1890 
   98.8750   -17.7640    64.0710     9.4600     7.6120     7.6110    23.6190     2.1930 
   99.0000   -17.7190    71.6480     8.8830     7.1590     7.4530    23.6840     2.2020 
   99.1250   -17.6010    76.8550     8.3960     6.7380     6.5670    23.7730     2.2130 
   99.2500   -17.4050    76.6640     8.0160     6.3850     6.2380    23.7430     2.2270 
   99.3750   -17.1550    73.3760     7.6460     6.0470     5.8710    23.6120     2.2440 
   99.5000   -16.8670    70.5720     7.2100     5.6730     5.5180    23.5210     2.2660 
   99.6250   -16.5490    73.3520     6.6930     5.2440     5.1700    23.5800     2.2920 
   99.7500   -16.2100    80.9970     6.1750     4.8060     5.1380    23.6350     2.3190 
   99.8750   -15.8730    86.1580     5.7760     4.4440     5.0300    23.5610     2.3400 
  100.0000   -15.5630    85.4470     5.5780     4.2210     4.8950    23.4680     2.3480 
  100.1250   -15.3100    79.9090     5.6210     4.1760     4.8480    23.5580     2.3380 
  100.2500   -15.1560    75.6480     5.9570     4.3560     5.0830    23.8940     2.3130 
  100.3750   -15.0990    74.8910     6.5540     4.7390     5.6620    24.0820     2.2860 
  100.5000   -15.1400    77.3080     7.4330     5.3430     5.9950    24.1290     2.2670 
  100.6250   -15.2740    80.7610     8.6150     6.1860     6.2940    24.0880     2.2570 
  100.7500   -15.4990    82.5820    10.0490     7.2620     7.4790    23.9710     2.2490 
  100.8750   -15.7780    82.4330    11.4020     8.3550     9.0880    23.8420     2.2330 
  101.0000   -16.0890    78.8930    12.2410     9.1520    10.1610    23.7830     2.2090 
  101.1250   -16.4000    72.9840    12.1570     9.3070    10.3500    23.7990     2.1880 
  101.2500   -16.6650    68.8680    10.9830     8.6030    10.0230    23.8470     2.1840 
  101.3750   -16.8670    67.7000     9.4220     7.4950     9.6870    23.9280     2.1990 
  101.5000   -17.0070    69.0930     8.0600     6.4060     9.0250    24.0690     2.2290 
  101.6250   -17.0910    71.8240     7.2440     5.6240     5.1910    24.1900     2.2600 
  101.7500   -17.1270    72.8170     7.1690     5.3480     5.0550    24.2290     2.2740 
  101.8750   -17.1400    70.7360     7.6900     5.5270     5.1430    24.0660     2.2670 
