~V
VERS. 2.00: Ver 2.00
~W
STRT.M 56.0000:
STOP.M 256.0000:
STEP.M 0.1250:
NULL. -999.2500:
UWI. F10668:
~C
DEPT.M :
SP.MV :
GR.API :
RML.OHMM :
RI. :
RXO.OHMM :
CALI.CM :
DEN.GM/CC :
~A
# ...
  179.7500   -16.2470    47.0880    19.8510    17.0600    17.4570    23.6680     2.3820 
  179.8750   -16.3740    48.9240    19.2340    16.5890    16.2700    23.3660     2.3710 
  180.0000   -16.5440    48.4560    18.5710    16.0520    15.0860    23.5180     2.3620 
  180.1250   -16.7140    45.8770    18.0000    15.5580    14.6830    23.7910     2.3650 
  180.2500   -16.8840    42.4780    17.6230    15.1930    14.9960    24.0960     2.3780 
  180.3750   -17.0430    40.5610    17.5180    15.0270    16.2530    24.4780     2.3970 
  180.5000   -17.1720    41.1640    17.6220    15.0270    16.1880    24.6920     2.4190 
  180.6250   -17.2550    43.8230    17.8990    15.1710    15.3960    24.6630     2.4450 
  180.7500   -17.3140    45.6800    18.3080    15.4390    14.9460    24.5370     2.4670 
  180.8750   -17.3390    44.3780    18.7990    15.8090    15.7510    24.5080     2.4740 
  181.0000   -17.3270    41.2090    19.3030    16.2240    16.9010    24.5160     2.4720 
  181.1250   -17.2970    39.4410    19.8020    16.6640    17.7560    24.4830     2.4680 
  181.2500   -17.2430    41.1840    20.3290    17.1310    18.7300    24.3880     2.4650 
  181.3750   -17.1690    44.6870    20.9490    17.6560    20.2390    24.1850     2.4640 
  181.5000   -17.0880    47.4350    21.6460    18.2260    20.6790    23.9840     2.4600 
  181.6250   -16.9990    49.7590    22.3310    18.7800    20.5610    23.9540     2.4560 
  181.7500   -16.9030    51.6000    22.8540    19.2100    22.0030    24.2580     2.4530 
  181.8750   -16.7760    50.5920    23.0080    19.3610    23.3250    24.6560     2.4540 
  182.0000   -16.6910    48.4400    22.8000    19.2310    22.9360    24.9810     2.4530 
  182.1250   -16.6290    47.6320    22.3120    18.8710    21.6800    25.1040     2.4430 
  182.2500   -16.6070    47.4040    21.7090    18.3990    20.1230    25.0650     2.4250 
  182.3750   -16.6090    45.4260    21.1910    17.9640    19.6170    24.9040     2.4070 
  182.5000   -16.6570    43.6250    20.8490    17.6450    18.6700    24.7080     2.3970 
  182.6250   -16.7230    44.7370    20.6750    17.4460    17.0030    24.4110     2.3990 
  182.7500   -16.8350    48.9820    20.6190    17.3460    15.8090    24.0050     2.4090 
  182.8750   -17.0000    52.2900    20.6670    17.3500    16.1480    23.6630     2.4220 
  183.0000   -17.1540    52.6920    20.8170    17.4620    16.3280    23.4110     2.4310 
  183.1250   -17.3020    50.9580    21.0890    17.6930    15.9810    23.3130     2.4380 
  183.2500   -17.4230    48.8730    21.4680    18.0250    15.1600    23.4230     2.4400 
  183.3750   -17.5260    47.5760    21.9010    18.4040    15.8040    23.5100     2.4370 
  183.5000   -17.5950    46.5460    22.2890    18.7490    16.5360    23.5350     2.4310 
  183.6250   -17.6370    45.8010    22.5560    19.0020    16.3200    23.5110     2.4250 
  183.7500   -17.6520    44.7240    22.6530    19.1160    15.5440    23.4650     2.4260 
  183.8750   -17.6060    44.1990    22.5260    19.0330    15.9140    23.4510     2.4380 
  184.0000   -17.5460    44.6380    22.2290    18.7900    16.6310    23.4870     2.4520 
  184.1250   -17.4580    45.1420    21.8330    18.4410    16.6580    23.4740     2.4560 
  184.2500   -17.3490    45.1280    21.4290    18.0790    16.4990    23.3840     2.4460 
  184.3750   -17.1950    45.0060    21.1300    17.8160    16.4050    23.3650     2.4330 
  184.5000   -17.0390    44.2480    20.9940    17.7000    16.5170    23.3310     2.4310 
  184.6250   -16.8960    43.3190    21.0580    17.7510    16.5460    23.3400     2.4450 
  184.7500   -16.7530    43.4270    21.3160    17.9550    17.0210    23.4840     2.4640 
  184.8750   -16.6770    46.1410    21.7180    18.2670    17.9040    23.5300     2.4730 
  185.0000   -16.6020    47.9940    22.1110    18.5770    18.1820    23.6280     2.4660 
  185.1250   -16.5670    47.3130    22.3560    18.7860    18.3070    23.8880     2.4520 
  185.2500   -16.5720    46.5480    22.3530    18.8140    19.6870    24.2170     2.4420 
  185.3750   -16.6460    47.1400    22.0710    18.6190    21.0820    24.4270     2.4440 
  185.5000   -16.7350    47.0070    21.6560    18.3020    20.8720    24.5450     2.4520 
  185.6250   -16.8470    45.9260    21.2340    17.9540    19.7290    24.5970     2.4600 
  185.7500   -16.9900    46.2330    20.9110    17.6570    18.5250    24.6110     2.4640 
  185.8750   -17.1320    48.9160    20.7850    17.4920    19.0770    24.6120     2.4620 
  186.0000   -17.2930    49.4350    20.8150    17.4430    20.1640    24.6140     2.4580 
  186.1250   -17.4590    48.0030    20.9080    17.4520    19.5200    24.6200     2.4560 
  186.2500   -17.6210    46.8800    20.9210    17.4230    18.6780    24.6220     2.4590 
  186.3750   -17.7600    46.1690    20.6810    17.2280    19.3280    24.6270     2.4680 
  186.5000   -17.8880    45.6020    20.2250    16.8810    20.0860    24.6030     2.4770 
  186.6250   -17.9920    45.3750    19.6980    16.4780    18.8430    24.5110     2.4830 
  186.7500   -18.0570    45.7530    19.2830    16.1500    16.4610    24.2570     2.4830 
  186.8750   -18.0510    45.4220    19.1460    16.0220    14.7430    23.7830     2.4790 
  187.0000   -18.0270    45.4240    19.2370    16.0700    14.8010    23.3160     2.4760 
  187.1250   -17.9720    46.1660    19.4390    16.2210    16.3070    23.3730     2.4790 
  187.2500   -17.9000    46.0620    19.5480    16.3330    18.0420    23.8960     2.4850 
  187.3750   -17.8260    45.8990    19.2940    16.1890    18.0950    24.4950     2.4880 
  187.5000   -17.7490    46.8500    18.6660    15.7440    17.8530    24.8350     2.4830 
  187.6250   -17.6810    48.6490    17.7850    15.0580    17.7570    24.9890     2.4670 
  187.7500   -17.6220    49.8130    16.8510    14.2710    16.4570    25.0600     2.4470 
  187.8750   -17.5910    50.0700    16.0760    13.5480    15.0510    25.0440     2.4380 
  188.0000   -17.5900    49.3940    15.5150    12.9750    14.0240    24.9770     2.4510 
  188.1250   -17.6250    47.0860    15.1410    12.5640    14.0110    24.9150     2.4780 
  188.2500   -17.6860    43.8380    14.9060    12.2900    13.4230    24.8430     2.5050 
  188.3750   -17.7780    42.4760    14.7860    12.1420    12.7740    24.6960     2.5120 
  188.5000   -17.8970    44.1890    14.7380    12.0710    12.4700    24.4340     2.5020 
  188.6250   -18.0260    46.9220    14.7340    12.0430    12.7640    24.1410     2.4880 
  188.7500   -18.1760    48.3830    14.7480    12.0300    12.7850    23.9940     2.4820 
  188.8750   -18.3160    46.6760    14.7530    12.0090    12.5700    24.2320     2.4890 
  189.0000   -18.4160    43.7690    14.7330    11.9780    12.2750    24.2650     2.4970 
  189.1250   -18.4700    42.9080    14.6900    11.9410    11.7410    23.9810     2.5000 
  189.2500   -18.4720    45.0200    14.6410    11.9120    11.0460    23.5000     2.4980 
  189.3750   -18.4010    46.8720    14.6170    11.9110    10.5640    22.9770     2.5000 
  189.5000   -18.2810    46.9240    14.6290    11.9410    10.4520    22.6040     2.5140 
  189.6250   -18.1290    47.5890    14.6220    11.9660    10.7590    22.4790     2.5420 
  189.7500   -17.9490    48.8060    14.4900    11.9060    11.1810    22.5390     2.5740 
  189.8750   -17.7700    47.0720    14.1220    11.6580    11.7710    23.0950     2.5810 
  190.0000   -17.5990    44.8430    13.5940    11.2640    12.9500    23.9370     2.5580 
  190.1250   -17.4430    46.3090    13.0040    10.7960    13.5070    24.5360     2.5120 
  190.2500   -17.3230    50.0210    12.4370    10.3200    11.6310    24.7380     2.4610 
  190.3750   -17.2290    50.4330    11.9770     9.8960    10.1350    24.8430     2.4150 
  190.5000   -17.1840    47.9940    11.6540     9.5600    10.8170    24.8930     2.3780 
  190.6250   -17.1610    46.3300    11.5090     9.3580    11.4290    24.8890     2.3520 
  190.7500   -17.1730    47.3820    11.5970     9.3410    11.2720    24.8860     2.3400 
  190.8750   -17.2040    47.8930    11.9760     9.5720    10.7640    24.9120     2.3490 
