~V
VERS. 2.00: Ver 2.00
~W
STRT.M 51.0000:
STOP.M 221.0000:
STEP.M 0.1250:
NULL. -999.2500:
UWI. F10616:
~C
DEPT.M :
GR.API :
RML.OHMM :
RI. :
RXO.OHMM :
CALI.CM :
DEN.GM/CC :
SP.MV :
~A
# ...
   62.2500    65.0770    10.7530     8.7230     8.2610    25.1730     2.1050   -21.2960 
   62.3750    65.2300    10.6450     8.7050     8.2300    25.2750     2.1060   -21.3090 
   62.5000    62.4910    10.5900     8.6800     8.2870    25.3180     2.1120   -21.2550 
   62.6250    59.6730    10.5980     8.6750     8.3470    25.3420     2.1190   -21.1500 
   62.7500    57.3730    10.6410     8.6900     8.4380    25.4110     2.1230   -21.0060 
   62.8750    55.6100    10.6700     8.7000     8.5940    25.5690     2.1210   -20.8340 
   63.0000    54.4750    10.6510     8.6820     8.6710    25.7330     2.1160   -20.6680 
   63.1250    54.4130    10.5780     8.6280     8.6610    25.7860     2.1120   -20.5120 
   63.2500    56.6370    10.4670     8.5480     8.6430    25.6950     2.1100   -20.3490 
   63.3750    60.6210    10.3960     8.4870     8.5940    25.6140     2.1130   -20.1270 
   63.5000    62.6380    10.4880     8.5210     8.5680    25.5670     2.1180   -19.8740 
   63.6250    60.5430    10.8390     8.7250     8.5850    25.5460     2.1210   -19.5890 
   63.7500    55.7390    11.4250     9.1130     8.4890    25.4880     2.1260   -19.2650 
   63.8750    52.1750    12.0140     9.5630     8.3340    25.2060     2.1470   -18.8990 
   64.0000    52.1610    12.2300     9.8000     8.8230    24.7040     2.1950   -18.5060 
   64.1250    55.9530    11.7920     9.5900    10.1930    24.1930     2.2660   -18.0670 
   64.2500    62.7480    10.6750     8.8650    11.4950    23.9220     2.3370   -17.6010 
   64.3750    70.4750     9.2240     7.8000     7.9010    23.7510     2.3640   -17.1670 
   64.5000    76.4670     7.9830     6.7910     5.7950    23.6990     2.3480   -16.7630 
   64.6250    79.1230     7.1790     6.0350     4.9250    23.6200     2.3100   -16.4000 
   64.7500    78.4850     6.8360     5.6030     4.8990    23.5030     2.2720   -16.0710 
   64.8750    76.9020     6.8940     5.5140     5.1280    23.3950     2.2590   -15.7870 
   65.0000    75.9540     7.1230     5.6270     5.3270    23.3860     2.2670   -15.5170 
   65.1250    76.9790     7.3740     5.8320     5.5540    23.4730     2.2820   -15.2800 
   65.2500    78.1580     7.5460     6.0310     5.6380    23.7150     2.2910   -15.0790 
   65.3750    77.0250     7.5910     6.1490     5.6740    24.3150     2.2860   -14.8990 
   65.5000    76.0330     7.5290     6.1780     5.8980    24.7910     2.2730   -14.7230 
   65.6250    77.2570     7.3800     6.1240     5.9640    25.0050     2.2570   -14.5600 
   65.7500    81.0430     7.1830     6.0130     5.7420    25.0720     2.2460   -14.4220 
   65.8750    83.0800     7.0060     5.8880     5.4640    25.2190     2.2440   -14.2850 
   66.0000    81.9010     6.8930     5.7890     5.4380    25.4100     2.2460   -14.1790 
   66.1250    80.5250     6.8500     5.7230     5.5810    25.4710     2.2510   -14.1140 
   66.2500    82.8490     6.8560     5.6770     5.5780    25.3310     2.2590   -14.0760 
   66.3750    87.5560     6.8670     5.6210     5.7530    25.2580     2.2710   -14.0820 
   66.5000    88.4620     6.8530     5.5390     5.7930    25.2490     2.2860   -14.1330 
   66.6250    87.4890     6.8250     5.4440     5.5750    25.2250     2.3030   -14.2020 
   66.7500    89.2770     6.8130     5.3650     5.3780    25.1620     2.3200   -14.3050 
   66.8750    92.2470     6.8540     5.3360     5.5190    25.0960     2.3330   -14.4670 
   67.0000    91.5290     6.9530     5.3590     6.2000    24.9760     2.3460   -14.6600 
   67.1250    87.4830     7.1400     5.4510     7.1370    24.8570     2.3580   -14.8660 
   67.2500    83.9880     7.5160     5.6650     7.3560    24.8950     2.3550   -15.1000 
   67.3750    82.8590     8.4060     6.1830     7.8200    24.7780     2.3260   -15.3410 
   67.5000    80.6210    10.1220     7.1930    10.6000    24.4790     2.2860   -15.5750 
   67.6250    74.1910    13.0090     8.9550    18.8010    24.2040     2.2670   -15.8090 
   67.7500    65.0840    17.1870    11.6860    34.6160    24.2100     2.3130   -16.0310 
   67.8750    59.4800    22.0890    15.3310    48.0550    24.4740     2.4550   -16.2370 
   68.0000    56.4970    25.7510    18.5970    49.6610    24.6390     2.5970   -16.4280 
   68.1250    53.5330    26.2750    19.8430    42.5210    24.4450     2.6340   -16.6010 
   68.2500    50.8760    23.3880    18.4340    27.8330    23.6860     2.5580   -16.7290 
   68.3750    50.8810    18.9950    15.4850    16.5730    23.2830     2.4320   -16.8090 
   68.5000    52.6350    15.4370    12.8100    11.5960    23.7640     2.3210   -16.8640 
   68.6250    54.5610    13.3150    10.9690    10.2250    24.7550     2.2450   -16.9010 
   68.7500    56.8040    12.4640     9.9850    10.0330    25.5110     2.2070   -16.9020 
   68.8750    56.5930    12.5660     9.7670    10.1240    25.7910     2.1950   -16.8740 
   69.0000    54.0300    13.0470     9.9530    10.2930    25.8810     2.1880   -16.8390 
   69.1250    52.6140    13.5880    10.3190    10.3900    25.9090     2.1790   -16.8090 
   69.2500    53.6180    13.9810    10.6790    10.5410    25.9090     2.1710   -16.8010 
   69.3750    54.5720    14.1130    10.8980    10.7580    25.9010     2.1670   -16.8330 
   69.5000    54.4230    14.0610    10.9730    10.7930    25.8490     2.1700   -16.8900 
   69.6250    55.4920    13.9010    10.9400    10.6640    25.7510     2.1750   -16.9610 
   69.7500    57.5220    13.7170    10.8540    10.5260    25.5970     2.1740   -17.0710 
   69.8750    58.9820    13.5850    10.7780    10.4870    25.4880     2.1660   -17.2120 
   70.0000    59.2240    13.5230    10.7400    10.4870    25.4190     2.1590   -17.3470 
   70.1250    57.1790    13.5240    10.7370    10.5130    25.3670     2.1580   -17.4640 
   70.2500    53.0600    13.5570    10.7480    10.5880    25.2820     2.1670   -17.5800 
   70.3750    51.2100    13.5680    10.7370    10.6280    25.1840     2.1830   -17.6560 
   70.5000    53.9500    13.5410    10.6890    10.4710    25.1220     2.1950   -17.7010 
   70.6250    57.9150    13.4990    10.6150    10.1990    25.0830     2.1990   -17.7180 
   70.7500    58.4930    13.4800    10.5410    10.0260    25.0510     2.1970   -17.6930 
   70.8750    55.3630    13.5350    10.5050    10.0370    25.0250     2.1890   -17.6060 
   71.0000    53.8530    13.6560    10.5190    10.1860    25.0330     2.1800   -17.4860 
   71.1250    56.8220    13.8090    10.5770    10.4060    25.0830     2.1730   -17.3430 
   71.2500    61.1140    13.9480    10.6580    10.6390    25.1570     2.1700   -17.1640 
   71.3750    62.0410    14.0250    10.7410    10.7040    25.2010     2.1710   -16.9660 
   71.5000    60.2960    14.0470    10.8120    10.5310    25.2470     2.1690   -16.7530 
   71.6250    56.7100    14.0330    10.8680    10.2670    25.2710     2.1630   -16.5310 
   71.7500    52.7020    14.0090    10.9040    10.2090    25.2370     2.1540   -16.3180 
   71.8750    51.0100    14.0020    10.9210    10.3160    25.0920     2.1490   -16.1260 
   72.0000    51.4050    14.0180    10.9240    10.4360    25.0230     2.1510   -15.9590 
   72.1250    50.9460    14.0510    10.9140    10.5200    25.0050     2.1610   -15.8330 
   72.2500    50.9340    14.0800    10.8910    10.6480    25.0050     2.1780   -15.7400 
   72.3750    53.7950    14.0750    10.8450    10.7550    25.0000     2.1960   -15.6810 
   72.5000    55.9440    14.0250    10.7750    10.7690    24.9930     2.2110   -15.6650 
   72.6250    55.1760    13.9460    10.6980    10.7220    24.9980     2.2230   -15.6860 
   72.7500    54.2070    13.9150    10.6590    10.6060    25.0230     2.2330   -15.7370 
   72.8750    56.7510    14.1310    10.7850    10.6240    25.0630     2.2440   -15.8120 
   73.0000    59.2070    14.7380    11.1750    10.8460    25.0790     2.2490   -15.9000 
   73.1250    59.1700    15.7970    11.8940    11.4190    25.0200     2.2410   -15.9690 
   73.2500    58.2320    17.2060    12.9050    13.6910    24.8540     2.2140   -16.0320 
   73.3750    56.7170    18.5840    13.9900    22.4050    24.5660     2.1670   -16.0750 
