~V
VERS. 2.00: Ver 2.00
~W
STRT.M 57.0000:
STOP.M 242.0000:
STEP.M 0.1250:
NULL. -999.2500:
UWI. F10636:
~C
DEPT.M :
GR.API :
RML.OHMM :
RI. :
RXO.OHMM :
CALI.CM :
DEN.GM/CC :
SP.MV :
~A
# ...
  192.0000    64.7290    23.7710    22.9160    22.7420    23.7040     2.2670   -11.3650 
  192.1250    65.6220    23.3310    22.2070    22.5670    23.6570     2.2690   -11.3530 
  192.2500    66.1070    22.9770    21.6310    22.3230    23.6760     2.2730   -11.3160 
  192.3750    66.0070    22.5220    21.0960    22.0570    23.7100     2.2780   -11.2700 
  192.5000    65.9960    21.8660    20.4830    21.0830    23.7310     2.2850   -11.2300 
  192.6250    66.8340    21.0310    19.7130    19.7630    23.7760     2.2900   -11.1830 
  192.7500    67.5890    20.2010    18.8880    19.0290    23.8710     2.2960   -11.1330 
  192.8750    68.2330    19.5500    18.1750    18.3150    23.9620     2.3010   -11.0960 
  193.0000    68.2990    19.2290    17.7670    17.3790    24.0000     2.3080   -11.0840 
  193.1250    66.2880    19.4060    17.8930    17.3300    24.0000     2.3120   -11.0950 
  193.2500    64.5750    20.0090    18.4920    18.2210    24.0000     2.3120   -11.1270 
  193.3750    64.4680    20.9490    19.4370    20.1500    24.0010     2.3060   -11.1910 
  193.5000    65.1850    22.0400    20.5120    21.7640    24.0070     2.2980   -11.2910 
  193.6250    65.1130    22.9840    21.4260    22.3980    24.0500     2.2930   -11.4500 
  193.7500    64.2350    23.5870    22.0350    22.7550    24.1330     2.2920   -11.6420 
  193.8750    63.1950    23.8270    22.3450    22.8460    24.2170     2.2940   -11.8530 
  194.0000    62.2230    23.8410    22.4700    22.6910    24.2600     2.2940   -12.0540 
  194.1250    62.0010    23.8850    22.5820    22.9120    24.2660     2.2890   -12.2530 
  194.2500    63.9160    24.1410    22.8090    23.4030    24.2670     2.2810   -12.4510 
  194.3750    67.0310    24.6250    23.1970    24.1510    24.2670     2.2740   -12.6490 
  194.5000    70.1900    25.2430    23.7510    25.1180    24.2670     2.2670   -12.8360 
  194.6250    70.0480    25.8800    24.4720    26.6310    24.2670     2.2620   -12.9970 
  194.7500    66.0930    26.5350    25.3270    28.7130    24.2700     2.2610   -13.1650 
  194.8750    61.9710    27.3630    26.3710    30.7620    24.2830     2.2670   -13.3290 
  195.0000    62.1760    28.5940    27.7180    31.2650    24.3140     2.2820   -13.4890 
  195.1250    65.8150    30.3660    29.4470    30.3120    24.3390     2.3000   -13.6290 
  195.2500    67.3230    32.0030    31.0610    29.9510    24.3230     2.3090   -13.7360 
  195.3750    66.3510    32.2540    31.5800    31.6960    24.2340     2.3080   -13.7970 
  195.5000    66.2880    29.8660    29.8880    38.1990    24.1010     2.3110   -13.8120 
  195.6250    67.8560    24.4970    25.3140    41.7010    24.0220     2.3410   -13.7730 
  195.7500    68.0950    18.3310    19.5170    32.0700    23.9680     2.3890   -13.6750 
  195.8750    65.4430    12.9890    14.0450    16.2950    23.8880     2.4340   -13.5180 
  196.0000    61.2750     9.1900     9.8420     7.3640    23.7590     2.4500   -13.3120 
  196.1250    59.2420     7.0540     7.2620     5.0890    23.5670     2.4270   -13.0770 
  196.2500    61.5800     5.9330     5.7320     4.7950    23.4160     2.3890   -12.8570 
  196.3750    67.2600     5.5230     4.9390     5.0310    23.3140     2.3590   -12.6600 
  196.5000    74.0180     5.6130     4.6720     5.2250    23.2050     2.3450   -12.4940 
  196.6250    80.6930     6.0830     4.8500     5.6890    23.0390     2.3430   -12.3580 
  196.7500    87.1680     6.7290     5.3020     6.7650    22.9810     2.3450   -12.2340 
  196.8750    92.9340     7.4170     5.9230     7.8870    23.0660     2.3470   -12.1340 
  197.0000    98.0030     8.0160     6.5810     8.3110    23.3430     2.3520   -12.0540 
  197.1250   103.1820     8.3720     7.0970     8.0030    23.7710     2.3600   -11.9510 
  197.2500   106.7580     8.4920     7.3900     7.7860    24.1040     2.3680   -11.7740 
  197.3750   108.0140     8.4400     7.4690     7.9150    24.2720     2.3740   -11.5420 
  197.5000   109.0020     8.3240     7.4170     8.1250    24.3380     2.3750   -11.2790 
  197.6250   111.9960     8.2550     7.3400     8.2340    24.3770     2.3740   -11.0170 
  197.7500   115.8100     8.2610     7.2920     8.3280    24.4030     2.3740   -10.7820 
  197.8750   116.6770     8.3140     7.2520     8.3820    24.4120     2.3750   -10.5650 
  198.0000   113.2160     8.3660     7.1740     8.2900    24.4150     2.3770   -10.3700 
  198.1250   109.4550     8.3790     7.0230     8.1080    24.4200     2.3790   -10.2490 
  198.2500   108.0360     8.3600     6.8400     7.9480    24.4190     2.3810   -10.2230 
  198.3750   108.0600     8.3350     6.6850     7.8910    24.4090     2.3830   -10.2570 
  198.5000   110.3210     8.3340     6.6130     7.9730    24.3970     2.3860   -10.3210 
  198.6250   113.7780     8.4010     6.6670     7.9970    24.3910     2.3890   -10.3970 
  198.7500   113.6060     8.5560     6.8210     7.9840    24.3880     2.3950   -10.4740 
  198.8750   108.1480     8.8190     7.0550     8.0220    24.3830     2.4040   -10.5500 
  199.0000   102.6360     9.1880     7.3570     8.1710    24.3710     2.4190   -10.6140 
  199.1250   100.0670     9.6300     7.7260     8.5770    24.3570     2.4400   -10.6460 
  199.2500    98.9920    10.0460     8.1280     9.3710    24.3460     2.4590   -10.6480 
  199.3750   100.6090    10.3430     8.5070    10.0400    24.3420     2.4650   -10.6490 
  199.5000   103.8300    10.4460     8.7770     9.8110    24.3410     2.4550   -10.6690 
  199.6250   105.4080    10.2960     8.8180     8.8530    24.3450     2.4300   -10.7070 
  199.7500   106.2430     9.9810     8.6400     8.6420    24.3540     2.4030   -10.7420 
  199.8750   108.2170     9.5920     8.2970     8.4330    24.3670     2.3820   -10.7770 
  200.0000   110.2260     9.2200     7.8980     8.4770    24.3680     2.3690   -10.8280 
  200.1250   108.7570     8.9460     7.5710     8.4370    24.3430     2.3630   -10.8890 
  200.2500   105.5570     8.7700     7.3600     7.7260    24.3130     2.3610   -10.9440 
  200.3750   104.6820     8.6680     7.2360     7.3340    24.3000     2.3580   -10.9710 
  200.5000   107.5020     8.6000     7.1400     7.5040    24.3060     2.3530   -10.9500 
  200.6250   106.7670     8.5250     7.0280     8.0690    24.3110     2.3450   -10.8670 
  200.7500    99.0310     8.4510     6.9270     8.3390    24.3060     2.3380   -10.7480 
  200.8750    90.0130     8.4410     6.9150     7.8150    24.2980     2.3370   -10.5930 
  201.0000    85.0680     8.6030     7.0970     7.6420    24.2940     2.3480   -10.4060 
  201.1250    84.8960     9.1450     7.6450     8.2110    24.2900     2.3750   -10.2080 
  201.2500    85.3260    10.2010     8.6350     9.6530    24.2710     2.4140   -10.0190 
  201.3750    83.4790    11.9700    10.2300    11.1140    24.2300     2.4540    -9.8530 
  201.5000    77.6610    14.6790    12.6600    13.0770    24.1750     2.4830    -9.7050 
  201.6250    70.5260    18.7460    16.3740    17.8230    24.1290     2.4810    -9.6070 
  201.7500    66.2010    23.9110    21.1960    24.4190    24.1070     2.4440    -9.5580 
  201.8750    65.0180    29.4970    26.5930    31.8330    24.1050     2.3830    -9.5280 
  202.0000    65.7460    34.1330    31.4320    44.1370    24.1080     2.3160    -9.4970 
  202.1250    68.0920    35.7910    33.9180    53.5820    24.1030     2.2650    -9.4570 
  202.2500    70.7840    34.6520    33.8120    50.9950    24.0960     2.2370    -9.4050 
  202.3750    73.2530    31.9560    31.8210    38.4250    24.1020     2.2300    -9.3490 
  202.5000    75.4430    29.3230    29.2940    29.9160    24.1330     2.2380    -9.3200 
  202.6250    74.3580    28.2960    27.8400    26.5370    24.1770     2.2520    -9.2940 
  202.7500    69.3380    29.3140    28.2700    26.3640    24.2030     2.2640    -9.2590 
  202.8750    63.0750    32.6670    31.0340    28.0970    24.1960     2.2670    -9.2470 
  203.0000    59.0060    38.5010    36.3090    33.4740    24.1400     2.2540    -9.2770 
  203.1250    58.5390    47.0730    44.2730    47.7250    24.0010     2.2260    -9.3570 
