~V
VERS. 2.00: Ver 2.00
~W
STRT.M 55.0000:
STOP.M 197.0000:
STEP.M 0.1250:
NULL. -999.2500:
UWI. F10681:
~C
DEPT.M :
DEN.GM/CC :
GR.API :
RML.OHMM :
RI. :
RXO.OHMM :
CALI.CM :
SP.MV :
~A
# ...
  100.0000     2.2610    76.6410     9.0610     7.8850     6.9890    23.9140   -12.8400 
  100.1250     2.2300    81.0100     7.8710     6.7130     6.1980    24.0300   -12.4110 
  100.2500     2.2080    78.6370     7.5020     6.1810     6.0540    24.1860   -12.0710 
  100.3750     2.1990    73.9510     7.6160     6.1060     6.2150    24.1780   -11.8270 
  100.5000     2.2050    73.5110     7.9170     6.2900     6.4280    24.0490   -11.6250 
  100.6250     2.2280    78.3430     8.1320     6.5240     6.7510    23.7870   -11.4440 
  100.7500     2.2600    81.0340     8.1510     6.6600     7.0950    23.5950   -11.3230 
  100.8750     2.2910    79.7770     8.0090     6.6850     7.2210    23.5770   -11.2710 
  101.0000     2.3120    77.9400     7.8070     6.6430     6.9560    23.6120   -11.2410 
  101.1250     2.3140    78.9320     7.6370     6.5900     6.4380    23.7540   -11.1940 
  101.2500     2.3040    79.6440     7.5010     6.5410     6.1640    23.8840   -11.1400 
  101.3750     2.2890    77.9130     7.3450     6.4630     6.0650    24.0780   -11.0910 
  101.5000     2.2730    77.1720     7.1090     6.3120     5.7890    24.3250   -11.0880 
  101.6250     2.2610    81.0270     6.7720     6.0610     5.3820    24.6240   -11.1490 
  101.7500     2.2520    85.8720     6.4250     5.7680     4.9800    24.7120   -11.1980 
  101.8750     2.2470    87.1970     6.1710     5.5070     4.7040    24.7120   -11.2100 
  102.0000     2.2480    83.9250     6.0900     5.3450     4.6260    24.6940   -11.2290 
  102.1250     2.2600    81.6780     6.2360     5.3380     4.8140    24.7010   -11.2750 
  102.2500     2.2770    83.1930     6.5400     5.4570     5.0090    24.7400   -11.3140 
  102.3750     2.2940    85.7510     6.9320     5.6610     5.2800    24.8090   -11.3310 
  102.5000     2.3030    85.2150     7.3220     5.8840     5.7540    24.8750   -11.3140 
  102.6250     2.2950    81.8200     7.5890     6.0320     6.0900    24.8100   -11.3000 
  102.7500     2.2730    79.7650     7.6970     6.0560     6.2800    24.7470   -11.3260 
  102.8750     2.2430    83.0470     7.6690     5.9650     6.1050    24.7180   -11.3480 
  103.0000     2.2090    89.6570     7.5770     5.8090     5.8770    24.6830   -11.3570 
  103.1250     2.1780    91.3410     7.5580     5.6790     6.0210    24.5700   -11.3860 
  103.2500     2.1540    83.9480     7.7870     5.6800     6.5060    24.4050   -11.4520 
  103.3750     2.1420    72.4040     8.5100     5.9430     7.4330    24.1680   -11.5540 
  103.5000     2.1460    66.0650    10.0590     6.6420     8.8190    23.9610   -11.6620 
  103.6250     2.1650    69.8290    13.1210     8.1760    10.6640    24.4950   -11.7230 
  103.7500     2.1790    73.5940    17.9710    10.8330    15.6470    25.0450   -11.7660 
  103.8750     2.1750    70.3270    24.9100    15.0680    22.5980    25.3900   -11.8540 
  104.0000     2.1500    60.7240    33.8100    21.2270    35.1140    25.4710   -11.9730 
  104.1250     2.1100    52.5170    43.5270    29.1560    43.1640    25.8170   -12.1000 
  104.2500     2.0710    49.1570    51.4870    36.8750    51.2930    26.6920   -12.1990 
  104.3750     2.0400    49.3400    55.7480    42.3790    51.6860    25.9800   -12.2660 
  104.5000     2.0210    51.6940    56.1310    44.6960    49.1860    25.0850   -12.3580 
  104.6250     2.0170    54.9510    53.9940    44.1480    49.4590    24.4680   -12.4970 
  104.7500     2.0260    56.4790    51.3000    42.4300    49.4670    24.0110   -12.6230 
  104.8750     2.0450    56.1960    48.6190    40.2850    45.6710    24.2000   -12.7090 
  105.0000     2.0700    55.9220    46.1380    38.0950    38.6190    24.4690   -12.8030 
  105.1250     2.0960    58.8180    44.1520    36.1870    33.0210    24.3590   -12.8920 
  105.2500     2.1180    60.8890    42.9320    34.8220    29.4730    24.2570   -12.9770 
  105.3750     2.1360    59.1970    42.7650    34.2430    27.2900    24.4040   -13.0810 
  105.5000     2.1470    55.3190    43.8270    34.6290    26.1330    24.6820   -13.1700 
  105.6250     2.1470    52.8420    46.3230    36.2390    28.8900    24.9800   -13.2550 
  105.7500     2.1400    52.4710    49.8140    38.8030    36.1800    25.4840   -13.3560 
  105.8750     2.1260    53.8590    53.8920    42.0450    43.4540    26.2920   -13.4750 
  106.0000     2.1110    57.9260    58.0100    45.5260    48.3030    28.2460   -13.5540 
  106.1250     2.0970    61.9320    61.4120    48.6010    52.4640    25.5720   -13.5660 
  106.2500     2.0850    62.3820    63.7660    50.8820    56.5370    25.2740   -13.5720 
  106.3750     2.0730    59.4050    65.0240    52.2590    56.4220    25.9970   -13.6010 
  106.5000     2.0540    55.9010    65.3570    52.8300    53.7210    26.6580   -13.6520 
  106.6250     2.0220    55.2800    64.9480    52.7030    52.3910    28.3180   -13.6730 
  106.7500     1.9810    55.7540    64.2480    52.2450    52.5830    26.2170   -13.6460 
  106.8750     1.9430    54.3190    63.5310    51.7150    54.4260    26.5500   -13.5910 
  107.0000     1.9330    50.4810    62.9410    51.2880    53.8070    26.9910   -13.5540 
  107.1250     1.9790    47.4490    62.5030    51.0320    51.2180    27.7310   -13.5800 
  107.2500     2.0740    48.1860    62.1070    50.8630    49.7630    26.7070   -13.6030 
  107.3750     2.1830    51.7830    61.6570    50.7000    51.9160    26.3010   -13.5800 
  107.5000     2.2570    53.2500    61.0640    50.4710    54.8570    26.5810   -13.5300 
  107.6250     2.2500    51.7070    60.2340    50.1020    53.5210    26.2580   -13.5010 
  107.7500     2.1870    52.0990    59.1440    49.5570    50.4480    25.3840   -13.5110 
  107.8750     2.1120    55.4770    57.7640    48.7740    47.3510    25.5790   -13.5180 
  108.0000     2.0560    59.2380    56.0890    47.7000    45.2740    26.1050   -13.5050 
  108.1250     2.0330    61.8980    54.0480    46.2260    44.5890    26.1620   -13.4860 
  108.2500     2.0240    65.7070    51.6940    44.3890    43.9260    26.1800   -13.4870 
  108.3750     2.0160    68.0470    49.1460    42.2790    41.1330    26.2930   -13.5070 
  108.5000     2.0030    65.3990    46.6850    40.1240    37.1390    25.7620   -13.5180 
  108.6250     1.9900    59.4730    44.8470    38.3620    35.5760    25.3970   -13.5010 
  108.7500     1.9870    56.7280    43.9430    37.2930    34.3520    24.9920   -13.4960 
  108.8750     2.0030    59.8590    44.1330    37.1020    33.4210    24.5370   -13.5330 
  109.0000     2.0390    64.7540    45.3530    37.8230    33.7860    24.0320   -13.5540 
  109.1250     2.0850    64.5280    47.3890    39.4270    35.9190    23.8510   -13.5280 
  109.2500     2.1250    61.3280    49.5920    41.4370    39.5250    23.8360   -13.4960 
  109.3750     2.1480    60.5720    51.4210    43.4110    42.3950    24.0310   -13.4920 
  109.5000     2.1510    62.2570    52.4420    44.9130    42.9790    24.3940   -13.5180 
  109.6250     2.1380    60.0700    52.3950    45.5790    43.7850    25.0520   -13.5450 
  109.7500     2.1210    55.6490    51.7450    45.6430    45.6140    25.4700   -13.5420 
  109.8750     2.1060    53.3540    50.9160    45.4120    46.6580    25.6550   -13.5020 
  110.0000     2.0940    54.1790    50.2350    45.1800    46.6060    25.7360   -13.4990 
  110.1250     2.0830    54.8100    49.7790    45.0900    46.7190    25.6230   -13.5690 
  110.2500     2.0690    54.2030    49.1530    44.9010    46.7270    25.4420   -13.6340 
  110.3750     2.0510    55.0250    47.8210    44.1540    45.2160    25.2890   -13.6660 
  110.5000     2.0400    58.4980    45.4140    42.4250    41.8980    25.1370   -13.7070 
  110.6250     2.0560    61.6750    42.0080    39.5940    36.6910    24.8260   -13.7950 
  110.7500     2.1100    59.4610    38.4500    36.3750    30.0480    24.1360   -13.9050 
  110.8750     2.2000    54.3760    35.3000    33.3060    23.5360    23.5910   -14.0150 
  111.0000     2.3040    53.1120    32.8020    30.6880    20.4060    23.9530   -14.1280 
  111.1250     2.3810    56.2050    30.9730    28.6360    20.5980    24.6690   -14.2520 
