~V
VERS. 2.00: Ver 2.00
~W
STRT.M 54.0000:
STOP.M 246.0000:
STEP.M 0.1250:
NULL. -999.2500:
UWI. F10643:
~C
DEPT.M :
SP.MV :
GR.API :
RML.OHMM :
RI. :
RXO.OHMM :
CALI.CM :
DEN.GM/CC :
~A
# ...
   87.7500   -18.8500    54.0890    18.9220    14.4020    11.7040    23.2900     2.1800 
   87.8750   -18.7150    55.5330    18.3800    14.0700    12.0330    23.7860     2.1690 
   88.0000   -18.5940    56.5310    18.0820    13.9110    12.2960    24.0640     2.1690 
   88.1250   -18.5230    55.6340    17.9560    13.9020    12.5230    24.1360     2.1750 
   88.2500   -18.4700    54.3010    17.9530    13.9950    12.6260    24.1620     2.1850 
   88.3750   -18.4780    54.2960    18.0360    14.1580    12.5920    24.1890     2.1930 
   88.5000   -18.5170    54.1140    18.0450    14.2870    12.6250    24.2330     2.1900 
   88.6250   -18.5890    52.6870    17.6840    14.1750    12.5600    24.2990     2.1790 
   88.7500   -18.7210    52.2310    16.6720    13.5980    12.2910    24.3660     2.1690 
   88.8750   -18.8590    54.8810    14.9260    12.4420    11.9500    24.3440     2.1690 
   89.0000   -19.0760    59.2180    12.6810    10.8000    11.0500    24.0530     2.1860 
   89.1250   -19.3480    63.1530    10.5290     9.1070     9.2530    23.6140     2.2120 
   89.2500   -19.6520    66.0460     8.8250     7.6570     7.0790    23.2720     2.2380 
   89.3750   -19.9590    68.8810     7.7030     6.6040     5.8680    23.2470     2.2540 
   89.5000   -20.2270    73.0690     7.2010     6.0260     5.5720    23.3660     2.2560 
   89.6250   -20.4760    77.3030     7.0840     5.7800     5.7220    23.5440     2.2570 
   89.7500   -20.6470    78.2990     7.1750     5.7530     6.0220    23.7740     2.2660 
   89.8750   -20.7850    74.7090     7.2860     5.8120     6.2760    23.9290     2.2840 
   90.0000   -20.8470    69.8330     7.2630     5.8300     6.1460    23.9670     2.3080 
   90.1250   -20.8440    68.7460     7.1510     5.7950     6.0310    23.9650     2.3280 
   90.2500   -20.8000    71.7790     7.0830     5.7760     5.9720    23.9850     2.3380 
   90.3750   -20.6890    75.0190     7.2000     5.8700     5.8960    24.0440     2.3350 
   90.5000   -20.5560    73.7280     7.6380     6.1960     6.4240    24.1200     2.3120 
   90.6250   -20.4000    69.1510     8.3440     6.7470     7.4830    24.1600     2.2760 
   90.7500   -20.2360    65.5630     9.2480     7.4920     8.5120    24.1270     2.2390 
   90.8750   -20.0630    63.5070    10.2670     8.3670     8.7070    23.9740     2.2110 
   91.0000   -19.8770    60.4950    11.3350     9.3070     8.2150    23.7130     2.1980 
   91.1250   -19.6790    57.2800    12.3680    10.2310     7.9360    23.4410     2.1870 
   91.2500   -19.4950    55.7530    13.2200    11.0400     8.1920    23.2410     2.1690 
   91.3750   -19.3750    56.6470    13.6290    11.5480     9.1760    23.1700     2.1450 
   91.5000   -19.2910    56.7470    13.1750    11.3990    10.5730    23.4600     2.1350 
   91.6250   -19.2780    56.6070    11.9820    10.5990    10.7660    23.8420     2.1520 
   91.7500   -19.3150    58.6730    10.4010     9.3620     9.5690    24.1120     2.1960 
   91.8750   -19.3590    63.9410     8.8780     8.0340     7.8190    24.2000     2.2470 
   92.0000   -19.4860    69.8990     7.7710     6.9410     6.1890    24.2030     2.2780 
   92.1250   -19.6370    73.1710     7.0460     6.1400     5.9230    24.2030     2.2880 
   92.2500   -19.7890    76.3130     6.5890     5.5910     6.1880    24.1970     2.2900 
   92.3750   -19.9220    80.4800     6.2790     5.2210     6.3650    24.1910     2.2940 
   92.5000   -20.0200    82.9910     6.0660     4.9920     5.8680    24.1970     2.3030 
   92.6250   -20.0630    82.7100     5.9870     4.8900     5.3410    24.2000     2.3050 
   92.7500   -20.0650    80.3890     6.1830     4.9840     5.1930    24.1960     2.2900 
   92.8750   -20.0460    75.7970     6.8600     5.4060     5.8830    24.1910     2.2650 
   93.0000   -19.9300    69.5520     8.4460     6.4700     7.2000    24.1920     2.2570 
   93.1250   -19.7750    68.9070    11.1620     8.3940     9.3720    24.2000     2.2930 
   93.2500   -19.5840    74.5690    15.2950    11.4810    13.4680    24.1660     2.3880 
   93.3750   -19.3520    78.3570    20.9070    15.8880    19.7350    24.0370     2.5280 
   93.5000   -19.0600    72.8050    27.2680    21.1870    26.9970    23.8830     2.6460 
   93.6250   -18.7270    63.3990    32.0910    25.5610    36.0820    23.8610     2.6740 
   93.7500   -18.3630    56.9970    33.3690    27.3150    38.8920    23.9760     2.6090 
   93.8750   -17.9750    55.2290    31.0340    26.1020    31.5120    24.0900     2.4880 
   94.0000   -17.6560    55.3540    27.0070    23.1000    22.4420    24.1890     2.3590 
   94.1250   -17.3620    54.2100    23.4980    20.1730    16.7640    24.3530     2.2560 
   94.2500   -17.1230    53.1320    21.1480    18.0030    14.7220    24.5180     2.1890 
   94.3750   -16.9570    54.7690    20.0070    16.7480    13.7410    24.5790     2.1580 
   94.5000   -16.8870    58.4050    20.0400    16.4460    13.4130    24.5420     2.1510 
   94.6250   -16.9090    60.7670    20.7790    16.7610    14.0790    24.5880     2.1490 
   94.7500   -17.0180    61.3670    21.8670    17.4410    15.4210    24.7870     2.1440 
   94.8750   -17.2030    61.2080    22.7990    18.1320    16.3280    25.0860     2.1340 
   95.0000   -17.4650    59.4940    22.6370    18.1780    16.1800    25.3360     2.1210 
   95.1250   -17.7870    55.5100    20.9080    17.1450    14.7510    25.3050     2.1130 
   95.2500   -18.1510    51.1690    17.8280    15.0490    11.6220    24.7310     2.1170 
   95.3750   -18.5110    51.9480    14.3450    12.4600     8.8070    23.7450     2.1400 
   95.5000   -18.8830    59.8620    11.6440    10.2200     7.4390    23.0710     2.1780 
   95.6250   -19.2170    67.0480    10.0760     8.7170     6.4220    22.8280     2.2090 
   95.7500   -19.5020    69.7120     9.5890     8.0120     5.7660    22.8100     2.2170 
   95.8750   -19.7710    69.1630     9.9210     7.9960     6.7410    22.8260     2.2030 
   96.0000   -19.9500    67.1120    10.6870     8.4680     8.5530    22.8390     2.1860 
   96.1250   -20.1070    63.0690    11.2990     8.9880    10.2590    22.8220     2.1870 
   96.2500   -20.2240    60.6910    11.4070     9.2400    10.2440    22.7430     2.2110 
   96.3750   -20.3400    64.3550    10.9700     9.0820     8.6350    22.6600     2.2450 
   96.5000   -20.4230    71.8560    10.2570     8.6040     7.0560    22.9610     2.2660 
   96.6250   -20.4840    75.9550     9.6200     8.0840     6.7290    23.3010     2.2650 
   96.7500   -20.5370    75.8430     9.1230     7.6290     6.9980    23.4690     2.2510 
   96.8750   -20.5740    75.2010     8.6880     7.2330     7.0920    23.4020     2.2400 
   97.0000   -20.6260    76.4620     8.1820     6.8250     6.6470    23.2060     2.2480 
   97.1250   -20.6600    77.8600     7.5760     6.3620     5.9620    22.9670     2.2750 
   97.2500   -20.7170    79.5860     6.9590     5.8790     5.2430    22.7660     2.3090 
   97.3750   -20.7470    82.9200     6.4810     5.4640     4.9470    22.7450     2.3390 
   97.5000   -20.8390    86.0300     6.3200     5.2450     4.9360    23.0550     2.3510 
   97.6250   -20.9640    86.4760     6.4720     5.2450     4.8210    23.4790     2.3520 
   97.7500   -21.1170    84.1230     6.8900     5.4550     5.0310    23.6990     2.3480 
   97.8750   -21.3160    80.2900     7.4390     5.8090     6.0790    23.6990     2.3400 
   98.0000   -21.4890    76.8850     7.8480     6.1450     7.1120    23.6730     2.3260 
   98.1250   -21.6560    75.2540     7.9060     6.2880     7.0360    23.6560     2.3070 
   98.2500   -21.8140    75.3910     7.5910     6.1670     6.3890    23.7060     2.2930 
   98.3750   -21.9650    76.2150     7.0910     5.8530     5.9770    23.7660     2.2880 
   98.5000   -22.0740    78.8980     6.7900     5.5710     5.6170    23.7740     2.2920 
   98.6250   -22.1340    82.1770     6.9260     5.5350     5.4360    23.7600     2.3040 
   98.7500   -22.1710    81.6390     7.5320     5.8230     5.5240    23.7640     2.3320 
   98.8750   -22.1380    75.4890     8.4550     6.3800     6.4120    23.7570     2.3750 
