~V
VERS. 2.00: Ver 2.00
~W
STRT.M 55.0000:
STOP.M 226.0000:
STEP.M 0.1250:
NULL. -999.2500:
UWI. F10689:
~C
DEPT.M :
DEN.GM/CC :
GR.API :
RML.OHMM :
RI. :
RXO.OHMM :
CALI.CM :
SP.MV :
~A
# ...
  122.5000     2.2870    69.3000     7.6880     6.9890     6.1940    23.7500   -12.3860 
  122.6250     2.2920    69.3450     7.9500     7.2270     6.5940    23.7830   -12.4140 
  122.7500     2.2950    73.5340     8.4300     7.6630     6.9760    23.7480   -12.4660 
  122.8750     2.2940    75.7400     8.8410     8.0380     7.1610    23.6730   -12.5360 
  123.0000     2.2870    72.4680     9.0160     8.1960     7.0110    23.6460   -12.6060 
  123.1250     2.2730    69.5050     8.9400     8.1280     6.4690    23.6340   -12.6820 
  123.2500     2.2570    71.6470     8.8140     8.0130     6.2680    23.6490   -12.7560 
  123.3750     2.2450    76.5490     8.7690     7.9720     6.1030    23.6530   -12.8240 
  123.5000     2.2420    79.1460     8.8360     8.0330     6.0960    23.6420   -12.8810 
  123.6250     2.2530    75.4440     8.9010     8.0920     6.2930    23.5640   -12.9280 
  123.7500     2.2740    69.5550     8.7860     7.9870     6.4770    23.4540   -12.9690 
  123.8750     2.2950    68.1680     8.4030     7.6390     6.4230    23.4210   -12.9740 
  124.0000     2.3100    71.5450     7.7990     7.0900     5.9930    23.4150   -12.9600 
  124.1250     2.3130    73.2470     7.1330     6.4850     5.3300    23.4100   -12.9660 
  124.2500     2.3070    71.8980     6.5980     5.9980     5.0510    23.3630   -12.9600 
  124.3750     2.2940    72.6370     6.3160     5.7420     5.3470    23.1110   -12.9170 
  124.5000     2.2750    75.7500     6.3640     5.7860     5.8040    22.7720   -12.8320 
  124.6250     2.2540    74.2510     6.8600     6.2360     5.9100    22.8070   -12.7190 
  124.7500     2.2350    69.9240     7.7650     7.0590     6.4990    23.2150   -12.5880 
  124.8750     2.2200    66.8970     9.0520     8.2290     8.4900    23.9540   -12.4750 
  125.0000     2.2120    64.6420    12.0120     9.6270    11.6570    24.6020   -12.3930 
  125.1250     2.2100    59.9940    13.5970    10.9540    13.1990    24.6860   -12.3030 
  125.2500     2.2100    57.4420    14.5220    11.8660    12.9730    24.6160   -12.2220 
  125.3750     2.2100    60.2750    14.7370    12.2050    12.2230    24.4830   -12.1590 
  125.5000     2.2090    65.4040    14.4890    12.0720    11.7380    24.3410   -12.1180 
  125.6250     2.2080    66.1650    14.1740    11.7500    11.4060    24.1910   -12.0840 
  125.7500     2.2060    63.0700    14.0470    11.5100    11.2850    24.1280   -12.0690 
  125.8750     2.2030    60.5840    14.1410    11.4170    11.3890    24.1170   -12.0630 
  126.0000     2.1990    60.3040    14.4300    11.4540    11.6520    24.1160   -12.0630 
  126.1250     2.1890    60.2700    14.9530    11.6290    11.8910    24.1160   -12.0680 
  126.2500     2.1770    57.8780    15.7200    11.9570    12.0570    24.1160   -12.0970 
  126.3750     2.1640    54.2090    16.7780    12.5030    12.3140    24.1160   -12.1350 
  126.5000     2.1540    53.0620    18.1600    13.3280    12.9490    24.1160   -12.1850 
  126.6250     2.1490    55.2210    19.8770    14.5010    14.3120    24.1150   -12.2400 
  126.7500     2.1480    58.0700    21.7070    15.8920    16.4370    24.1110   -12.2980 
  126.8750     2.1490    58.9490    23.3770    17.3310    18.6270    24.1130   -12.3560 
  127.0000     2.1490    57.5780    24.6250    18.5930    19.7310    24.1150   -12.4050 
  127.1250     2.1470    54.5310    25.2140    19.3980    19.8520    24.1170   -12.4250 
  127.2500     2.1410    53.3870    25.2790    19.7250    19.9500    24.1290   -12.4260 
  127.3750     2.1340    55.8190    24.9540    19.6240    19.5850    24.1950   -12.4230 
  127.5000     2.1290    58.5460    24.3650    19.2190    18.9800    24.3280   -12.4170 
  127.6250     2.1300    55.5630    23.5620    18.6160    18.2790    24.3510   -12.4150 
  127.7500     2.1380    53.7310    22.6070    17.9300    17.3710    24.3570   -12.4170 
  127.8750     2.1510    58.0470    21.5290    17.1990    16.3460    24.3570   -12.4230 
  128.0000     2.1660    64.0800    20.3760    16.4540    15.5000    24.3570   -12.4110 
  128.1250     2.1780    63.8350    19.2180    15.7420    15.2290    24.3490   -12.4200 
  128.2500     2.1850    58.9330    18.1660    15.1160    14.5480    24.3000   -12.4350 
  128.3750     2.1850    54.8310    17.3370    14.6340    13.4410    24.1960   -12.4460 
  128.5000     2.1800    53.0290    16.8300    14.3430    12.6050    24.0930   -12.4540 
  128.6250     2.1720    52.2930    16.7600    14.3170    12.3800    24.0390   -12.4760 
  128.7500     2.1660    54.5410    17.0080    14.5080    12.2760    24.0300   -12.4900 
  128.8750     2.1640    59.3600    17.3750    14.8190    12.1300    24.0280   -12.4900 
  129.0000     2.1750    63.2060    17.5530    15.0350    11.8860    24.0280   -12.4900 
  129.1250     2.2050    61.6660    17.1100    14.7890    11.7200    24.0270   -12.4860 
  129.2500     2.2540    59.6170    16.0120    13.9820    11.5940    24.0180   -12.4720 
  129.3750     2.3120    62.7060    14.4310    12.7050    10.5910    23.9670   -12.4720 
  129.5000     2.3630    69.3890    12.7440    11.2390     8.4390    23.8580   -12.4720 
  129.6250     2.3790    74.1710    11.5180    10.0250     7.0340    23.8150   -12.4440 
  129.7500     2.3580    74.3510    11.1010     9.3540     6.8090    23.8380   -12.3960 
  129.8750     2.3080    71.4400    11.7520     9.4170     7.0860    23.8710   -12.3420 
  130.0000     2.2520    68.0110    13.6770    10.3820     7.6160    23.8800   -12.3010 
  130.1250     2.2070    63.0900    17.2420    12.6180     9.7980    23.9520   -12.2340 
  130.2500     2.1790    56.8860    22.0410    16.0060    15.1320    24.0340   -12.1640 
  130.3750     2.1580    52.5280    27.4250    20.2480    21.9520    24.0910   -12.0750 
  130.5000     2.1390    53.2650    32.3050    24.5720    25.6540    24.0850   -11.9780 
  130.6250     2.1190    56.8360    35.3470    27.7240    24.5190    23.9820   -11.8950 
  130.7500     2.1050    57.5470    36.8340    29.4840    23.5250    23.8550   -11.8250 
  130.8750     2.1060    55.3780    37.7030    30.3960    23.9170    23.8060   -11.7730 
  131.0000     2.1260    53.1310    38.8660    31.2230    25.7080    23.7950   -11.7330 
  131.1250     2.1630    52.8110    40.5650    32.3600    28.5610    23.7730   -11.7090 
  131.2500     2.2080    51.1500    42.0340    33.4420    29.4840    23.7190   -11.6750 
  131.3750     2.2550    49.0510    42.5140    33.9470    29.3330    23.6640   -11.6330 
  131.5000     2.2950    49.3260    41.7430    33.5880    28.2610    23.4530   -11.5930 
  131.6250     2.3120    50.9270    40.2260    32.5540    26.6600    23.4590   -11.5500 
  131.7500     2.2990    50.4330    39.1520    31.6450    24.2660    23.4300   -11.5110 
  131.8750     2.2580    49.6060    39.2820    31.4680    23.5520    23.4130   -11.4430 
  132.0000     2.2090    51.0420    40.9340    32.4000    24.9850    23.4670   -11.3550 
  132.1250     2.1780    52.6640    44.1430    34.7090    32.2520    23.8020   -11.2680 
  132.2500     2.1750    52.2010    48.0550    37.8920    36.2030    24.2900   -11.1660 
  132.3750     2.1900    50.7270    51.8260    41.3350    39.5060    24.5030   -11.0640 
  132.5000     2.2130    49.0210    54.5700    44.2210    40.0020    24.5540   -10.9640 
  132.6250     2.2330    46.9930    55.5460    45.6810    40.3050    24.4370   -10.8680 
  132.7500     2.2550    46.0050    55.3070    45.9460    38.3620    23.9900   -10.7720 
  132.8750     2.2770    46.0830    54.4750    45.4900    32.4450    23.4790   -10.7030 
  133.0000     2.2920    46.3860    53.5680    44.8100    26.4070    23.1240   -10.6230 
  133.1250     2.2850    46.2600    52.9190    44.2600    24.4440    23.0050   -10.5740 
  133.2500     2.2630    46.3790    52.5920    43.9750    23.8350    22.8760   -10.5520 
  133.3750     2.2480    47.6460    52.5850    43.9930    24.3090    22.8980   -10.5540 
  133.5000     2.2660    48.4150    52.7870    44.2370    26.1430    23.1350   -10.5680 
  133.6250     2.3340    46.6140    52.8970    44.4500    28.7290    23.7020   -10.6070 
