~V
VERS. 2.00: Ver 2.00
~W
STRT.M 57.0000:
STOP.M 204.0000:
STEP.M 0.1250:
NULL. -999.2500:
UWI. F10604:
~C
DEPT.M :
SP.MV :
GR.API :
RML.OHMM :
RI. :
RXO.OHMM :
CALI.CM :
DEN.GM/CC :
~A
# ...
   90.7500   -20.7640    66.9030    12.1190     9.9290    11.7830    25.5070     2.1160 
   90.8750   -20.8860    64.4180    12.1560    10.0400    12.2690    25.5530     2.1140 
   91.0000   -21.0720    62.1970    12.2730    10.2250    12.5640    25.8250     2.1120 
   91.1250   -21.2270    60.3840    12.4670    10.4600    12.5530    25.8620     2.1100 
   91.2500   -21.2860    58.6790    12.7030    10.7080    12.5220    25.7810     2.1020 
   91.3750   -21.3190    56.8770    12.9070    10.9220    12.5120    25.6760     2.0820 
   91.5000   -21.3270    55.2630    12.9470    11.0040    12.3880    25.6460     2.0520 
   91.6250   -21.1960    57.4560    12.5900    10.7520    11.9980    25.6780     2.0370 
   91.7500   -20.8770    64.9810    11.7940    10.1080    11.2110    25.6820     2.0600 
   91.8750   -20.3630    75.8700    10.6120     9.1110     9.8730    25.5160     2.1260 
   92.0000   -19.7260    87.0640     9.2130     7.9170     8.1950    25.1830     2.2180 
   92.1250   -19.1000    96.8740     7.8620     6.7540     6.8700    24.9890     2.2960 
   92.2500   -18.5230   103.1960     6.7800     5.8000     6.1900    24.9270     2.3390 
   92.3750   -17.9330   104.6570     6.1140     5.1610     5.9270    24.9210     2.3530 
   92.5000   -17.3200   104.5060     5.9620     4.9100     5.8180    24.9150     2.3670 
   92.6250   -16.7890   105.4610     6.4690     5.1590     6.1630    24.9000     2.4060 
   92.7500   -16.4470   104.5580     7.5010     5.8410     7.7560    24.8820     2.4580 
   92.8750   -16.3440    97.7710     8.8920     6.8950    10.7340    24.8740     2.4910 
   93.0000   -16.4680    86.2730    10.3430     8.1450    13.5670    24.8910     2.4750 
   93.1250   -16.7680    76.1940    11.3920     9.2040    13.9360    24.9390     2.3940 
   93.2500   -17.1810    68.9000    11.8480     9.7830    12.5930    25.0230     2.2890 
   93.3750   -17.7290    64.0000    11.7690     9.8660    11.2890    25.0840     2.1960 
   93.5000   -18.4160    61.9840    11.4030     9.6570    10.8440    25.1080     2.1370 
   93.6250   -19.1870    65.2940    11.0540     9.4080    10.8610    25.1090     2.1160 
   93.7500   -19.9120    69.9560    10.8580     9.2420    10.9110    25.1240     2.1140 
   93.8750   -20.5190    70.1740    10.7840     9.1390    10.9020    25.1300     2.1200 
   94.0000   -20.9380    65.9840    10.7470     9.0350    10.7430    25.0950     2.1300 
   94.1250   -21.1310    62.7130    10.6880     8.8970    10.4390    25.0490     2.1390 
   94.2500   -21.2480    63.7880    10.6140     8.7530    10.1980    25.0250     2.1450 
   94.3750   -21.3530    67.7740    10.5650     8.6410    10.1340    24.9920     2.1450 
   94.5000   -21.4310    70.1790    10.5760     8.5920    10.2110    24.9830     2.1410 
   94.6250   -21.4600    69.3600    10.6820     8.6410    10.3460    24.9840     2.1360 
   94.7500   -21.5010    69.3760    10.8570     8.7620    10.5080    24.9910     2.1330 
   94.8750   -21.5800    70.0440    11.0670     8.9270    10.6720    25.0210     2.1310 
   95.0000   -21.7150    68.0640    11.2650     9.0990    10.7580    25.1020     2.1280 
   95.1250   -21.9040    62.5250    11.3940     9.2360    10.7580    25.1820     2.1260 
   95.2500   -22.0830    59.1450    11.4390     9.3190    10.7750    25.1300     2.1260 
   95.3750   -22.2370    59.4970    11.4060     9.3410    10.7920    25.0310     2.1300 
   95.5000   -22.3760    60.5420    11.3290     9.3160    10.6700    24.9910     2.1360 
   95.6250   -22.4890    60.5520    11.2710     9.2760    10.3380    25.0020     2.1440 
   95.7500   -22.5390    60.9760    11.2830     9.2680    10.0950    25.0140     2.1480 
   95.8750   -22.5360    63.3900    11.3880     9.3180    10.2210    24.9940     2.1490 
   96.0000   -22.5270    67.6350    11.5770     9.4280    10.7100    25.0050     2.1460 
   96.1250   -22.5490    70.1800    11.8000     9.5700    11.1820    25.0470     2.1460 
   96.2500   -22.5530    69.0400    11.9640     9.6860    11.4250    25.0670     2.1520 
   96.3750   -22.4960    66.1610    11.9860     9.7170    11.6300    25.0660     2.1570 
   96.5000   -22.3650    64.3380    11.8330     9.6200    11.9570    25.1200     2.1440 
   96.6250   -22.1750    63.7250    11.6100     9.4390    12.2180    25.2910     2.0920 
   96.7500   -21.9120    63.5360    11.6470     9.3940    12.1510    25.5090     2.0260 
   96.8750   -21.5060    63.8050    12.3750     9.7510    11.9440    25.7480     1.9940 
   97.0000   -20.8630    64.2080    14.2520    10.8190    12.9620    25.8010     2.0430 
   97.1250   -19.8390    62.2720    17.7880    13.1520    19.2920    25.5500     2.1930 
   97.2500   -18.5870    59.4050    22.2850    16.6940    30.8840    25.1700     2.3820 
   97.3750   -17.2210    59.2850    26.3740    20.7580    42.4820    24.8830     2.5460 
   97.5000   -15.8010    63.4180    28.2400    23.5150    46.5680    24.7460     2.6420 
   97.6250   -14.3440    70.2010    26.2650    22.4710    39.0660    24.6750     2.6540 
   97.7500   -12.9710    75.9120    21.9180    18.8850    27.2230    24.5420     2.6150 
   97.8750   -11.8070    80.1390    17.0610    14.8440    17.0510    24.3540     2.5450 
   98.0000   -10.9300    84.2140    13.1900    11.6730    11.2230    24.1620     2.4570 
   98.1250   -10.4110    88.0650    11.0570     9.8260     9.4360    24.0730     2.3680 
   98.2500   -10.1450    89.7340    10.1070     8.8640     9.1810    24.0500     2.2980 
   98.3750   -10.0520    89.1490     9.8610     8.5120     9.2540    24.0300     2.2610 
   98.5000   -10.1010    90.0700     9.8870     8.5060     9.1380    23.9930     2.2590 
   98.6250   -10.2630    94.4560     9.8430     8.5740     8.6560    23.9370     2.2850 
   98.7500   -10.4170    98.3720     9.6220     8.5410     8.0810    23.8860     2.3180 
   98.8750   -10.4660   100.2850     9.2810     8.4050     7.6040    23.8320     2.3450 
   99.0000   -10.3680   101.5190     8.9250     8.2310     7.2810    23.7740     2.3580 
   99.1250   -10.1650   104.0230     8.6370     8.0750     7.0920    23.7300     2.3560 
   99.2500    -9.8660   107.2850     8.4020     7.9340     7.0270    23.6930     2.3480 
   99.3750    -9.4550   108.2770     8.1830     7.7710     7.1350    23.6560     2.3400 
   99.5000    -8.9360   106.1000     7.9510     7.5580     7.3710    23.6240     2.3370 
   99.6250    -8.3650   104.2980     7.7140     7.3010     7.4510    23.6630     2.3410 
   99.7500    -7.8080   106.0640     7.5160     7.0560     7.1890    23.8670     2.3510 
   99.8750    -7.3080   108.2080     7.3990     6.8760     6.7270    24.2120     2.3620 
  100.0000    -6.8950   107.9890     7.3830     6.7960     6.4030    24.5770     2.3710 
  100.1250    -6.5390   107.0800     7.4510     6.8190     6.4760    24.7370     2.3760 
  100.2500    -6.2310   106.0940     7.5330     6.8680     6.7990    24.7920     2.3760 
  100.3750    -5.9780   104.5590     7.6190     6.9080     7.1690    24.8220     2.3740 
  100.5000    -5.7990   103.8160     7.7930     6.9810     7.4040    24.8370     2.3720 
  100.6250    -5.6740   106.2450     8.3120     7.2690     7.5380    24.8140     2.3620 
  100.7500    -5.5870   107.2020     9.3310     7.9080     8.1310    24.8000     2.3400 
  100.8750    -5.5220   101.9330    10.8750     8.9880    10.3660    24.8380     2.3040 
  101.0000    -5.4390    90.7030    12.6970    10.4500    14.7310    24.8960     2.2610 
  101.1250    -5.3350    81.8480    14.1350    11.8390    18.8380    24.9220     2.2240 
  101.2500    -5.2220    80.6920    14.6740    12.4770    19.5430    24.9240     2.2020 
  101.3750    -5.1350    83.1480    14.2930    12.1850    16.9560    24.9190     2.1970 
  101.5000    -5.0800    83.8250    13.5350    11.4500    13.6860    24.9040     2.2050 
  101.6250    -5.0830    83.2250    13.5110    11.1300    12.4630    24.8760     2.2150 
  101.7500    -5.1260    83.4800    15.0390    11.7960    14.3890    24.8640     2.2170 
  101.8750    -5.1390    82.1140    18.5960    13.9120    20.4640    24.8650     2.2060 
