~V
VERS. 2.00: Ver 2.00
~W
STRT.M 50.0000:
STOP.M 217.0000:
STEP.M 0.1250:
NULL. -999.2500:
UWI. F10606:
~C
DEPT.M :
DEN.GM/CC :
GR.API :
RML.OHMM :
RI. :
RXO.OHMM :
CALI.CM :
SP.MV :
~A
# ...
  128.7500     2.5460    52.3020    26.9550    25.0780    25.1110    23.8020   -18.3110 
  128.8750     2.5450    51.0290    27.6500    25.6160    27.1880    23.8240   -17.8560 
  129.0000     2.5460    51.9660    28.5080    26.3030    27.7260    23.8560   -17.4010 
  129.1250     2.5550    53.6010    29.6670    27.2340    27.4750    23.8800   -16.9270 
  129.2500     2.5710    53.8290    31.1440    28.4280    27.2850    23.8890   -16.5280 
  129.3750     2.5940    52.9050    32.9090    29.8850    26.7200    23.8280   -16.1800 
  129.5000     2.6180    51.7640    34.8100    31.5380    27.1980    23.6600   -15.8940 
  129.6250     2.6360    51.7240    36.3690    33.0600    29.4460    23.6100   -15.6890 
  129.7500     2.6440    51.3830    37.0150    33.8830    32.6830    23.7140   -15.5360 
  129.8750     2.6420    49.4910    36.3250    33.4930    35.1100    23.9150   -15.4390 
  130.0000     2.6380    47.8470    34.2770    31.7350    35.8600    24.0530   -15.4050 
  130.1250     2.6380    48.5510    31.2420    28.8980    31.5510    24.0550   -15.4480 
  130.2500     2.6400    50.3510    28.1300    25.9070    25.7450    24.0360   -15.5550 
  130.3750     2.6390    52.4120    25.5000    23.3360    21.4280    23.9990   -15.7120 
  130.5000     2.6260    55.2020    23.6040    21.4670    20.1560    23.9480   -15.9240 
  130.6250     2.6030    58.1980    22.4820    20.3990    21.1170    23.9140   -16.1330 
  130.7500     2.5750    59.1570    21.7820    19.8220    22.9120    23.8640   -16.3510 
  130.8750     2.5450    56.5310    21.2880    19.5290    22.4360    23.7180   -16.5190 
  131.0000     2.5130    51.6100    20.8600    19.3500    21.4900    23.4740   -16.6440 
  131.1250     2.4750    48.1500    20.4990    19.2100    20.0030    23.2410   -16.7210 
  131.2500     2.4310    47.0680    20.2970    19.1410    18.0220    23.2140   -16.7240 
  131.3750     2.3850    47.7500    20.2890    19.1890    16.5300    23.2770   -16.6810 
  131.5000     2.3460    49.5340    20.3710    19.2990    16.0610    23.2050   -16.5710 
  131.6250     2.3300    52.0340    20.2430    19.2400    16.6710    23.0120   -16.4140 
  131.7500     2.3370    53.8130    19.6880    18.8140    17.2990    22.9090   -16.1990 
  131.8750     2.3630    53.5600    18.6800    17.9690    17.3330    22.9840   -15.9840 
  132.0000     2.3930    52.0920    17.4270    16.8580    15.9870    23.0910   -15.7470 
  132.1250     2.4180    52.9250    16.3390    15.8070    14.3970    23.0760   -15.5270 
  132.2500     2.4370    54.5980    15.7050    15.0920    13.0880    22.9500   -15.3380 
  132.3750     2.4530    56.0130    15.6330    14.8370    13.1200    22.8140   -15.1530 
  132.5000     2.4640    57.2310    16.0660    15.0460    14.4390    22.7200   -15.0150 
  132.6250     2.4660    58.2370    16.7820    15.5980    15.9760    22.6600   -14.8960 
  132.7500     2.4620    56.9960    17.3640    16.1290    16.3230    22.6080   -14.8380 
  132.8750     2.4580    53.1560    17.5360    16.3560    15.7110    22.5090   -14.7980 
  133.0000     2.4550    50.4890    17.2030    16.1330    15.1040    22.2810   -14.8010 
  133.1250     2.4530    50.4500    16.4720    15.5000    13.8500    21.7180   -14.8910 
  133.2500     2.4510    50.7390    15.7210    14.7850    12.5950    21.0760   -14.9750 
  133.3750     2.4500    50.8380    15.1870    14.2100    12.2490    20.5860   -15.0860 
  133.5000     2.4520    50.3010    14.9640    13.8800    12.6570    20.2180   -15.2040 
  133.6250     2.4590    50.7530    15.0640    13.8380    12.8160    19.8600   -15.3150 
  133.7500     2.4700    54.0570    15.3450    13.9870    13.0530    19.6730   -15.4360 
  133.8750     2.4810    58.0520    15.7030    14.2500    13.5620    19.5740   -15.5520 
  134.0000     2.4890    58.9660    16.0530    14.5380    13.4920    19.4820   -15.6550 
  134.1250     2.4920    56.7970    16.3580    14.7960    12.8730    19.5460   -15.6710 
  134.2500     2.4970    56.2290    16.6410    15.0340    12.6020    19.8980   -15.6860 
  134.3750     2.5010    57.0590    16.8930    15.2550    12.8880    20.4020   -15.6550 
  134.5000     2.5000    56.3890    17.0850    15.4450    13.2160    20.7790   -15.5940 
  134.6250     2.4810    54.2670    17.1750    15.5710    14.0790    21.0430   -15.5300 
  134.7500     2.4500    52.8780    17.1850    15.6310    15.3360    21.2520   -15.4240 
  134.8750     2.4190    52.2260    17.1700    15.6460    15.7440    21.3780   -15.2980 
  135.0000     2.4030    51.0070    17.2390    15.6900    15.1130    21.4470   -15.1490 
  135.1250     2.4100    50.1740    17.5420    15.8880    15.0650    21.5510   -15.0500 
  135.2500     2.4240    51.2230    18.0670    16.2680    15.5770    21.7040   -14.9470 
  135.3750     2.4350    52.3700    18.7190    16.7900    16.8060    21.8160   -14.8640 
  135.5000     2.4370    52.3960    19.3190    17.3320    18.6080    21.8560   -14.8070 
  135.6250     2.4360    52.0270    19.6010    17.6760    19.9130    21.9100   -14.7600 
  135.7500     2.4410    52.3350    19.5040    17.7110    19.8430    21.9890   -14.7490 
  135.8750     2.4510    52.4820    19.1300    17.4720    18.0700    22.0440   -14.7700 
  136.0000     2.4600    53.6510    18.7150    17.1240    16.5840    22.0400   -14.8320 
  136.1250     2.4600    56.3060    18.5480    16.9090    15.5610    22.0140   -14.9140 
  136.2500     2.4580    56.8300    18.6900    16.9280    15.0370    21.9410   -14.9990 
  136.3750     2.4580    53.6400    19.0460    17.1500    15.2920    21.7590   -15.1260 
  136.5000     2.4640    49.3070    19.4160    17.4410    15.9920    21.4780   -15.2650 
  136.6250     2.4740    47.1880    19.5380    17.5800    15.9310    21.1030   -15.4130 
  136.7500     2.4760    46.8660    19.3820    17.4900    14.8590    20.6720   -15.5520 
  136.8750     2.4660    47.0800    19.0590    17.2250    13.7070    20.1150   -15.6590 
  137.0000     2.4510    47.2600    18.7400    16.9210    12.9950    19.4150   -15.7350 
  137.1250     2.4380    47.0940    18.5910    16.7310    12.7210    18.8770   -15.7420 
  137.2500     2.4300    46.6340    18.6360    16.7100    12.2530    18.5020   -15.7320 
  137.3750     2.4250    46.8080    18.8510    16.8540    11.8090    18.1080   -15.6520 
  137.5000     2.4090    49.1200    19.1870    17.1250    11.7990    17.7420   -15.5330 
  137.6250     2.3730    51.6170    19.6150    17.4860    11.9530    17.6060   -15.3630 
  137.7500     2.3250    50.5160    20.0610    17.8750    11.9000    17.6570   -15.1550 
  137.8750     2.2810    46.6240    20.4250    18.2130    11.8310    17.8070   -14.9380 
  138.0000     2.2580    44.1520    20.5740    18.3940    11.9100    17.9980   -14.7160 
  138.1250     2.2680    45.9460    20.3230    18.2620    11.9610    18.0690   -14.5170 
  138.2500     2.2950    49.0050    19.7010    17.8200    11.6850    18.0620   -14.2970 
  138.3750     2.3230    51.0260    18.8210    17.1360    11.2530    18.0140   -14.1240 
  138.5000     2.3400    51.3360    17.9060    16.3800    10.6170    17.9470   -13.9650 
  138.6250     2.3410    48.6500    17.2680    15.8030    10.2670    17.8880   -13.8230 
  138.7500     2.3340    45.7090    17.0270    15.5290    10.0380    17.9480   -13.7270 
  138.8750     2.3270    44.7370    17.2100    15.6010    10.0490    18.2610   -13.6540 
  139.0000     2.3250    47.1680    17.7590    15.9950    10.6060    18.8910   -13.6350 
  139.1250     2.3310    50.9640    18.5710    16.6590    12.1280    19.7330   -13.6340 
  139.2500     2.3490    52.0110    19.4430    17.4210    14.2840    20.7580   -13.6810 
  139.3750     2.3750    49.8200    20.2450    18.1670    16.3750    21.8580   -13.7740 
  139.5000     2.4010    46.9020    20.8810    18.7970    17.5750    22.6700   -13.8790 
  139.6250     2.4140    46.2630    21.2550    19.2030    18.9480    22.9840   -14.0330 
  139.7500     2.4160    47.4110    21.4290    19.4170    20.3300    23.0580   -14.1940 
  139.8750     2.4130    48.4440    21.5100    19.5200    21.0080    23.0840   -14.3720 
