~V
VERS. 2.00: Ver 2.00
~W
STRT.M 61.0000:
STOP.M 247.0000:
STEP.M 0.1250:
NULL. -999.2500:
UWI. F10600:
~C
DEPT.M :
GR.API :
RML.OHMM :
RI. :
RXO.OHMM :
CALI.CM :
DEN.GM/CC :
SP.MV :
~A
# ...
  106.0000    80.9780     8.2410     6.1670     6.4260    24.1410     2.2510   -27.3680 
  106.1250    81.8440     8.1660     6.2220     6.4410    24.1590     2.2550   -27.2960 
  106.2500    83.1910     7.9190     6.2340     6.4920    24.1810     2.2550   -27.2110 
  106.3750    82.8190     7.5630     6.1600     6.5230    24.2090     2.2540   -27.1630 
  106.5000    79.3120     7.1860     6.0310     6.4890    24.2620     2.2520   -27.1110 
  106.6250    75.4620     6.9050     5.9440     6.5100    24.3660     2.2510   -27.0050 
  106.7500    75.2000     6.7770     5.9560     6.5840    24.4480     2.2510   -26.9110 
  106.8750    77.2090     6.8150     6.0470     6.6430    24.5110     2.2510   -26.8280 
  107.0000    76.9160     6.9800     6.1410     6.5890    24.5500     2.2510   -26.7260 
  107.1250    76.1050     7.1990     6.1450     6.4580    24.5680     2.2490   -26.6240 
  107.2500    78.9920     7.3780     6.0680     6.4280    24.5760     2.2470   -26.5580 
  107.3750    82.9730     7.4600     5.9840     6.5180    24.5740     2.2460   -26.5280 
  107.5000    83.7240     7.4200     5.9810     6.6450    24.5650     2.2450   -26.4690 
  107.6250    80.3210     7.3120     6.1160     6.7900    24.5560     2.2430   -26.4230 
  107.7500    78.3040     7.2850     6.3100     6.8820    24.5480     2.2410   -26.4080 
  107.8750    78.3790     7.4280     6.4640     6.9080    24.5330     2.2390   -26.3280 
  108.0000    79.7910     7.7080     6.5010     6.9750    24.5060     2.2370   -26.1800 
  108.1250    81.3470     7.9150     6.4000     7.1530    24.5200     2.2360   -26.0050 
  108.2500    82.4740     7.8480     6.2420     7.2800    24.5850     2.2410   -25.6910 
  108.3750    85.4390     7.4720     6.0900     7.3090    24.6930     2.2530   -25.2630 
  108.5000    91.5420     6.9180     5.9680     7.0000    24.8030     2.2740   -24.8600 
  108.6250    97.7750     6.4220     5.8610     6.2890    24.8940     2.3000   -24.4960 
  108.7500    99.4900     6.1230     5.7320     5.6570    24.9490     2.3220   -24.1600 
  108.8750    97.5640     6.0430     5.5750     5.6580    24.9700     2.3350   -23.9670 
  109.0000    93.6470     6.1420     5.4190     5.7590    24.9780     2.3370   -23.9360 
  109.1250    87.9340     6.3670     5.3420     5.8430    24.9730     2.3310   -24.0520 
  109.2500    83.5650     6.6160     5.3920     6.0190    24.9490     2.3230   -24.4340 
  109.3750    82.9280     6.8340     5.5790     6.2940    24.9040     2.3120   -25.0130 
  109.5000    82.5410     7.0140     5.8780     6.7150    24.8480     2.3000   -25.6630 
  109.6250    77.6030     7.2570     6.2690     7.3250    24.8080     2.2890   -26.3860 
  109.7500    72.3970     7.6890     6.7420     7.6360    24.7930     2.2900   -27.1760 
  109.8750    70.3140     8.3820     7.3180     8.3200    24.7910     2.3110   -27.9130 
  110.0000    69.8790     9.3010     8.0000    10.1630    24.8170     2.3530   -28.5470 
  110.1250    69.6320    10.2170     8.7120    14.6930    24.8630     2.3970   -29.1340 
  110.2500    69.5980    10.7990     9.2650    18.2500    24.8680     2.4170   -29.6370 
  110.3750    69.1410    10.8580     9.4820    14.0680    24.7520     2.3990   -30.0270 
  110.5000    68.5070    10.4520     9.2840     9.7390    24.5930     2.3500   -30.3210 
  110.6250    69.5430     9.8560     8.7250     8.5760    24.5210     2.2970   -30.5570 
  110.7500    70.7620     9.4050     8.0910     8.5930    24.4980     2.2660   -30.6930 
  110.8750    69.8740     9.2410     7.6110     8.5810    24.4740     2.2610   -30.7570 
  111.0000    69.3530     9.3900     7.4600     8.5620    24.4190     2.2730   -30.8180 
  111.1250    73.1820     9.8590     7.7940     8.4310    24.3280     2.2830   -30.8690 
  111.2500    76.1850    10.5600     8.4940     8.4380    24.2920     2.2760   -30.8520 
  111.3750    74.3750    11.4240     9.4040     9.0430    24.3030     2.2510   -30.8350 
  111.5000    70.2980    12.2670    10.2770    10.3390    24.3440     2.2170   -30.8700 
  111.6250    68.1220    12.6910    10.7540    11.3120    24.4060     2.1860   -30.8590 
  111.7500    65.8960    12.4970    10.7180    10.7020    24.4330     2.1720   -30.8610 
  111.8750    63.0150    11.7430    10.2390     9.6030    24.4250     2.1760   -30.9270 
  112.0000    63.1500    10.7300     9.5420     8.7220    24.3830     2.1950   -30.9700 
  112.1250    67.5210     9.8630     8.9250     8.1660    24.3360     2.2150   -30.9590 
  112.2500    71.2350     9.3150     8.5270     7.8280    24.3160     2.2240   -30.9960 
  112.3750    72.0810     9.0610     8.3370     7.6610    24.3120     2.2200   -31.0630 
  112.5000    71.7000     8.9990     8.2590     7.7770    24.3120     2.2090   -31.0860 
  112.6250    71.0130     9.0360     8.1850     7.8750    24.3060     2.2020   -31.0930 
  112.7500    69.3040     9.0860     8.0770     7.9410    24.2920     2.2040   -31.1120 
  112.8750    68.3220     9.1120     7.9710     7.8960    24.2790     2.2090   -31.1130 
  113.0000    69.4840     9.0860     7.9340     7.7440    24.2760     2.2130   -31.0980 
  113.1250    72.3130     9.0080     8.0230     7.6120    24.2720     2.2110   -31.0580 
  113.2500    74.7710     8.9260     8.1890     7.5910    24.2550     2.2080   -30.9820 
  113.3750    75.5960     8.8740     8.3540     7.5590    24.2310     2.2060   -30.8280 
  113.5000    74.2530     8.8520     8.4320     7.4510    24.2170     2.2070   -30.6190 
  113.6250    72.1000     8.8250     8.3430     7.3430    24.2280     2.2080   -30.4120 
  113.7500    71.6630     8.7700     8.1330     7.3530    24.2720     2.2060   -30.1060 
  113.8750    73.4610     8.7060     7.8790     7.4760    24.3370     2.2020   -29.6980 
  114.0000    75.5950     8.6720     7.6860     7.4850    24.3550     2.1990   -29.2910 
  114.1250    76.4300     8.7020     7.6550     7.4130    24.3610     2.1990   -28.8260 
  114.2500    75.6280     8.7370     7.7480     7.2980    24.3620     2.2040   -28.2420 
  114.3750    74.4480     8.6650     7.8530     7.3090    24.3670     2.2130   -27.6040 
  114.5000    74.6160     8.3590     7.8150     7.4090    24.3760     2.2230   -26.9310 
  114.6250    77.6350     7.7420     7.4660     7.3020    24.4210     2.2350   -26.1190 
  114.7500    83.7110     6.9810     6.8820     6.9040    24.4860     2.2530   -25.2830 
  114.8750    91.0420     6.2570     6.2200     6.0480    24.4910     2.2750   -24.4880 
  115.0000    97.0290     5.7300     5.6720     5.0870    24.4590     2.2980   -23.6980 
  115.1250    98.3020     5.5400     5.4270     4.7830    24.4280     2.3130   -23.0470 
  115.2500    95.1000     5.6500     5.4570     5.0520    24.4100     2.3150   -22.5420 
  115.3750    90.3320     6.0200     5.6780     5.6240    24.3720     2.3090   -22.0730 
  115.5000    87.7750     6.5430     5.9660     6.1600    24.3280     2.3040   -21.6160 
  115.6250    89.4740     6.9910     6.1910     6.4820    24.3170     2.3070   -21.2680 
  115.7500    92.1980     7.1690     6.3120     6.8610    24.3410     2.3170   -20.9870 
  115.8750    94.7250     7.0470     6.3480     7.0930    24.3780     2.3240   -20.7070 
  116.0000    96.5190     6.7510     6.3360     6.3190    24.3940     2.3240   -20.4220 
  116.1250    95.3400     6.4540     6.2850     5.6930    24.2430     2.3160   -20.1100 
  116.2500    93.6900     6.2100     6.1800     5.4610    24.0440     2.3100   -19.7580 
  116.3750    94.2200     5.9730     6.0000     5.5290    23.8990     2.3150   -19.4120 
  116.5000    94.8010     5.7110     5.7530     5.6030    23.8450     2.3300   -19.1340 
  116.6250    93.6660     5.4920     5.5040     5.5470    23.8560     2.3490   -18.9460 
  116.7500    94.3030     5.4250     5.3430     5.6030    23.9380     2.3590   -18.7950 
  116.8750    97.3650     5.5660     5.3290     5.7180    24.1290     2.3570   -18.6790 
  117.0000    98.7370     5.8760     5.4670     5.7560    24.3690     2.3500   -18.6230 
  117.1250    95.9170     6.2280     5.6940     5.9560    24.5800     2.3500   -18.5070 
