~V
VERS. 2.00: Ver 2.00
~W
STRT.M 50.0000:
STOP.M 265.0000:
STEP.M 0.1250:
NULL. -999.2500:
UWI. F10671:
~C
DEPT.M :
GR.API :
RML.OHMM :
RI. :
RXO.OHMM :
CALI.CM :
DEN.GM/CC :
SP.MV :
~A
# ...
   72.5000    59.7850     7.2670     6.4340     7.1850    24.9430     2.0750   -21.5940 
   72.6250    58.6760     7.3010     6.4030     7.1690    25.0360     2.1060   -21.6360 
   72.7500    59.3610     7.4580     6.4560     7.2000    25.1230     2.1630   -21.5930 
   72.8750    61.3210     7.6950     6.5780     7.1960    25.1350     2.2310   -21.4990 
   73.0000    61.5010     7.9470     6.7320     7.1320    24.9670     2.2840   -21.4270 
   73.1250    60.2950     8.1320     6.8690     7.2300    24.5220     2.2900   -21.3490 
   73.2500    59.2430     8.2350     6.9680     7.6000    24.1160     2.2560   -21.3440 
   73.3750    59.6880     8.2940     7.0430     8.2210    23.8530     2.2030   -21.3900 
   73.5000    60.6100     8.3890     7.1360     9.1280    23.6860     2.1590   -21.4500 
   73.6250    62.1110     8.6260     7.3190    10.1590    23.6110     2.1490   -21.6090 
   73.7500    64.8020     9.0110     7.6090    10.8570    23.7830     2.1690   -21.8000 
   73.8750    66.4400     9.5030     7.9920    11.1190    24.1440     2.2020   -21.9970 
   74.0000    65.0700     9.9990     8.4070    11.3730    24.5220     2.2300   -22.1990 
   74.1250    60.1780    10.3390     8.7340    11.4080    24.8400     2.2350   -22.3810 
   74.2500    56.1940    10.4380     8.8850    11.0810    25.1590     2.2210   -22.5250 
   74.3750    55.9390    10.2700     8.8180    10.6420    25.4900     2.1990   -22.6380 
   74.5000    58.5160     9.8690     8.5450    10.2800    25.8130     2.1760   -22.7590 
   74.6250    60.9250     9.3160     8.1180     9.7960    25.9850     2.1610   -22.8370 
   74.7500    61.9460     8.7560     7.6600     9.2530    25.9360     2.1530   -22.8050 
   74.8750    62.2230     8.2710     7.2460     8.8730    25.6850     2.1530   -22.7720 
   75.0000    63.7420     7.9070     6.9190     8.6030    25.3310     2.1580   -22.6540 
   75.1250    67.4870     7.7000     6.7120     8.2880    24.9280     2.1650   -22.4650 
   75.2500    69.6470     7.6170     6.6030     7.9640    24.5300     2.1720   -22.2570 
   75.3750    67.4190     7.6370     6.5770     7.7410    24.2660     2.1770   -21.9480 
   75.5000    62.7620     7.7250     6.6120     7.6480    24.1610     2.1830   -21.5850 
   75.6250    61.1600     7.8240     6.6660     7.6720    24.1350     2.1910   -21.1200 
   75.7500    63.3120     7.8550     6.6820     7.6690    24.1040     2.1990   -20.6070 
   75.8750    67.1230     7.7540     6.6070     7.5960    24.0510     2.2050   -20.0440 
   76.0000    69.9040     7.4920     6.4130     7.3340    23.9810     2.2070   -19.4160 
   76.1250    70.0430     7.0980     6.1090     6.9060    23.9170     2.2070   -18.8380 
   76.2500    68.4810     6.7100     5.7890     6.4000    23.8540     2.2090   -18.3140 
   76.3750    68.1720     6.4450     5.5400     5.8980    23.8260     2.2180   -17.9640 
   76.5000    70.5360     6.3930     5.4350     5.5300    23.8250     2.2310   -17.7910 
   76.6250    72.3300     6.6140     5.5370     5.4470    23.8550     2.2420   -17.8190 
   76.7500    69.5510     7.0080     5.7900     5.7550    23.8330     2.2440   -18.0290 
   76.8750    65.3490     7.4710     6.1300     6.2220    23.7800     2.2340   -18.3350 
   77.0000    63.2410     7.8930     6.4720     6.6140    23.7120     2.2150   -18.8150 
   77.1250    60.6520     8.1570     6.7220     6.9180    23.6590     2.1910   -19.3540 
   77.2500    56.0750     8.2550     6.8550     7.3140    23.6210     2.1730   -19.8520 
   77.3750    53.6140     8.2150     6.8780     7.7330    23.5970     2.1620   -20.3050 
   77.5000    56.2910     8.0960     6.8270     8.0000    23.6440     2.1620   -20.6940 
   77.6250    59.7490     7.9650     6.7440     8.0630    23.8350     2.1660   -21.0230 
   77.7500    61.5450     7.8670     6.6650     8.0580    24.0680     2.1680   -21.3280 
   77.8750    63.3930     7.8160     6.6070     8.0430    24.2180     2.1680   -21.5910 
   78.0000    64.3640     7.8060     6.5710     8.0300    24.2920     2.1670   -21.8150 
   78.1250    64.8490     7.8190     6.5530     8.0320    24.3550     2.1700   -21.9870 
   78.2500    65.5850     7.8240     6.5370     8.0570    24.3830     2.1760   -22.1380 
   78.3750    65.0650     7.8090     6.5130     8.0430    24.3780     2.1820   -22.2660 
   78.5000    61.9460     7.7700     6.4790     7.9180    24.3710     2.1850   -22.3140 
   78.6250    58.6830     7.7190     6.4380     7.7370    24.3800     2.1830   -22.3310 
   78.7500    58.2100     7.6740     6.4000     7.5450    24.3960     2.1790   -22.2460 
   78.8750    58.8510     7.6470     6.3730     7.4070    24.4010     2.1740   -22.1260 
   79.0000    59.2320     7.6440     6.3640     7.3310    24.3790     2.1700   -21.9650 
   79.1250    59.7040     7.6730     6.3800     7.3410    24.3310     2.1680   -21.7430 
   79.2500    60.3240     7.7330     6.4160     7.3460    24.2750     2.1710   -21.5550 
   79.3750    61.3380     7.8240     6.4640     7.4220    24.2390     2.1770   -21.3210 
   79.5000    61.9850     7.9350     6.5110     7.6040    24.2270     2.1870   -21.0720 
   79.6250    61.3810     8.0290     6.5310     7.8190    24.2310     2.1950   -20.8140 
   79.7500    60.6110     8.0610     6.5030     7.9800    24.2410     2.2000   -20.5440 
   79.8750    61.2230     7.9910     6.4110     7.9800    24.2500     2.2020   -20.2460 
   80.0000    63.7070     7.7990     6.2520     7.8480    24.2340     2.1990   -19.8690 
   80.1250    65.4380     7.5070     6.0460     7.6690    24.1770     2.1870   -19.4620 
   80.2500    65.7500     7.2520     5.8720     7.5930    24.0880     2.1690   -18.9980 
   80.3750    66.2980     7.2120     5.8410     7.6950    24.0180     2.1530   -18.4650 
   80.5000    68.1300     7.5760     6.0840     8.1420    24.0230     2.1590   -17.9140 
   80.6250    68.4800     8.5380     6.7660     9.7380    24.0600     2.2130   -17.2510 
   80.7500    65.3750     9.8840     7.7810    13.0880    24.0990     2.3100   -16.6070 
   80.8750    62.0470    11.2640     8.9140    17.7670    24.1340     2.4220   -16.0270 
   81.0000    61.4550    12.2000     9.8250    22.6030    24.1870     2.5050   -15.5320 
   81.1250    62.5370    12.1210    10.0360    24.6370    24.2060     2.5120   -15.2020 
   81.2500    60.8770    11.1500     9.5230    20.8170    24.1300     2.4580   -14.9150 
   81.3750    59.5830     9.6950     8.5140    13.8150    23.9690     2.3790   -14.6320 
   81.5000    63.7500     8.2880     7.3970     8.9440    23.8400     2.3060   -14.3340 
   81.6250    70.4760     7.3670     6.5410     7.4600    23.8040     2.2550   -14.0440 
   81.7500    71.8130     6.8680     5.9970     6.9830    23.7780     2.2210   -13.6740 
   81.8750    69.4960     6.6140     5.6950     6.8010    23.7580     2.2040   -13.1900 
   82.0000    67.7140     6.4180     5.5220     6.6210    23.8830     2.2000   -12.5630 
   82.1250    69.4270     6.1680     5.3770     6.4960    24.1380     2.2120   -11.7860 
   82.2500    73.3140     5.9440     5.2200     6.0880    24.3190     2.2340   -11.0150 
   82.3750    77.0640     5.8190     5.0740     5.4520    24.3730     2.2580   -10.4180 
   82.5000    79.3510     5.7590     4.9730     5.1230    24.3660     2.2740    -9.9370 
   82.6250    79.2450     5.7240     4.9310     5.2170    24.3560     2.2740    -9.5600 
   82.7500    77.7570     5.6910     4.9100     5.5110    24.3500     2.2620    -9.2740 
   82.8750    75.7600     5.6760     4.8850     5.8180    24.3320     2.2490    -9.0570 
   83.0000    76.1390     5.7080     4.8680     5.9610    24.2700     2.2470    -8.9950 
   83.1250    82.0660     5.8840     4.9530     5.6850    24.1900     2.2690    -9.0290 
   83.2500    86.4040     6.2590     5.2220     5.6580    24.0670     2.3150    -9.1590 
   83.3750    85.4430     6.9090     5.7020     6.6120    23.9010     2.3730    -9.2900 
   83.5000    81.6230     7.7070     6.3270     8.5110    23.7670     2.4220    -9.4400 
   83.6250    78.9280     8.3670     6.9150    10.8860    23.7860     2.4310    -9.7500 
