~V
VERS. 2.00: Ver 2.00
~W
STRT.M 58.0000:
STOP.M 240.0000:
STEP.M 0.1250:
NULL. -999.2500:
UWI. F10642:
~C
DEPT.M :
SP.MV :
GR.API :
RML.OHMM :
RI. :
RXO.OHMM :
CALI.CM :
DEN.GM/CC :
~A
# ...
  136.7500    -8.6610    58.2460    32.8740    27.7750    24.1790    24.1820     2.1610 
  136.8750    -8.5460    53.9310    32.5770    27.8870    23.6450    24.0750     2.1640 
  137.0000    -8.5200    50.4060    31.8270    27.5160    21.9110    23.7520     2.1650 
  137.1250    -8.6180    51.1930    30.9810    26.9530    18.2500    23.4740     2.1650 
  137.2500    -8.8010    54.5510    30.3400    26.5190    16.5590    23.3310     2.1590 
  137.3750    -9.0530    56.6170    30.0070    26.3460    16.4280    23.2980     2.1460 
  137.5000    -9.3440    55.9210    29.9910    26.4510    16.8350    23.3090     2.1260 
  137.6250    -9.7000    54.3420    30.2880    26.8090    17.1500    23.3110     2.1080 
  137.7500   -10.0770    53.5610    30.7700    27.2920    16.8370    23.2090     2.0950 
  137.8750   -10.4810    53.0080    31.3650    27.8500    15.9400    23.0580     2.0870 
  138.0000   -10.9010    51.9240    31.9870    28.4610    14.9050    22.9430     2.0820 
  138.1250   -11.3390    53.1210    32.4230    29.0340    14.0260    22.7720     2.0780 
  138.2500   -11.7950    56.5390    32.4320    29.3670    13.2240    22.4840     2.0770 
  138.3750   -12.2920    59.2110    31.8760    29.2770    12.1890    22.1450     2.0780 
  138.5000   -12.8420    59.3300    30.8860    28.7510    10.5100    21.5020     2.0760 
  138.6250   -13.4690    58.6670    29.9200    28.0520     9.3480    20.2570     2.0750 
  138.7500   -14.1630    60.6300    29.4520    27.6230     9.2760    19.1460     2.0910 
  138.8750   -14.9400    63.0150    29.6960    27.7070     9.2370    18.4800     2.1440 
  139.0000   -15.7710    61.9160    30.5800    28.2740     9.1050    17.8400     2.2410 
  139.1250   -16.6930    58.4610    31.6820    28.9900     9.6300    17.2600     2.3440 
  139.2500   -17.6420    56.4910    32.4140    29.4250    10.0350    17.0150     2.3920 
  139.3750   -18.6100    57.3680    32.6280    29.5040     9.6940    17.2050     2.3840 
  139.5000   -19.5680    59.4240    32.6700    29.5090     9.7010    17.9430     2.3480 
  139.6250   -20.4540    59.1630    33.3400    30.0530    12.0160    19.3240     2.3220 
  139.7500   -21.2890    55.9650    35.0930    31.5110    14.1890    20.4680     2.3110 
  139.8750   -22.0460    51.6930    37.9710    34.0150    13.1390    20.8390     2.3000 
  140.0000   -22.7360    47.7800    41.5270    37.3150    11.0480    20.2740     2.2820 
  140.1250   -23.3180    44.8080    44.9540    40.7800     8.1920    18.6450     2.2710 
  140.2500   -23.8250    43.8830    47.7430    43.7640     8.5070    17.3650     2.2850 
  140.3750   -24.2540    45.7450    49.7240    45.9790    10.3320    16.8530     2.3270 
  140.5000   -24.6400    48.4000    50.7430    47.2960    11.5720    16.9370     2.3760 
  140.6250   -25.0000    49.7290    50.4110    47.4860    11.5320    17.2180     2.4050 
  140.7500   -25.3300    50.3910    48.9600    46.7510    12.0120    17.5820     2.4170 
  140.8750   -25.6360    51.5070    46.8040    45.2990    13.1770    18.1640     2.4280 
  141.0000   -25.9220    53.8960    44.6210    43.5580    14.0770    19.0610     2.4480 
  141.1250   -26.1730    56.2590    43.2870    42.2290    14.6550    20.1330     2.4710 
  141.2500   -26.3980    55.9490    43.0400    41.7250    16.3220    20.9750     2.4810 
  141.3750   -26.5940    53.5110    43.8400    42.1580    19.5690    21.5670     2.4770 
  141.5000   -26.7390    51.3740    45.4310    43.4100    24.5780    21.9770     2.4670 
  141.6250   -26.8400    50.3320    47.2660    45.0850    25.1870    22.1530     2.4630 
  141.7500   -26.8830    49.6170    48.4200    46.3080    22.7790    22.1950     2.4720 
  141.8750   -26.8980    48.9100    48.0920    46.2840    21.4250    22.1800     2.4870 
  142.0000   -26.8860    48.1250    45.9690    44.6280    20.1830    22.0950     2.4960 
  142.1250   -26.8540    47.0740    42.5250    41.6230    17.4480    21.8860     2.4910 
  142.2500   -26.8160    45.9370    39.1940    38.5360    13.9900    21.5670     2.4610 
  142.3750   -26.7730    45.1680    36.9330    36.2570    11.1490    21.0740     2.3980 
  142.5000   -26.7520    46.2460    36.2280    35.2960     8.8570    20.3900     2.3090 
  142.6250   -26.7410    49.6100    37.1840    35.8920     7.3810    19.2610     2.2210 
  142.7500   -26.7550    52.2050    38.7980    37.2940     6.7520    18.1170     2.1550 
  142.8750   -26.7780    52.9640    40.0330    38.6300     6.3230    16.8310     2.1220 
  143.0000   -26.8000    53.8600    39.9380    38.9350     6.3570    15.6590     2.1270 
  143.1250   -26.8400    56.3630    37.9930    37.4640     7.4210    15.1770     2.1620 
  143.2500   -26.8920    58.3810    35.1820    34.9460     8.2820    15.2560     2.2040 
  143.3750   -26.9620    58.6560    32.4270    32.2290     8.5260    15.5480     2.2360 
  143.5000   -27.0320    58.0960    30.3470    29.9770     8.8430    15.7620     2.2520 
  143.6250   -27.1010    58.7580    29.2790    28.6150     9.2290    16.0020     2.2420 
  143.7500   -27.1670    59.1150    28.9560    27.9830     9.0850    16.4560     2.2170 
  143.8750   -27.2230    56.7260    29.1480    27.9130     8.3850    17.1490     2.1900 
  144.0000   -27.2700    51.6890    29.6000    28.1990     7.9930    17.8590     2.1740 
  144.1250   -27.2730    48.1260    30.0730    28.6440     8.6620    18.3590     2.1790 
  144.2500   -27.2460    47.5190    30.4840    29.1110     9.2160    18.6510     2.1970 
  144.3750   -27.1910    48.0520    30.9230    29.6250     9.4720    18.9180     2.2210 
  144.5000   -27.1060    47.7070    31.5400    30.2840     9.6610    19.4140     2.2530 
  144.6250   -27.0050    46.4070    32.5500    31.2510    10.0850    19.9950     2.3140 
  144.7500   -26.8800    46.4550    33.9440    32.5280    11.0500    20.2680     2.4020 
  144.8750   -26.7410    47.9830    35.5590    34.0010    11.9050    20.2240     2.4960 
  145.0000   -26.6050    49.4520    37.0290    35.3750    12.1290    20.1510     2.5620 
  145.1250   -26.4770    49.7640    37.7490    36.1390    12.6040    20.2020     2.5770 
  145.2500   -26.3880    51.4180    37.5460    36.1060    13.1360    20.2950     2.5610 
  145.3750   -26.3090    54.6900    36.4690    35.2680    13.6180    20.3420     2.5400 
  145.5000   -26.2630    57.3900    34.7760    33.7960    13.5040    20.3020     2.5290 
  145.6250   -26.2440    56.2750    32.8320    31.9520    12.7090    20.1330     2.5300 
  145.7500   -26.2880    52.8120    31.0220    30.1280    11.9860    19.8240     2.5350 
  145.8750   -26.3730    49.2280    29.5620    28.5660    11.5470    19.5370     2.5430 
  146.0000   -26.5070    46.8460    28.5630    27.4110    10.9770    19.5530     2.5610 
  146.1250   -26.6780    47.3600    28.0470    26.7190    11.1940    19.9960     2.5880 
  146.2500   -26.8710    48.6590    27.7610    26.2820    12.1870    20.4290     2.6070 
  146.3750   -27.0860    47.3720    27.5350    25.9580    12.6030    20.6160     2.6040 
  146.5000   -27.3010    45.0920    27.2700    25.6650    12.7760    20.5510     2.5820 
  146.6250   -27.4870    46.6110    26.9420    25.3860    11.9810    20.3910     2.5600 
  146.7500   -27.6460    50.6100    26.6440    25.1570    11.3480    20.2300     2.5470 
  146.8750   -27.7820    51.8460    26.5080    25.0590    10.6370    20.0190     2.5360 
  147.0000   -27.8750    50.1610    26.6580    25.1860     9.7190    19.7210     2.5240 
  147.1250   -27.9330    48.8550    27.1800    25.6180     8.5430    19.3850     2.5170 
  147.2500   -27.9240    47.5740    27.8620    26.1980     7.7910    19.0910     2.5280 
  147.3750   -27.8730    45.3480    28.3500    26.6400     7.2000    18.6090     2.5600 
  147.5000   -27.7830    44.1120    28.1810    26.5450     7.1920    17.9790     2.6000 
  147.6250   -27.6760    46.2290    26.8500    25.4550     7.9500    17.7990     2.6210 
  147.7500   -27.5240    48.4980    24.6560    23.5860     8.6680    18.1270     2.6210 
  147.8750   -27.3350    49.4070    22.0960    21.3230     8.8630    18.7330     2.6130 
