~V
VERS. 2.00: Ver 2.00
~W
STRT.M 55.0000:
STOP.M 226.0000:
STEP.M 0.1250:
NULL. -999.2500:
UWI. F10689:
~C
DEPT.M :
DEN.GM/CC :
GR.API :
RML.OHMM :
RI. :
RXO.OHMM :
CALI.CM :
SP.MV :
~A
# ...
   66.2500     2.3040    80.0850     6.3240     6.1710     5.5050    23.5720   -17.0250 
   66.3750     2.2920    78.9380     6.5020     6.3020     5.9970    23.5080   -17.1590 
   66.5000     2.2900    75.6850     6.7510     6.5370     6.2490    23.4510   -17.3180 
   66.6250     2.3020    71.5470     7.1540     6.8960     6.3560    23.4430   -17.4810 
   66.7500     2.3220    65.8770     7.7990     7.4300     6.4130    23.4060   -17.6200 
   66.8750     2.3410    61.5430     8.7510     8.2140     6.8870    23.3340   -17.7360 
   67.0000     2.3500    61.6370     9.9730     9.2750     8.3060    23.3220   -17.8250 
   67.1250     2.3420    61.6180    11.1820    10.4670    11.0050    23.4190   -17.9030 
   67.2500     2.3240    58.3600    11.8720    11.3390    12.5670    23.4390   -17.9470 
   67.3750     2.3070    55.6970    11.6840    11.4680    12.1610    23.4490   -17.9500 
   67.5000     2.3010    57.7700    10.6980    10.7710    10.9300    23.4590   -17.9220 
   67.6250     2.3230    62.6480     9.4940     9.6390     9.1130    23.5280   -17.8830 
   67.7500     2.3710    64.9970     8.6860     8.6920     7.4360    23.6750   -17.8310 
   67.8750     2.4390    64.6760     8.4450     8.1640     6.6330    23.9040   -17.7700 
   68.0000     2.5070    62.9190     8.6690     8.0520     7.0650    24.1610   -17.7090 
   68.1250     2.5400    60.8920     9.0680     8.2050     9.1340    24.2750   -17.6420 
   68.2500     2.5270    60.0160     9.2460     8.3080    11.8240    24.2740   -17.5500 
   68.3750     2.4780    59.0280     9.0100     8.1670    11.1800    24.2370   -17.4630 
   68.5000     2.4200    58.2110     8.4250     7.7600     7.7460    24.2110   -17.3790 
   68.6250     2.3800    59.5240     7.7900     7.2560     6.3370    24.1440   -17.3100 
   68.7500     2.3640    62.4200     7.3820     6.8780     6.3270    24.1540   -17.2510 
   68.8750     2.3750    64.4070     7.2900     6.7270     6.5080    24.2570   -17.2010 
   69.0000     2.4090    63.8660     7.5040     6.8330     6.7930    24.2920   -17.1590 
   69.1250     2.4620    62.5280     7.9660     7.1940     7.7270    24.2790   -17.1350 
   69.2500     2.5110    60.1670     8.5120     7.6730     8.8710    24.2750   -17.1350 
   69.3750     2.5310    57.0520     9.0280     8.1640     9.3730    24.2830   -17.1350 
   69.5000     2.5070    55.9060     9.3920     8.5590    11.1720    24.2230   -17.1230 
   69.6250     2.4390    58.1500     9.4360     8.6980    14.2930    23.8800   -17.0880 
   69.7500     2.3660    59.3530     9.1880     8.5710    12.2430    23.6020   -17.0680 
   69.8750     2.3120    58.9460     8.7780     8.2670     8.4980    23.3630   -17.0710 
   70.0000     2.2870    59.3300     8.3770     7.9290     6.9030    23.2840   -17.0860 
   70.1250     2.2900    63.4550     8.1180     7.6840     6.4780    23.2730   -17.0880 
   70.2500     2.3010    67.8980     7.9970     7.5530     6.2140    23.2730   -17.0650 
   70.3750     2.3130    69.4780     7.9450     7.4970     6.2890    23.2730   -17.0420 
   70.5000     2.3200    67.1560     7.8540     7.4360     6.6060    23.2730   -17.0310 
   70.6250     2.3210    63.4830     7.6520     7.2880     6.6670    23.2730   -17.0270 
   70.7500     2.3150    60.6360     7.4120     7.0940     6.3310    23.2730   -17.0340 
   70.8750     2.3030    58.1340     7.2430     6.9310     6.0570    23.2730   -17.0370 
   71.0000     2.2840    58.5530     7.2510     6.8850     5.7980    23.2730   -17.0500 
   71.1250     2.2640    61.4520     7.5540     7.0630     5.8690    23.2700   -17.0480 
   71.2500     2.2510    61.3820     8.0900     7.4470     6.2030    23.2640   -17.0710 
   71.3750     2.2490    57.4460     8.7400     7.9670     6.5450    23.2370   -17.0940 
   71.5000     2.2560    52.4940     9.3280     8.4860     6.8920    23.2710   -17.1170 
   71.6250     2.2650    49.9140     9.6150     8.7820     7.0730    23.3010   -17.1400 
   71.7500     2.2640    49.9760     9.5510     8.7650     7.0800    23.3350   -17.1140 
   71.8750     2.2490    53.3790     9.2000     8.4580     6.9750    23.3020   -17.0560 
   72.0000     2.2300    58.3970     8.7570     8.0090     6.7990    23.3020   -16.9760 
   72.1250     2.2330    60.2830     8.5740     7.6920     6.7100    23.4170   -16.9140 
   72.2500     2.2750    59.9220     8.9320     7.7490     6.6550    23.4990   -16.8450 
   72.3750     2.3590    58.3560    10.0480     8.3640     6.9620    23.5170   -16.7670 
   72.5000     2.4610    54.3600    12.0260     9.6560     8.1410    23.5000   -16.6650 
   72.6250     2.5290    49.0180    14.8240    11.7150    11.8340    23.4360   -16.5280 
   72.7500     2.5280    46.6460    17.6980    14.0810    19.5510    23.1910   -16.4060 
   72.8750     2.4640    48.0180    19.7050    16.0470    25.4080    22.8990   -16.3110 
   73.0000     2.3710    49.5990    20.0650    16.8490    20.2160    22.8040   -16.2190 
   73.1250     2.2920    50.3230    18.7410    16.1780    12.1290    22.9480   -16.1160 
   73.2500     2.2440    51.7570    17.0710    14.9720     9.8100    23.2450   -15.9940 
   73.3750     2.2240    53.1310    15.9070    13.9170     9.6070    23.4620   -15.8810 
   73.5000     2.2220    53.1130    15.5920    13.3770     9.9090    23.5630   -15.7860 
   73.6250     2.2250    52.4390    16.1470    13.5090    10.0640    23.5320   -15.7210 
   73.7500     2.2240    52.2350    17.1050    14.0560    10.3130    23.5060   -15.6760 
   73.8750     2.2190    52.1200    18.1050    14.7700    10.6440    23.4660   -15.6320 
   74.0000     2.2130    53.1310    18.8100    15.3770    11.1050    23.4420   -15.5720 
   74.1250     2.2090    54.2530    18.8420    15.5360    11.4220    23.4370   -15.5010 
   74.2500     2.2090    52.8420    18.2260    15.1740    11.1090    23.4290   -15.4530 
   74.3750     2.2120    50.2160    17.1700    14.3910    10.4170    23.4120   -15.4240 
   74.5000     2.2120    50.4530    16.0740    13.4740     9.5830    23.3770   -15.3950 
   74.6250     2.2050    54.2200    15.4640    12.8340     8.9330    23.4160   -15.3540 
   74.7500     2.1910    56.2490    15.5770    12.7060     8.7290    23.5400   -15.2800 
   74.8750     2.1780    55.5670    16.4990    13.2070     9.3740    23.5830   -15.1860 
   75.0000     2.1760    54.3950    18.1340    14.3330    11.3700    23.5910   -15.0900 
   75.1250     2.2000    52.5210    20.1900    15.9690    14.7410    23.5950   -14.9760 
   75.2500     2.2500    49.6020    22.0650    17.6710    17.1040    23.6030   -14.8190 
   75.3750     2.3170    46.9550    23.2780    19.0210    17.7910    23.5870   -14.6340 
   75.5000     2.3800    47.6330    23.5290    19.6810    16.7980    23.4760   -14.4680 
   75.6250     2.4080    49.7710    22.7010    19.4290    15.0610    23.3040   -14.3350 
   75.7500     2.3920    50.1870    21.2350    18.5540    14.7750    23.2560   -14.2420 
   75.8750     2.3470    49.8730    19.4100    17.2590    14.6800    23.1310   -14.1950 
   76.0000     2.2940    49.2770    17.4870    15.7510    13.3120    22.9820   -14.1990 
   76.1250     2.2580    50.1940    15.7590    14.2730    10.9440    22.9140   -14.2540 
   76.2500     2.2430    53.0260    14.3470    12.9920     9.3000    22.7320   -14.3520 
   76.3750     2.2450    56.0120    13.2260    11.9450     8.3050    22.3800   -14.4540 
   76.5000     2.2540    56.9270    12.2710    11.0780     7.7830    21.8600   -14.5170 
   76.6250     2.2620    56.0110    11.3260    10.2980     7.6420    21.2910   -14.5330 
   76.7500     2.2660    58.2180    10.3160     9.5160     7.3090    20.8460   -14.5200 
   76.8750     2.2640    63.9360     9.3220     8.7590     6.7290    20.7270   -14.5010 
   77.0000     2.2540    69.2560     8.5340     8.1350     6.3710    20.7750   -14.4680 
   77.1250     2.2400    69.6600     8.2510     7.8500     6.3490    21.0540   -14.4420 
   77.2500     2.2240    67.2060     8.5160     7.9680     6.5990    21.2490   -14.4040 
   77.3750     2.2100    65.1100     9.2630     8.5010     6.8720    21.4810   -14.3610 
