~V
VERS. 2.00: Ver 2.00
~W
STRT.M 49.0000:
STOP.M 254.0000:
STEP.M 0.1250:
NULL. -999.2500:
UWI. F10669:
~C
DEPT.M :
DEN.GM/CC :
GR.API :
RML.OHMM :
RI. :
RXO.OHMM :
CALI.CM :
SP.MV :
~A
# ...
   71.5000     2.1370    58.7500     7.8360     6.1620     8.1870    23.2350   -26.3300 
   71.6250     2.1440    59.4340     7.9640     6.2480     8.1720    23.4900   -26.5030 
   71.7500     2.1570    57.6390     8.1070     6.3460     8.0860    23.5530   -26.5870 
   71.8750     2.1680    54.0170     8.2870     6.4800     8.0590    23.4380   -26.5590 
   72.0000     2.1680    51.9810     8.4850     6.6400     8.4810    23.3100   -26.4370 
   72.1250     2.1570    52.9290     8.6600     6.8010     9.8450    23.2130   -26.2010 
   72.2500     2.1390    55.1960     8.7630     6.9250    11.9240    23.0920   -25.8670 
   72.3750     2.1220    55.8450     8.7340     6.9600    11.8360    23.1460   -25.4620 
   72.5000     2.1130    54.4710     8.6090     6.9150    10.2050    23.2980   -25.0030 
   72.6250     2.1160    52.7820     8.4510     6.8200     8.9990    23.4210   -24.4800 
   72.7500     2.1250    52.0210     8.3280     6.7200     8.5800    23.5300   -23.8890 
   72.8750     2.1340    52.4990     8.2800     6.6550     8.3210    23.6200   -23.2420 
   73.0000     2.1350    53.1300     8.2430     6.6070     8.1840    23.6590   -22.5190 
   73.1250     2.1300    53.2560     8.1130     6.5170     8.0550    23.6670   -21.7360 
   73.2500     2.1300    55.0010     7.8110     6.3230     7.9560    23.6440   -20.8860 
   73.3750     2.1500    61.5990     7.3500     6.0020     7.8930    23.6630   -20.0150 
   73.5000     2.1850    70.5550     6.9040     5.6540     7.6050    23.7370   -19.2020 
   73.6250     2.2180    77.1210     6.6040     5.3740     6.8520    23.8500   -18.4940 
   73.7500     2.2360    78.9840     6.5140     5.2220     6.2180    23.8900   -17.9020 
   73.8750     2.2400    75.3230     6.6280     5.2250     6.3800    23.7510   -17.4210 
   74.0000     2.2470    70.3060     6.8010     5.3050     7.0360    23.5350   -17.0380 
   74.1250     2.2670    68.2660     6.9220     5.3890     7.4580    23.1710   -16.7460 
   74.2500     2.2970    71.9400     6.9400     5.4280     7.2210    22.7120   -16.5710 
   74.3750     2.3160    77.3790     6.8890     5.4190     6.6800    22.3970   -16.4900 
   74.5000     2.3110    78.6500     6.8660     5.4140     6.5250    22.2120   -16.4120 
   74.6250     2.2870    75.4490     6.9160     5.4440     6.6350    22.0810   -16.3020 
   74.7500     2.2540    70.6490     7.0280     5.5190     7.0810    21.9490   -16.1440 
   74.8750     2.2200    69.0850     7.1200     5.6060     7.7280    21.7490   -15.9470 
   75.0000     2.1950    72.6330     7.1040     5.6450     7.7060    21.5410   -15.7500 
   75.1250     2.1830    76.3470     6.9710     5.6120     6.9500    21.5450   -15.5440 
   75.2500     2.1830    76.2110     6.7750     5.5220     6.6270    21.6700   -15.2950 
   75.3750     2.1950    74.4130     6.5970     5.4160     6.7460    21.6580   -14.9930 
   75.5000     2.2160    74.9190     6.4720     5.3240     6.7720    21.5850   -14.6730 
   75.6250     2.2460    76.3050     6.4000     5.2550     6.4940    21.8970   -14.3620 
   75.7500     2.2780    75.0040     6.3650     5.2000     6.2170    22.5820   -14.0750 
   75.8750     2.3020    73.0830     6.3510     5.1380     6.1740    23.3490   -13.8640 
   76.0000     2.3080    73.3320     6.3200     5.0460     6.1650    23.6830   -13.7270 
   76.1250     2.2970    73.7760     6.2240     4.8980     6.2510    23.7360   -13.6670 
   76.2500     2.2770    72.3970     5.9990     4.6620     6.1370    23.6990   -13.6780 
   76.3750     2.2600    69.9580     5.5890     4.3140     5.8970    23.7030   -13.7880 
   76.5000     2.2530    69.7850     5.1090     3.9250     5.3860    23.7340   -13.9680 
   76.6250     2.2530    70.7890     4.7090     3.5870     5.2960    23.7470   -14.2170 
   76.7500     2.2550    70.5370     4.5460     3.3970     5.7330    23.7480   -14.5390 
   76.8750     2.2580    68.8820     4.8630     3.5160     6.3600    23.7480   -14.8960 
   77.0000     2.2760    66.7940     5.7960     4.0470     7.8750    23.7310   -15.2530 
   77.1250     2.3250    63.9010     7.5770     5.1760    12.0480    23.7080   -15.6190 
   77.2500     2.4110    60.8360    10.4810     7.1650    17.8880    23.7160   -16.0090 
   77.3750     2.5250    58.4120    14.9680    10.5380    27.4940    23.7660   -16.3850 
   77.5000     2.6360    57.1200    20.3870    15.0080    44.4080    23.7710   -16.7570 
   77.6250     2.7100    56.2470    24.9400    19.4010    65.1030    23.7540   -17.0880 
   77.7500     2.7180    54.9300    26.0100    21.5970    68.4700    23.7380   -17.3520 
   77.8750     2.6440    53.4850    22.5700    19.9630    54.1600    23.7120   -17.5160 
   78.0000     2.5340    53.3010    17.8470    16.4970    35.2700    23.6600   -17.5750 
   78.1250     2.4230    55.2430    13.7170    12.8800    18.5650    23.5790   -17.4830 
   78.2500     2.3330    59.4180    10.7590     9.9630    11.1750    23.4780   -17.2300 
   78.3750     2.2800    64.8830     8.9550     8.0110     9.2610    23.3460   -16.8330 
   78.5000     2.2560    71.6830     7.7840     6.6960     8.6630    23.2920   -16.3450 
   78.6250     2.2480    78.2740     7.0200     5.8400     7.5990    23.3820   -15.8020 
   78.7500     2.2440    83.9240     6.5420     5.3140     6.1730    23.5900   -15.2470 
   78.8750     2.2360    87.5570     6.3450     5.0670     5.5220    23.7100   -14.7290 
   79.0000     2.2270    88.0800     6.3600     5.0010     5.7060    23.7600   -14.2760 
   79.1250     2.2220    85.4510     6.5100     5.0580     6.4590    23.7700   -13.9240 
   79.2500     2.2290    82.1560     6.6490     5.1490     6.6380    23.7860   -13.7020 
   79.3750     2.2530    82.9170     6.5800     5.1540     6.5140    23.8010   -13.6260 
   79.5000     2.2880    87.0500     6.3100     5.0330     5.8190    23.8340   -13.6380 
   79.6250     2.3200    91.1170     5.9630     4.8320     5.2570    23.8720   -13.7190 
   79.7500     2.3350    92.2580     5.6920     4.6340     5.0470    23.9380   -13.8610 
   79.8750     2.3300    89.2530     5.6110     4.5260     5.1200    23.9210   -14.0410 
   80.0000     2.3130    84.7200     5.6810     4.5140     5.4510    23.9020   -14.2610 
   80.1250     2.2930    81.5690     5.8440     4.5780     5.8790    23.8870   -14.5220 
   80.2500     2.2730    82.3250     6.0340     4.6820     6.0830    23.9050   -14.8130 
   80.3750     2.2510    87.3380     6.2280     4.8040     5.9770    23.8640   -15.1000 
   80.5000     2.2270    90.5060     6.4820     4.9660     6.2580    23.7990   -15.3630 
   80.6250     2.2130    88.5990     6.8690     5.2190     6.8180    23.7340   -15.5750 
   80.7500     2.2240    84.0870     7.4210     5.5920     7.3680    23.7190   -15.7100 
   80.8750     2.2610    82.3090     8.0640     6.0550     7.7100    23.7540   -15.7810 
   81.0000     2.2950    83.0940     8.5540     6.4500     9.3110    23.7810   -15.7990 
   81.1250     2.3070    83.4430     8.6300     6.5940    11.3920    23.7650   -15.7620 
   81.2500     2.2970    82.4750     8.1860     6.3780     9.6990    23.7330   -15.6920 
   81.3750     2.2860    81.8230     7.3810     5.8490     7.6490    23.7490   -15.6200 
   81.5000     2.2930    83.4810     6.6310     5.2790     6.2150    23.7850   -15.5850 
   81.6250     2.3150    88.1990     6.1650     4.8470     5.7330    23.8090   -15.6280 
   81.7500     2.3250    92.4430     6.0720     4.6500     5.7910    23.8050   -15.7650 
   81.8750     2.2970    92.2310     6.3420     4.7350     6.3110    23.7680   -16.0140 
   82.0000     2.2470    87.8710     6.7550     4.9740     6.7530    23.7010   -16.3420 
   82.1250     2.1960    83.7070     7.1500     5.2590     7.2380    23.5500   -16.7390 
   82.2500     2.1720    81.7390     7.4390     5.5110     7.8840    23.3130   -17.1570 
   82.3750     2.2040    80.4720     7.6390     5.7150     7.8300    23.1950   -17.5990 
   82.5000     2.2740    81.6760     7.8630     5.9230     7.5980    23.2760   -18.0540 
   82.6250     2.3350    85.5920     8.1680     6.1730     8.5750    23.5200   -18.5230 
