~V
VERS. 2.00: Ver 2.00
~W
STRT.M 50.0000:
STOP.M 224.0000:
STEP.M 0.1250:
NULL. -999.2500:
UWI. F10690:
~C
DEPT.M :
SP.MV :
DEN.GM/CC :
GR.API :
RML.OHMM :
RI. :
RXO.OHMM :
CALI.CM :
~A
# ...
  173.7500   -25.3580     2.2910    48.3400    20.8040    20.0330    15.4930    25.2120 
  173.8750   -25.4340     2.3140    50.8010    21.0080    20.2320    15.7930    25.1960 
  174.0000   -25.5160     2.3300    50.0470    21.7470    20.9510    17.7730    25.1870 
  174.1250   -25.5930     2.3370    48.6620    22.7460    21.9240    20.0160    25.1730 
  174.2500   -25.6740     2.3410    49.2330    23.4810    22.6400    20.3370    25.1520 
  174.3750   -25.7610     2.3430    49.8940    23.6060    22.7620    19.9140    25.1410 
  174.5000   -25.8560     2.3370    48.8170    23.0910    22.2600    19.4630    25.1390 
  174.6250   -25.9440     2.3200    46.4010    22.2370    21.4290    18.4470    25.1380 
  174.7500   -26.0210     2.3030    46.0760    21.5590    20.7690    16.3980    25.1280 
  174.8750   -26.0980     2.2900    47.5110    21.3730    20.5870    16.0020    25.0900 
  175.0000   -26.1790     2.2800    48.2330    21.8600    21.0610    17.7960    25.0090 
  175.1250   -26.2780     2.2690    47.4240    23.2050    22.3710    19.3850    24.9500 
  175.2500   -26.3860     2.2580    46.2090    25.2270    24.3400    20.6350    24.9560 
  175.3750   -26.4980     2.2520    44.9620    27.7490    26.7960    22.1660    25.0430 
  175.5000   -26.6160     2.2520    44.1870    30.4590    29.4350    25.2430    25.1870 
  175.6250   -26.7230     2.2600    45.2960    32.8640    31.7760    28.9640    25.2660 
  175.7500   -26.8100     2.2730    47.6290    34.6480    33.5130    31.2190    25.2980 
  175.8750   -26.8660     2.2860    48.8610    35.6930    34.5300    31.2280    25.3050 
  176.0000   -26.8980     2.2880    48.7380    36.0380    34.8670    30.6410    25.3070 
  176.1250   -26.9340     2.2720    47.5370    35.7680    34.6030    29.7770    25.3070 
  176.2500   -26.9820     2.2530    47.1600    35.1650    34.0170    28.9920    25.3060 
  176.3750   -27.0400     2.2430    47.4950    34.3410    33.2140    29.1870    25.3040 
  176.5000   -27.1040     2.2440    48.1260    33.3180    32.2180    29.5690    25.2990 
  176.6250   -27.1750     2.2540    49.3520    32.0540    30.9880    28.0680    25.2920 
  176.7500   -27.2540     2.2660    50.0560    30.6110    29.5820    25.9300    25.2870 
  176.8750   -27.3380     2.2720    48.3840    29.0480    28.0600    24.9060    25.2860 
  177.0000   -27.4310     2.2720    45.0890    27.4650    26.5190    24.2890    25.2880 
  177.1250   -27.5320     2.2710    44.3620    26.0330    25.1250    21.9830    25.2820 
  177.2500   -27.6380     2.2740    46.6040    24.8660    23.9880    19.7750    25.2580 
  177.3750   -27.7350     2.2760    47.9710    24.0160    23.1610    18.8850    25.2200 
  177.5000   -27.8090     2.2780    46.2940    23.4870    22.6450    18.8230    25.1970 
  177.6250   -27.8540     2.2790    43.6410    23.2660    22.4300    18.7010    25.1910 
  177.7500   -27.8940     2.2790    44.3020    23.1950    22.3620    18.3790    25.1910 
  177.8750   -27.9540     2.2850    47.2950    23.1490    22.3170    18.1190    25.1860 
  178.0000   -28.0530     2.3060    50.4820    23.0010    22.1720    18.2250    25.1630 
  178.1250   -28.1760     2.3400    53.1380    22.6010    21.7830    18.2300    25.1120 
  178.2500   -28.2920     2.3690    55.7500    21.9800    21.1790    18.1500    25.0630 
  178.3750   -28.3770     2.3830    56.5050    21.2700    20.4870    17.8720    25.0330 
  178.5000   -28.4330     2.3870    54.1810    20.6770    19.9090    17.1820    25.0140 
  178.6250   -28.4800     2.3900    51.6220    20.5010    19.7380    15.8150    24.9920 
  178.7500   -28.5430     2.3990    49.9470    20.8610    20.0890    14.7440    24.9780 
  178.8750   -28.6300     2.4080    48.1310    21.8150    21.0180    15.6570    24.9630 
  179.0000   -28.7420     2.4050    45.8520    23.3040    22.4680    19.0660    24.9350 
  179.1250   -28.8780     2.3780    44.7040    25.1630    24.2770    22.2880    24.9160 
  179.2500   -29.0320     2.3450    46.4350    27.0220    26.0880    24.0240    24.9060 
  179.3750   -29.1960     2.3220    48.1640    28.6200    27.6440    24.9120    24.9040 
  179.5000   -29.3590     2.3130    48.5290    29.8240    28.8160    25.2770    24.9030 
  179.6250   -29.5130     2.3140    49.2560    30.6460    29.6170    25.5480    24.9090 
  179.7500   -29.6720     2.3190    50.0720    31.3260    30.2790    26.0570    24.9420 
  179.8750   -29.8540     2.3220    49.6490    32.0110    30.9460    26.4410    25.0180 
  180.0000   -30.0580     2.3220    49.5170    32.7980    31.7120    27.0090    25.0970 
  180.1250   -30.2730     2.3220    51.7230    33.7660    32.6540    28.1560    25.1280 
  180.2500   -30.4810     2.3240    52.5330    34.8910    33.7500    29.4230    25.1340 
  180.3750   -30.6770     2.3210    50.1530    36.1310    34.9570    30.5980    25.1340 
  180.5000   -30.8560     2.3100    49.1600    37.4080    36.2010    31.7470    25.1340 
  180.6250   -31.0290     2.3010    51.5560    38.6120    37.3730    31.7470    25.1340 
  180.7500   -31.2080     2.3010    51.8430    39.7040    38.4360    31.5210    25.1340 
  180.8750   -31.4030     2.3020    50.1720    40.7320    39.4380    33.4320    25.1340 
  181.0000   -31.6070     2.2930    50.2630    41.8610    40.5370    35.8880    25.1340 
  181.1250   -31.8050     2.2690    52.1500    43.4520    42.0860    36.9340    25.1340 
  181.2500   -31.9720     2.2400    50.8300    45.7440    44.3170    38.1960    25.1340 
  181.3750   -32.1030     2.2190    47.4000    48.8950    47.3860    41.5570    25.1340 
  181.5000   -32.2020     2.2130    47.2540    52.7410    51.1300    47.8370    25.1290 
  181.6250   -32.2900     2.2400    50.0590    56.2230    54.5210    52.6570    25.1120 
  181.7500   -32.3760     2.3050    50.3850    57.6390    55.8990    50.7610    25.0810 
  181.8750   -32.4570     2.4120    49.2630    55.7150    54.0260    48.0950    25.0290 
  182.0000   -32.5230     2.5440    49.9750    50.6740    49.1180    49.9310    24.9220 
  182.1250   -32.5720     2.6520    50.8960    44.5100    43.1160    47.2150    24.8000 
  182.2500   -32.6090     2.6970    50.9750    39.6860    38.4190    38.3380    24.7300 
  182.3750   -32.6350     2.6920    54.1300    37.1560    35.9550    33.7790    24.7090 
  182.5000   -32.6480     2.6780    61.4170    36.7170    35.5270    30.3800    24.7070 
  182.6250   -32.6380     2.6800    63.7190    36.6010    35.4150    30.1780    24.7050 
  182.7500   -32.6080     2.6840    59.0490    33.8230    32.7100    31.3570    24.7030 
  182.8750   -32.5630     2.6650    53.6730    27.3140    26.3720    29.7060    24.7100 
  183.0000   -32.5140     2.6060    52.3080    19.2140    18.4850    27.6900    24.7120 
  183.1250   -32.4810     2.5110    52.6030    12.7940    12.2670    16.0020    24.6720 
  183.2500   -32.4800     2.4240    52.3220     8.6180     8.2940     7.7970    24.5470 
  183.3750   -32.5140     2.3700    54.0590     6.3710     6.0940     4.3270    24.3330 
  183.5000   -32.5780     2.3510    58.0170     5.3630     5.1060     3.6080    24.0630 
  183.6250   -32.6640     2.3580    60.2240     5.2940     5.0380     3.8070    23.9350 
  183.7500   -32.7590     2.3710    59.3510     5.7570     5.4910     4.0840    23.9250 
  183.8750   -32.8670     2.3840    58.8190     6.5300     6.2490     4.2920    24.0140 
  184.0000   -32.9900     2.3880    60.7560     7.3660     7.0670     4.4890    24.2370 
  184.1250   -33.1250     2.3820    63.0130     7.9830     7.6720     4.6250    24.7170 
  184.2500   -33.2520     2.3720    64.5980     8.3100     7.9930     4.9400    25.3520 
  184.3750   -33.3590     2.3620    66.0040     8.4020     8.0820     5.2410    25.7900 
  184.5000   -33.4390     2.3510    67.2990     8.3680     8.0490     5.4610    25.9370 
  184.6250   -33.5000     2.3400    67.8710     8.2890     7.9710     5.6640    26.0540 
  184.7500   -33.5490     2.3390    69.6250     8.1740     7.8590     5.9140    26.2360 
  184.8750   -33.5840     2.3510    72.0010     7.9920     7.6800     6.1630    26.3480 
