~V
VERS. 2.00: Ver 2.00
~W
STRT.M 55.0000:
STOP.M 197.0000:
STEP.M 0.1250:
NULL. -999.2500:
UWI. F10681:
~C
DEPT.M :
DEN.GM/CC :
GR.API :
RML.OHMM :
RI. :
RXO.OHMM :
CALI.CM :
SP.MV :
~A
# ...
  156.2500     2.2110    54.1310    40.5000    35.8980    37.5410    24.7780   -22.8960 
  156.3750     2.1900    55.1900    40.5050    35.8920    36.2870    24.7830   -22.8830 
  156.5000     2.1680    53.5850    40.0640    35.5700    32.9940    24.8100   -22.8860 
  156.6250     2.1600    52.5230    39.1510    34.8650    29.2200    24.7650   -22.9020 
  156.7500     2.1650    53.4930    38.0860    34.0150    26.1190    24.6980   -22.9350 
  156.8750     2.1810    55.5480    37.1240    33.2400    24.4820    24.7420   -23.0330 
  157.0000     2.2000    57.5040    36.4340    32.7070    26.5060    24.6210   -23.1490 
  157.1250     2.2160    58.1280    36.1560    32.5460    29.9460    24.8390   -23.2130 
  157.2500     2.2280    59.0810    36.2640    32.7130    31.6720    24.7980   -23.2710 
  157.3750     2.2360    60.4190    36.7630    33.1900    32.1110    24.7460   -23.3660 
  157.5000     2.2400    59.8430    37.5980    33.9330    31.9020    24.7620   -23.4480 
  157.6250     2.2390    57.6780    38.6450    34.8580    33.2180    24.6710   -23.5070 
  157.7500     2.2350    57.2370    39.6710    35.7760    35.7860    24.7460   -23.5910 
  157.8750     2.2280    59.5460    40.5210    36.5360    38.3130    24.9190   -23.6570 
  158.0000     2.2220    61.5330    41.1010    37.0300    38.8880    25.0360   -23.7350 
  158.1250     2.2190    60.0250    41.3740    37.1840    38.4450    24.9700   -23.9030 
  158.2500     2.2230    56.7970    41.5110    37.1480    37.5440    24.9600   -24.0950 
  158.3750     2.2360    54.0410    41.6820    37.0880    37.0560    24.9870   -24.2600 
  158.5000     2.2550    54.2400    42.0440    37.1730    37.4520    25.0000   -24.4180 
  158.6250     2.2750    55.2430    42.7450    37.5730    39.7510    24.9730   -24.5920 
  158.7500     2.2860    53.1590    43.7700    38.3050    43.8390    24.8760   -24.7510 
  158.8750     2.2800    49.7540    45.1810    39.4320    46.9000    24.7440   -24.8870 
  159.0000     2.2520    48.3380    47.2270    41.1310    47.4080    24.6490   -25.0170 
  159.1250     2.2180    50.2400    50.7240    44.0290    47.9290    24.5980   -25.0970 
  159.2500     2.2050    51.0680    56.1070    48.5800    51.8070    24.4170   -25.1330 
  159.3750     2.2380    50.6980    63.4200    55.0960    61.2810    24.3550   -25.1860 
  159.5000     2.3280    51.8570    71.4770    62.9850    79.8710    24.4730   -25.2610 
  159.6250     2.4620    54.7450    75.5830    68.8120   110.1140    24.3840   -25.2900 
  159.7500     2.5920    56.1270    70.7290    67.5090   140.2560    24.4230   -25.2820 
  159.8750     2.6700    53.9940    56.1710    56.5820   125.2520    24.3810   -25.2840 
  160.0000     2.6690    50.1190    37.7300    39.9700    70.2420    24.2890   -25.2480 
  160.1250     2.5930    49.4920    25.5710    25.5140    32.1000    24.1750   -25.1450 
  160.2500     2.4950    53.4360    15.5370    15.9260    14.3040    23.9130   -25.0780 
  160.3750     2.4080    58.3530    10.0550    10.3880     7.1550    23.6410   -25.0700 
  160.5000     2.3480    61.9360     7.4710     7.5080     5.6070    23.4920   -25.1020 
  160.6250     2.3220    62.8810     6.7740     6.4330     6.4280    23.5720   -25.2150 
  160.7500     2.3150    62.8190     6.9810     6.3090     7.4970    23.8250   -25.4040 
  160.8750     2.3130    62.0200     7.7100     6.8250     7.9010    24.0920   -25.6390 
  161.0000     2.3080    59.1730     8.6450     7.7070     7.8720    24.3050   -25.8950 
  161.1250     2.3000    56.8360     9.4380     8.6200     7.8320    24.4480   -26.1870 
  161.2500     2.2930    57.8900     9.9020     9.2610     7.8000    24.5790   -26.4750 
  161.3750     2.2890    62.0830    10.0160     9.5210     7.7710    24.5620   -26.7320 
  161.5000     2.2910    67.3300     9.8620     9.4350     7.7460    24.4180   -26.9450 
  161.6250     2.2980    72.5410     9.5240     9.0720     7.7270    24.4490   -27.1010 
  161.7500     2.3060    77.3240     9.1180     8.5750     7.5190    24.5960   -27.2440 
  161.8750     2.3130    79.6390     8.7170     8.0260     7.2490    24.6250   -27.4200 
  162.0000     2.3180    79.3380     8.4230     7.5170     7.1330    24.6400   -27.6470 
  162.1250     2.3240    78.9320     8.4710     7.2210     7.3320    24.7290   -27.9510 
  162.2500     2.3320    79.3830     9.0730     7.2860     7.8150    24.8600   -28.3310 
  162.3750     2.3390    79.3500    10.5550     7.9090     9.0580    24.9390   -28.7430 
  162.5000     2.3390    78.0320    13.3320     9.3570    12.3170    24.8670   -29.1240 
  162.6250     2.3280    75.7180    18.1610    12.2490    20.0610    24.3610   -29.4390 
  162.7500     2.3140    73.7760    23.6130    16.7570    32.3470    23.7010   -29.6340 
  162.8750     2.3020    71.0710    29.7290    22.6900    45.5930    23.6820   -29.5910 
  163.0000     2.2980    66.5020    35.7530    28.6070    52.6090    23.8950   -29.2830 
  163.1250     2.3000    61.4530    36.5510    30.8040    51.9780    24.4550   -28.6600 
  163.2500     2.2980    58.2790    31.8680    28.0890    50.4240    24.7950   -27.6780 
  163.3750     2.2830    56.1500    24.4470    22.3440    45.1660    24.8760   -26.3650 
  163.5000     2.2560    52.7520    17.5330    16.4240    35.3170    24.7010   -24.8760 
  163.6250     2.2270    48.7310    13.0020    12.1690    23.4900    24.2810   -23.3320 
  163.7500     2.2140    49.6230    10.4250     9.4620    16.5580    23.9890   -21.7910 
  163.8750     2.2250    57.1540     9.3270     7.9860    13.7300    23.8000   -20.3500 
  164.0000     2.2580    66.0860     9.2780     7.4430    12.5670    23.8060   -19.0840 
  164.1250     2.3000    68.9100     9.9920     7.6900    11.1030    23.9400   -18.0590 
  164.2500     2.3400    68.2260    10.9920     8.3680    12.9030    24.1120   -17.2860 
  164.3750     2.3740    67.4010    11.9690     9.2290    18.7270    24.2470   -16.7250 
  164.5000     2.4010    68.1170    12.6830    10.0200    25.7550    24.3480   -16.3010 
  164.6250     2.4150    67.7410    12.9500    10.4950    19.1100    24.5830   -15.9680 
  164.7500     2.4120    65.1150    12.8550    10.6290    16.3250    24.3980   -15.6930 
  164.8750     2.3950    61.8340    12.4780    10.4590    15.3150    23.7330   -15.4460 
  165.0000     2.3770    60.0370    11.9280    10.0720    15.6340    22.9500   -15.2020 
  165.1250     2.3730    61.7650    11.3530     9.5880    14.4220    22.7790   -14.9660 
  165.2500     2.3860    64.0070    10.8920     9.1480    12.1890    23.2660   -14.7320 
  165.3750     2.4070    63.8790    10.6120     8.8250    10.6050    23.9490   -14.5260 
  165.5000     2.4250    62.3970    10.5230     8.6510     9.8290    24.3840   -14.3840 
  165.6250     2.4300    61.5850    10.5940     8.6260    10.9580    24.4340   -14.2940 
  165.7500     2.4220    63.2000    10.7140     8.6660    13.5920    24.4610   -14.2130 
  165.8750     2.4080    64.4220    10.8010     8.7080    15.6280    23.9680   -14.1510 
  166.0000     2.3930    63.1940    10.7890     8.6910    12.7630    23.4440   -14.1280 
  166.1250     2.3810    60.7360    10.5920     8.5350     9.5610    22.9340   -14.1200 
  166.2500     2.3720    59.4770    10.2080     8.2240     8.1240    22.7910   -14.1130 
  166.3750     2.3630    57.7070     9.6520     7.7650     8.0970    23.1370   -14.1050 
  166.5000     2.3500    54.1580     8.9830     7.2020     8.1840    23.7780   -14.0850 
  166.6250     2.3320    52.1880     8.3210     6.6250     7.7120    23.9880   -14.0380 
  166.7500     2.3160    53.6060     7.8150     6.1490     7.0160    23.9090   -13.9880 
  166.8750     2.3060    56.1420     7.5840     5.8590     6.3590    23.7870   -13.9370 
  167.0000     2.3080    56.1020     7.7050     5.8160     5.7230    23.7960   -13.8470 
  167.1250     2.3200    54.2190     8.2550     6.0970     5.7290    24.0160   -13.7270 
  167.2500     2.3350    53.7020     9.1060     6.6440     6.3130    24.3010   -13.6240 
  167.3750     2.3460    54.5230    10.1170     7.3920     7.2650    24.5000   -13.5450 
