~V
VERS. 2.00: Ver 2.00
~W
STRT.M 49.0000:
STOP.M 217.0000:
STEP.M 0.1250:
NULL. -999.2500:
UWI. F10685:
~C
DEPT.M :
SP.MV :
DEN.GM/CC :
GR.API :
RML.OHMM :
RI. :
RXO.OHMM :
CALI.CM :
~A
# ...
   94.0000   -11.1390     2.1060    73.0600    13.6840    11.4030    12.1780    22.7520 
   94.1250   -11.6230     2.1230    68.2510    20.0980    14.8210    19.2690    23.1480 
   94.2500   -12.1030     2.1860    60.9670    26.8140    18.9390    24.7320    23.5380 
   94.3750   -12.5380     2.2810    56.5660    30.8470    22.7410    26.4960    23.7110 
   94.5000   -12.9150     2.3780    57.2430    32.9820    25.1660    24.0730    23.5500 
   94.6250   -13.2340     2.4280    59.7500    33.1890    25.8620    21.6260    23.0690 
   94.7500   -13.4950     2.4160    60.7630    32.9220    25.9410    21.1760    22.7940 
   94.8750   -13.7050     2.3490    62.1510    33.0620    26.1220    22.4740    22.7430 
   95.0000   -13.8730     2.2590    65.9250    33.6890    26.6750    23.1000    22.7380 
   95.1250   -14.0010     2.1740    69.5670    34.1660    27.4480    23.6690    22.7420 
   95.2500   -14.1170     2.1080    69.9390    34.0610    27.9930    23.9540    22.7520 
   95.3750   -14.2240     2.0570    67.2170    33.4540    28.0140    24.7550    22.7590 
   95.5000   -14.3490     2.0170    65.0140    32.7630    27.5450    24.0850    22.7740 
   95.6250   -14.4910     1.9880    64.9050    32.8070    27.0050    22.1930    22.8700 
   95.7500   -14.6480     1.9730    63.9180    33.8590    26.9130    20.6590    23.0880 
   95.8750   -14.7830     1.9780    63.8540    35.8400    27.5650    20.4560    23.2680 
   96.0000   -14.8990     2.0000    64.7980    38.4120    29.0390    22.5500    23.5460 
   96.1250   -14.9950     2.0270    63.4950    41.0320    31.1990    26.5250    24.0490 
   96.2500   -15.0600     2.0480    60.1160    43.0570    33.4460    27.5640    24.5670 
   96.3750   -15.0890     2.0630    58.1060    44.1380    35.3140    25.7620    24.7150 
   96.5000   -15.1180     2.0760    59.5140    44.3350    36.5280    23.9960    24.7370 
   96.6250   -15.0560     2.0900    60.9600    43.8960    36.9540    24.7620    24.7350 
   96.7500   -14.9470     2.1010    59.4490    43.1090    36.8550    26.5760    24.7260 
   96.8750   -14.7930     2.1060    56.2100    42.2120    36.4280    28.0500    24.7200 
   97.0000   -14.6240     2.1070    55.2220    41.4560    35.9000    27.8230    24.7340 
   97.1250   -14.4620     2.1150    57.3540    41.3220    35.5770    26.6220    24.7830 
   97.2500   -14.3430     2.1340    58.7310    42.0120    35.6610    25.8200    24.7920 
   97.3750   -14.2560     2.1610    57.0600    43.3570    36.2240    26.1570    24.7760 
   97.5000   -14.1850     2.1820    54.5700    44.7680    37.1320    27.7460    24.6880 
   97.6250   -14.1740     2.1830    52.9230    45.4500    37.9900    29.7050    24.4800 
   97.7500   -14.1910     2.1670    53.3650    45.2160    38.3740    29.0900    24.3140 
   97.8750   -14.2440     2.1440    55.7680    44.1960    38.0650    27.0240    24.2340 
   98.0000   -14.2940     2.1230    57.6610    42.6470    37.0850    25.7040    24.2130 
   98.1250   -14.3370     2.1120    55.8410    41.0430    35.7090    25.2090    24.2070 
   98.2500   -14.3580     2.1060    53.0950    39.7780    34.4500    24.6360    24.1910 
   98.3750   -14.3660     2.1010    52.4540    39.1570    33.6200    24.0000    24.0330 
   98.5000   -14.3620     2.0940    55.3210    39.4710    33.3610    23.4230    23.8500 
   98.6250   -14.3330     2.0880    58.4700    40.8950    33.7460    23.9040    23.8790 
   98.7500   -14.3100     2.0870    58.9030    42.8270    34.5260    25.1130    23.9300 
   98.8750   -14.2680     2.0920    56.6350    44.6740    35.4570    26.1940    23.8700 
   99.0000   -14.2580     2.1050    55.1130    45.8790    36.2740    26.2680    23.7150 
   99.1250   -14.2970     2.1220    57.0720    46.0310    36.6950    26.5020    23.6020 
   99.2500   -14.3650     2.1340    58.3840    45.4190    36.7320    26.6870    23.7050 
   99.3750   -14.4590     2.1350    55.4380    44.4730    36.5240    28.4560    23.9000 
   99.5000   -14.5750     2.1230    51.0350    43.6190    36.2700    29.1570    24.0200 
   99.6250   -14.7310     2.1030    50.3480    43.3110    36.1430    27.8390    23.9180 
   99.7500   -14.8680     2.0890    53.2340    43.5770    36.1460    27.4940    24.0690 
   99.8750   -14.9870     2.0870    55.8530    44.2410    36.2270    28.8460    24.2060 
  100.0000   -15.0570     2.0940    55.4970    45.0210    36.3160    30.4240    24.1300 
  100.1250   -15.0630     2.1050    54.4300    45.4910    36.3290    30.9040    24.0580 
  100.2500   -15.0090     2.1150    55.6000    45.0740    36.0580    30.2560    24.1010 
  100.3750   -14.8800     2.1280    58.7030    43.1480    35.0260    28.5550    24.1570 
  100.5000   -14.6970     2.1490    61.1920    39.3480    32.6790    26.5490    24.0550 
  100.6250   -14.4650     2.1820    61.4420    33.8230    28.7200    24.5530    23.8530 
  100.7500   -14.2360     2.2180    61.8750    27.8640    24.1550    21.9710    23.8720 
  100.8750   -14.0810     2.2410    64.4180    22.6120    19.9400    17.7480    24.0240 
  101.0000   -14.0080     2.2400    68.8080    18.8230    16.7320    13.1860    24.0810 
  101.1250   -14.0260     2.2110    71.4600    16.8820    14.9320    11.7050    23.9550 
  101.2500   -14.1230     2.1740    71.6060    16.3060    14.2020    11.7580    23.8770 
  101.3750   -14.3360     2.1470    70.9170    16.8160    14.3360    12.1820    23.8580 
  101.5000   -14.6060     2.1390    70.3210    17.9540    15.0840    12.6680    23.8580 
  101.6250   -14.9470     2.1470    68.1420    19.1270    16.0850    13.2930    23.8370 
  101.7500   -15.2620     2.1570    63.8470    19.9500    16.8900    13.5270    23.7640 
  101.8750   -15.5260     2.1600    60.6830    20.4630    17.3180    13.4430    23.6920 
  102.0000   -15.6980     2.1610    61.5370    20.8210    17.4110    13.4040    23.5920 
  102.1250   -15.7330     2.1630    66.8350    21.2300    17.3310    13.5300    23.4410 
  102.2500   -15.6460     2.1690    70.2810    21.7160    17.3070    13.6070    23.1960 
  102.3750   -15.4310     2.1750    68.8160    22.2900    17.5510    13.7640    22.9920 
  102.5000   -15.1180     2.1760    65.3540    23.1030    18.2690    14.2390    22.9270 
  102.6250   -14.6770     2.1670    63.4060    24.4820    19.6100    15.5830    23.3090 
  102.7500   -14.1540     2.1600    62.1330    26.1440    21.1840    17.8570    23.7260 
  102.8750   -13.5530     2.1700    60.1610    27.2490    22.3200    20.8810    23.9090 
  103.0000   -12.8840     2.2060    59.4870    26.6630    22.2150    23.6690    23.9460 
  103.1250   -12.1600     2.2640    61.2270    23.5570    20.2860    22.0250    24.0570 
  103.2500   -11.4440     2.3210    63.1540    19.2450    17.4560    17.9100    24.3550 
  103.3750   -10.7560     2.3550    65.4840    15.2440    14.6440    14.3190    24.5810 
  103.5000   -10.1260     2.3620    68.3350    12.6160    12.4250    11.1160    24.6970 
  103.6250    -9.5760     2.3540    72.2790    11.8130    11.0680     9.9430    24.7120 
  103.7500    -9.0850     2.3530    76.2340    12.0150    10.3400     9.4390    24.7150 
  103.8750    -8.6720     2.3650    77.2570    12.5070    10.0500     9.6880    24.7150 
  104.0000    -8.3500     2.3870    74.5230    12.6050     9.9560    10.4610    24.7150 
  104.1250    -8.1560     2.4080    72.3870    11.8900     9.7550    10.4560    24.7180 
  104.2500    -8.0320     2.4190    74.9020    10.8070     9.3090     9.0890    24.7230 
  104.3750    -7.9680     2.4160    79.5630     9.8660     8.6640     7.9760    24.7370 
  104.5000    -7.9040     2.4000    80.8640     9.2950     7.9610     6.9180    24.7850 
  104.6250    -7.8410     2.3770    79.9750     9.0500     7.3790     6.3230    24.8090 
  104.7500    -7.8340     2.3580    81.8330     8.9330     6.9990     5.9020    24.8420 
  104.8750    -7.8260     2.3470    83.9970     8.8780     6.8360     5.8480    24.8280 
  105.0000    -7.8370     2.3470    80.7420     8.8130     6.8520     6.0420    24.9120 
  105.1250    -7.8400     2.3530    75.2360     8.7370     6.9870     6.3050    24.9600 
