~V
VERS. 2.00: Ver 2.00
~W
STRT.M 50.0000:
STOP.M 219.0000:
STEP.M 0.1250:
NULL. -999.2500:
UWI. F10688:
~C
DEPT.M :
SP.MV :
DEN.GM/CC :
GR.API :
RML.OHMM :
RI. :
RXO.OHMM :
CALI.CM :
~A
# ...
  207.5000   -18.4630     1.9150    18.7970     5.7670     4.5020     3.2030    35.8730 
  207.6250   -18.7260     1.9020    18.7970     5.8020     4.5160     3.2810    35.9310 
  207.7500   -18.9060     1.9000    18.7970     5.8460     4.5340     3.5060    35.9880 
  207.8750   -18.9940     1.9130    18.7970     5.9000     4.5670     3.6180    36.0080 
  208.0000   -19.0190     1.9450    18.7970     5.9680     4.6190     3.6060    36.0090 
  208.1250   -18.9680     1.9910    18.7970     6.0480     4.6910     3.6200    36.0090 
  208.2500   -18.8600     2.0340    18.7970     6.1310     4.7680     3.8000    35.9820 
  208.3750   -18.7330     2.0620    18.7970     6.2050     4.8350     4.0190    35.8680 
  208.5000   -18.5670     2.0750    18.7970     6.2550     4.8800     3.9320    35.6700 
  208.6250   -18.3820     2.0770    18.7970     6.2590     4.8890     3.5680    35.3530 
  208.7500   -18.2310     2.0750    18.7970     6.2180     4.8620     3.2390    34.9200 
  208.8750   -18.1170     2.0690    18.7970     6.1270     4.8010     3.1540    34.3430 
  209.0000   -18.0540     2.0660    18.7970     5.9940     4.7140     3.2790    33.6560 
  209.1250   -18.0560     2.0760    18.7970     5.8440     4.6210     3.2230    32.9130 
  209.2500   -18.1060     2.0990    18.7970     5.7260     4.5440     2.9720    32.3350 
  209.3750   -18.1660     2.1250    18.7970     5.6670     4.5000     2.7850    32.0430 
  209.5000   -18.1950     2.1310    18.7970     5.6760     4.4980     2.6760    32.0450 
  209.6250   -18.2080     2.0940    18.7970     5.7290     4.5320     2.5870    32.3960 
  209.7500   -18.2070     2.0380    18.7970     5.7710     4.5720     2.7150    33.0010 
  209.8750   -18.1730     1.9930    18.7970     5.7690     4.5940     3.0740    33.7690 
  210.0000   -18.0910     1.9720    18.7970     5.7130     4.5910     3.4860    34.5430 
  210.1250   -17.9780     1.9650    18.7970     5.6140     4.5640     3.4760    34.9030 
  210.2500   -17.8680     1.9520    18.7970     5.5040     4.5270     3.3590    34.8000 
  210.3750   -17.7440     1.9360    18.7970     5.4010     4.4860     3.3600    34.3970 
  210.5000   -17.6150     1.9470    18.7970     5.3120     4.4420     3.4450    33.8380 
  210.6250   -17.4700     2.0170    18.7970     5.2280     4.3920     3.5170    32.8820 
  210.7500   -17.3430     2.1190    18.7970     5.1540     4.3460     3.4880    31.5600 
  210.8750   -17.2620     2.2010    18.7970     5.1060     4.3190     3.3030    29.9610 
  211.0000   -17.2180     2.2130    18.7970     5.1030     4.3220     3.0730    28.1960 
  211.1250   -17.1950     2.1380    18.7970     5.1430     4.3490     2.8470    26.6080 
  211.2500   -17.1230     2.0370    18.7970     5.1820     4.3720     2.7570    25.5670 
  211.3750   -17.0380     1.9600    18.7970     5.1840     4.3680     2.7480    25.2190 
  211.5000   -16.9920     1.9320    18.7970     5.1440     4.3380     2.8160    25.7220 
  211.6250   -16.9690     1.9480    18.7970     5.0930     4.3080     2.8800    27.2540 
  211.7500   -16.9490     1.9760    18.7970     5.0800     4.3150     2.8240    29.2400 
  211.8750   -16.9340     1.9970    18.7970     5.1170     4.3670     2.8070    31.0600 
  212.0000   -16.8700     2.0080    18.7970     5.1870     4.4490     2.7520    32.4670 
  212.1250   -16.7720     2.0100    18.7970     5.2520     4.5260     2.7440    33.2240 
  212.2500   -16.7270     2.0140    18.7970     5.2840     4.5770     2.7630    33.4160 
  212.3750   -16.7040     2.0270    18.7970     5.2640     4.6010     2.7910    33.3140 
  212.5000   -16.6990     2.0480    18.7970     5.6030     5.1200     2.7990    33.2520 
  212.6250   -16.7560     2.0580    18.7970     8.9210     9.3980     2.8010    33.4830 
  212.7500   -16.8240     2.0420    18.7970    16.8060    20.3340     2.8370    33.9440 
  212.8750   -16.9020     1.9970    18.7970    28.8210    39.0480     2.8830    34.5990 
  213.0000   -17.0290     1.9390    18.7970    42.1590    60.4200     2.8800    35.2110 
  213.1250   -17.2180     1.8980    18.7970    50.8500    66.4400     2.8050    35.6000 
  213.2500   -17.4530     1.8850    18.7970    50.8500    66.4400     2.8630    35.8190 
  213.3750   -17.7290     1.8960    18.7970    50.8500    66.4400     3.1350    35.9100 
  213.5000   -17.9690     1.9170    18.7970    50.8500    66.4400     3.4470    35.9350 
  213.6250   -18.1270     1.9460    18.7970    50.8500    66.4400     3.4390    35.9590 
  213.7500   -18.2710     1.9910    18.7970    50.8500    66.4400     3.2190    35.9030 
  213.8750   -18.3730     2.0600    18.7970    50.8500    66.4400     2.9450    35.5480 
  214.0000   -18.4450     2.1390    18.7970    50.8500    66.4400     2.8100    34.7770 
  214.1250   -18.5160     2.1790    18.7970    50.8500    66.4400     2.7950    33.5480 
  214.2500   -18.5550     2.1590    18.7970    50.8500    66.4400     3.0950    32.0700 
  214.3750   -18.5700     2.0920    18.7970    50.8500    66.4400     3.9390    30.5970 
  214.5000   -18.5670     2.0210    18.7970    50.8500    66.4400     5.5870    29.4500 
  214.6250   -18.5290     1.9920    18.7970    50.8500    66.4400     7.2380    28.8860 
  214.7500   -18.4360     2.0010    18.7970    50.8500    66.4400     7.9060    28.8710 
  214.8750   -18.3010     2.0250    18.7970    50.8500    66.4400     7.7600    29.4250 
  215.0000   -18.2370     2.0410    18.7970    50.8500    66.4400     7.4540    30.4530 
  215.1250   -18.2890     2.0460    18.7970    50.8500    66.4400     7.8340    31.6810 
  215.2500   -18.3650     2.0620    18.7970    50.8500    66.4400     7.5850    32.7910 
  215.3750   -18.4550     2.1030    18.7970    50.8500    66.4400     6.1440    33.4500 
  215.5000   -18.5730     2.1770    18.7970    50.8500    66.4400     4.1040    33.4510 
  215.6250   -18.7060     2.2830    18.7970    50.8500    66.4400     3.1980    32.7590 
  215.7500   -18.8960     2.3930    18.7970    50.8500    66.4400     3.0060    31.6880 
  215.8750   -19.1190     2.4730    18.7970    50.8500    66.4400     3.2590    30.3600 
  216.0000   -19.1650     2.4960    18.7970    50.8500    66.4400     4.3940    28.9260 
  216.1250   -19.1650     2.4510    18.7970    50.8500    66.4400     7.5580    27.8850 
  216.2500   -19.1650     2.3640    18.7970    50.8500    66.4400    11.0410    27.5460 
  216.3750  -999.2500     2.2560    18.7970    50.8500    66.4400     9.9420    27.6930 
  216.5000  -999.2500     2.1420    18.7970    50.8500    66.4400     6.5640    27.7680 
  216.6250  -999.2500     2.0420    18.7970    50.8500    66.4400     4.4240    27.3370 
  216.7500  -999.2500     1.9700    18.7970    50.8500    66.4400     3.3800    26.3460 
  216.8750  -999.2500     1.9300    18.7970    50.8500    66.4400     3.3110    24.8380 
  217.0000  -999.2500     1.9150    18.7970    50.8500    66.4400     3.8550    22.9630 
  217.1250  -999.2500     1.9120    18.7970    50.8500    66.4400     4.2560    20.9250 
  217.2500  -999.2500     1.9110    18.7970    50.8500    66.4400     4.3950    19.0800 
  217.3750  -999.2500     1.9090    18.7970    50.8500    66.4400     4.4090    17.8150 
  217.5000  -999.2500     1.9040    18.7970    50.8500    66.4400     4.4120    17.3480 
  217.6250  -999.2500     1.8990    18.7970    50.8500    66.4400     4.4170    17.2870 
  217.7500  -999.2500     1.8960    18.7970    50.8500    66.4400     4.4200    17.5650 
  217.8750  -999.2500     1.8970    18.7970    50.8500    66.4400     4.4270    18.7760 
  218.0000  -999.2500     1.9030    18.7970    50.8500    66.4400     4.4300    20.8080 
  218.1250  -999.2500     1.9120  -999.2500  -999.2500  -999.2500  -999.2500  -999.2500 
  218.2500  -999.2500     1.9170  -999.2500  -999.2500  -999.2500  -999.2500  -999.2500 
  218.3750  -999.2500     1.9170  -999.2500  -999.2500  -999.2500  -999.2500  -999.2500 
  218.5000  -999.2500     1.9120  -999.2500  -999.2500  -999.2500  -999.2500  -999.2500 
  218.6250  -999.2500     1.9110  -999.2500  -999.2500  -999.2500  -999.2500  -999.2500 
