~V
VERS. 2.00: Ver 2.00
~W
STRT.M 57.0000:
STOP.M 204.0000:
STEP.M 0.1250:
NULL. -999.2500:
UWI. F10604:
~C
DEPT.M :
SP.MV :
GR.API :
RML.OHMM :
RI. :
RXO.OHMM :
CALI.CM :
DEN.GM/CC :
~A
# ...
  180.7500    -7.5930    62.5110   110.3640   107.5340   129.3980    24.5680     2.3160 
  180.8750    -7.6930    67.7400   105.7970   102.3960   118.0880    24.5210     2.3000 
  181.0000    -7.8690    71.7280   101.7180    97.7340   109.5270    24.2560     2.2830 
  181.1250    -8.1050    75.6610    99.4440    95.1110   111.2280    23.9230     2.2620 
  181.2500    -8.3820    80.3260    98.5400    94.2250   115.0440    23.8900     2.2430 
  181.3750    -8.7070    82.4620    97.7810    94.0150   114.1560    23.9950     2.2380 
  181.5000    -9.0170    80.5360    95.4860    92.8200   109.6070    23.9830     2.2570 
  181.6250    -9.2950    78.0800    89.8160    88.4400   104.8650    24.1100     2.3000 
  181.7500    -9.5470    78.3640    81.5100    80.9960    98.6690    24.4810     2.3450 
  181.8750    -9.7600    79.5540    72.2510    71.9770    88.4230    24.7750     2.3760 
  182.0000    -9.8920    80.6470    64.1360    63.6480    73.1480    24.8510     2.3910 
  182.1250    -9.9100    83.5680    58.9650    58.2730    54.2710    24.7300     2.4010 
  182.2500    -9.8170    85.0560    55.7060    55.3270    37.8490    24.6350     2.4200 
  182.3750    -9.6330    83.8140    52.2260    52.6090    29.6900    24.6640     2.4410 
  182.5000    -9.3650    82.6960    46.2770    46.8520    32.0450    24.7240     2.4490 
  182.6250    -9.0270    81.8880    36.9110    36.2880    38.2740    24.6710     2.4290 
  182.7500    -8.6600    78.0950    26.5130    24.9930    36.6770    24.5790     2.3970 
  182.8750    -8.2590    70.3980    17.2790    16.1460    25.3700    24.4650     2.3730 
  183.0000    -7.8570    60.1080    10.6050    10.5420    12.1610    24.3560     2.3760 
  183.1250    -7.5020    49.2280     7.1880     7.7740     6.1890    24.3490     2.4080 
  183.2500    -7.1960    42.5390     5.8280     6.4730     5.3630    24.3850     2.4480 
  183.3750    -6.9470    42.5060     5.5890     6.0980     6.2820    24.4100     2.4720 
  183.5000    -6.7500    45.4530     5.7660     6.2800     7.6180    24.4530     2.4690 
  183.6250    -6.5900    46.8090     5.9550     6.6150     8.2320    24.5160     2.4360 
  183.7500    -6.4310    46.8620     5.9090     6.7030     7.6290    24.4750     2.3890 
  183.8750    -6.2840    45.4160     5.6070     6.4550     6.2490    24.3410     2.3440 
  184.0000    -6.1640    42.3590     5.1710     6.0070     4.9860    24.2270     2.3130 
  184.1250    -6.0520    39.0710     4.7820     5.5730     4.4310    24.1570     2.3100 
  184.2500    -5.9760    36.6330     4.5430     5.2790     4.2610    24.1530     2.3320 
  184.3750    -5.9510    36.0380     4.4680     5.1470     4.2430    24.1990     2.3680 
  184.5000    -5.9730    38.0460     4.5130     5.1370     4.4010    24.2600     2.4010 
  184.6250    -6.0440    40.2550     4.6030     5.1690     4.8720    24.3120     2.4110 
  184.7500    -6.1550    40.8870     4.6590     5.1590     5.3580    24.3420     2.3980 
  184.8750    -6.3230    41.1290     4.6600     5.0820     5.5050    24.3760     2.3730 
  185.0000    -6.5240    42.3220     4.6490     4.9810     5.2670    24.4150     2.3490 
  185.1250    -6.7400    43.2180     4.7640     4.9830     5.0130    24.4200     2.3460 
  185.2500    -6.9320    44.4420     5.1180     5.1980     5.0840    24.4160     2.3650 
  185.3750    -7.0860    48.3130     5.7600     5.6960     5.6230    24.4500     2.4010 
  185.5000    -7.2250    54.4190     6.6180     6.4590     6.8300    24.5520     2.4390 
  185.6250    -7.3570    59.0440     7.4250     7.2900     8.7570    24.5640     2.4600 
  185.7500    -7.4860    60.5010     7.8570     7.7940    10.3810    24.5650     2.4590 
  185.8750    -7.5670    59.0100     7.7330     7.6920    10.5990    24.5450     2.4410 
  186.0000    -7.5850    54.3190     7.0940     7.0080     9.2060    24.4390     2.4170 
  186.1250    -7.5500    46.1470     6.1950     6.0570     7.2580    24.3360     2.3980 
  186.2500    -7.4860    39.7210     5.4190     5.2340     5.9310    24.2900     2.3870 
  186.3750    -7.4180    38.3570     4.9630     4.7040     5.3030    24.2600     2.3840 
  186.5000    -7.3760    41.6940     4.8880     4.5120     5.0880    24.2460     2.3830 
  186.6250    -7.3890    47.4320     5.1970     4.6840     5.3680    24.2740     2.3810 
  186.7500    -7.4890    53.3660     5.7360     5.1040     6.2700    24.3510     2.3800 
  186.8750    -7.6800    58.5210     6.4140     5.7010     7.5560    24.4520     2.3800 
  187.0000    -7.9330    62.6650     7.1480     6.3950     8.5600    24.5360     2.3830 
  187.1250    -8.2080    67.4560     7.8430     7.0880     8.8090    24.5470     2.3880 
  187.2500    -8.4750    71.0620     8.3870     7.6600     9.0680    24.4770     2.3930 
  187.3750    -8.7070    71.2030     8.6590     7.9790     9.8360    24.4330     2.3940 
  187.5000    -8.8830    68.7750     8.5570     7.9180    10.5740    24.4250     2.3910 
  187.6250    -8.9620    66.0810     8.0240     7.3940    10.3080    24.4080     2.3840 
  187.7500    -8.9440    62.8200     7.2750     6.6420     9.3260    24.3800     2.3740 
  187.8750    -8.8620    57.8170     6.5270     5.8870     8.1220    24.3730     2.3640 
  188.0000    -8.8080    52.6830     5.9790     5.3060     6.9200    24.3770     2.3540 
  188.1250    -8.8540    51.0710     5.8240     5.0540     6.1080    24.3860     2.3480 
  188.2500    -8.9560    53.2080     6.0460     5.1250     6.2070    24.3640     2.3540 
  188.3750    -9.0790    57.5230     6.6130     5.5150     7.1850    24.2860     2.3810 
  188.5000    -9.1730    59.5620     7.4550     6.1890     8.4880    24.1970     2.4400 
  188.6250    -9.2140    55.3790     8.4800     7.1010    10.1450    24.1920     2.5320 
  188.7500    -9.2050    49.8810     9.5150     8.0970    12.5440    24.2640     2.6310 
  188.8750    -9.1790    47.3740    10.4030     9.0300    15.0250    24.4270     2.7020 
  189.0000    -9.0920    47.0620    10.9930     9.7290    16.0840    24.5440     2.7190 
  189.1250    -8.8890    44.9710    11.1180    10.0000    15.1520    24.5290     2.6690 
  189.2500    -8.6570    42.2820    10.8600     9.8920    13.8420    24.5030     2.5860 
  189.3750    -8.4430    42.0390    10.3330     9.4940    12.6130    24.5040     2.5010 
  189.5000    -8.2920    43.6430     9.6820     8.9420    11.0930    24.5110     2.4380 
  189.6250    -8.2090    46.7700     9.0260     8.3540     9.4890    24.5120     2.4090 
  189.7500    -8.1350    50.8410     8.3940     7.7670     8.4410    24.5130     2.4000 
  189.8750    -8.0220    54.7960     7.7690     7.1690     7.7670    24.5040     2.3950 
  190.0000    -7.8690    56.7840     7.1510     6.5700     6.9790    24.4400     2.3850 
  190.1250    -7.6670    55.0500     6.5920     6.0300     6.0780    24.3190     2.3710 
  190.2500    -7.4450    51.8510     6.1440     5.5910     5.4020    24.1980     2.3620 
  190.3750    -7.2500    48.0100     5.8460     5.2840     5.0560    24.1600     2.3660 
  190.5000    -7.0740    44.0600     5.6960     5.1100     4.9640    24.2000     2.3800 
  190.6250    -6.8800    42.2600     5.6590     5.0530     5.0190    24.2320     2.3950 
  190.7500    -6.6570    43.1580     5.6400     5.0330     5.0870    24.2260     2.4000 
  190.8750    -6.4380    44.0890     5.5850     4.9950     5.0920    24.1690     2.3930 
  191.0000    -6.2630    42.4030     5.4730     4.9110     5.0230    24.0230     2.3800 
  191.1250    -6.1340    40.3760     5.3270     4.7900     4.9200    23.8610     2.3710 
  191.2500    -5.9470    40.7090     5.2130     4.6830     4.8320    23.8070     2.3700 
  191.3750    -5.6600    42.6910     5.1880     4.6410     4.7900    23.8660     2.3750 
  191.5000    -5.3460    45.7650     5.2960     4.7030     4.8490    24.0160     2.3860 
  191.6250    -5.1350    49.6660     5.5760     4.9100     5.1370    24.1710     2.4010 
  191.7500    -5.0420    52.1760     5.9820     5.2350     5.6570    24.3140     2.4220 
  191.8750    -5.0360    52.5100     6.4680     5.6420     6.3370    24.3990     2.4470 
