~V
VERS. 2.00: Ver 2.00
~W
STRT.M 51.0000:
STOP.M 206.0000:
STEP.M 0.1250:
NULL. -999.2500:
UWI. F10683:
~C
DEPT.M :
GR.API :
RML.OHMM :
RI. :
RXO.OHMM :
CALI.CM :
SP.MV :
DEN.GM/CC :
~A
# ...
  129.7500    41.5450    10.0570     8.4250    11.4870    24.5500    -6.8970     2.6560 
  129.8750    44.5660    10.4280     8.7100    13.3450    24.4650    -7.0190     2.6270 
  130.0000    44.5990    10.8170     9.0280    13.0800    24.4110    -7.2450     2.5880 
  130.1250    41.5020    11.2410     9.3760    13.6940    24.3920    -7.5880     2.5610 
  130.2500    38.9610    11.6760     9.7220    14.7000    24.3720    -8.0230     2.5470 
  130.3750    38.8790    12.0450    10.0010    15.8760    24.3220    -8.5270     2.5320 
  130.5000    39.9330    12.2280    10.1240    16.5540    24.2510    -9.0150     2.5060 
  130.6250    41.3330    12.0800     9.9820    16.4050    24.2070    -9.3490     2.4830 
  130.7500    42.6280    11.6970     9.6400    14.4450    24.2320    -9.4910     2.4840 
  130.8750    44.3260    11.2210     9.2070    13.3670    24.3080    -9.4590     2.5030 
  131.0000    46.5040    10.8040     8.8000    13.1590    24.3720    -9.3020     2.5180 
  131.1250    47.6890    10.5910     8.5380    12.4690    24.3910    -9.0420     2.5130 
  131.2500    48.8420    10.5960     8.4450    12.0690    24.3800    -8.6820     2.5020 
  131.3750    50.6500    10.7750     8.5070    12.2670    24.3420    -8.2080     2.5000 
  131.5000    51.8220    11.0190     8.6570    12.5840    24.3070    -7.6600     2.5100 
  131.6250    50.8940    11.1840     8.7950    12.8160    24.3820    -7.1210     2.5350 
  131.7500    48.1820    11.2070     8.8510    13.5060    24.5510    -6.6560     2.5630 
  131.8750    45.5700    11.0960     8.8090    13.5460    24.7120    -6.2550     2.5810 
  132.0000    44.1290    10.9100     8.6960    13.1260    24.8010    -5.8470     2.5850 
  132.1250    43.4310    10.7190     8.5520    12.0230    24.8130    -5.4050     2.5920 
  132.2500    43.2340    10.5580     8.4130    11.9360    24.7950    -4.9800     2.6080 
  132.3750    42.3610    10.4290     8.2910    12.7420    24.7870    -4.6300     2.6160 
  132.5000    41.0710    10.3290     8.1910    12.9240    24.8070    -4.3820     2.6070 
  132.6250    41.4210    10.2630     8.1200    11.8020    24.8090    -4.2480     2.5960 
  132.7500    43.0290    10.2130     8.0640    10.8700    24.7760    -4.1690     2.6020 
  132.8750    43.9780    10.1570     8.0050    11.2940    24.7170    -4.1400     2.6140 
  133.0000    42.7870    10.0850     7.9360    13.1500    24.6770    -4.1930     2.6100 
  133.1250    42.7360    10.0360     7.8820    13.4510    24.6660    -4.3200     2.5810 
  133.2500    45.3810    10.0810     7.8910    12.2790    24.6870    -4.4710     2.5580 
  133.3750    47.3620    10.2760     8.0020    11.3550    24.6910    -4.6260     2.5590 
  133.5000    47.0610    10.6320     8.2240    11.3530    24.6630    -4.7300     2.5850 
  133.6250    45.3770    11.0480     8.5120    12.0620    24.5970    -4.7120     2.6130 
  133.7500    44.4740    11.2890     8.7160    12.7990    24.5290    -4.5870     2.6250 
  133.8750    45.3810    11.1720     8.6990    13.0510    24.5200    -4.3750     2.6200 
  134.0000    46.4130    10.6950     8.4200    12.8850    24.5370    -4.0950     2.6120 
  134.1250    44.8150    10.0770     7.9780    12.2850    24.5620    -3.7430     2.6130 
  134.2500    41.8370     9.6360     7.5880    11.7130    24.5990    -3.3360     2.6160 
  134.3750    41.3950     9.5240     7.3740    10.5990    24.6520    -2.8920     2.6160 
  134.5000    44.2930     9.7340     7.3730     9.9990    24.6970    -2.4780     2.6150 
  134.6250    46.0490    10.1140     7.5300    11.2280    24.7350    -2.1880     2.6120 
  134.7500    45.7940    10.4010     7.6850    12.8160    24.7490    -2.0290     2.6050 
  134.8750    45.1340    10.4590     7.7370    13.3650    24.7600    -1.9620     2.5920 
  135.0000    45.7840    10.3000     7.6660    12.7040    24.7720    -1.9470     2.5750 
  135.1250    49.3370    10.0630     7.5270    10.7590    24.7790    -2.0140     2.5580 
  135.2500    53.0680     9.9180     7.4250    10.1680    24.7470    -2.1640     2.5520 
  135.3750    53.3020     9.9160     7.4040    10.9070    24.6940    -2.3820     2.5640 
  135.5000    49.6900    10.0170     7.4580    12.0220    24.6380    -2.6120     2.5960 
  135.6250    45.7100    10.1130     7.5230    11.7530    24.6150    -2.7850     2.6330 
  135.7500    43.4780    10.1110     7.5230    11.5740    24.6090    -2.9050     2.6540 
  135.8750    42.8550    10.0090     7.4420    11.1570    24.6040    -3.0120     2.6520 
  136.0000    44.4750     9.8610     7.3110    11.0600    24.5880    -3.1250     2.6290 
  136.1250    47.6490     9.7180     7.1770    10.7940    24.5570    -3.2460     2.5920 
  136.2500    49.3680     9.5730     7.0540    10.3090    24.5440    -3.3450     2.5440 
  136.3750    49.3820     9.3820     6.9220    10.0580    24.5480    -3.3940     2.4980 
  136.5000    48.9010     9.1130     6.7570    11.2920    24.5800    -3.4000     2.4730 
  136.6250    48.5400     8.8120     6.5760    11.6660    24.6640    -3.3950     2.4850 
  136.7500    49.1830     8.6200     6.4580    10.6790    24.7560    -3.4060     2.5140 
  136.8750    50.2770     8.6670     6.4810    10.0260    24.8110    -3.4260     2.5410 
  137.0000    49.8470     9.0400     6.7090    10.1330    24.8210    -3.4300     2.5630 
  137.1250    46.7990     9.7630     7.1810    10.9210    24.7990    -3.3580     2.5820 
  137.2500    45.3300    10.5480     7.7380    12.4760    24.7740    -3.2380     2.5960 
  137.3750    47.7140    10.9890     8.1250    13.2060    24.7760    -3.1170     2.6000 
  137.5000    50.7200    10.7130     8.0690    13.0350    24.8060    -3.0150     2.5950 
  137.6250    50.7370     9.6040     7.4240    13.0440    24.8140    -2.9110     2.5750 
  137.7500    50.8810     8.2320     6.5290    12.0690    24.8030    -2.7800     2.5400 
  137.8750    51.8910     7.0510     5.6840     9.0950    24.7890    -2.6350     2.5000 
  138.0000    49.5410     6.3180     5.0840     6.8100    24.7820    -2.5150     2.4710 
  138.1250    42.6130     6.1590     4.8450     6.1470    24.7660    -2.4900     2.4690 
  138.2500    38.6310     6.4050     4.8920     6.4290    24.7590    -2.5270     2.4870 
  138.3750    41.0690     6.9300     5.1700     7.3380    24.7570    -2.5680     2.5140 
  138.5000    45.4570     7.5560     5.5840     8.4170    24.7490    -2.5940     2.5350 
  138.6250    45.5150     8.0190     5.9720     8.5420    24.7150    -2.6180     2.5440 
  138.7500    44.0000     8.1540     6.1760     8.5140    24.6610    -2.6400     2.5460 
  138.8750    44.6720     7.9340     6.1230     8.5760    24.6320    -2.6110     2.5430 
  139.0000    46.9890     7.4530     5.8430     8.5240    24.6490    -2.5020     2.5340 
  139.1250    47.3070     6.8900     5.4460     7.8430    24.7010    -2.2900     2.5210 
  139.2500    47.3120     6.4360     5.0860     6.5980    24.7310    -2.0080     2.5110 
  139.3750    48.3350     6.1890     4.8400     5.9160    24.7340    -1.6890     2.5110 
  139.5000    49.6140     6.1790     4.7420     6.3050    24.7430    -1.3670     2.5220 
  139.6250    50.7150     6.3920     4.8060     7.1150    24.7490    -1.0850     2.5380 
  139.7500    50.9920     6.6990     4.9660     7.6690    24.7490    -0.8610     2.5520 
  139.8750    49.9760     7.0000     5.1680     7.6610    24.7350    -0.7370     2.5590 
  140.0000    48.9060     7.2250     5.3650     7.8810    24.7040    -0.7140     2.5600 
  140.1250    50.3540     7.3740     5.5410     8.0810    24.6800    -0.7640     2.5630 
  140.2500    51.6820     7.5460     5.7380     8.4550    24.6630    -0.8940     2.5720 
  140.3750    50.7270     7.8220     6.0030     8.7410    24.6660    -1.1150     2.5760 
  140.5000    49.8990     8.2400     6.3550     8.6760    24.6770    -1.4040     2.5680 
  140.6250    50.7230     8.7740     6.7820     9.4800    24.6720    -1.6890     2.5480 
  140.7500    52.8720     9.3090     7.2010    11.3930    24.6430    -1.9530     2.5270 
  140.8750    56.9420     9.8250     7.5380    12.5310    24.6030    -2.2080     2.5080 
