~V
VERS. 2.00: Ver 2.00
~W
STRT.M 58.0000:
STOP.M 244.0000:
STEP.M 0.1250:
NULL. -999.2500:
UWI. F10638:
~C
DEPT.M :
SP.MV :
GR.API :
RML.OHMM :
RI. :
RXO.OHMM :
CALI.CM :
DEN.GM/CC :
~A
   58.0000    78.0830    59.8160     0.4300     0.4900     5.1060    24.5620     2.6630 
   58.1250    64.1970    66.3480     0.8850     0.6670     5.9220    24.6220     2.7080 
   58.2500    50.1840    70.3080     1.6570     1.0110     6.2510    24.6890     2.6590 
   58.3750    36.6930    74.2660     2.7290     1.6070     6.3110    24.7580     2.5510 
   58.5000    24.1780    78.4850     3.6820     2.3650     6.1350    24.8340     2.4410 
   58.6250    13.1640    79.5130     4.2580     3.1540     6.2470    24.8330     2.3590 
   58.7500     4.1460    77.1960     4.6400     3.9350     8.0630    24.6610     2.3130 
   58.8750    -2.3920    73.7650     5.2400     4.8380    11.9980    24.3190     2.3020 
   59.0000    -7.1450    67.9080     6.1900     5.9610    14.3550    24.0580     2.3150 
   59.1250   -10.7170    60.2840     7.3800     7.2420    13.4810    23.8290     2.3490 
   59.2500   -13.6140    55.1300     8.4780     8.4000    11.7330    23.6750     2.3900 
   59.3750   -16.0890    54.7070     8.9330     8.9100    11.1880    23.6250     2.4040 
   59.5000   -18.3250    55.9970     8.7150     8.7390    11.1910    23.6180     2.3770 
   59.6250   -20.3060    58.1940     8.1470     8.1720    11.2770    23.6030     2.3170 
   59.7500   -22.0050    61.7390     7.6210     7.5710    11.0710    23.5720     2.2470 
   59.8750   -23.3360    64.9390     7.3880     7.1940    10.8570    23.5550     2.1940 
   60.0000   -24.3610    64.6130     7.3960     7.0370    10.8230    23.5550     2.1660 
   60.1250   -25.1760    61.5630     7.5490     7.0290    10.9580    23.5610     2.1600 
   60.2500   -25.8620    59.3440     7.7480     7.0860    10.9740    23.5540     2.1680 
   60.3750   -26.4510    60.5510     7.9170     7.1450    10.8490    23.5660     2.1830 
   60.5000   -26.9850    62.1480     8.0310     7.1730    10.7500    23.6350     2.1940 
   60.6250   -27.5000    62.1890     8.0820     7.1620    10.7660    23.7840     2.2020 
   60.7500   -28.0400    62.3770     8.0740     7.1090    10.7490    23.9260     2.2060 
   60.8750   -28.6580    63.7690     8.0190     7.0190    10.5570    24.0110     2.2080 
   61.0000   -29.3730    64.6920     7.9660     6.9250    10.3230    23.9820     2.2120 
   61.1250   -30.1210    65.3790     7.9590     6.8630    10.0640    23.8240     2.2140 
   61.2500   -30.8650    67.5090     8.0370     6.8690     9.7380    23.6790     2.2130 
   61.3750   -31.6490    69.2910     8.2290     6.9730     9.9730    23.6280     2.2090 
   61.5000   -32.4790    67.6800     8.4950     7.1450    10.4380    23.6200     2.2090 
   61.6250   -33.3180    62.6890     8.7740     7.3420    11.2310    23.6160     2.2090 
   61.7500   -34.1230    56.6020     8.9820     7.5030    12.1260    23.6150     2.2060 
   61.8750   -34.8450    53.3970     9.0320     7.5570    12.6550    23.6180     2.1950 
   62.0000   -35.4840    53.4010     8.9510     7.5100    12.3410    23.6350     2.1800 
   62.1250   -36.0820    54.8660     8.7950     7.3910    11.8110    23.6640     2.1710 
   62.2500   -36.6430    55.8690     8.6290     7.2440    11.4190    23.6790     2.1710 
   62.3750   -37.0990    57.3640     8.4990     7.1080    11.0620    23.6580     2.1790 
   62.5000   -37.4330    57.4000     8.4020     6.9950    10.7210    23.6540     2.1840 
   62.6250   -37.6710    53.6720     8.3260     6.9020    10.4530    23.7020     2.1840 
   62.7500   -37.8390    48.0200     8.2790     6.8340    10.1070    23.8300     2.1820 
   62.8750   -37.9500    46.6720     8.3030     6.8210     9.9990    23.9920     2.1790 
   63.0000   -38.0240    50.5300     8.4130     6.8800    10.0720    23.9920     2.1730 
   63.1250   -38.0710    54.0870     8.6010     7.0130    10.3680    23.7950     2.1640 
   63.2500   -38.0700    54.2510     8.8300     7.1930    10.2440    23.5510     2.1600 
   63.3750   -38.0190    52.9960     9.0220     7.3600    10.0580    23.3290     2.1700 
   63.5000   -37.9780    55.0290     9.1130     7.4490     9.9170    23.2030     2.1930 
   63.6250   -37.9870    59.1870     9.0770     7.4280     9.5090    23.1590     2.2160 
   63.7500   -38.0630    62.4100     8.9380     7.3090     8.8870    23.1530     2.2260 
   63.8750   -38.2030    64.0380     8.7590     7.1360     9.4430    23.1550     2.2160 
   64.0000   -38.3160    62.7990     8.6180     6.9740    10.2230    23.1810     2.1980 
   64.1250   -38.3920    58.6020     8.5560     6.8590    10.7140    23.2670     2.1830 
   64.2500   -38.4710    54.6590     8.5920     6.8130    10.7960    23.4240     2.1760 
   64.3750   -38.5120    54.7490     8.7340     6.8490    10.6550    23.5470     2.1720 
   64.5000   -38.4860    55.7550     8.9400     6.9420    10.9630    23.6130     2.1680 
   64.6250   -38.3590    55.3900     9.1620     7.0600    11.6860    23.6120     2.1620 
   64.7500   -38.1160    54.7200     9.3420     7.1630    12.2600    23.5820     2.1560 
   64.8750   -37.7710    56.3690     9.4040     7.1940    12.4630    23.5770     2.1570 
   65.0000   -37.3920    59.6240     9.3500     7.1500    12.2530    23.5940     2.1680 
   65.1250   -36.9810    63.1290     9.2240     7.0530    11.6790    23.6040     2.1880 
   65.2500   -36.5710    64.5160     9.1000     6.9430    10.7020    23.5690     2.2110 
   65.3750   -36.2240    61.3330     9.0490     6.8650    10.5960    23.4520     2.2260 
   65.5000   -35.9200    57.2630     9.0690     6.8280    10.7300    23.3050     2.2240 
   65.6250   -35.6580    56.0860     9.1270     6.8160    10.8900    23.2020     2.2070 
   65.7500   -35.4290    57.0290     9.1770     6.8080    11.0590    23.1690     2.1810 
   65.8750   -35.2390    57.9200     9.1760     6.7820    11.1560    23.2220     2.1610 
   66.0000   -35.1170    58.5980     9.1390     6.7430    11.2390    23.3490     2.1530 
   66.1250   -35.0130    59.7430     9.0870     6.7010    11.3980    23.4810     2.1590 
   66.2500   -34.8660    59.5390     9.0300     6.6600    11.4340    23.5610     2.1740 
   66.3750   -34.6980    57.1670     8.9600     6.6130    11.3660    23.5990     2.1930 
   66.5000   -34.5480    55.5940     8.8670     6.5550    11.3510    23.6130     2.2090 
   66.6250   -34.4120    56.4300     8.7630     6.4940    11.5490    23.6180     2.2220 
   66.7500   -34.2980    59.6940     8.6820     6.4480    11.6850    23.6230     2.2280 
   66.8750   -34.2390    64.6530     8.6810     6.4430    11.6250    23.6180     2.2230 
   67.0000   -34.2060    67.1840     8.7690     6.4830    11.5330    23.6160     2.2090 
   67.1250   -34.1860    65.1740     8.9200     6.5560    11.7280    23.6160     2.1910 
   67.2500   -34.2110    60.8050     9.0780     6.6400    11.9350    23.6180     2.1730 
   67.3750   -34.2080    58.2840     9.1740     6.7060    12.0500    23.6230     2.1590 
   67.5000   -34.1160    57.7760     9.2020     6.7410    12.1000    23.6260     2.1500 
   67.6250   -33.9510    57.8510     9.1890     6.7470    12.1670    23.6260     2.1440 
   67.7500   -33.7280    58.7370     9.1670     6.7310    12.1600    23.6290     2.1430 
   67.8750   -33.3850    60.6440     9.1350     6.7030    12.2820    23.6250     2.1490 
   68.0000   -32.9010    61.3600     9.0810     6.6720    12.4910    23.6190     2.1630 
   68.1250   -32.3530    62.3070     9.0150     6.6530    12.4990    23.6150     2.1790 
   68.2500   -31.7380    63.8900     8.9980     6.6780    12.2590    23.6150     2.1880 
   68.3750   -31.0290    63.7370     9.1580     6.8190    12.3450    23.6150     2.1820 
   68.5000   -30.2510    60.9940     9.5120     7.0860    12.4370    23.6150     2.1680 
   68.6250   -29.3760    57.8190     9.9700     7.4370    12.6590    23.6150     2.1570 
   68.7500   -28.3860    57.7620    10.3190     7.7440    13.1440    23.6150     2.1620 
   68.8750   -27.2960    62.1170    10.2060     7.7690    13.8730    23.6290     2.1840 
   69.0000   -26.1760    67.3780     9.5670     7.4270    13.5860    23.7180     2.2120 
   69.1250   -24.9870    70.8390     8.5520     6.7790    11.2090    23.9550     2.2350 
