~V
VERS. 2.00: Ver 2.00
~W
STRT.M 49.0000:
STOP.M 254.0000:
STEP.M 0.1250:
NULL. -999.2500:
UWI. F10669:
~C
DEPT.M :
DEN.GM/CC :
GR.API :
RML.OHMM :
RI. :
RXO.OHMM :
CALI.CM :
SP.MV :
~A
# ...
  127.7500     2.3240    81.5920     8.3790     7.1840     9.5560    23.7380   -11.6520 
  127.8750     2.3220    80.8940     8.9660     7.7460     9.9970    23.6540   -11.6640 
  128.0000     2.3010    78.6050     9.5010     8.2700    10.7210    23.6120   -11.6210 
  128.1250     2.2740    74.9330     9.8990     8.6770    10.5750    23.6700   -11.5550 
  128.2500     2.2630    72.2920    10.0680     8.8890    10.0490    23.7350   -11.4560 
  128.3750     2.2750    74.8910     9.8710     8.7860    10.9940    23.7790   -11.3460 
  128.5000     2.2930    81.4050     9.3680     8.4030    11.1530    23.8210   -11.2180 
  128.6250     2.3010    86.4830     8.7000     7.8350     9.7900    23.8290   -11.0810 
  128.7500     2.2980    86.6080     8.0560     7.2340     8.5750    23.8140   -10.9370 
  128.8750     2.2930    85.3470     7.6090     6.7440     8.0240    23.8050   -10.7680 
  129.0000     2.2930    86.0340     7.3970     6.4240     8.0090    23.8220   -10.6260 
  129.1250     2.2940    84.8250     7.4610     6.3270     8.0870    23.8470   -10.4660 
  129.2500     2.2910    79.3060     7.8580     6.5160     8.4810    23.7770   -10.3090 
  129.3750     2.2790    75.1850     8.7510     7.1310     9.5680    23.6640   -10.1070 
  129.5000     2.2520    74.5600    10.2210     8.2230    10.7890    23.5020    -9.9060 
  129.6250     2.2140    72.8530    12.4320     9.9300    12.9100    23.2740    -9.7050 
  129.7500     2.1810    67.2030    15.4990    12.3900    17.9760    23.2010    -9.5340 
  129.8750     2.1820    60.2310    19.4370    15.7230    24.4600    23.5220    -9.4210 
  130.0000     2.2280    56.8030    23.5670    19.4310    29.4230    23.7960    -9.2930 
  130.1250     2.3100    58.2350    26.9670    22.7700    35.0300    23.7740    -9.1870 
  130.2500     2.3870    62.6190    28.6700    24.8490    39.5440    23.6330    -9.0880 
  130.3750     2.4050    65.8230    28.1440    24.9870    35.3780    23.6260    -9.0180 
  130.5000     2.3670    68.2150    26.6000    24.0160    30.9110    23.6180    -8.9320 
  130.6250     2.3020    69.6150    25.0310    22.7490    27.6640    23.7320    -8.8240 
  130.7500     2.2340    67.8640    24.0790    21.7920    24.3310    23.9560    -8.6790 
  130.8750     2.1810    63.1080    24.1540    21.5940    23.3660    24.1400    -8.4790 
  131.0000     2.1470    59.0270    24.9950    22.0830    24.9440    24.2670    -8.2820 
  131.1250     2.1300    56.7360    26.2200    23.0440    27.2880    24.3630    -8.1130 
  131.2500     2.1190    54.9730    27.2910    24.0770    28.8940    24.4200    -7.9710 
  131.3750     2.1100    54.6670    27.5220    24.5920    29.9380    24.3820    -7.8810 
  131.5000     2.1040    54.7750    26.8220    24.3650    29.9970    24.3240    -7.8060 
  131.6250     2.1040    55.3290    25.4560    23.4900    27.7360    24.2130    -7.7680 
  131.7500     2.1090    57.9900    23.9150    22.3150    25.0040    24.0760    -7.7150 
  131.8750     2.1160    61.0060    22.7650    21.3100    22.9470    23.9810    -7.6610 
  132.0000     2.1190    61.0530    22.2190    20.7490    22.0450    23.9170    -7.5930 
  132.1250     2.1170    59.0650    22.3090    20.7320    22.8310    23.9020    -7.5200 
  132.2500     2.1130    58.7390    22.9230    21.2300    23.9140    24.0000    -7.4340 
  132.3750     2.1110    59.2790    23.7920    22.0890    24.7550    24.1150    -7.3320 
  132.5000     2.1100    57.2610    24.4310    22.8840    26.1160    24.1810    -7.2780 
  132.6250     2.1070    53.7080    24.4890    23.2430    27.2020    24.1780    -7.2430 
  132.7500     2.1050    52.2850    23.9000    22.9960    27.1500    24.1500    -7.2810 
  132.8750     2.1110    54.9890    22.9610    22.2830    26.2480    24.0970    -7.3730 
  133.0000     2.1210    58.2990    22.1970    21.5710    24.8610    24.0160    -7.5440 
  133.1250     2.1280    59.6750    21.8430    21.1120    23.1910    23.9150    -7.7290 
  133.2500     2.1240    58.4300    21.8590    20.9470    21.7550    23.8840    -7.9350 
  133.3750     2.1100    57.5700    21.8910    20.8580    25.3250    24.0040    -8.1540 
  133.5000     2.1030    58.9780    21.5220    20.4930    25.8830    24.0440    -8.3680 
  133.6250     2.1140    60.3440    20.6680    19.7320    22.4950    23.9420    -8.5630 
  133.7500     2.1390    60.6570    19.6360    18.7670    18.0240    23.8230    -8.7100 
  133.8750     2.1480    61.6390    19.1250    18.1260    16.0770    23.7760    -8.7800 
  134.0000     2.1360    63.9140    19.6160    18.2500    15.8210    23.8410    -8.7680 
  134.1250     2.1230    66.0360    21.3530    19.4230    17.8580    23.9960    -8.6960 
  134.2500     2.1420    66.5150    24.2850    21.7140    23.8930    24.1140    -8.5820 
  134.3750     2.2190    65.3930    27.9570    24.8960    32.8600    23.9680    -8.3890 
  134.5000     2.3130    63.6870    31.2200    27.9830    42.2970    23.7160    -8.1480 
  134.6250     2.3700    61.9440    33.1700    30.1090    44.4950    23.6030    -7.8660 
  134.7500     2.3580    59.9540    33.5560    30.8840    41.6780    23.6390    -7.5990 
  134.8750     2.2970    57.1220    32.8140    30.5080    35.6820    23.7840    -7.4020 
  135.0000     2.2360    56.2800    31.8540    29.7760    33.4100    23.9820    -7.2420 
  135.1250     2.1950    56.8340    30.9650    29.0180    32.8920    24.1450    -7.1500 
  135.2500     2.1790    55.8040    30.1210    28.2900    33.8630    24.2400    -7.0980 
  135.3750     2.1840    52.9200    29.1340    27.4810    33.3390    24.2920    -7.1560 
  135.5000     2.1930    52.3330    27.9540    26.5170    31.7920    24.2930    -7.2600 
  135.6250     2.1950    55.1220    26.6920    25.4470    30.0760    24.2040    -7.4690 
  135.7500     2.1810    59.3310    25.5620    24.4200    27.5730    24.1430    -7.7150 
  135.8750     2.1560    62.2390    24.8730    23.6920    26.0080    24.1540    -7.9890 
  136.0000     2.1310    61.5950    24.6350    23.3410    24.5600    24.1190    -8.2950 
  136.1250     2.1160    57.1840    24.6480    23.2670    23.9920    24.0140    -8.6180 
  136.2500     2.1110    52.4240    24.5130    23.1690    24.8920    23.8200    -8.9660 
  136.3750     2.1160    53.5170    23.6580    22.5360    27.7390    23.7520    -9.3250 
  136.5000     2.1300    58.7940    22.0570    21.2340    26.6810    23.7980    -9.6770 
  136.6250     2.1510    63.5830    20.0750    19.4960    22.9820    23.7800    -9.9930 
  136.7500     2.1760    66.5420    18.3370    17.8280    17.2330    23.6790   -10.2600 
  136.8750     2.1960    67.3880    17.5670    16.8540    16.4730    23.6260   -10.4670 
  137.0000     2.2080    65.7450    17.8550    16.7220    16.6420    23.5940   -10.5930 
  137.1250     2.2170    63.0290    19.0810    17.4180    16.6520    23.4230   -10.6630 
  137.2500     2.2270    62.1880    20.8180    18.6950    18.2310    23.2150   -10.6990 
  137.3750     2.2340    63.6590    22.1510    19.9100    22.5950    23.0200   -10.6890 
  137.5000     2.2270    63.1270    22.3460    20.3470    24.9980    22.9640   -10.6840 
  137.6250     2.2050    61.2080    21.3320    19.7810    25.8430    23.0390   -10.6570 
  137.7500     2.1710    60.9230    19.6400    18.5160    21.4240    23.2770   -10.6570 
  137.8750     2.1410    61.8720    18.0600    17.1450    18.3870    23.5780   -10.6540 
  138.0000     2.1240    61.1210    17.0550    16.1380    16.8840    23.7450   -10.7150 
  138.1250     2.1190    58.9710    16.7120    15.6480    16.9160    23.7970   -10.7760 
  138.2500     2.1190    57.4590    16.9140    15.6580    17.6600    23.7920   -10.8520 
  138.3750     2.1170    56.6760    17.4830    16.0880    18.2680    23.7590   -10.9330 
  138.5000     2.1170    56.4520    18.1510    16.7000    19.1320    23.7490   -11.0290 
  138.6250     2.1210    56.7760    18.8230    17.3610    19.8400    23.7670   -11.1760 
  138.7500     2.1300    56.9150    19.5370    18.0380    20.3970    23.8200   -11.3400 
  138.8750     2.1380    55.9670    20.4050    18.7950    20.7690    23.8600   -11.5840 
