~V
VERS. 2.00: Ver 2.00
~W
STRT.M 58.0000:
STOP.M 221.0000:
STEP.M 0.1250:
NULL. -999.2500:
UWI. F10613:
~C
DEPT.M :
SP.MV :
GR.API :
RML.OHMM :
RI. :
RXO.OHMM :
CALI.CM :
DEN.GM/CC :
~A
# ...
  103.0000    -4.8250    85.5790     6.5680     6.2100     6.6840    22.3770     2.3590 
  103.1250    -4.5500    86.0540     6.4950     6.1220     6.5160    22.7100     2.3540 
  103.2500    -4.2390    85.9830     6.5180     6.0870     6.3360    22.9920     2.3460 
  103.3750    -3.9490    86.7390     6.6330     6.1210     6.2470    23.3220     2.3350 
  103.5000    -3.6470    87.4160     6.7950     6.2130     6.6470    23.7450     2.3230 
  103.6250    -3.3480    86.6790     6.9170     6.2940     7.1020    24.0710     2.3150 
  103.7500    -3.1040    85.8300     6.9560     6.3140     7.3540    24.1570     2.3130 
  103.8750    -2.8440    86.9170     6.9180     6.2560     7.4560    24.1180     2.3170 
  104.0000    -2.5730    88.2780     6.8880     6.1730     7.3180    24.2390     2.3220 
  104.1250    -2.3530    87.3020     7.0260     6.1940     6.9150    24.3180     2.3260 
  104.2500    -2.1380    85.1870     7.5200     6.4720     7.1730    24.3520     2.3210 
  104.3750    -1.8980    84.0270     8.5710     7.1690     8.4770    24.3510     2.3010 
  104.5000    -1.6830    81.9060    10.5040     8.5590    10.3230    24.3480     2.2600 
  104.6250    -1.4740    76.4210    13.2360    10.6550    12.7240    24.3870     2.2040 
  104.7500    -1.2240    70.2560    16.4610    13.3480    16.6120    24.5520     2.1430 
  104.8750    -1.0130    67.4660    19.3800    16.1120    21.1460    24.8220     2.0920 
  105.0000    -0.8270    68.1210    20.4990    17.6710    23.2120    24.8740     2.0750 
  105.1250    -0.5950    69.2530    19.4980    17.4180    21.7520    24.7120     2.0990 
  105.2500    -0.3720    71.9450    17.0310    15.6800    17.7100    24.3880     2.1610 
  105.3750    -0.1710    76.9830    14.3040    13.4130    14.1400    24.0000     2.2390 
  105.5000     0.0500    83.2740    12.4330    11.5880    12.9050    23.9540     2.2950 
  105.6250     0.3050    87.8620    11.6410    10.5360    11.9770    24.0910     2.3150 
  105.7500     0.5650    86.3960    11.9570    10.3390    11.2750    24.2600     2.3050 
  105.8750     0.8610    78.3350    13.3890    11.0420    12.5070    24.3550     2.2730 
  106.0000     1.2220    69.0520    16.0580    12.8510    19.2490    24.4450     2.2290 
  106.1250     1.5930    64.2730    19.4950    15.5330    24.6070    24.6280     2.1810 
  106.2500     1.9500    64.1000    23.1520    18.7730    25.7030    24.8530     2.1350 
  106.3750     2.3130    64.1200    26.3290    21.9940    26.9570    25.0020     2.0950 
  106.5000     2.6460    60.9050    28.2880    24.3950    32.0430    24.7410     2.0680 
  106.6250     2.9210    56.5970    29.2680    25.8670    35.6760    24.5490     2.0480 
  106.7500     3.1590    55.2370    29.7500    26.6910    32.3080    24.6570     2.0290 
  106.8750     3.3510    56.5900    30.1770    27.2480    29.6200    25.0030     2.0130 
  107.0000     3.4590    56.1210    30.7550    27.7620    31.0180    25.2320     2.0070 
  107.1250     3.5340    53.3250    31.4370    28.2930    32.0830    25.2870     2.0150 
  107.2500     3.5770    52.0400    32.1250    28.8170    32.4730    25.2430     2.0410 
  107.3750     3.5890    53.3630    32.6770    29.2570    32.6690    25.1860     2.0760 
  107.5000     3.5870    54.1710    32.8840    29.4590    32.6910    25.1220     2.1080 
  107.6250     3.5860    52.1980    32.7020    29.3690    32.8220    25.1060     2.1280 
  107.7500     3.6030    50.6730    32.1380    28.9740    32.2580    25.1050     2.1360 
  107.8750     3.6250    51.8720    31.2760    28.3240    31.6330    25.0770     2.1360 
  108.0000     3.6440    53.8210    30.2870    27.5240    30.7040    25.0330     2.1300 
  108.1250     3.6470    54.4970    29.4120    26.7650    30.5520    24.9960     2.1160 
  108.2500     3.6910    56.2430    28.8140    26.1840    30.1870    24.9030     2.0950 
  108.3750     3.7600    59.7000    28.5710    25.8790    29.2000    24.8230     2.0730 
  108.5000     3.8020    60.6210    28.7070    25.9260    28.9370    24.9640     2.0610 
  108.6250     3.8570    59.3390    29.0690    26.2310    29.0940    25.2110     2.0650 
  108.7500     3.8940    58.7520    29.5740    26.7320    29.3760    25.3290     2.0860 
  108.8750     3.9490    58.9410    30.1710    27.3720    29.9490    25.2810     2.1150 
  109.0000     4.0310    57.4630    30.8230    28.0950    30.4100    25.3120     2.1390 
  109.1250     4.0860    55.7210    31.3990    28.7730    30.0830    25.3030     2.1530 
  109.2500     4.0770    56.4180    31.6900    29.2250    29.9610    25.1260     2.1560 
  109.3750     4.0590    58.1400    31.4900    29.2510    31.2810    24.8440     2.1520 
  109.5000     4.0760    59.8180    30.7090    28.7010    31.2710    24.7460     2.1460 
  109.6250     4.0470    62.2070    29.7370    27.8690    30.2480    24.7330     2.1450 
  109.7500     3.9720    65.8240    28.9740    27.0890    28.2380    24.7290     2.1470 
  109.8750     3.8880    69.1570    28.7480    26.6720    26.9500    24.7220     2.1490 
  110.0000     3.8010    68.8170    29.2960    26.9000    27.5170    24.8270     2.1440 
  110.1250     3.7170    65.2070    30.3260    27.6340    31.8300    25.0280     2.1340 
  110.2500     3.7020    60.3060    31.4520    28.6100    35.0400    25.1220     2.1250 
  110.3750     3.7170    57.6350    32.2070    29.4330    34.5780    25.1180     2.1210 
  110.5000     3.7220    57.5040    32.1340    29.6310    33.3310    25.0640     2.1240 
  110.6250     3.8060    56.2210    31.4340    29.2450    32.6520    24.9620     2.1290 
  110.7500     3.9440    53.7170    30.4840    28.5350    31.6220    24.8290     2.1280 
  110.8750     4.0590    53.7000    29.6930    27.8490    30.1220    24.7920     2.1200 
  111.0000     4.1660    57.5610    29.4050    27.5120    29.4610    24.8050     2.1060 
  111.1250     4.3090    60.2920    29.5590    27.5470    30.3890    24.8600     2.0960 
  111.2500     4.4530    59.6150    29.9720    27.8540    31.2810    24.9470     2.0950 
  111.3750     4.5840    57.7460    30.3710    28.2280    31.7530    24.9620     2.1010 
  111.5000     4.6580    57.3770    30.4430    28.3800    32.1180    24.9230     2.1110 
  111.6250     4.6450    57.0400    30.1600    28.2010    31.8040    24.8430     2.1180 
  111.7500     4.5900    57.0400    29.6700    27.7650    30.9620    24.8090     2.1210 
  111.8750     4.5230    57.8840    29.2320    27.2870    30.3630    24.8190     2.1210 
  112.0000     4.3880    59.3470    29.1680    27.0770    30.4850    24.8490     2.1210 
  112.1250     4.1960    60.0580    29.5470    27.2530    30.6360    24.8770     2.1220 
  112.2500     3.9630    59.0570    30.3380    27.8190    30.9650    24.9260     2.1250 
  112.3750     3.6500    57.3250    31.4070    28.6800    32.6180    24.9710     2.1300 
  112.5000     3.3220    56.1260    32.5210    29.6560    35.3860    25.0250     2.1340 
  112.6250     3.0210    55.9110    33.4110    30.5010    37.0430    25.1040     2.1360 
  112.7500     2.6930    54.7790    33.9080    31.0430    36.7600    25.1780     2.1380 
  112.8750     2.3250    52.3830    33.9250    31.1730    36.0150    25.2800     2.1410 
  113.0000     1.9780    51.5460    33.3540    30.7590    35.1920    25.3580     2.1510 
  113.1250     1.6780    53.5160    32.2650    29.8530    33.8930    25.3420     2.1690 
  113.2500     1.3750    55.6680    30.6880    28.4690    32.7410    25.3170     2.1870 
  113.3750     1.1050    56.7160    28.7570    26.7230    30.8660    25.3970     2.1890 
  113.5000     0.9450    60.4900    26.7590    24.8700    28.5410    25.5170     2.1640 
  113.6250     0.8180    66.2600    25.0130    23.2180    26.1420    25.4580     2.1230 
  113.7500     0.7140    68.6890    23.6790    21.9300    24.3390    25.2930     2.0840 
  113.8750     0.6960    65.1650    22.7890    21.0580    25.0750    25.0600     2.0650 
  114.0000     0.8000    61.1930    22.3140    20.6030    29.4780    24.7570     2.0830 
  114.1250     0.9190    59.9830    22.0490    20.3740    29.2660    24.5420     2.1190 
