~V
VERS. 2.00: Ver 2.00
~W
STRT.M 55.0000:
STOP.M 226.0000:
STEP.M 0.1250:
NULL. -999.2500:
UWI. F10689:
~C
DEPT.M :
DEN.GM/CC :
GR.API :
RML.OHMM :
RI. :
RXO.OHMM :
CALI.CM :
SP.MV :
~A
# ...
  100.0000     2.3740    73.4600     7.0520     6.0280     4.8510    23.2820   -13.1250 
  100.1250     2.3430    72.2050     7.9480     6.6290     5.3000    23.2430   -13.3390 
  100.2500     2.2930    69.9260     9.1790     7.5350     6.4710    23.1660   -13.5670 
  100.3750     2.2370    64.9300    10.6500     8.7000     8.0190    22.9590   -13.8240 
  100.5000     2.1940    58.1560    12.1420     9.9740     8.5940    22.7490   -14.0710 
  100.6250     2.1770    55.2070    13.2820    11.0590     8.5800    22.7290   -14.2850 
  100.7500     2.1830    57.3090    13.9100    11.7430     8.6410    22.7570   -14.4980 
  100.8750     2.2000    59.4850    14.0510    11.9850     8.8720    22.7860   -14.7070 
  101.0000     2.2210    59.5340    13.8840    11.9070     9.0400    22.7920   -14.8950 
  101.1250     2.2370    59.5440    13.6050    11.6640     8.9110    22.7920   -15.0640 
  101.2500     2.2480    58.7200    13.3240    11.3760     8.7280    22.7920   -15.1940 
  101.3750     2.2540    57.0940    13.0420    11.0600     8.8410    22.7950   -15.2780 
  101.5000     2.2520    58.0810    12.7420    10.7260     8.9910    22.8050   -15.3410 
  101.6250     2.2400    61.7920    12.4490    10.4120     8.6440    22.8680   -15.4080 
  101.7500     2.2200    64.3850    12.2470    10.1830     8.2050    22.8770   -15.4690 
  101.8750     2.1970    64.5260    12.2240    10.1010     7.9960    22.8780   -15.5340 
  102.0000     2.1750    62.5470    12.4470    10.2130     8.0610    22.8700   -15.6340 
  102.1250     2.1590    59.8300    12.9320    10.5530     8.4060    22.8720   -15.7250 
  102.2500     2.1490    57.3690    13.5050    11.0140     8.7540    22.8780   -15.8040 
  102.3750     2.1440    56.2140    14.0020    11.4740     8.8680    22.8790   -15.8700 
  102.5000     2.1450    56.4630    14.3090    11.8190     8.8820    22.8790   -15.9390 
  102.6250     2.1520    57.1980    14.3840    11.9690     8.8310    22.8790   -16.0070 
  102.7500     2.1620    57.9420    14.3410    11.9900     8.7490    22.8810   -16.0670 
  102.8750     2.1690    59.5790    14.2660    11.9500     8.6030    22.8890   -16.0900 
  103.0000     2.1720    61.7920    14.2150    11.9040     8.4680    22.9440   -16.0300 
  103.1250     2.1680    63.0500    14.2130    11.8840     8.5580    22.9530   -15.9220 
  103.2500     2.1620    63.0830    14.2600    11.8910     8.6170    22.9560   -15.7770 
  103.3750     2.1580    62.4450    14.3540    11.9200     8.6460    22.9560   -15.6230 
  103.5000     2.1570    62.4110    14.4790    11.9570     8.6840    22.9560   -15.4440 
  103.6250     2.1620    62.4500    14.6280    11.9970     8.6840    22.9550   -15.2140 
  103.7500     2.1680    60.8660    14.8400    12.0740     8.7240    22.9510   -14.9350 
  103.8750     2.1700    57.9850    15.2150    12.2650     8.8630    22.9470   -14.6190 
  104.0000     2.1640    55.2930    15.8680    12.6630     9.1160    22.9540   -14.2850 
  104.1250     2.1480    54.1640    16.9740    13.3950     9.4810    22.9560   -13.9470 
  104.2500     2.1310    53.3800    18.5230    14.4590    10.1230    22.9660   -13.6290 
  104.3750     2.1210    53.0980    20.4890    15.8510    11.1750    23.0210   -13.3000 
  104.5000     2.1210    52.9130    22.7470    17.4960    12.7230    23.1130   -12.9790 
  104.6250     2.1270    51.7080    25.0050    19.2090    14.1390    23.1730   -12.6920 
  104.7500     2.1290    50.4020    26.8390    20.6970    15.2700    23.1820   -12.4260 
  104.8750     2.1260    50.7500    27.8860    21.7080    16.7860    23.1940   -12.2110 
  105.0000     2.1230    52.4250    28.0070    22.1120    18.6770    23.2590   -12.0570 
  105.1250     2.1360    53.3070    27.4850    21.9900    19.1410    23.2700   -11.9840 
  105.2500     2.1810    53.0900    27.2550    21.8750    19.0030    23.2730   -11.9780 
  105.3750     2.2650    51.7800    28.2040    22.3290    19.0210    23.2750   -12.0220 
  105.5000     2.3810    49.3700    31.1340    23.9830    20.3650    23.3460   -12.1120 
  105.6250     2.5100    48.1840    36.9510    27.8530    24.0890    23.4900   -12.2510 
  105.7500     2.6190    48.3850    44.6080    33.7080    31.9740    23.5530   -12.4320 
  105.8750     2.6830    47.1730    51.5190    40.0480    48.9470    23.5960   -12.6090 
  106.0000     2.6930    44.3270    53.1160    43.3630    67.0690    23.6990   -12.7830 
  106.1250     2.6470    44.6750    45.1370    39.1130    73.1660    23.7180   -12.9250 
  106.2500     2.5720    50.5140    33.0380    30.2830    58.1120    23.7270   -13.0520 
  106.3750     2.4870    57.9440    22.2110    21.3000    31.6030    23.7270   -13.1740 
  106.5000     2.4090    63.4830    14.8800    14.6660    13.7960    23.7050   -13.2840 
  106.6250     2.3560    65.6080    11.0330    10.8770     9.4960    23.6550   -13.3620 
  106.7500     2.3280    64.2720     9.0050     8.7060     7.8660    23.6140   -13.4180 
  106.8750     2.3210    61.6240     8.0380     7.5450     6.9940    23.5800   -13.4520 
  107.0000     2.3260    61.7480     7.6090     6.9880     6.3040    23.5800   -13.4300 
  107.1250     2.3330    67.1700     7.3550     6.7480     5.8530    23.6250   -13.3510 
  107.2500     2.3350    73.1810     7.0700     6.5610     5.8030    23.6290   -13.2230 
  107.3750     2.3300    75.5790     6.7500     6.3530     5.7360    23.5870   -13.0760 
  107.5000     2.3220    76.2360     6.4420     6.1280     5.2770    23.5700   -12.9170 
  107.6250     2.3190    78.7250     6.2020     5.9240     5.0440    23.5610   -12.7630 
  107.7500     2.3250    80.2800     6.0460     5.7700     5.0520    23.5790   -12.6280 
  107.8750     2.3380    77.5070     5.9870     5.6780     5.0730    23.6650   -12.5150 
  108.0000     2.3520    71.8210     6.0210     5.6540     4.9890    23.7130   -12.4540 
  108.1250     2.3590    69.3830     6.1520     5.7110     4.9520    23.7190   -12.4460 
  108.2500     2.3590    70.9220     6.3390     5.8340     5.1590    23.7050   -12.4660 
  108.3750     2.3530    73.3280     6.5580     6.0090     5.4380    23.6640   -12.4900 
  108.5000     2.3430    74.5540     6.7880     6.2140     5.6770    23.6370   -12.5330 
  108.6250     2.3270    76.1410     7.0220     6.4130     5.9120    23.5760   -12.5880 
  108.7500     2.3110    76.4410     7.2590     6.5870     6.0030    23.4920   -12.6180 
  108.8750     2.3020    73.8290     7.5130     6.7590     6.0490    23.4360   -12.6400 
  109.0000     2.3050    70.8080     7.8050     6.9660     6.2540    23.3300   -12.6730 
  109.1250     2.3180    70.1090     8.1460     7.2410     6.6780    23.2710   -12.7300 
  109.2500     2.3280    70.4110     8.4830     7.5410     7.5700    23.2250   -12.8050 
  109.3750     2.3260    69.3770     8.7470     7.8020     8.6370    23.0880   -12.9020 
  109.5000     2.3140    67.7110     8.8700     7.9570     9.3200    22.9750   -13.0150 
  109.6250     2.2980    67.9640     8.7700     7.9310     8.2840    22.9350   -13.1190 
  109.7500     2.2860    70.1690     8.4750     7.7340     7.2820    22.8510   -13.2410 
  109.8750     2.2760    73.1230     8.0400     7.3950     6.8640    22.7740   -13.3720 
  110.0000     2.2660    73.4060     7.5690     6.9890     7.1020    22.6520   -13.4850 
  110.1250     2.2540    71.4460     7.2180     6.6370     7.1080    22.6330   -13.5710 
  110.2500     2.2480    71.3480     7.0770     6.4270     6.3220    22.6260   -13.6320 
  110.3750     2.2510    72.9350     7.1800     6.3990     5.6630    22.6190   -13.6930 
  110.5000     2.2630    74.3340     7.4810     6.5370     5.9810    22.5720   -13.7410 
  110.6250     2.2720    72.9660     7.8500     6.7750     7.2860    22.5640   -13.8040 
  110.7500     2.2660    71.1690     8.1400     7.0010     7.5820    22.5620   -13.8360 
  110.8750     2.2430    71.2280     8.3580     7.1870     6.8570    22.5620   -13.8640 
  111.0000     2.2080    73.6070     8.6840     7.4200     6.2480    22.5610   -13.9370 
  111.1250     2.1760    74.9370     9.5130     7.9490     6.3560    22.5570   -14.0770 
