~V
VERS. 2.00: Ver 2.00
~W
STRT.M 50.0000:
STOP.M 265.0000:
STEP.M 0.1250:
NULL. -999.2500:
UWI. F10671:
~C
DEPT.M :
GR.API :
RML.OHMM :
RI. :
RXO.OHMM :
CALI.CM :
DEN.GM/CC :
SP.MV :
~A
# ...
  185.0000    76.6900    13.8560    12.2980    15.4160    24.4470     2.3470   -19.7170 
  185.1250    76.9060    14.9960    13.0900    16.2030    24.4580     2.3420   -19.7440 
  185.2500    75.3330    17.0690    14.6700    18.3220    24.4370     2.3590   -19.6710 
  185.3750    73.1650    19.8100    16.9350    23.5740    24.3710     2.4000   -19.5880 
  185.5000    68.7480    22.5420    19.4280    31.7040    24.3170     2.4520   -19.4660 
  185.6250    65.3880    24.0450    21.1870    40.2050    24.3390     2.4870   -19.2170 
  185.7500    67.8980    23.7280    21.5260    45.8430    24.4320     2.4860   -18.9800 
  185.8750    73.4520    21.6940    20.3110    41.1520    24.5630     2.4550   -18.7570 
  186.0000    76.5400    18.8070    18.1180    26.0040    24.7380     2.4120   -18.5180 
  186.1250    75.2120    16.3110    15.9490    17.3880    24.9880     2.3830   -18.3710 
  186.2500    73.6700    14.7570    14.4260    15.1290    25.1140     2.3730   -18.2950 
  186.3750    73.7380    14.1150    13.6370    14.7680    25.0450     2.3780   -18.2450 
  186.5000    75.4800    14.1060    13.4300    14.7740    24.8870     2.3860   -18.3090 
  186.6250    77.6940    14.3860    13.5760    14.6870    24.7580     2.3870   -18.4570 
  186.7500    78.9070    14.6010    13.7550    14.5710    24.7310     2.3760   -18.6110 
  186.8750    78.4590    14.6070    13.8130    14.5240    24.7590     2.3560   -18.7690 
  187.0000    76.3180    14.3760    13.6880    14.5910    24.7440     2.3340   -18.8390 
  187.1250    73.7010    14.0060    13.4170    14.8350    24.6240     2.3150   -18.7930 
  187.2500    71.6590    13.8070    13.2190    15.0970    24.4730     2.3030   -18.6790 
  187.3750    71.7510    14.1610    13.3920    15.3900    24.3580     2.3010   -18.4650 
  187.5000    74.5140    15.4140    14.2390    16.0350    24.2760     2.3080   -18.0320 
  187.6250    75.8760    17.7170    15.9560    18.3350    24.1930     2.3330   -17.3510 
  187.7500    72.9940    20.2850    17.9840    25.4420    24.1340     2.3740   -16.5380 
  187.8750    67.1620    22.0700    19.5010    38.2130    24.1370     2.4310   -15.5800 
  188.0000    61.0570    21.9800    19.5700    51.6430    24.1990     2.4970   -14.5080 
  188.1250    56.9870    19.1780    17.3590    62.2450    24.2540     2.5570   -13.3670 
  188.2500    56.5350    14.9870    13.8470    56.7640    24.2690     2.5980   -12.1730 
  188.3750    58.3580    10.8980    10.2640    29.3090    24.2530     2.6090   -10.9790 
  188.5000    60.6370     7.9080     7.4860    11.2090    24.2060     2.5900    -9.9050 
  188.6250    61.1680     6.3650     5.8760     6.1400    24.1460     2.5500    -8.9970 
  188.7500    59.0440     5.7220     5.0580     5.1540    24.0770     2.5060    -8.1620 
  188.8750    53.7520     5.6280     4.7900     4.9690    23.9650     2.4690    -7.4780 
  189.0000    48.7280     5.8010     4.8580     4.8710    23.7850     2.4420    -6.9800 
  189.1250    49.1730     6.0410     5.0950     4.8390    23.5400     2.4260    -6.6010 
  189.2500    50.4580     6.2380     5.3520     4.8410    23.2960     2.4140    -6.3260 
  189.3750    48.8240     6.3770     5.5730     4.8870    23.0840     2.4070    -6.1790 
  189.5000    45.2980     6.4720     5.7350     4.9950    22.8740     2.4020    -6.0510 
  189.6250    43.7020     6.5200     5.8220     5.1590    22.7590     2.3990    -5.9430 
  189.7500    44.2290     6.5220     5.8480     5.2890    22.7960     2.3970    -5.9160 
  189.8750    43.3900     6.4770     5.8240     5.3390    22.9320     2.3950    -5.8650 
  190.0000    40.3110     6.3970     5.7690     5.4140    23.0690     2.3940    -5.7990 
  190.1250    37.5050     6.3110     5.7040     5.6380    23.0780     2.3950    -5.8110 
  190.2500    36.8720     6.2560     5.6470     5.9330    22.9850     2.3960    -5.8260 
  190.3750    37.2150     6.2300     5.6030     6.1740    22.9120     2.3990    -5.7760 
  190.5000    35.8570     6.2140     5.5710     6.2000    22.9610     2.4040    -5.7850 
  190.6250    33.3880     6.1760     5.5450     6.0450    23.1010     2.4100    -5.8090 
  190.7500    33.0140     6.1220     5.5170     5.9040    23.2580     2.4160    -5.7720 
  190.8750    35.2190     6.0630     5.4800     5.7650    23.4000     2.4170    -5.7990 
  191.0000    37.6360     5.9950     5.4330     5.6280    23.5210     2.4110    -5.8390 
  191.1250    37.9110     5.9470     5.3810     5.5440    23.6040     2.4000    -5.8310 
  191.2500    37.4010     5.9150     5.3380     5.5210    23.6400     2.3880    -5.8620 
  191.3750    37.7440     5.9340     5.3240     5.5510    23.6410     2.3800    -5.9440 
  191.5000    40.6290     6.0300     5.3580     5.6550    23.6150     2.3780    -5.9960 
  191.6250    46.0270     6.2330     5.4760     5.8450    23.5970     2.3860    -6.1310 
  191.7500    52.6500     6.5330     5.6770     6.1620    23.5950     2.3970    -6.3520 
  191.8750    59.1660     6.9150     5.9560     6.6180    23.5740     2.4080    -6.5140 
  192.0000    63.6210     7.3370     6.2850     7.1540    23.5200     2.4150    -6.6660 
  192.1250    65.8730     7.7360     6.6220     7.6870    23.4210     2.4180    -6.8770 
  192.2500    67.0190     8.0800     6.9280     8.1450    23.3160     2.4170    -7.0770 
  192.3750    68.9520     8.3750     7.1990     8.5390    23.2270     2.4170    -7.2400 
  192.5000    70.5960     8.6530     7.4480     8.8670    23.2270     2.4170    -7.3840 
  192.6250    72.0860     8.9430     7.6950     9.0740    23.3900     2.4190    -7.4050 
  192.7500    77.5850     9.2160     7.9270     9.5460    23.6490     2.4230    -7.3260 
  192.8750    85.4950     9.3900     8.0950    10.2730    23.9190     2.4290    -7.2050 
  193.0000    87.2920     9.3750     8.1320    10.7470    24.0700     2.4350    -7.0050 
  193.1250    79.1510     9.0840     7.9570    10.6250    24.0580     2.4390    -6.6870 
  193.2500    70.3600     8.6020     7.6110     9.9550    24.0130     2.4390    -6.3780 
  193.3750    65.9110     8.0350     7.1570     8.7120    23.9700     2.4370    -6.0560 
  193.5000    61.1440     7.4970     6.6840     7.5860    23.9160     2.4350    -5.6910 
  193.6250    53.4150     7.0830     6.2790     6.9100    23.8600     2.4340    -5.4340 
  193.7500    48.6890     6.7910     5.9720     6.4770    23.8250     2.4340    -5.2230 
  193.8750    48.6920     6.6090     5.7670     6.1290    23.8180     2.4340    -5.0030 
  194.0000    49.5880     6.5190     5.6530     5.9230    23.8420     2.4330    -4.8780 
  194.1250    47.3750     6.5130     5.6220     5.8210    23.8930     2.4300    -4.8860 
  194.2500    44.4810     6.5480     5.6330     5.8330    23.9400     2.4270    -4.8650 
  194.3750    43.3940     6.5890     5.6580     5.8800    23.9580     2.4230    -4.8480 
  194.5000    42.5960     6.5990     5.6690     5.9480    23.9600     2.4190    -4.8700 
  194.6250    41.1560     6.5500     5.6380     5.9660    23.9610     2.4120    -4.8250 
  194.7500    41.2510     6.4590     5.5710     5.8870    23.9670     2.4060    -4.7990 
  194.8750    42.5650     6.3560     5.4850     5.7100    23.9800     2.4010    -4.8410 
  195.0000    42.1660     6.2810     5.4090     5.5910    23.9990     2.4010    -4.8500 
  195.1250    39.1340     6.2800     5.3800     5.6610    24.0170     2.4060    -4.7950 
  195.2500    38.7400     6.3580     5.4120     5.8000    24.0220     2.4150    -4.8010 
  195.3750    42.6270     6.5070     5.5060     5.9730    24.0160     2.4240    -4.8200 
  195.5000    47.9030     6.7040     5.6490     6.1560    23.9990     2.4320    -4.7940 
  195.6250    51.2000     6.9100     5.8170     6.3270    23.9610     2.4380    -4.8150 
  195.7500    52.8180     7.0760     5.9670     6.4720    23.9030     2.4420    -4.8110 
  195.8750    53.9700     7.1660     6.0710     6.5130    23.8590     2.4450    -4.7440 
  196.0000    53.4080     7.1590     6.1030     6.4760    23.9050     2.4440    -4.7190 
  196.1250    49.5420     7.0470     6.0450     6.4120    24.0180     2.4400    -4.7250 
