~V
VERS. 2.00: Ver 2.00
~W
STRT.M 50.0000:
STOP.M 263.0000:
STEP.M 0.1250:
NULL. -999.2500:
UWI. F10656:
~C
DEPT.M :
DEN.GM/CC :
GR.API :
RML.OHMM :
RI. :
RXO.OHMM :
CALI.CM :
SP.MV :
~A
# ...
  185.0000     2.3840    30.2290     6.0410     5.4090     5.6290    24.6340    -2.3740 
  185.1250     2.3570    30.1330     5.9670     5.3780     5.6250    24.6300    -2.3800 
  185.2500     2.3450    31.1510     5.8720     5.3450     5.6290    24.5560    -2.3710 
  185.3750     2.3500    32.7170     5.7910     5.3140     5.6210    24.5030    -2.3350 
  185.5000     2.3660    34.2680     5.7680     5.2860     5.5980    24.5270    -2.2830 
  185.6250     2.3820    34.0720     5.7660     5.2710     5.5630    24.6320    -2.2020 
  185.7500     2.3910    33.0170     5.7830     5.2730     5.5350    24.7530    -2.1480 
  185.8750     2.3930    33.3160     5.8210     5.2930     5.5410    24.8090    -2.1220 
  186.0000     2.3950    35.1950     5.8970     5.3290     5.5970    24.7330    -2.1120 
  186.1250     2.4010    36.9700     6.0030     5.3830     5.6950    24.5680    -2.1160 
  186.2500     2.4080    38.4210     6.1280     5.4520     5.8000    24.4280    -2.1580 
  186.3750     2.4120    40.1950     6.2950     5.5380     5.8980    24.5200    -2.2400 
  186.5000     2.4110    42.6930     6.4340     5.6350     6.0000    24.8940    -2.3560 
  186.6250     2.4030    43.5860     6.5480     5.7320     6.1200    25.2780    -2.4780 
  186.7500     2.3960    42.5000     6.6250     5.8100     6.2380    25.2080    -2.5670 
  186.8750     2.3940    41.6100     6.6420     5.8530     6.3550    24.8830    -2.6410 
  187.0000     2.4020    42.7950     6.5940     5.8530     6.3870    24.7890    -2.6730 
  187.1250     2.4190    46.1040     6.4970     5.8130     6.3570    24.7800    -2.6690 
  187.2500     2.4390    48.0970     6.4150     5.7690     6.3520    24.6540    -2.6340 
  187.3750     2.4540    48.3060     6.4040     5.7580     6.4020    24.5470    -2.5800 
  187.5000     2.4610    47.6920     6.5060     5.8160     6.4830    24.5440    -2.5700 
  187.6250     2.4600    47.6340     6.7370     5.9680     6.6550    24.5960    -2.6430 
  187.7500     2.4560    48.7740     7.0090     6.1660     6.9860    24.6730    -2.7400 
  187.8750     2.4520    49.6660     7.2280     6.3470     7.4310    24.7420    -2.8470 
  188.0000     2.4470    49.1320     7.2980     6.4400     7.8420    24.6780    -2.9540 
  188.1250     2.4370    46.0930     7.1430     6.3770     7.8400    24.5880    -3.0760 
  188.2500     2.4150    42.2430     6.8420     6.1960     7.3790    24.5260    -3.1980 
  188.3750     2.3820    39.6930     6.4970     5.9590     6.6630    24.5890    -3.3070 
  188.5000     2.3450    37.6640     6.2070     5.7390     6.1780    24.9500    -3.3390 
  188.6250     2.3210    36.9520     6.0490     5.6040     5.9650    25.5480    -3.2880 
  188.7500     2.3200    38.9050     5.9980     5.5520     5.9750    25.6440    -3.2560 
  188.8750     2.3420    41.9870     6.0200     5.5600     6.0660    25.3510    -3.2380 
  189.0000     2.3770    44.1640     6.0760     5.5970     6.1580    25.1500    -3.2530 
  189.1250     2.4090    44.8940     6.1460     5.6430     6.1730    25.1330    -3.3070 
  189.2500     2.4260    45.1060     6.2230     5.6890     6.1570    25.2430    -3.3540 
  189.3750     2.4320    45.0870     6.3050     5.7400     6.1620    25.3980    -3.3870 
  189.5000     2.4330    45.3380     6.3900     5.7990     6.2170    25.4310    -3.4060 
  189.6250     2.4340    46.3900     6.4620     5.8590     6.3510    25.2220    -3.4090 
  189.7500     2.4380    46.4500     6.5010     5.9000     6.5390    24.9510    -3.3750 
  189.8750     2.4430    45.3750     6.4900     5.9030     6.7080    24.7330    -3.2870 
  190.0000     2.4480    44.5010     6.4210     5.8590     6.7480    24.5660    -3.1250 
  190.1250     2.4490    43.3750     6.2900     5.7680     6.5740    24.5200    -2.9250 
  190.2500     2.4470    42.1570     6.1300     5.6610     6.3450    24.5530    -2.7100 
  190.3750     2.4410    41.1150     5.9750     5.5600     6.2170    24.5740    -2.4810 
  190.5000     2.4330    39.3090     5.8520     5.4790     6.1950    24.5000    -2.2830 
  190.6250     2.4220    36.6680     5.7880     5.4290     6.1750    24.4390    -2.1190 
  190.7500     2.4110    35.9300     5.7730     5.4040     6.0920    24.4320    -1.9410 
  190.8750     2.4000    37.1910     5.7930     5.3970     5.9650    24.4480    -1.7810 
  191.0000     2.3910    38.7690     5.8200     5.4000     5.8460    24.4290    -1.6850 
  191.1250     2.3860    38.6040     5.8210     5.3970     5.8270    24.3880    -1.6050 
  191.2500     2.3860    37.2760     5.7640     5.3700     5.8760    24.3150    -1.5660 
  191.3750     2.3930    37.0670     5.6500     5.3080     5.9340    24.2670    -1.5810 
  191.5000     2.4050    38.9210     5.5120     5.2130     5.9190    24.2110    -1.6170 
  191.6250     2.4210    42.1680     5.4720     5.1240     5.8440    24.1150    -1.6490 
  191.7500     2.4320    46.4870     5.6300     5.1040     5.7360    23.9420    -1.7360 
  191.8750     2.4330    51.4690     6.0200     5.2190     5.7340    23.6860    -1.8550 
  192.0000     2.4260    57.3750     6.6460     5.5030     5.9780    23.4220    -1.9900 
  192.1250     2.4130    65.1970     7.3970     5.9500     6.6020    23.3930    -2.1420 
  192.2500     2.4000    73.7650     7.9830     6.4310     7.4510    23.6400    -2.2890 
  192.3750     2.3900    78.9780     8.3100     6.8140     8.2250    23.9890    -2.4120 
  192.5000     2.3830    79.0430     8.3570     6.9930     8.5660    24.2460    -2.4780 
  192.6250     2.3780    79.4450     8.1080     6.9050     8.1660    24.3310    -2.4720 
  192.7500     2.3790    81.8190     7.7530     6.6740     7.4880    24.3610    -2.4320 
  192.8750     2.3880    81.1880     7.4410     6.4190     6.8820    24.3780    -2.3830 
  193.0000     2.4020    75.9680     7.2580     6.2250     6.7230    24.3780    -2.3560 
  193.1250     2.4180    70.9760     7.2180     6.1270     6.8120    24.3510    -2.3500 
  193.2500     2.4310    69.8360     7.2200     6.0720     6.8270    24.3100    -2.3190 
  193.3750     2.4400    72.1910     7.1710     6.0040     6.7570    24.2780    -2.3070 
  193.5000     2.4440    75.5620     7.0020     5.8780     6.6700    24.2550    -2.3560 
  193.6250     2.4440    76.6510     6.6900     5.6720     6.5840    24.2680    -2.5090 
  193.7500     2.4410    78.1760     6.3430     5.4380     6.4560    24.2940    -2.7010 
  193.8750     2.4330    81.0400     6.0970     5.2530     6.2930    24.3240    -2.9070 
  194.0000     2.4210    82.8190     6.1000     5.2220     6.1570    24.3390    -3.1070 
  194.1250     2.4070    80.0090     6.5620     5.5210     6.2650    24.3250    -3.3360 
  194.2500     2.3970    75.0800     7.4670     6.1920     6.9600    24.3170    -3.5980 
  194.3750     2.3920    71.8280     8.7260     7.2140     8.2690    24.3270    -3.8560 
  194.5000     2.3930    70.5490    10.1050     8.4340     9.9910    24.3540    -4.1200 
  194.6250     2.3950    71.3960    11.1580     9.5050    11.5750    24.3690    -4.3980 
  194.7500     2.3930    74.1990    11.5710    10.0940    12.5930    24.3530    -4.6510 
  194.8750     2.3870    77.3760    11.2620    10.0470    12.6570    24.3080    -4.8950 
  195.0000     2.3810    80.3170    10.4690     9.4870    11.6920    24.2440    -5.1150 
  195.1250     2.3820    83.4480     9.7700     8.8340    10.5490    24.1630    -5.2800 
  195.2500     2.3910    87.2850     9.7400     8.6120    10.1170    24.1610    -5.4260 
  195.3750     2.4070    88.2600    10.7600     9.1950    11.3010    24.2000    -5.5720 
  195.5000     2.4260    83.5110    13.0190    10.8470    14.6480    24.2300    -5.7130 
  195.6250     2.4370    76.1810    16.5540    13.7990    20.6290    24.2150    -5.8380 
  195.7500     2.4310    70.7850    20.5680    17.4990    27.3080    24.1730    -5.9600 
  195.8750     2.4050    67.1460    24.1820    21.2320    32.0320    24.1300    -6.0360 
  196.0000     2.3620    63.9670    26.5160    24.1220    32.4710    24.1140    -6.0730 
  196.1250     2.3210    63.7860    26.8920    25.2820    29.1000    24.1110    -6.0810 
