~V
VERS. 2.00: Ver 2.00
~W
STRT.M 55.0000:
STOP.M 242.0000:
STEP.M 0.1250:
NULL. -999.2500:
UWI. F10652:
~C
DEPT.M :
SP.MV :
GR.API :
RML.OHMM :
RI. :
RXO.OHMM :
CALI.CM :
DEN.GM/CC :
~A
# ...
  100.0000   -14.9660    77.9230     8.1780     6.5140     6.5790    22.2730     2.2530 
  100.1250   -15.1140    72.9240     9.0130     7.0360     7.0880    22.2640     2.2610 
  100.2500   -15.2740    66.9630     9.9910     7.6860     8.0100    22.2640     2.2660 
  100.3750   -15.4390    60.3180    10.9540     8.3680     8.8040    22.2720     2.2610 
  100.5000   -15.6370    55.4440    11.7010     8.9500     9.1290    22.3270     2.2450 
  100.6250   -15.8160    56.0500    12.0390     9.2810     9.2690    22.5670     2.2180 
  100.7500   -16.0130    59.7900    12.0710     9.3920     9.5870    22.9440     2.1920 
  100.8750   -16.2050    62.0730    11.9560     9.3590     9.8750    23.2370     2.1710 
  101.0000   -16.4250    60.8950    11.8550     9.2750     9.9210    23.3410     2.1570 
  101.1250   -16.6290    58.8940    11.8790     9.2370     9.9090    23.3380     2.1480 
  101.2500   -16.8060    59.1380    12.0070     9.2820     9.8710    23.3370     2.1410 
  101.3750   -16.9650    60.0030    12.1820     9.4070     9.7300    23.3410     2.1330 
  101.5000   -17.0590    58.1530    12.3350     9.5760     9.5190    23.3510     2.1260 
  101.6250   -17.1310    54.2070    12.4060     9.7210     9.4360    23.3600     2.1240 
  101.7500   -17.1390    53.1530    12.3820     9.7810     9.6040    23.3490     2.1270 
  101.8750   -17.1050    55.6080    12.2720     9.7320     9.8130    23.3140     2.1330 
  102.0000   -17.0170    59.6900    12.0960     9.5900     9.8060    23.2840     2.1380 
  102.1250   -16.8670    61.1720    11.8870     9.3990     9.6850    23.2620     2.1360 
  102.2500   -16.6810    59.5580    11.6490     9.1990     9.5910    23.2020     2.1290 
  102.3750   -16.4440    58.2500    11.3310     8.9760     9.5310    23.0640     2.1220 
  102.5000   -16.1860    59.7190    10.8690     8.6850     9.3740    22.9900     2.1220 
  102.6250   -15.8970    62.2550    10.1970     8.2650     9.0870    23.2120     2.1410 
  102.7500   -15.5700    63.6140     9.4080     7.7530     8.4650    23.5820     2.1730 
  102.8750   -15.2430    65.7160     8.6490     7.2300     7.5650    23.8250     2.2110 
  103.0000   -14.9050    70.8640     8.0830     6.7930     6.9420    23.9100     2.2390 
  103.1250   -14.5950    75.5800     7.8620     6.5440     6.6960    23.8530     2.2410 
  103.2500   -14.3010    75.9640     7.9170     6.4780     6.7260    23.6550     2.2270 
  103.3750   -14.0520    72.7430     8.1520     6.5710     7.1000    23.4630     2.2120 
  103.5000   -13.8240    69.4690     8.4160     6.7510     7.4200    23.3970     2.2040 
  103.6250   -13.6310    69.6310     8.5110     6.8890     7.3370    23.4420     2.2060 
  103.7500   -13.4770    71.8000     8.4010     6.8820     7.0420    23.4980     2.2120 
  103.8750   -13.3130    75.4220     8.1330     6.7100     6.9250    23.5610     2.2200 
  104.0000   -13.1710    79.8620     7.7710     6.4160     6.9410    23.6880     2.2300 
  104.1250   -12.9910    81.4180     7.3700     6.0740     6.5250    23.8850     2.2410 
  104.2500   -12.8230    78.2440     7.0220     5.7750     6.1890    24.0040     2.2430 
  104.3750   -12.6370    73.0990     6.8550     5.6090     6.2860    24.0470     2.2260 
  104.5000   -12.4690    70.7730     7.0380     5.6890     6.4160    24.0200     2.1940 
  104.6250   -12.2850    73.3950     7.7960     6.2030     6.6920    23.8490     2.1830 
  104.7500   -12.1060    76.3140     9.0360     7.1350     7.3790    23.5700     2.2320 
  104.8750   -11.9320    75.1850    10.5200     8.3720     9.3500    23.3410     2.3470 
  105.0000   -11.7490    70.2620    11.7400     9.5860    13.2070    23.2520     2.4840 
  105.1250   -11.5710    67.3110    11.8460    10.0970    17.8970    23.1880     2.5460 
  105.2500   -11.3740    71.0240    10.8310     9.6660    14.6280    23.0900     2.5140 
  105.3750   -11.1720    79.8840     9.2630     8.5520     9.0850    23.0400     2.4300 
  105.5000   -10.9620    87.1210     7.8080     7.2700     6.6730    23.0520     2.3440 
  105.6250   -10.7440    87.4150     6.8710     6.2600     6.0040    23.1470     2.2940 
  105.7500   -10.5350    85.9560     6.3650     5.5950     5.7420    23.3500     2.2820 
  105.8750   -10.3210    86.6360     6.1350     5.2080     5.3060    23.6090     2.2990 
  106.0000   -10.1380    89.7000     5.9920     4.9720     4.9840    23.8110     2.3290 
  106.1250    -9.9930    94.6010     5.7880     4.7780     4.8840    23.8790     2.3590 
  106.2500    -9.8690    98.6230     5.5180     4.5700     4.8640    23.8630     2.3760 
  106.3750    -9.7820    98.4610     5.2260     4.3540     4.8270    23.8020     2.3770 
  106.5000    -9.7170    93.4180     4.9880     4.1690     4.6820    23.7700     2.3610 
  106.6250    -9.7320    89.0940     5.0050     4.1460     4.6440    23.8520     2.3350 
  106.7500    -9.7660    87.6370     5.4850     4.4430     4.7330    23.8650     2.3190 
  106.8750    -9.8720    86.1820     6.6860     5.2660     5.2470    23.7840     2.3410 
  107.0000    -9.9910    81.5550     8.8940     6.8550     7.3640    23.6460     2.4190 
  107.1250   -10.1380    73.2680    12.5290     9.5650    15.0890    23.4530     2.5260 
  107.2500   -10.3060    65.4920    16.8860    12.9380    31.4100    23.2660     2.5780 
  107.3750   -10.4640    60.8920    20.1970    15.8360    40.7300    23.0760     2.5350 
  107.5000   -10.6260    59.9090    20.4850    16.8250    28.8560    22.8960     2.4280 
  107.6250   -10.7360    60.1050    17.9690    15.5060    16.5290    22.8720     2.3140 
  107.7500   -10.8430    60.6290    15.3310    13.5740    11.2640    23.0520     2.2260 
  107.8750   -10.8950    60.6720    13.5670    11.9740    10.1040    23.2930     2.1700 
  108.0000   -10.9250    59.3760    12.7400    11.0040    10.1710    23.4170     2.1430 
  108.1250   -10.8950    57.3750    12.6100    10.6570    10.2010    23.4310     2.1350 
  108.2500   -10.8340    55.8430    12.7120    10.6220    10.2430    23.4330     2.1370 
  108.3750   -10.7450    55.3130    12.8580    10.7380    10.2940    23.4320     2.1450 
  108.5000   -10.6380    54.7860    13.0380    10.9410    10.3390    23.4380     2.1510 
  108.6250   -10.5210    53.0740    13.4250    11.3160    10.3490    23.4690     2.1480 
  108.7500   -10.3610    51.1700    14.0950    11.9340    10.3170    23.5050     2.1400 
  108.8750   -10.2000    49.3520    14.9470    12.7550    10.6100    23.5290     2.1390 
  109.0000   -10.0100    48.8940    15.6110    13.5230    11.5460    23.5420     2.1630 
  109.1250    -9.8390    51.1990    15.2830    13.5860    12.8380    23.5230     2.2280 
  109.2500    -9.6830    56.9720    13.7300    12.6230    13.4030    23.4610     2.3130 
  109.3750    -9.5410    66.2080    11.3390    10.7960    11.7200    23.4760     2.3860 
  109.5000    -9.4180    77.7920     8.8900     8.6860     8.6180    23.6570     2.4200 
  109.6250    -9.2900    87.8640     7.0800     6.9250     6.8160    24.0450     2.4140 
  109.7500    -9.2130    92.3920     5.9370     5.6810     5.6980    24.4140     2.3980 
  109.8750    -9.1460    90.7860     5.3430     4.9250     5.2900    24.5800     2.3890 
  110.0000    -9.0940    87.0440     5.1380     4.5560     5.4520    24.5090     2.3910 
  110.1250    -9.0900    86.1710     5.1750     4.4820     5.6480    24.2040     2.3960 
  110.2500    -9.0790    88.6310     5.2910     4.5390     5.3600    23.8890     2.3930 
  110.3750    -9.1000    90.2270     5.4490     4.6610     4.9040    23.7420     2.3810 
  110.5000    -9.1060    87.6830     5.6450     4.8210     5.1500    23.7240     2.3670 
  110.6250    -9.1510    84.3830     5.8610     5.0050     6.1340    23.7500     2.3580 
  110.7500    -9.1670    82.2730     6.0560     5.1790     6.5820    23.7680     2.3580 
  110.8750    -9.1660    81.9050     6.1920     5.3060     6.4390    23.7900     2.3660 
  111.0000    -9.1550    84.0850     6.2390     5.3460     6.0040    23.8700     2.3780 
  111.1250    -9.0930    85.4590     6.1870     5.2680     5.8510    24.0000     2.3890 
