~V
VERS. 2.00: Ver 2.00
~W
STRT.M 55.0000:
STOP.M 253.0000:
STEP.M 0.1250:
NULL. -999.2500:
UWI. F10665:
~C
DEPT.M :
SP.MV :
DEN.GM/CC :
GR.API :
RML.OHMM :
RI. :
RXO.OHMM :
CALI.CM :
~A
# ...
  111.2500   -23.0680     2.4160    58.7600    19.3610    14.2790    24.3360    23.9650 
  111.3750   -23.5630     2.3220    55.5710    18.8820    14.5910    19.9400    23.9660 
  111.5000   -23.9830     2.2290    53.7890    17.0180    13.7130    14.8980    23.9720 
  111.6250   -24.2990     2.1710    53.4800    15.1040    12.4640    13.0350    23.9820 
  111.7500   -24.5170     2.1470    54.6220    13.9070    11.5210    12.8930    24.0310 
  111.8750   -24.6160     2.1430    57.0670    13.4720    11.0450    13.1790    24.0960 
  112.0000   -24.6120     2.1440    59.2970    13.5710    10.9770    13.3320    24.0590 
  112.1250   -24.4610     2.1390    59.2670    13.8880    11.1620    13.1290    23.9500 
  112.2500   -24.2330     2.1290    59.5260    14.1340    11.3580    13.0650    23.9250 
  112.3750   -23.9470     2.1200    59.7670    14.2170    11.4460    13.1820    24.0840 
  112.5000   -23.6350     2.1180    58.7330    14.1440    11.3940    13.2350    24.3600 
  112.6250   -23.2830     2.1270    57.6850    13.9670    11.2290    13.0670    24.5200 
  112.7500   -22.9390     2.1420    57.5580    13.7670    11.0430    12.9050    24.4560 
  112.8750   -22.6100     2.1570    58.4650    13.5750    10.8860    12.7150    24.2410 
  113.0000   -22.2920     2.1650    58.9030    13.3940    10.7730    12.6840    24.1850 
  113.1250   -22.0150     2.1590    57.9930    13.2320    10.6960    12.9950    24.3200 
  113.2500   -21.7250     2.1350    55.8000    13.2050    10.6710    13.4060    24.5170 
  113.3750   -21.4300     2.0950    53.2880    13.6130    10.8530    13.8520    24.6030 
  113.5000   -21.1270     2.0530    51.7260    14.8130    11.4900    14.3100    24.4990 
  113.6250   -20.8140     2.0540    51.4170    17.0590    12.8780    14.7710    24.3220 
  113.7500   -20.4520     2.1330    52.7900    19.6710    14.7450    16.3110    24.1400 
  113.8750   -20.0540     2.2940    54.8290    21.4280    16.3800    22.3870    24.0390 
  114.0000   -19.6310     2.4780    56.4370    20.8310    16.6250    36.6510    23.9970 
  114.1250   -19.2030     2.5770    61.3470    17.2150    14.5520    35.8360    23.9730 
  114.2500   -18.8010     2.5750    70.6000    12.8640    11.5080    17.9860    23.9810 
  114.3750   -18.4230     2.5180    81.1550     9.3650     8.7030     8.6530    24.0270 
  114.5000   -18.0510     2.4570    87.9430     7.1480     6.6570     6.2580    24.0540 
  114.6250   -17.6750     2.4200    86.7650     6.0830     5.4710     5.7850    24.0590 
  114.7500   -17.3300     2.4000    80.8680     5.5980     4.8170     5.4150    24.0380 
  114.8750   -17.0080     2.3880    77.3760     5.4040     4.5030     5.2660    23.9590 
  115.0000   -16.7260     2.3790    81.6110     5.3180     4.3660     5.2280    23.8190 
  115.1250   -16.4670     2.3700    90.5850     5.2800     4.3190     5.1690    23.7330 
  115.2500   -16.2190     2.3640    96.9520     5.2990     4.3320     5.0330    23.8280 
  115.3750   -15.9950     2.3630    99.6170     5.3960     4.4150     5.1440    23.8640 
  115.5000   -15.8040     2.3670    98.2570     5.5600     4.5610     5.5410    23.8720 
  115.6250   -15.6730     2.3750    94.1940     5.7560     4.7420     5.8600    23.9090 
  115.7500   -15.5910     2.3850    90.1820     5.9240     4.9030     5.8940    23.9840 
  115.8750   -15.5540     2.3960    86.1730     6.0290     5.0100     5.7760    24.0440 
  116.0000   -15.5360     2.4040    81.0960     6.0650     5.0510     5.6220    24.1130 
  116.1250   -15.5740     2.4060    77.5960     6.0490     5.0370     5.4450    24.1780 
  116.2500   -15.6180     2.4020    77.3470     6.0310     5.0060     5.5560    24.1980 
  116.3750   -15.6760     2.3890    77.4440     6.0390     4.9840     5.8050    24.2080 
  116.5000   -15.7310     2.3700    75.3890     6.0940     4.9870     6.0320    24.2500 
  116.6250   -15.7880     2.3450    76.0000     6.2230     5.0390     6.1190    24.3100 
  116.7500   -15.8170     2.3240    81.1650     6.4220     5.1510     6.2000    24.2850 
  116.8750   -15.8270     2.3120    86.8560     6.6810     5.3180     6.4990    24.2280 
  117.0000   -15.8110     2.3150    88.6730     6.9690     5.5210     6.9640    24.1820 
  117.1250   -15.7170     2.3320    86.2520     7.2280     5.7170     7.8300    24.1380 
  117.2500   -15.6030     2.3450    82.7460     7.4100     5.8620     8.4430    24.0780 
  117.3750   -15.4520     2.3460    79.5600     7.4900     5.9300     8.0020    24.0570 
  117.5000   -15.2800     2.3320    77.8980     7.4860     5.9220     7.3960    24.0890 
  117.6250   -15.0660     2.3100    78.7940     7.4360     5.8610     7.1940    24.1180 
  117.7500   -14.8400     2.2930    79.6920     7.3820     5.7850     7.0510    24.1270 
  117.8750   -14.5820     2.2880    80.0830     7.3300     5.7100     6.8420    24.1640 
  118.0000   -14.3210     2.2930    79.2230     7.2570     5.6280     6.7950    24.2230 
  118.1250   -14.0850     2.2990    76.1310     7.1260     5.5160     6.7220    24.2530 
  118.2500   -13.8670     2.2970    73.8600     6.9670     5.3800     6.6230    24.2610 
  118.3750   -13.6800     2.2910    74.5720     6.8640     5.2690     6.6030    24.2670 
  118.5000   -13.5030     2.2890    76.9170     6.9310     5.2630     6.4820    24.2810 
  118.6250   -13.3890     2.3120    77.6530     7.3250     5.4850     6.5130    24.2750 
  118.7500   -13.2960     2.3610    78.4000     8.0070     5.9390     7.2790    24.2060 
  118.8750   -13.2620     2.4170    81.0990     8.8440     6.5670     9.2880    24.1000 
  119.0000   -13.2290     2.4500    82.4940     9.5800     7.2040    11.3190    24.0410 
  119.1250   -13.2500     2.4380    79.9580     9.8070     7.5340    13.4030    24.0630 
  119.2500   -13.2870     2.4010    76.3600     9.4560     7.4240    11.3820    24.1360 
  119.3750   -13.3140     2.3610    74.8820     8.7100     6.9570     8.5130    24.2350 
  119.5000   -13.3330     2.3320    77.0000     7.8970     6.3660     6.9260    24.2790 
  119.6250   -13.3200     2.3170    81.6350     7.3170     5.8830     6.5870    24.2590 
  119.7500   -13.2780     2.3130    84.4550     7.0040     5.5760     6.4360    24.2150 
  119.8750   -13.1980     2.3210    82.8360     6.8940     5.4250     6.3910    24.1840 
  120.0000   -13.1010     2.3410    79.0660     6.8800     5.3710     6.5830    24.1770 
  120.1250   -12.9430     2.3650    78.2550     6.8670     5.3510     6.4700    24.1860 
  120.2500   -12.7280     2.3800    79.6650     6.8630     5.3470     6.3470    24.2000 
  120.3750   -12.4860     2.3760    80.5870     6.9490     5.4030     6.3280    24.2310 
  120.5000   -12.2160     2.3520    79.9060     7.1940     5.5690     6.5400    24.2710 
  120.6250   -11.9300     2.3130    78.2240     7.6080     5.8760     6.8670    24.2940 
  120.7500   -11.6200     2.2730    76.4190     8.0560     6.2420     7.6420    24.2610 
  120.8750   -11.3020     2.2440    75.2230     8.4020     6.5680     8.8170    24.1900 
  121.0000   -10.9770     2.2350    75.8630     8.5540     6.7650     9.3000    24.1500 
  121.1250   -10.6590     2.2440    79.4810     8.5100     6.7920     8.6030    24.1660 
  121.2500   -10.3880     2.2520    82.9510     8.4150     6.7380     7.4890    24.2000 
  121.3750   -10.1390     2.2480    83.1530     8.3510     6.6700     7.2930    24.2270 
  121.5000    -9.9210     2.2350    79.0430     8.3400     6.6240     8.0490    24.2640 
  121.6250    -9.7310     2.2300    75.7080     8.3380     6.6010     8.7340    24.2930 
  121.7500    -9.5820     2.2380    77.2280     8.3010     6.5770     8.6140    24.3090 
  121.8750    -9.4550     2.2570    80.4590     8.2420     6.5450     7.8420    24.2980 
  122.0000    -9.3770     2.2700    80.0120     8.2430     6.5420     7.7140    24.2540 
  122.1250    -9.2780     2.2710    75.0790     8.4580     6.6630     8.2120    24.2140 
  122.2500    -9.1820     2.2700    72.1450     8.9040     6.9470     8.7010    24.1790 
  122.3750    -9.0810     2.2820    73.6950     9.4900     7.3610     8.7540    24.1230 
