~V
VERS. 2.00: Ver 2.00
~W
STRT.M 52.0000:
STOP.M 238.0000:
STEP.M 0.1250:
NULL. -999.2500:
UWI. F10653:
~C
DEPT.M :
GR.API :
RML.OHMM :
RI. :
RXO.OHMM :
CALI.CM :
DEN.GM/CC :
SP.MV :
~A
# ...
  175.7500    45.6300    22.8590    19.7480    24.6340    23.4900     2.4920   -10.7920 
  175.8750    45.3060    22.7190    19.5510    26.4490    23.4590     2.4950   -10.7900 
  176.0000    45.6990    22.5100    19.3150    25.4730    23.5190     2.4920   -10.8300 
  176.1250    46.8170    22.1210    19.0430    23.8930    23.6340     2.4800   -10.8920 
  176.2500    48.4350    21.5930    18.7160    23.1110    23.7170     2.4670   -11.0270 
  176.3750    51.0190    21.0620    18.3210    22.6790    23.7620     2.4590   -11.2440 
  176.5000    52.7170    20.6380    17.8930    21.3260    23.7720     2.4650   -11.4740 
  176.6250    51.3810    20.4340    17.5930    20.5510    23.7350     2.4860   -11.7400 
  176.7500    50.1130    20.4190    17.5100    21.0080    23.7110     2.5010   -12.0270 
  176.8750    50.1200    20.5640    17.6500    22.2320    23.7280     2.4930   -12.2780 
  177.0000    49.2930    20.8440    17.9080    21.5140    23.7690     2.4610   -12.5140 
  177.1250    46.9960    21.0770    18.0360    19.9170    23.7290     2.4300   -12.7460 
  177.2500    47.4740    21.0000    17.7800    18.8660    23.5640     2.4300   -12.9060 
  177.3750    49.8800    20.3630    17.0290    19.2770    23.4100     2.4670   -12.9960 
  177.5000    52.6430    19.0320    15.7690    20.1460    23.3330     2.5270   -13.0290 
  177.6250    56.2990    17.1400    14.1120    18.4790    23.3070     2.5700   -12.9230 
  177.7500    59.0970    15.2050    12.4270    15.1440    23.3250     2.5810   -12.7560 
  177.8750    58.6170    13.6280    11.0230    13.1330    23.3980     2.5680   -12.5560 
  178.0000    55.2430    12.6650    10.1470    11.9490    23.4630     2.5560   -12.2990 
  178.1250    54.2930    12.4910     9.9720    12.2550    23.5020     2.5590   -12.0020 
  178.2500    55.9780    12.8830    10.2840    13.4660    23.5160     2.5700   -11.7110 
  178.3750    57.3610    13.6350    10.9110    14.2950    23.4810     2.5730   -11.4070 
  178.5000    54.8960    14.5250    11.7230    16.6260    23.4600     2.5590   -11.1110 
  178.6250    48.3970    15.2870    12.5870    19.1710    23.5930     2.5250   -10.9020 
  178.7500    43.4670    15.7590    13.3010    19.1400    23.7450     2.4880   -10.7650 
  178.8750    43.3580    15.8640    13.6930    16.6620    23.8160     2.4640   -10.7010 
  179.0000    47.3210    15.5670    13.6310    15.3350    23.7500     2.4590   -10.7050 
  179.1250    51.2160    14.8340    13.0350    15.2730    23.6570     2.4740   -10.7740 
  179.2500    51.7930    13.8240    12.1220    15.1250    23.5760     2.4960   -10.8960 
  179.3750    49.4150    12.7090    11.0950    13.9080    23.4690     2.5130   -11.0530 
  179.5000    46.9320    11.6670    10.1180    11.6110    23.3620     2.5130   -11.2450 
  179.6250    47.5640    10.8890     9.3270     9.8590    23.3300     2.4880   -11.4710 
  179.7500    49.3440    10.4040     8.7750     9.4530    23.3680     2.4470   -11.6310 
  179.8750    49.8480    10.1590     8.4200     9.6130    23.4160     2.4010   -11.7490 
  180.0000    49.1590    10.0720     8.2020     9.8680    23.4260     2.3670   -11.8640 
  180.1250    49.3850    10.0480     8.0900    10.0800    23.3510     2.3680   -11.9120 
  180.2500    50.2580    10.0060     8.0290     9.7050    23.1410     2.4000   -11.9380 
  180.3750    50.0490     9.9240     7.9640     9.3530    22.6840     2.4450   -11.9510 
  180.5000    49.1600     9.8000     7.8660     9.3340    22.1020     2.4810   -11.9210 
  180.6250    48.8040     9.6650     7.7540     9.8140    21.6730     2.4890   -11.8150 
  180.7500    48.3420     9.5380     7.6460    10.0640    21.4630     2.4760   -11.7210 
  180.8750    46.8190     9.4350     7.5600    10.0100    21.6160     2.4520   -11.6040 
  181.0000    45.8090     9.3580     7.5110     9.3890    22.1500     2.4260   -11.4660 
  181.1250    47.9310     9.3070     7.5230     8.7330    22.6410     2.4140   -11.3830 
  181.2500    51.4680     9.2800     7.6130     8.3610    22.6950     2.4190   -11.3060 
  181.3750    52.1070     9.2640     7.7340     8.2580    22.3410     2.4420   -11.2420 
  181.5000    48.7870     9.2640     7.7830     8.5470    21.8880     2.4730   -11.2430 
  181.6250    47.7000     9.2720     7.6350     8.4730    21.8140     2.4990   -11.3060 
  181.7500    50.2500     9.2850     7.3460     8.2190    22.2050     2.5110   -11.3510 
  181.8750    51.6940     9.3160     7.0440     7.9450    22.8530     2.5080   -11.4370 
  182.0000    49.0590     9.3390     6.8600     7.8740    23.4660     2.4960   -11.5990 
  182.1250    46.5810     9.2880     6.8790     7.9780    23.7150     2.4740   -11.7850 
  182.2500    47.9250     9.1020     6.9470     8.1310    23.7680     2.4410   -11.9480 
  182.3750    50.3090     8.8090     6.9610     8.2010    23.7190     2.4100   -12.1310 
  182.5000    51.0180     8.5860     6.9370     8.1040    23.6590     2.4010   -12.3280 
  182.6250    49.8610     8.7790     7.0030     7.6190    23.6010     2.4370   -12.4970 
  182.7500    48.8620     9.6570     7.3340     7.9470    23.4840     2.4950   -12.6770 
  182.8750    49.9710    11.4480     8.2020    10.2980    23.3970     2.5260   -12.8440 
  183.0000    52.6650    14.2770     9.8940    16.5320    23.4140     2.5020   -12.9290 
  183.1250    53.0220    18.1900    12.7230    25.6180    23.4950     2.4330   -12.9450 
  183.2500    51.2810    22.4830    16.3300    30.5370    23.6170     2.3590   -12.9580 
  183.3750    50.6920    26.3460    20.1120    31.4550    23.6310     2.3000   -12.9110 
  183.5000    53.6830    28.9170    23.1790    33.2160    23.5890     2.2640   -12.7910 
  183.6250    57.3890    29.3210    24.5500    35.0890    23.5130     2.2530   -12.6790 
  183.7500    58.8020    27.8920    24.2870    35.2240    23.4640     2.2560   -12.5570 
  183.8750    58.9250    25.0300    22.5650    34.2110    23.4120     2.2700   -12.3810 
  184.0000    58.3600    21.4090    19.8120    29.5430    23.3880     2.2910   -12.2080 
  184.1250    57.2040    17.9000    16.7140    21.9880    23.4110     2.3160   -12.0600 
  184.2500    58.5250    15.1400    14.0100    15.3970    23.4220     2.3400   -11.9130 
  184.3750    63.3200    13.3290    12.0030    12.5700    23.3920     2.3680   -11.7980 
  184.5000    67.0200    12.3410    10.6910    11.7160    23.3480     2.4030   -11.7400 
  184.6250    63.4500    11.9290     9.9810    11.6100    23.3560     2.4450   -11.7520 
  184.7500    57.2790    11.6810     9.5810    11.8100    23.4300     2.4820   -11.7960 
  184.8750    54.4600    11.5040     9.4350    12.4420    23.5450     2.5030   -11.9150 
  185.0000    57.0480    11.5040     9.6180    12.5870    23.6140     2.5050   -12.1210 
  185.1250    62.4740    12.0270    10.2720    11.7710    23.6190     2.4890   -12.3390 
  185.2500    65.3320    13.2750    11.3900    11.8550    23.5780     2.4600   -12.5590 
  185.3750    64.6660    15.3460    12.9830    15.9150    23.5270     2.4230   -12.8300 
  185.5000    62.8180    18.1850    15.0030    23.4120    23.5300     2.3830   -13.0940 
  185.6250    62.0620    21.5200    17.3810    26.3620    23.6390     2.3450   -13.3040 
  185.7500    61.3400    24.6770    19.7750    26.9640    23.7500     2.3130   -13.5410 
  185.8750    61.3780    27.1490    21.8890    27.6700    23.8380     2.2900   -13.7550 
  186.0000    63.2100    28.7570    23.4990    30.1150    23.8900     2.2720   -13.9150 
  186.1250    62.9150    29.7370    24.5050    31.7800    23.9140     2.2520   -14.0690 
  186.2500    57.8040    30.5890    25.2120    32.4530    23.9290     2.2310   -14.1880 
  186.3750    53.1590    31.4670    25.7630    33.2660    23.9790     2.2150   -14.2550 
  186.5000    55.2060    32.3590    26.3000    34.8220    24.0250     2.2070   -14.2710 
  186.6250    61.5870    33.1710    26.9840    36.1360    24.0400     2.2100   -14.2060 
  186.7500    63.0120    33.8560    27.7640    36.5190    24.0240     2.2140   -14.0860 
  186.8750    59.6550    34.3420    28.5060    37.0530    24.0150     2.2190   -13.9300 
