~V
VERS. 2.00: Ver 2.00
~W
STRT.M 52.0000:
STOP.M 260.0000:
STEP.M 0.1250:
NULL. -999.2500:
UWI. F10654:
~C
DEPT.M :
SP.MV :
GR.API :
RML.OHMM :
RI. :
RXO.OHMM :
CALI.CM :
DEN.GM/CC :
~A
# ...
  198.2500   -11.5810    61.9410    31.4720    28.3090    27.0020    24.3990     2.2290 
  198.3750   -11.6630    60.4590    36.5500    33.4170    33.7270    24.5210     2.2280 
  198.5000   -11.7680    61.9280    40.5310    37.7170    38.2190    24.4460     2.2340 
  198.6250   -11.8680    61.6800    42.7380    40.3320    40.2030    24.3270     2.2440 
  198.7500   -11.9610    59.0180    42.9140    40.8660    40.9710    24.2930     2.2570 
  198.8750   -12.0540    56.7240    41.3050    39.4770    40.7580    24.3340     2.2750 
  199.0000   -12.1350    55.5830    38.4580    36.6580    39.6440    24.4050     2.2950 
  199.1250   -12.2100    54.1370    35.4330    33.4890    36.7260    24.4180     2.3150 
  199.2500   -12.2770    54.5330    32.9280    30.6650    31.8530    24.3840     2.3350 
  199.3750   -12.3140    58.4040    31.4240    28.6900    27.3310    24.3730     2.3540 
  199.5000   -12.3020    60.8560    31.2440    27.9540    25.8320    24.4260     2.3730 
  199.6250   -12.2690    59.0120    31.9200    28.1280    26.7760    24.4910     2.3900 
  199.7500   -12.2340    54.4590    32.9510    28.8500    28.7340    24.4690     2.4060 
  199.8750   -12.1760    51.5070    33.7910    29.6800    30.8320    24.3500     2.4230 
  200.0000   -12.1110    51.9880    33.9730    30.1980    32.2950    24.2500     2.4370 
  200.1250   -12.0430    53.1970    33.7100    30.4150    33.1460    24.1910     2.4440 
  200.2500   -11.9650    54.4360    33.5500    30.6700    33.1780    24.2250     2.4390 
  200.3750   -11.8800    54.8070    34.2000    31.5000    32.6460    24.3590     2.4230 
  200.5000   -11.8010    52.5720    36.3940    33.5610    34.0710    24.4790     2.4000 
  200.6250   -11.7090    49.3010    39.7310    36.6440    39.2400    24.5640     2.3790 
  200.7500   -11.6020    48.0070    43.3060    40.0650    47.5210    24.6020     2.3680 
  200.8750   -11.5030    50.8060    45.7240    42.6090    55.8590    24.6020     2.3720 
  201.0000   -11.4050    55.0850    45.0020    42.3760    59.1450    24.5700     2.3930 
  201.1250   -11.2900    56.6450    41.0440    39.0550    56.2140    24.5200     2.4250 
  201.2500   -11.1740    54.4780    34.7430    33.3550    48.8870    24.4780     2.4590 
  201.3750   -11.0730    52.9990    27.8030    26.8830    39.1600    24.4450     2.4880 
  201.5000   -10.9780    59.5240    22.0650    21.4180    29.5230    24.4360     2.5040 
  201.6250   -10.9000    68.1480    18.0370    17.4940    21.5050    24.4340     2.5050 
  201.7500   -10.8300    70.5880    15.6680    15.0820    16.2630    24.4330     2.4930 
  201.8750   -10.7770    67.0290    14.7130    13.9710    14.1920    24.4320     2.4720 
  202.0000   -10.7340    65.3930    15.0600    14.0850    14.6170    24.4350     2.4470 
  202.1250   -10.7070    66.1640    16.2290    15.0130    15.5660    24.4440     2.4210 
  202.2500   -10.6940    65.5690    17.9300    16.5140    17.2030    24.4610     2.3980 
  202.3750   -10.6880    64.3190    19.8160    18.2870    19.5950    24.4810     2.3780 
  202.5000   -10.7050    63.0820    21.4650    19.9420    21.1340    24.4830     2.3640 
  202.6250   -10.7260    61.6580    22.6550    21.2100    21.5380    24.4670     2.3550 
  202.7500   -10.7460    60.3900    23.3610    22.0020    21.5620    24.4320     2.3520 
  202.8750   -10.7450    59.9680    23.7160    22.3900    21.7340    24.3840     2.3510 
  203.0000   -10.7430    59.0800    23.9230    22.5270    22.0510    24.3420     2.3520 
  203.1250   -10.7390    57.6540    24.1620    22.6160    22.2420    24.3340     2.3550 
  203.2500   -10.7250    57.4780    24.4680    22.7240    22.1690    24.3560     2.3580 
  203.3750   -10.6920    59.0200    24.8110    22.8550    22.2320    24.4020     2.3610 
  203.5000   -10.6430    60.3380    25.1300    22.9870    22.4330    24.4280     2.3610 
  203.6250   -10.6020    60.5160    25.3600    23.0780    22.3600    24.4490     2.3550 
  203.7500   -10.5760    60.6320    25.4340    23.0910    22.2320    24.4740     2.3470 
  203.8750   -10.5760    60.9120    25.3020    22.9920    22.2590    24.5140     2.3380 
  204.0000   -10.5700    62.8290    24.9200    22.7450    22.3600    24.5450     2.3360 
  204.1250   -10.5490    64.7960    24.3570    22.3720    22.4270    24.5450     2.3420 
  204.2500   -10.5220    65.2180    23.6590    21.8760    22.2130    24.5140     2.3510 
  204.3750   -10.4840    63.0700    22.8810    21.2630    21.6400    24.4540     2.3600 
  204.5000   -10.4300    59.5590    22.0830    20.5540    21.0880    24.3460     2.3600 
  204.6250   -10.3680    58.6980    21.3290    19.8230    20.5300    24.1740     2.3520 
  204.7500   -10.2910    60.9700    20.6610    19.1290    19.5710    23.9790     2.3390 
  204.8750   -10.2010    63.3540    20.0940    18.5130    17.8400    23.8270     2.3250 
  205.0000   -10.1220    61.3850    19.5880    17.9700    16.8090    23.8070     2.3150 
  205.1250   -10.0590    58.2850    19.0290    17.4090    16.2740    23.8530     2.3120 
  205.2500   -10.0040    58.7670    18.3160    16.7320    15.8870    23.9510     2.3150 
  205.3750    -9.9560    62.4640    17.3860    15.8680    15.3740    24.0930     2.3230 
  205.5000    -9.9000    65.8580    16.2530    14.8060    14.6460    24.2450     2.3350 
  205.6250    -9.8330    67.3710    15.1270    13.7150    13.5430    24.2680     2.3470 
  205.7500    -9.7690    67.9640    14.3070    12.8100    12.1100    24.1700     2.3540 
  205.8750    -9.7050    68.3560    14.0590    12.3240    10.7960    23.9630     2.3540 
  206.0000    -9.6390    67.7480    14.6920    12.5700    10.4200    23.6850     2.3470 
  206.1250    -9.5910    66.2210    16.0390    13.5400    11.2670    23.3860     2.3370 
  206.2500    -9.5710    65.0450    17.8720    15.1660    13.5150    23.1800     2.3300 
  206.3750    -9.5800    64.5540    19.6930    17.2140    16.9040    23.1770     2.3260 
  206.5000    -9.6060    62.7220    21.1210    19.2510    20.2560    23.4000     2.3270 
  206.6250    -9.6480    59.4070    22.0800    20.8410    21.9970    23.6240     2.3300 
  206.7500    -9.6970    57.8680    22.8260    21.7840    21.9410    23.7120     2.3350 
  206.8750    -9.7480    59.2170    23.0680    22.1440    20.8350    23.6750     2.3400 
  207.0000    -9.8010    61.9780    23.1250    22.1710    19.1480    23.4940     2.3430 
  207.1250    -9.8330    63.2800    23.2870    22.2020    18.4080    23.2000     2.3430 
  207.2500    -9.8280    62.4360    23.6050    22.3420    18.8000    22.8750     2.3380 
  207.3750    -9.8050    60.1470    24.0060    22.5710    19.5730    22.6510     2.3310 
  207.5000    -9.7960    58.9540    24.3510    22.7990    19.8670    22.5760     2.3240 
  207.6250    -9.7770    59.5880    24.5890    22.9710    19.2970    22.5390     2.3220 
  207.7500    -9.7490    62.1200    24.8210    23.1520    18.4700    22.4970     2.3210 
  207.8750    -9.7160    64.6370    25.3190    23.5440    17.9790    22.4320     2.3180 
  208.0000    -9.6670    64.8940    26.5930    24.5680    18.4900    22.3500     2.3120 
  208.1250    -9.5990    63.3990    28.7000    26.3090    19.4420    22.2820     2.3110 
  208.2500    -9.5200    62.0890    31.2670    28.5080    21.1870    22.2330     2.3290 
  208.3750    -9.4150    61.6680    33.3440    30.4070    23.9800    22.2020     2.3770 
  208.5000    -9.3010    60.9200    33.1790    30.4980    26.9230    22.1870     2.4560 
  208.6250    -9.1800    58.6980    30.1640    28.1120    27.9980    22.2090     2.5350 
  208.7500    -9.0310    57.5150    24.7200    23.4720    26.3560    22.2730     2.5840 
  208.8750    -8.8560    59.2590    18.3910    17.8690    21.2790    22.3830     2.5850 
  209.0000    -8.6730    61.8900    13.1580    13.0770    13.7770    22.4900     2.5450 
  209.1250    -8.5020    59.7770     9.6110     9.7120     8.6000    22.4740     2.4990 
  209.2500    -8.3380    54.0820     7.5850     7.6740     6.1480    22.3620     2.4680 
  209.3750    -8.1840    50.5500     6.6790     6.6350     5.4320    22.2250     2.4570 
