~V
VERS. 2.00: Ver 2.00
~W
STRT.M 48.0000:
STOP.M 229.0000:
STEP.M 0.1250:
NULL. -999.2500:
UWI. F10623:
~C
DEPT.M :
GR.API :
RML.OHMM :
RI. :
RXO.OHMM :
CALI.CM :
DEN.GM/CC :
SP.MV :
~A
# ...
  194.2500    54.1830   272.6210   240.8330   208.8810    24.1330     2.2290   -18.4370 
  194.3750    51.9580   274.8860   241.6350   196.9310    24.0720     2.2400   -18.1380 
  194.5000    51.9980   278.7520   244.5030   184.4860    23.9810     2.2510   -17.8560 
  194.6250    53.3390   281.3540   247.3380   168.0490    23.7530     2.2560   -17.5790 
  194.7500    52.5970   279.2230   247.0920   150.7100    23.4610     2.2580   -17.3250 
  194.8750    51.3300   269.2970   240.9340   132.9120    23.1530     2.2650   -17.1010 
  195.0000    49.6320   250.0270   226.9710   124.1350    23.0670     2.2860   -16.9160 
  195.1250    49.2570   221.8540   204.5500   131.1950    23.2030     2.3270   -16.7650 
  195.2500    51.7560   190.8110   178.3180   140.9430    23.2560     2.3750   -16.6270 
  195.3750    56.6890   161.5800   152.4050   140.7900    23.1520     2.4150   -16.4820 
  195.5000    61.8470   137.3950   130.2190   122.7770    23.1320     2.4380   -16.3380 
  195.6250    65.2880   120.5710   114.5240    94.2710    23.1840     2.4390   -16.2010 
  195.7500    66.9340   109.6000   104.3730    80.5760    23.2710     2.4330   -16.0500 
  195.8750    66.4100   103.3520    98.8330    79.3180    23.3890     2.4300   -15.9000 
  196.0000    66.7300   100.3710    96.6020    77.9310    23.6180     2.4330   -15.7480 
  196.1250    72.4770    98.8540    96.0340    74.6980    23.7280     2.4390   -15.5930 
  196.2500    77.8060    96.4200    94.7130    72.9520    23.6110     2.4390   -15.4290 
  196.3750    78.4910    91.4770    90.8870    71.2750    23.3680     2.4320   -15.2480 
  196.5000    75.8610    83.2740    83.5580    70.4460    23.1960     2.4200   -15.0450 
  196.6250    73.7910    72.1720    72.8210    67.3070    23.1480     2.4100   -14.8450 
  196.7500    71.8090    60.7710    61.4010    57.5460    23.1030     2.4070   -14.6710 
  196.8750    69.8340    51.1940    51.5870    41.6900    23.0770     2.4110   -14.5060 
  197.0000    71.6120    44.7920    44.8250    30.1530    23.1510     2.4130   -14.3430 
  197.1250    77.1270    42.3800    41.9390    26.6260    23.3070     2.4030   -14.1810 
  197.2500    80.6790    42.6550    41.7080    30.2620    23.3960     2.3800   -14.0330 
  197.3750    79.7290    44.5280    43.1630    38.3390    23.3640     2.3550   -13.9150 
  197.5000    76.0020    46.8520    45.2510    44.9680    23.2500     2.3410   -13.8360 
  197.6250    72.1660    48.5420    46.9130    49.7500    23.1860     2.3560   -13.7810 
  197.7500    70.4400    49.3450    47.7370    51.5910    23.3190     2.3920   -13.7150 
  197.8750    72.2780    49.6160    47.9360    48.4280    23.5150     2.4360   -13.6250 
  198.0000    76.7620    50.0810    48.1450    44.7760    23.5550     2.4730   -13.5030 
  198.1250    78.7950    51.6790    49.2690    42.9020    23.3710     2.4920   -13.3470 
  198.2500    76.0280    54.5810    51.5820    39.0330    23.1320     2.4990   -13.1840 
  198.3750    71.0760    58.5250    54.9220    35.4470    23.0630     2.5030   -13.0250 
  198.5000    68.0840    62.7220    58.6060    33.0860    23.2770     2.5070   -12.8630 
  198.6250    67.9870    65.5920    61.1910    39.8300    23.6480     2.5060   -12.6920 
  198.7500    67.6840    66.0030    61.5700    52.6850    23.8460     2.4940   -12.5120 
  198.8750    66.1380    63.5250    59.2920    66.1160    23.8780     2.4740   -12.3340 
  199.0000    64.4890    58.7680    54.8580    71.5710    23.8890     2.4530   -12.1630 
  199.1250    65.0950    53.3170    49.6540    58.8920    23.9370     2.4410   -12.0170 
  199.2500    68.1170    48.9260    45.3070    45.9230    23.9300     2.4370   -11.8840 
  199.3750    70.9350    46.3390    42.5500    38.8420    23.7810     2.4340   -11.7470 
  199.5000    72.7740    45.6150    41.5130    37.7870    23.6460     2.4270   -11.6020 
  199.6250    74.3190    46.4990    42.0640    40.1150    23.7140     2.4170   -11.4640 
  199.7500    76.5990    48.0290    43.3560    43.4320    23.8870     2.4120   -11.3410 
  199.8750    77.9890    49.5500    44.7880    45.6650    23.9920     2.4160   -11.2350 
  200.0000    77.7400    50.5260    45.8300    46.5060    23.9750     2.4240   -11.1290 
  200.1250    75.2640    50.4710    45.9810    45.9370    23.8250     2.4270   -10.9910 
  200.2500    71.4250    49.5140    45.2810    44.9730    23.6180     2.4200   -10.8160 
  200.3750    70.1240    47.8780    43.8910    44.7720    23.4860     2.4040   -10.6260 
  200.5000    72.0880    45.9130    42.1020    44.8570    23.6050     2.3860   -10.4380 
  200.6250    74.0630    44.0380    40.2760    44.0010    23.9090     2.3740   -10.2460 
  200.7500    74.7170    42.5310    38.6980    40.0360    24.1160     2.3720   -10.0530 
  200.8750    74.7140    41.5020    37.4930    36.6430    24.1860     2.3810    -9.8510 
  201.0000    74.3490    40.9420    36.6890    34.3490    24.1880     2.3960    -9.6420 
  201.1250    73.8520    40.8500    36.3150    33.7520    24.1200     2.4140    -9.4210 
  201.2500    73.4540    41.1280    36.2950    32.8470    24.0300     2.4270    -9.1910 
  201.3750    73.1280    41.8970    36.7190    32.2390    23.9870     2.4330    -8.9400 
  201.5000    71.7490    43.5320    37.8840    33.1160    23.9820     2.4360    -8.6600 
  201.6250    68.3800    47.1430    40.7390    37.8360    23.9540     2.4470    -8.3610 
  201.7500    65.5940    53.1970    45.8020    49.1010    23.9740     2.4710    -8.0520 
  201.8750    65.2410    61.4500    53.0730    64.6590    24.0530     2.5090    -7.7440 
  202.0000    67.0070    70.1920    61.2920    81.3560    24.0950     2.5510    -7.4310 
  202.1250    67.6090    75.1470    66.8910    95.4050    24.0730     2.5780    -7.1230 
  202.2500    67.5920    72.8640    66.4660    95.7840    24.0590     2.5760    -6.8030 
  202.3750    68.6990    62.1650    58.3680    86.6070    24.0660     2.5380    -6.4780 
  202.5000    68.0380    46.1520    44.5530    76.5940    24.0260     2.4680    -6.1660 
  202.6250    61.6950    31.5240    30.6560    55.9150    23.9980     2.3900    -5.8770 
  202.7500    51.9440    21.5360    20.6080    29.1880    23.9480     2.3320    -5.6110 
  202.8750    41.6340    15.6710    14.4880    13.4040    23.8530     2.3140    -5.3680 
  203.0000    32.3910    12.4980    11.0840    10.9670    23.7450     2.3350    -5.1590 
  203.1250    25.6330    10.9130     9.3030    14.4710    23.6920     2.3790    -4.9930 
  203.2500    22.4080     9.7700     8.0510    18.4070    23.7650     2.4120    -4.8770 
  203.3750    22.8880     8.6810     6.9520    19.1610    23.7580     2.4130    -4.8010 
  203.5000    25.7580     7.4060     5.8850    12.5000    23.5450     2.3810    -4.7460 
  203.6250    27.6170     6.1570     4.9360     5.9010    23.2300     2.3350    -4.7000 
  203.7500    27.3910     4.9700     4.2090     4.1700    23.1640     2.2930    -4.6550 
  203.8750    27.5310     4.0400     3.7560     3.6170    23.1990     2.2620    -4.6160 
  204.0000    29.2580     3.8120     3.5610     3.3940    23.2120     2.2450    -4.5890 
  204.1250    30.3770     3.9060     3.5930     3.3410    23.2880     2.2490    -4.5790 
  204.2500    29.6390     4.0920     3.7410     3.4170    23.4690     2.2740    -4.5910 
  204.3750    28.9750     4.3150     3.9460     3.6230    23.6620     2.3170    -4.6220 
  204.5000    30.6740     4.5300     4.1520     3.9600    23.7840     2.3680    -4.6640 
  204.6250    33.2350     4.6730     4.2960     4.4060    23.8280     2.4070    -4.7090 
  204.7500    33.8520     4.7080     4.3360     4.7840    23.8040     2.4230    -4.7470 
  204.8750    32.2360     4.6230     4.2580     4.8660    23.7190     2.4150    -4.7710 
  205.0000    30.1790     4.4420     4.0750     4.6720    23.6260     2.3910    -4.7760 
  205.1250    29.6200     4.2020     3.8280     4.3780    23.5940     2.3600    -4.7650 
  205.2500    29.6910     3.9710     3.5830     4.0270    23.6330     2.3280    -4.7290 
  205.3750    30.0560     3.7740     3.3820     3.6300    23.6420     2.2980    -4.6730 
