~V
VERS. 2.00: Ver 2.00
~W
STRT.M 52.0000:
STOP.M 239.0000:
STEP.M 0.1250:
NULL. -999.2500:
UWI. F10645:
~C
DEPT.M :
SP.MV :
GR.API :
RML.OHMM :
RI. :
RXO.OHMM :
CALI.CM :
DEN.GM/CC :
~A
# ...
  209.5000   -26.1040    58.4910    56.5090    54.1850    39.4570    24.3150     2.3710 
  209.6250   -26.2220    57.3360    58.6520    56.1050    44.4900    24.2640     2.3670 
  209.7500   -26.3270    56.5850    58.8920    56.4180    49.8980    24.2540     2.3820 
  209.8750   -26.3790    58.3190    56.9050    54.7140    55.6290    24.2020     2.4020 
  210.0000   -26.4040    61.5000    53.1860    51.3160    54.9890    24.1160     2.4200 
  210.1250   -26.3830    64.7130    48.7960    47.1180    47.8500    24.0400     2.4260 
  210.2500   -26.2680    66.2780    44.7870    43.1180    38.7660    24.0280     2.4090 
  210.3750   -26.1060    67.6170    41.5450    39.7890    29.0010    24.0940     2.3750 
  210.5000   -25.8990    68.8530    39.1970    37.2930    17.8350    24.2100     2.3380 
  210.6250   -25.6830    68.2280    37.8630    35.7500    11.0790    24.2990     2.3150 
  210.7500   -25.4000    66.3650    37.9030    35.4910    14.1170    24.3420     2.3190 
  210.8750   -25.1260    65.0630    39.2030    36.4230    21.3180    24.3320     2.3400 
  211.0000   -24.8290    64.9330    41.6260    38.4590    27.7170    24.2940     2.3680 
  211.1250   -24.5500    65.8630    44.7490    41.2600    32.7840    24.2720     2.4020 
  211.2500   -24.3320    66.1040    47.7980    44.1480    40.9550    24.2470     2.4430 
  211.3750   -24.1670    66.4320    50.0350    46.3600    44.2560    24.1670     2.4850 
  211.5000   -24.0560    66.7910    51.1760    47.5110    40.1950    24.1260     2.5090 
  211.6250   -23.9540    68.5420    51.4730    47.6910    37.3050    24.1430     2.5020 
  211.7500   -23.9270    73.6110    51.5910    47.4430    30.5070    24.1470     2.4610 
  211.8750   -23.9240    78.8990    52.1170    47.4270    30.0230    24.1640     2.4140 
  212.0000   -23.9580    80.1250    53.1660    47.8190    29.6000    24.2260     2.3790 
  212.1250   -24.0170    76.6460    54.5180    48.4710    31.1010    24.2940     2.3660 
  212.2500   -24.0600    73.6130    55.6710    48.9880    37.4740    24.2840     2.3760 
  212.3750   -24.1280    71.9520    56.3290    49.1460    38.8680    24.1820     2.3940 
  212.5000   -24.1820    68.9490    56.6600    49.1420    36.4830    24.0650     2.4050 
  212.6250   -24.2570    65.1240    57.2480    49.4670    32.6180    23.8780     2.4030 
  212.7500   -24.2990    64.8040    59.0300    50.8120    31.1360    23.7800     2.3940 
  212.8750   -24.3310    67.2500    62.2920    53.2850    33.8130    23.8990     2.3940 
  213.0000   -24.3320    68.5590    66.8560    56.7140    46.4640    24.1050     2.4140 
  213.1250   -24.3200    65.3500    71.8510    60.4730    67.8580    24.1280     2.4570 
  213.2500   -24.2990    59.9970    75.4950    63.2950    80.3670    24.0130     2.5160 
  213.3750   -24.2810    58.8810    76.7430    64.3920    86.8390    23.8980     2.5690 
  213.5000   -24.2770    62.5360    75.6020    63.6590    78.8820    23.7110     2.5980 
  213.6250   -24.2490    66.2490    72.8760    61.5860    72.7580    23.5550     2.5970 
  213.7500   -24.2660    66.1760    69.4110    58.8380    66.1130    23.5270     2.5740 
  213.8750   -24.2830    64.8430    65.8140    56.0150    64.7360    23.7230     2.5530 
  214.0000   -24.3650    63.5830    62.3530    53.3320    63.4260    23.7890     2.5440 
  214.1250   -24.4640    63.4650    59.4010    51.0160    55.4100    23.6710     2.5430 
  214.2500   -24.5990    65.3230    57.3020    49.3230    46.5560    23.6190     2.5420 
  214.3750   -24.7550    68.1090    55.2750    47.7280    39.4540    23.6080     2.5430 
  214.5000   -24.9210    70.1630    51.8660    45.1330    40.7180    23.5900     2.5590 
  214.6250   -25.1560    69.5740    45.6910    40.3490    51.2210    23.5070     2.5930 
  214.7500   -25.3950    67.3730    36.7060    33.0330    51.0470    23.3840     2.6120 
  214.8750   -25.6700    67.1200    27.5500    25.2520    34.3290    23.4260     2.5860 
  215.0000   -25.9540    71.5850    20.0340    18.6250    16.8530    23.6150     2.5090 
  215.1250   -26.2510    81.3750    14.7990    13.8460     9.1290    23.8070     2.4040 
  215.2500   -26.5840    88.5690    11.8360    11.0070     7.3620    23.9170     2.3120 
  215.3750   -26.8920    87.3320    10.1960     9.3430     7.0340    23.9430     2.2580 
  215.5000   -27.2010    80.8920     9.4130     8.4860     7.2300    23.9090     2.2510 
  215.6250   -27.4550    76.2580     9.1360     8.1560     7.4050    23.8650     2.2760 
  215.7500   -27.7060    75.7920     9.1450     8.1620     7.2020    23.8570     2.3020 
  215.8750   -27.9110    76.4510     9.2380     8.2810     7.0610    23.8540     2.3130 
  216.0000   -28.0790    77.8800     9.3270     8.4130     7.3180    23.8260     2.3140 
  216.1250   -28.2080    78.3460     9.3540     8.4930     7.8700    23.7760     2.3160 
  216.2500   -28.2950    77.1480     9.2630     8.4530     7.9340    23.7340     2.3310 
  216.3750   -28.3580    78.6960     9.0770     8.2970     7.5810    23.7030     2.3470 
  216.5000   -28.4080    82.7260     8.8400     8.0550     7.2040    23.6890     2.3550 
  216.6250   -28.4900    85.7310     8.6390     7.7990     6.8910    23.6860     2.3460 
  216.7500   -28.5490    85.5070     8.6230     7.6550     6.7910    23.6840     2.3210 
  216.8750   -28.6440    84.3760     8.8500     7.6910     6.9880    23.6740     2.2940 
  217.0000   -28.7480    83.1650     9.2970     7.9200     7.6560    23.6590     2.2840 
  217.1250   -28.8950    82.1380     9.8220     8.2650     8.6190    23.6710     2.3000 
  217.2500   -29.0290    82.5990    10.1190     8.5250     9.6840    23.6750     2.3410 
  217.3750   -29.1710    83.6730    10.0150     8.5280     9.7510    23.6630     2.3800 
  217.5000   -29.3090    84.7620     9.5470     8.2380     8.9570    23.6350     2.4000 
  217.6250   -29.4040    85.1370     8.9290     7.7700     7.5670    23.6140     2.3920 
  217.7500   -29.5450    85.3790     8.4710     7.3380     6.7440    23.6050     2.3630 
  217.8750   -29.6700    87.7540     8.2910     7.0850     6.6220    23.5990     2.3280 
  218.0000   -29.7780    92.6310     8.3640     7.0380     7.2170    23.5910     2.2940 
  218.1250   -29.8150    96.9950     8.5890     7.1440     7.4290    23.5750     2.2660 
  218.2500   -29.8030    97.7940     8.8170     7.2930     7.1980    23.5470     2.2530 
  218.3750   -29.7640    96.9310     8.9210     7.3490     7.0810    23.5970     2.2570 
  218.5000   -29.7060    95.5560     8.8600     7.2510     6.8720    23.7300     2.2710 
  218.6250   -29.6580    92.0750     8.6650     7.0250     6.8410    23.8450     2.2880 
  218.7500   -29.5900    86.3630     8.4160     6.7680     6.6220    23.7900     2.2990 
  218.8750   -29.5340    82.8960     8.2170     6.5860     6.4500    23.6710     2.3010 
  219.0000   -29.4920    82.5840     8.1680     6.5500     6.4030    23.6150     2.2960 
  219.1250   -29.4950    81.9130     8.4060     6.7260     6.8200    23.6060     2.2900 
  219.2500   -29.5420    78.0910     9.2280     7.2860     7.8140    23.5920     2.2910 
  219.3750   -29.5940    75.2810    10.8010     8.3550     9.3900    23.5670     2.3070 
  219.5000   -29.6190    77.1950    13.2670    10.0910    11.7630    23.5450     2.3450 
  219.6250   -29.6190    82.8390    16.5570    12.5280    14.6570    23.5490     2.4010 
  219.7500   -29.5300    84.5460    20.0180    15.3290    22.8080    23.6120     2.4570 
  219.8750   -29.3950    80.8110    22.2050    17.4340    30.3970    23.7090     2.4920 
  220.0000   -29.2130    77.5570    21.9570    17.8490    27.9230    23.7680     2.4930 
  220.1250   -28.9990    79.5340    19.3950    16.4000    17.9380    23.7500     2.4630 
  220.2500   -28.7810    83.8430    15.9300    13.8950    10.8030    23.7750     2.4150 
  220.3750   -28.5390    84.8100    12.9510    11.4960     9.1210    23.8260     2.3650 
  220.5000   -28.3340    83.2560    10.7640     9.5870     8.5640    23.8820     2.3230 
  220.6250   -28.1340    82.3650     9.2970     8.2220     7.5620    23.9070     2.2930 
