~V
VERS. 2.00: Ver 2.00
~W
STRT.M 55.0000:
STOP.M 253.0000:
STEP.M 0.1250:
NULL. -999.2500:
UWI. F10665:
~C
DEPT.M :
SP.MV :
DEN.GM/CC :
GR.API :
RML.OHMM :
RI. :
RXO.OHMM :
CALI.CM :
~A
# ...
  167.5000    -6.6550     2.4970    44.7140    24.2100    20.7670    24.7000    23.9840 
  167.6250    -6.6280     2.4850    43.6450    24.4040    21.0640    24.8980    24.0130 
  167.7500    -6.5850     2.4730    44.6770    24.0290    20.8770    21.9910    24.0800 
  167.8750    -6.5470     2.4670    45.8510    23.5410    20.4890    19.5950    24.1360 
  168.0000    -6.4840     2.4670    46.1600    23.4200    20.2620    19.8660    24.1600 
  168.1250    -6.4610     2.4720    46.5410    24.0030    20.5190    21.6690    24.1620 
  168.2500    -6.4260     2.4790    46.9390    25.0470    21.1910    23.9300    24.1540 
  168.3750    -6.4050     2.4880    46.6810    26.1840    22.0700    26.1510    24.1270 
  168.5000    -6.4170     2.4990    46.9310    27.0050    22.8430    28.1030    24.0860 
  168.6250    -6.4540     2.5060    48.1160    27.1880    23.1860    26.6980    24.0310 
  168.7500    -6.5450     2.5090    47.8420    26.9500    23.1650    25.1740    24.0020 
  168.8750    -6.6460     2.5070    45.9200    26.5710    22.9620    24.2620    23.9840 
  169.0000    -6.7900     2.5060    44.9020    26.2810    22.7540    24.8960    23.9820 
  169.1250    -6.9220     2.5050    45.5790    26.1940    22.6540    24.1470    24.0080 
  169.2500    -7.0830     2.5030    45.8930    26.2490    22.6520    24.5440    24.0430 
  169.3750    -7.2340     2.4980    45.2600    26.3800    22.7160    25.5070    24.0740 
  169.5000    -7.3570     2.4950    44.7990    26.5220    22.7970    26.0110    24.0830 
  169.6250    -7.4760     2.4970    44.5890    26.5380    22.7950    25.5110    24.0900 
  169.7500    -7.5460     2.5050    45.0360    26.2790    22.5930    25.3310    24.1030 
  169.8750    -7.5940     2.5120    46.0960    25.6300    22.0910    26.7930    24.1020 
  170.0000    -7.6010     2.5160    46.2460    24.6070    21.2860    27.9040    24.0490 
  170.1250    -7.5520     2.5140    44.7660    23.4510    20.3390    24.9610    24.0160 
  170.2500    -7.4520     2.5140    44.0520    22.5520    19.5470    21.8580    24.0050 
  170.3750    -7.3330     2.5180    45.8440    22.1410    19.0990    21.1660    24.0050 
  170.5000    -7.1680     2.5230    48.7880    22.2790    19.0670    22.0930    24.0050 
  170.6250    -6.9710     2.5220    50.4420    22.8900    19.4400    23.9320    24.0090 
  170.7500    -6.7380     2.5100    50.6910    23.6120    19.9570    24.2170    24.0260 
  170.8750    -6.4950     2.4900    49.7190    24.1440    20.3750    22.9000    24.0490 
  171.0000    -6.2340     2.4700    47.0660    24.2590    20.4750    21.3600    24.0500 
  171.1250    -6.0100     2.4590    43.7470    23.8040    20.0890    21.0350    24.0230 
  171.2500    -5.8250     2.4610    42.5200    22.9530    19.3450    20.7710    24.0080 
  171.3750    -5.6500     2.4750    44.6530    21.8660    18.3880    19.9180    24.0020 
  171.5000    -5.5630     2.4940    47.6190    20.7130    17.3740    18.3290    23.9910 
  171.6250    -5.5250     2.5060    47.4390    19.6680    16.4600    17.3510    23.9710 
  171.7500    -5.5840     2.5050    45.5480    18.8440    15.7310    16.8660    23.9690 
  171.8750    -5.7080     2.4920    43.8850    18.3070    15.2270    16.8880    23.9860 
  172.0000    -5.8920     2.4750    43.1510    18.0640    14.9410    16.9980    23.9980 
  172.1250    -6.1410     2.4670    43.1450    18.1300    14.8680    16.3820    23.9990 
  172.2500    -6.3960     2.4720    42.8460    18.4180    14.9550    16.3120    24.0130 
  172.3750    -6.6960     2.4850    42.8860    18.8540    15.1720    16.8330    24.0580 
  172.5000    -6.9730     2.4990    44.0020    19.3110    15.4530    16.8240    24.1030 
  172.6250    -7.2500     2.5110    45.0620    19.5650    15.6520    17.0070    24.1140 
  172.7500    -7.4850     2.5200    43.9100    19.4430    15.6150    17.7900    24.1030 
  172.8750    -7.6840     2.5270    41.2500    18.8470    15.2360    17.8240    24.0960 
  173.0000    -7.8330     2.5270    39.1960    17.8620    14.5430    15.8040    24.1090 
  173.1250    -7.9060     2.5140    38.9370    16.7780    13.7200    14.4230    24.1210 
  173.2500    -7.9400     2.4970    40.0760    15.9330    13.0240    13.4010    24.0720 
  173.3750    -7.9000     2.4850    42.8950    15.4760    12.5780    12.9360    24.0010 
  173.5000    -7.8210     2.4830    46.8370    15.4040    12.4030    13.2060    23.9580 
  173.6250    -7.6930     2.4910    49.4540    15.5950    12.4500    14.0390    23.9650 
  173.7500    -7.5650     2.4980    49.4410    15.7960    12.5500    14.8030    23.9740 
  173.8750    -7.4140     2.4940    48.0070    15.8660    12.5930    14.6200    23.9780 
  174.0000    -7.2840     2.4830    47.6110    15.7630    12.5270    13.6230    23.9430 
  174.1250    -7.1600     2.4700    47.3250    15.5320    12.3610    13.1710    23.8870 
  174.2500    -7.0950     2.4640    44.5590    15.2930    12.1780    13.8150    23.8430 
  174.3750    -7.0890     2.4610    40.5880    15.1130    12.0390    13.6700    23.8690 
  174.5000    -7.1310     2.4580    38.3490    15.0360    11.9900    12.7660    23.9430 
  174.6250    -7.2430     2.4550    38.2270    15.0810    12.0500    12.8810    23.9890 
  174.7500    -7.3660     2.4560    39.1200    15.1770    12.1560    14.0050    24.0030 
  174.8750    -7.5490     2.4690    39.9980    15.2730    12.2540    14.7840    24.0050 
  175.0000    -7.7480     2.4930    39.7320    15.3480    12.3220    15.1090    24.0050 
  175.1250    -7.9870     2.5210    39.0020    15.3980    12.3740    14.3420    24.0030 
  175.2500    -8.2030     2.5430    39.1300    15.3960    12.4260    13.0580    23.9820 
  175.3750    -8.4130     2.5540    39.9660    15.2210    12.4180    12.2240    23.9100 
  175.5000    -8.5960     2.5520    40.8320    14.6850    12.1980    12.1660    23.8090 
  175.6250    -8.7210     2.5330    43.3610    13.5460    11.5210    12.6390    23.7640 
  175.7500    -8.8100     2.4990    47.5380    11.9850    10.4370    12.2060    23.8200 
  175.8750    -8.8390     2.4560    52.1420    10.2930     9.1260    10.2490    23.8650 
  176.0000    -8.8400     2.4130    57.1690     8.7790     7.8410     7.4020    23.8950 
  176.1250    -8.7960     2.3820    62.9050     7.6960     6.8250     6.3700    23.9310 
  176.2500    -8.7240     2.3650    68.2470     6.9850     6.1030     6.3310    23.9500 
  176.3750    -8.6390     2.3630    70.3210     6.5640     5.6440     6.0300    23.9440 
  176.5000    -8.5410     2.3700    68.4350     6.3410     5.3890     5.6090    23.9380 
  176.6250    -8.4660     2.3800    67.1900     6.2550     5.2930     5.4460    23.9440 
  176.7500    -8.4040     2.3850    70.3640     6.2620     5.2920     5.5580    23.9560 
  176.8750    -8.3690     2.3820    76.2590     6.3800     5.3900     5.7190    23.9640 
  177.0000    -8.3280     2.3760    80.0640     6.6410     5.6060     5.9950    23.9530 
  177.1250    -8.3290     2.3710    79.0260     7.0960     5.9870     6.6690    23.9150 
  177.2500    -8.3700     2.3670    74.4900     7.6950     6.5020     7.8880    23.8890 
  177.3750    -8.4480     2.3640    69.4940     8.3670     7.0950     8.7980    23.9180 
  177.5000    -8.5720     2.3640    66.1800     8.9850     7.6550     9.3530    23.9730 
  177.6250    -8.7270     2.3700    65.3020     9.3430     7.9860     9.6490    23.9970 
  177.7500    -8.9290     2.3800    66.4160     9.3640     8.0010    10.1660    23.9950 
  177.8750    -9.1490     2.3860    69.5400     9.0680     7.7130     9.8570    23.9810 
  178.0000    -9.3900     2.3860    72.9550     8.6070     7.2500     8.9180    23.9860 
  178.1250    -9.6050     2.3860    73.2550     8.2220     6.8080     7.8540    23.9900 
  178.2500    -9.8080     2.3960    71.2310     8.1100     6.5520     7.6160    23.9790 
  178.3750    -9.9560     2.4170    69.6240     8.4330     6.6060     7.9660    23.9320 
  178.5000   -10.0670     2.4420    69.8670     9.3510     7.0870     8.5300    23.8720 
  178.6250   -10.1210     2.4550    70.5060    11.1580     8.2180    10.3320    23.8500 
