~V
VERS. 2.00: Ver 2.00
~W
STRT.M 55.0000:
STOP.M 192.0000:
STEP.M 0.1250:
NULL. -999.2500:
UWI. F10682:
~C
DEPT.M :
DEN.GM/CC :
GR.API :
RML.OHMM :
RI. :
RXO.OHMM :
CALI.CM :
SP.MV :
~A
# ...
   66.2500     2.4030    59.3020     7.5870     7.9960     7.1290    24.2730   -20.7430 
   66.3750     2.4520    59.1680     8.1030     8.4430     9.1050    24.3320   -20.8280 
   66.5000     2.4810    60.4990     8.3470     8.7370    12.5030    24.3190   -20.8800 
   66.6250     2.4700    61.4090     8.1990     8.6440    12.7190    24.3600   -20.9290 
   66.7500     2.4350    61.1170     7.8880     8.2860     8.2810    24.5690   -20.9810 
   66.8750     2.3960    60.4500     7.6010     7.8400     6.5360    24.6340   -21.0370 
   67.0000     2.3700    60.3710     7.4400     7.4540     6.5200    24.4840   -21.1360 
   67.1250     2.3620    61.6340     7.4200     7.2190     7.0120    24.1990   -21.2100 
   67.2500     2.3630    63.4150     7.4400     7.0830     7.3300    24.1410   -21.2710 
   67.3750     2.3580    64.9270     7.4540     6.9980     7.3770    24.1580   -21.3090 
   67.5000     2.3390    65.0470     7.5230     6.9760     6.9090    24.1590   -21.3380 
   67.6250     2.2950    62.6180     7.8940     7.1730     6.6380    24.1150   -21.3560 
   67.7500     2.2330    59.8630     8.7390     7.7180     7.0480    24.0230   -21.3100 
   67.8750     2.1620    56.9590    10.1710     8.7180     8.3780    23.9930   -21.2280 
   68.0000     2.0960    53.9930    12.1980    10.2340    10.6210    24.1820   -21.1120 
   68.1250     2.0540    50.7410    14.6710    12.3090    13.8230    24.1850   -20.9750 
   68.2500     2.0480    48.1670    17.0200    14.5820    15.8870    24.1300   -20.8430 
   68.3750     2.0870    46.0970    18.6130    16.5080    16.6750    24.0960   -20.7260 
   68.5000     2.1680    45.4130    18.8910    17.4170    16.8440    24.0900   -20.6050 
   68.6250     2.2690    48.9910    17.4840    16.6900    17.1280    24.0930   -20.5050 
   68.7500     2.3530    54.6110    15.1410    14.8640    16.7410    24.1060   -20.4440 
   68.8750     2.3970    57.6020    12.5750    12.5790    13.6400    24.0750   -20.4100 
   69.0000     2.4010    57.3610    10.3490    10.4060     9.6170    23.9460   -20.3610 
   69.1250     2.3800    58.2600     8.8100     8.7310     8.0890    23.9630   -20.3160 
   69.2500     2.3550    60.9060     7.8460     7.5520     7.4720    24.1490   -20.2670 
   69.3750     2.3310    62.1080     7.3720     6.8430     7.0140    24.4600   -20.2220 
   69.5000     2.3090    61.2720     7.2940     6.5570     6.5360    24.4220   -20.1720 
   69.6250     2.2920    60.8030     7.5510     6.6750     6.5730    24.2570   -20.1020 
   69.7500     2.2860    62.3260     7.9590     7.0220     6.8560    24.0930   -20.0470 
   69.8750     2.2930    62.9810     8.3550     7.4550     7.3620    23.9760   -19.9510 
   70.0000     2.3120    60.4010     8.5570     7.7980     7.8830    23.8700   -19.8420 
   70.1250     2.3340    56.0240     8.3820     7.8410     7.9240    23.9660   -19.6990 
   70.2500     2.3500    53.6750     7.9490     7.6050     7.4020    24.2210   -19.5340 
   70.3750     2.3550    55.0780     7.4500     7.2170     6.4990    24.5730   -19.3880 
   70.5000     2.3490    58.4480     7.0660     6.8270     6.2730    24.8210   -19.2500 
   70.6250     2.3380    59.9490     6.9070     6.5540     6.5920    24.8490   -19.1050 
   70.7500     2.3320    58.3840     6.9190     6.4100     6.6350    24.7840   -18.9610 
   70.8750     2.3330    57.8190     7.0170     6.3680     6.5700    24.6400   -18.8290 
   71.0000     2.3390    60.3410     7.1050     6.3780     6.3240    24.5990   -18.7380 
   71.1250     2.3410    62.4800     7.1280     6.3900     6.0510    24.6720   -18.6970 
   71.2500     2.3350    62.8220     7.1340     6.3950     6.2360    24.6500   -18.6680 
   71.3750     2.3230    62.0790     7.1920     6.4130     6.6250    24.5930   -18.5930 
   71.5000     2.3070    60.1880     7.3290     6.4530     6.5790    24.6120   -18.4810 
   71.6250     2.2900    56.8680     7.5040     6.4970     6.4310    24.6170   -18.3910 
   71.7500     2.2740    55.4960     7.5980     6.4850     6.4940    24.5630   -18.2800 
   71.8750     2.2620    56.8950     7.5440     6.3720     6.9390    24.4680   -18.1960 
   72.0000     2.2560    58.1800     7.3960     6.1900     7.4680    24.3970   -18.0970 
   72.1250     2.2610    57.8130     7.3980     6.0950     7.5790    24.3930   -17.9790 
   72.2500     2.2790    57.4010     7.8190     6.2720     7.2080    24.4610   -17.8800 
   72.3750     2.3090    56.2820     8.8920     6.8830     7.3600    24.5190   -17.7990 
   72.5000     2.3440    53.4480    10.7690     8.0660     9.6380    24.4730   -17.7610 
   72.6250     2.3630    49.8630    13.5050     9.9850    15.1020    24.2490   -17.6990 
   72.7500     2.3510    47.1580    16.5000    12.3450    18.6490    24.1800   -17.6390 
   72.8750     2.3060    45.5630    19.0010    14.6510    17.8410    24.1670   -17.5840 
   73.0000     2.2430    45.9760    20.3400    16.2930    16.4740    24.1600   -17.5410 
   73.1250     2.1830    47.5460    20.3740    16.8960    15.9830    24.1190   -17.5030 
   73.2500     2.1440    48.0360    20.0630    17.0310    15.3270    24.0300   -17.4380 
   73.3750     2.1280    46.9400    20.0470    17.1950    15.2470    23.9990   -17.3630 
   73.5000     2.1290    45.9240    20.5850    17.6740    15.9580    24.0130   -17.2300 
   73.6250     2.1460    46.7340    21.7490    18.6520    17.0150    24.1130   -17.0900 
   73.7500     2.1780    47.0570    23.3130    20.0630    17.8060    24.1540   -16.9520 
   73.8750     2.2360    47.2670    24.9760    21.7630    17.9330    24.1710   -16.7790 
   74.0000     2.3210    48.3740    26.1230    23.2890    17.9860    24.2030   -16.6080 
   74.1250     2.4190    48.3580    25.5380    23.5010    19.6370    24.3340   -16.4380 
   74.2500     2.4920    45.4990    22.9210    21.8260    23.0540    24.3750   -16.2690 
   74.3750     2.5130    42.1080    18.7750    18.5080    23.4070    24.3770   -16.1180 
   74.5000     2.4820    44.0110    14.2850    14.5740    17.4060    24.3380   -15.9850 
   74.6250     2.4240    50.3060    10.7270    11.2150    10.0200    24.3780   -15.8750 
   74.7500     2.3770    53.9500     8.3300     8.7830     7.2430    24.4590   -15.7590 
   74.8750     2.3510    55.3040     6.9480     7.2300     6.3820    24.5300   -15.6710 
   75.0000     2.3410    58.9350     6.3270     6.3930     6.1350    24.5860   -15.5760 
   75.1250     2.3360    64.9370     6.2810     6.1630     6.0550    24.6960   -15.4980 
   75.2500     2.3340    67.0310     6.5250     6.2830     5.8450    24.7750   -15.4300 
   75.3750     2.3440    63.8340     6.9280     6.6080     5.7370    24.7890   -15.3470 
   75.5000     2.3710    59.3530     7.3520     6.9930     6.1590    24.7910   -15.2950 
   75.6250     2.4110    56.1480     7.6060     7.2590     6.7140    24.8030   -15.2050 
   75.7500     2.4450    53.8630     7.5960     7.3130     6.9790    24.8520   -15.1370 
   75.8750     2.4560    54.0940     7.3130     7.1430     6.8970    24.9590   -15.0770 
   76.0000     2.4420    58.5930     6.8490     6.8120     6.3880    24.9960   -15.0210 
   76.1250     2.4070    63.7470     6.3790     6.4340     5.9860    24.9150   -15.0090 
   76.2500     2.3690    65.2950     6.0880     6.1440     6.4770    24.7150   -15.0150 
   76.3750     2.3360    64.4070     6.1250     6.0440     7.0690    24.6410   -15.0390 
   76.5000     2.3110    62.7030     6.6410     6.2450     6.6580    24.6010   -15.1000 
   76.6250     2.2940    59.8410     7.9150     6.9800     6.8790    24.4550   -15.1990 
   76.7500     2.2810    57.4590     9.8900     8.3130     7.7430    24.2160   -15.2950 
   76.8750     2.2700    57.2490    12.3400    10.2270     9.8760    23.9910   -15.3730 
   77.0000     2.2580    57.8840    14.5980    12.3350    13.2340    23.5930   -15.4110 
   77.1250     2.2470    57.8370    15.1920    13.3900    15.4430    23.5320   -15.3640 
   77.2500     2.2480    57.1810    13.7500    12.6730    14.9120    23.6190   -15.2470 
   77.3750     2.2680    57.0940    11.2270    10.7370    12.0110    23.7680   -15.1240 
