~V
VERS. 2.00: Ver 2.00
~W
STRT.M 50.0000:
STOP.M 221.0000:
STEP.M 0.1250:
NULL. -999.2500:
UWI. F10611:
~C
DEPT.M :
SP.MV :
GR.API :
RML.OHMM :
RI. :
RXO.OHMM :
CALI.CM :
DEN.GM/CC :
~A
# ...
  162.5000   -25.1280    51.1840    27.2310    24.2100    24.4870    26.1390     2.1900 
  162.6250   -25.1630    49.9020    27.3730    24.2240    23.8610    26.0420     2.2210 
  162.7500   -25.2290    49.3050    27.9020    24.4420    23.9340    25.9850     2.2620 
  162.8750   -25.3310    49.4210    28.7150    24.8480    24.9080    25.9800     2.3090 
  163.0000   -25.4520    50.3190    29.5570    25.2690    26.0960    25.9900     2.3550 
  163.1250   -25.6010    50.6560    30.1060    25.4690    27.2580    25.7680     2.3960 
  163.2500   -25.7750    49.1450    30.2590    25.4130    27.1680    25.3810     2.4330 
  163.3750   -25.9720    48.5060    30.0890    25.1950    26.7290    25.0750     2.4640 
  163.5000   -26.1660    49.8530    29.8330    25.0190    25.8920    25.0540     2.4800 
  163.6250   -26.3550    51.3340    29.8530    25.1770    24.7850    25.2680     2.4670 
  163.7500   -26.5470    50.6000    30.3170    25.7670    25.1190    25.4270     2.4320 
  163.8750   -26.6800    47.3280    31.2050    26.7690    26.9520    25.5060     2.3900 
  164.0000   -26.8070    44.9480    32.3160    28.0310    29.2280    25.5000     2.3530 
  164.1250   -26.8580    47.6930    33.2880    29.2830    31.5610    25.4420     2.3280 
  164.2500   -26.8710    52.6440    33.8710    30.2660    31.9220    25.4260     2.3100 
  164.3750   -26.8230    54.8620    33.9880    30.8620    29.8200    25.4480     2.2930 
  164.5000   -26.6970    53.6060    33.6580    31.0420    28.7360    25.4630     2.2820 
  164.6250   -26.5640    53.1860    32.8170    30.6830    27.9660    25.4720     2.2800 
  164.7500   -26.3790    54.3970    31.4870    29.7660    27.8930    25.4120     2.2880 
  164.8750   -26.1990    55.8140    29.6200    28.2060    28.0850    25.2660     2.3020 
  165.0000   -26.0190    57.0160    27.2860    26.0460    27.7010    25.1550     2.3200 
  165.1250   -25.8420    56.9450    24.7670    23.5710    24.4880    25.2250     2.3330 
  165.2500   -25.6990    54.7320    22.6010    21.3580    20.6680    25.3700     2.3390 
  165.3750   -25.5970    52.7440    21.2680    19.8550    18.5460    25.4420     2.3380 
  165.5000   -25.5680    52.7050    21.1560    19.3740    18.1600    25.4600     2.3290 
  165.6250   -25.5970    53.0530    22.7870    20.3600    19.0580    25.4830     2.3110 
  165.7500   -25.6740    52.7980    25.9840    22.7570    21.3550    25.5110     2.2870 
  165.8750   -25.8160    52.6160    30.4890    26.5100    26.4850    25.5530     2.2600 
  166.0000   -25.9950    53.3850    35.6030    31.1800    32.0730    25.6050     2.2380 
  166.1250   -26.2420    53.8460    39.9810    35.6320    32.6310    25.6290     2.2300 
  166.2500   -26.4890    53.1190    42.6690    38.6800    31.6780    25.6170     2.2360 
  166.3750   -26.7230    51.0930    43.5300    39.9030    32.2610    25.5960     2.2490 
  166.5000   -26.9410    48.8630    43.1690    39.6850    33.8950    25.6080     2.2630 
  166.6250   -27.0950    49.4970    42.4820    38.8320    34.3830    25.6180     2.2710 
  166.7500   -27.2490    51.2840    42.0970    38.1120    34.5100    25.6220     2.2770 
  166.8750   -27.3440    51.8450    42.0590    37.7080    34.3760    25.6040     2.2840 
  167.0000   -27.3990    50.8980    42.1420    37.5170    33.5820    25.6010     2.2910 
  167.1250   -27.3850    50.4810    41.8700    37.2230    33.8710    25.5840     2.2880 
  167.2500   -27.3220    50.6530    40.8940    36.5250    34.7360    25.5650     2.2680 
  167.3750   -27.2410    50.6210    39.1620    35.3050    33.6980    25.5480     2.2290 
  167.5000   -27.0870    51.9790    37.0420    33.7480    31.2560    25.5510     2.1830 
  167.6250   -26.9290    54.4350    35.3420    32.3750    28.1090    25.5350     2.1740 
  167.7500   -26.7210    53.2550    34.6370    31.6430    26.8960    25.4880     2.2280 
  167.8750   -26.5000    48.4720    35.1450    31.8050    28.3440    25.4100     2.3340 
  168.0000   -26.3000    44.6230    36.7680    32.9360    31.5110    25.3030     2.4310 
  168.1250   -26.0920    44.6880    39.1150    34.9180    34.8100    25.2220     2.4390 
  168.2500   -25.9220    44.7450    41.3540    37.0320    35.3950    25.2140     2.3770 
  168.3750   -25.7960    44.4580    42.8690    38.6320    36.1280    25.3200     2.2960 
  168.5000   -25.7260    45.9440    43.2850    39.2360    36.4830    25.4260     2.2350 
  168.6250   -25.7220    50.5210    42.4370    38.5750    35.5820    25.4690     2.2120 
  168.7500   -25.7750    55.5340    40.8800    37.1880    32.9990    25.4840     2.2090 
  168.8750   -25.8650    57.7100    39.0610    35.5140    30.5490    25.4940     2.2110 
  169.0000   -25.9890    56.6050    37.3500    33.8800    28.5020    25.5000     2.2110 
  169.1250   -26.1630    54.6350    36.0970    32.5270    27.3140    25.4980     2.2070 
  169.2500   -26.3640    53.2700    35.3940    31.5380    26.7510    25.4950     2.2020 
  169.3750   -26.5610    52.6410    35.2200    30.9550    26.8250    25.4820     2.1990 
  169.5000   -26.7700    53.3270    35.4480    30.7540    27.2100    25.4580     2.2010 
  169.6250   -26.9640    55.6190    35.9490    30.9140    26.9750    25.4500     2.2060 
  169.7500   -27.1480    56.3630    36.5640    31.2760    26.8570    25.4580     2.2100 
  169.8750   -27.3150    53.3000    37.2220    31.7190    27.2310    25.4530     2.2130 
  170.0000   -27.4290    49.7180    37.8450    32.1350    28.3180    25.4500     2.2190 
  170.1250   -27.5390    50.9950    38.3030    32.4360    29.0560    25.4250     2.2280 
  170.2500   -27.5820    55.1210    38.5510    32.6240    29.3700    25.4170     2.2390 
  170.3750   -27.6200    57.0400    38.6500    32.7530    29.6610    25.4160     2.2450 
  170.5000   -27.6430    54.3890    38.8180    32.9250    29.8770    25.4190     2.2450 
  170.6250   -27.6260    51.6120    39.4220    33.2790    30.2040    25.4490     2.2440 
  170.7500   -27.6270    51.7680    40.5360    33.8630    30.7090    25.5180     2.2450 
  170.8750   -27.6240    53.2460    42.0190    34.6790    31.4780    25.6070     2.2450 
  171.0000   -27.6550    54.0980    43.5510    35.6580    32.7870    25.6730     2.2370 
  171.1250   -27.7050    53.5130    44.7120    36.6440    34.0120    25.7310     2.2180 
  171.2500   -27.7920    52.0090    45.3750    37.4500    34.5400    25.8700     2.1970 
  171.3750   -27.9070    50.1570    45.5520    37.9290    34.7030    26.1180     2.1870 
  171.5000   -28.0090    49.5290    45.2810    37.9540    34.9830    26.3430     2.1930 
  171.6250   -28.1300    50.3040    44.4380    37.3530    36.1820    26.2400     2.2170 
  171.7500   -28.2410    49.8100    43.0240    36.2080    36.5810    26.0040     2.2410 
  171.8750   -28.3660    50.5390    41.0520    34.5920    33.9470    25.8580     2.2550 
  172.0000   -28.4910    56.4820    38.6450    32.6530    31.0190    25.8880     2.2610 
  172.1250   -28.5670    65.4810    36.0140    30.5820    29.7970    26.0750     2.2700 
  172.2500   -28.6280    70.0450    33.5390    28.6470    28.6380    26.2050     2.2840 
  172.3750   -28.6300    68.0280    31.6090    27.1330    28.1430    26.1530     2.3000 
  172.5000   -28.6250    63.0760    30.6680    26.3610    27.0040    26.0070     2.3130 
  172.6250   -28.5960    60.5850    31.5630    26.9210    26.2190    25.9730     2.3150 
  172.7500   -28.5090    60.6790    34.6340    29.1150    26.6140    26.0450     2.3070 
  172.8750   -28.3810    59.6100    40.0740    33.3380    30.8840    25.9030     2.3060 
  173.0000   -28.1620    56.4570    47.0330    39.3390    40.6900    25.5660     2.3360 
  173.1250   -27.9130    54.7460    51.6120    44.3600    53.2410    25.3140     2.4250 
  173.2500   -27.5910    54.2700    49.0130    43.7060    60.7310    25.2210     2.5460 
  173.3750   -27.2460    52.6570    38.4500    35.7680    58.5180    25.0220     2.6380 
  173.5000   -26.8740    51.1250    25.0110    24.5570    40.6110    24.6060     2.6460 
  173.6250   -26.4480    54.0630    15.4980    15.6680    18.2870    23.9630     2.5680 
