~V
VERS. 2.00: Ver 2.00
~W
STRT.M 50.0000:
STOP.M 221.0000:
STEP.M 0.1250:
NULL. -999.2500:
UWI. F10611:
~C
DEPT.M :
SP.MV :
GR.API :
RML.OHMM :
RI. :
RXO.OHMM :
CALI.CM :
DEN.GM/CC :
~A
# ...
  196.2500   -25.9730    34.2760     4.6020     3.7410     4.8330    25.0170     2.3240 
  196.3750   -25.9730    31.9150     4.5180     3.6680     4.7100    25.0040     2.2990 
  196.5000   -25.9400    29.7690     4.4020     3.5670     4.4900    24.9030     2.2800 
  196.6250   -25.8680    29.2710     4.2930     3.4720     4.1890    24.6890     2.2730 
  196.7500   -25.7690    29.3100     4.2230     3.4110     3.9670    24.4240     2.2730 
  196.8750   -25.6330    28.1060     4.1990     3.3910     3.8250    24.2420     2.2810 
  197.0000   -25.4880    26.2900     4.2120     3.4020     3.7790    24.1560     2.2940 
  197.1250   -25.2940    25.7460     4.2380     3.4240     3.7370    24.0990     2.3110 
  197.2500   -25.0910    25.3830     4.2540     3.4380     3.7510    24.0310     2.3260 
  197.3750   -24.8700    24.7160     4.2620     3.4450     3.8440    23.9890     2.3350 
  197.5000   -24.6640    24.5380     4.2650     3.4480     3.9610    24.0200     2.3360 
  197.6250   -24.4860    25.3030     4.2650     3.4480     3.8710    24.1750     2.3300 
  197.7500   -24.3260    25.4660     4.2580     3.4420     3.6840    24.2420     2.3210 
  197.8750   -24.2160    24.7430     4.2360     3.4230     3.4420    24.1220     2.3140 
  198.0000   -24.0970    24.3990     4.2000     3.3910     3.3370    24.3240     2.3110 
  198.1250   -24.0740    24.1510     4.1600     3.3560     3.3270    24.7620     2.3190 
  198.2500   -24.0840    23.3740     4.1290     3.3300     3.3210    25.1260     2.3350 
  198.3750   -24.1360    22.8370     4.1110     3.3140     3.2790    25.4110     2.3550 
  198.5000   -24.2370    23.3970     4.0990     3.3040     3.2670    25.5810     2.3720 
  198.6250   -24.3680    25.1330     4.0950     3.3000     3.3220    25.4680     2.3780 
  198.7500   -24.4930    26.2600     4.0970     3.3020     3.3960    25.2860     2.3680 
  198.8750   -24.6000    26.0310     4.1030     3.3070     3.4850    25.2260     2.3410 
  199.0000   -24.7190    24.8200     4.1010     3.3050     3.4430    25.3500     2.3020 
  199.1250   -24.8280    24.3730     4.0860     3.2920     3.4310    25.5950     2.2600 
  199.2500   -24.9510    25.2210     4.0760     3.2830     3.4390    25.9610     2.2340 
  199.3750   -25.0700    26.5140     4.0920     3.2970     3.4210    25.8700     2.2290 
  199.5000   -25.1160    27.3490     4.1420     3.3410     3.4040    25.1620     2.2400 
  199.6250   -25.0820    27.1610     4.2090     3.3990     3.4100    24.1170     2.2480 
  199.7500   -25.0240    26.4230     4.2500     3.4350     3.4340    23.5710     2.2470 
  199.8750   -24.9300    26.2180     4.2430     3.4290     3.4240    23.5070     2.2410 
  200.0000   -24.8050    26.9400     4.2020     3.3930     3.4110    23.4190     2.2390 
  200.1250   -24.6310    28.2140     4.1660     3.3620     3.4130    23.3960     2.2480 
  200.2500   -24.4260    29.2950     4.1570     3.3540     3.4510    23.7410     2.2590 
  200.3750   -24.2170    30.4720     4.1710     3.3660     3.5200    24.5520     2.2690 
  200.5000   -24.0360    31.8490     4.1870     3.3800     3.6340    25.5280     2.2890 
  200.6250   -23.8920    32.6610     4.1790     3.3730     3.7300    26.5550     2.3250 
  200.7500   -23.7670    32.4500     4.1430     3.3410     3.6550    27.2460     2.3520 
  200.8750   -23.6830    30.8570     4.0860     3.2920     3.5380    27.8110     2.3330 
  201.0000   -23.6330    29.1860     4.0290     3.2420     3.5380    28.4360     2.2690 
  201.1250   -23.6050    29.1320     4.0020     3.2190     3.5780    29.3250     2.1880 
  201.2500   -23.5960    29.5180     4.0190     3.2340     3.6040    30.3790     2.1300 
  201.3750   -23.6050    28.2570     4.0800     3.2870     3.5450    31.1080     2.1120 
  201.5000   -23.6390    25.0820     4.1650     3.3610     3.4200    31.0710     2.1330 
  201.6250   -23.7200    23.0270     4.2260     3.4140     3.3690    30.2120     2.1690 
  201.7500   -23.8650    23.8530     4.2280     3.4150     3.2840    29.5200     2.1930 
  201.8750   -24.0370    25.7780     4.1670     3.3630     3.0690    29.2360     2.2070 
  202.0000   -24.2250    26.4510     4.0710     3.2790     2.9040    28.8230     2.2210 
  202.1250   -24.4020    25.5590     3.9740     3.1950     2.9310    28.1140     2.2230 
  202.2500   -24.5420    24.5400     3.8920     3.1230     3.0230    27.1710     2.1970 
  202.3750   -24.6410    23.4430     3.8250     3.0650     3.0470    26.4390     2.1430 
  202.5000   -24.7070    22.5750     3.7870     3.0320     3.1100    26.6230     2.0870 
  202.6250   -24.7560    24.1000     3.8500     3.0870     3.2920    27.6810     2.0680 
  202.7500   -24.7740    28.2670     4.0860     3.2920     3.5300    28.1880     2.1060 
  202.8750   -24.7700    33.7230     4.5510     3.6960     4.0120    27.7110     2.1970 
  203.0000   -24.7560    38.7740     5.2390     4.2950     5.0530    26.4980     2.3020 
  203.1250   -24.7440    43.1560     6.0460     4.9970     6.8310    25.7040     2.3660 
  203.2500   -24.7500    48.7600     6.7460     5.6050     8.1720    25.4270     2.3880 
  203.3750   -24.7700    54.5960     7.1700     5.9740     9.1190    25.4120     2.3870 
  203.5000   -24.7800    57.1790     7.2640     6.0560     9.5790    25.4430     2.3840 
  203.6250   -24.7590    54.0870     7.0990     5.9130     8.9390    25.4650     2.3890 
  203.7500   -24.7130    49.3860     6.8910     5.7320     7.5690    25.4710     2.4010 
  203.8750   -24.6670    45.8220     6.7440     5.6030     7.0290    25.4690     2.4210 
  204.0000   -24.6220    43.4860     6.6670     5.5360     7.1380    25.4710     2.4510 
  204.1250   -24.5940    42.6430     6.5860     5.4660     7.5400    25.4890     2.4720 
  204.2500   -24.5850    43.4660     6.4120     5.3140     7.5080    25.5190     2.4430 
  204.3750   -24.5940    44.2650     6.1120     5.0540     7.2640    25.5690     2.3590 
  204.5000   -24.6220    42.9240     5.7220     4.7150     6.5780    25.7830     2.2440 
  204.6250   -24.6610    39.1240     5.3160     4.3610     5.7020    26.6220     2.1410 
  204.7500   -24.7040    35.7050     4.9620     4.0540     4.6040    27.8110     2.0810 
  204.8750   -24.7330    34.1270     4.6840     3.8130     3.7590    28.3070     2.0790 
  205.0000   -24.7310    33.8020     4.4810     3.6360     3.3510    27.7210     2.1140 
  205.1250   -24.6800    33.3470     4.3660     3.5350     3.3650    27.1810     2.1430 
  205.2500   -24.5970    32.2410     4.3200     3.4950     3.5240    27.5930     2.1490 
  205.3750   -24.5060    31.2770     4.3170     3.4930     3.5790    27.8470     2.1490 
  205.5000   -24.4200    30.8280     4.3160     3.4930     3.4600    27.7080     2.1600 
  205.6250   -24.3350    30.4680     4.2850     3.4650     3.4040    27.6700     2.1840 
  205.7500   -24.2370    29.2930     4.2390     3.4250     3.4570    28.4640     2.2100 
  205.8750   -24.1210    27.5900     4.2070     3.3970     3.3790    29.1680     2.2360 
  206.0000   -24.0110    26.4330     4.2050     3.3960     3.1640    29.3300     2.2630 
  206.1250   -23.9290    26.7300     4.2320     3.4190     3.1320    28.8290     2.2710 
  206.2500   -23.8520    27.3970     4.2440     3.4300     3.2370    27.9150     2.2460 
  206.3750   -23.7760    27.2270     4.2140     3.4040     3.3610    27.3550     2.1860 
  206.5000   -23.7000    27.0080     4.1570     3.3540     3.5120    27.6810     2.1040 
  206.6250   -23.6620    28.3420     4.1290     3.3290     3.4510    28.4340     2.0410 
  206.7500   -23.6750    31.0420     4.1770     3.3710     3.4140    28.6190     2.0300 
  206.8750   -23.7620    34.5610     4.3310     3.5060     3.4060    28.0220     2.0820 
  207.0000   -23.9070    38.7680     4.6200     3.7560     3.5350    26.8840     2.1780 
  207.1250   -24.0920    43.5010     5.0790     4.1560     4.0580    26.0050     2.2680 
  207.2500   -24.2830    48.2570     5.6330     4.6370     5.0720    25.6660     2.3220 
  207.3750   -24.5010    53.7160     6.1610     5.0970     6.2600    25.5040     2.3370 
