~V
VERS. 2.00: Ver 2.00
~W
STRT.M 51.0000:
STOP.M 206.0000:
STEP.M 0.1250:
NULL. -999.2500:
UWI. F10683:
~C
DEPT.M :
GR.API :
RML.OHMM :
RI. :
RXO.OHMM :
CALI.CM :
SP.MV :
DEN.GM/CC :
~A
# ...
  107.2500    50.9620    48.3310    45.1440    39.1180    24.7910    -8.4290     2.1240 
  107.3750    49.3200    51.0030    47.2900    40.0330    24.7350    -8.6290     2.1610 
  107.5000    50.1890    54.3890    50.2350    46.8320    24.7050    -8.8130     2.2050 
  107.6250    49.7700    57.3360    53.1590    65.3370    24.7000    -8.9840     2.2560 
  107.7500    47.3930    58.7290    55.0720    73.9330    24.7110    -9.1220     2.3130 
  107.8750    45.6590    58.2750    55.5500    61.9070    24.7140    -9.2090     2.3540 
  108.0000    46.6230    56.4240    54.7210    51.1660    24.7040    -9.2350     2.3360 
  108.1250    48.5580    53.8770    52.9800    49.0040    24.7710    -9.1670     2.2500 
  108.2500    49.9080    51.2050    50.9030    50.4080    24.8510    -9.0270     2.1660 
  108.3750    51.2020    48.3640    48.5610    51.7050    24.8160    -8.8360     2.1210 
  108.5000    53.3100    45.1990    45.8560    47.7840    24.5920    -8.6180     2.1110 
  108.6250    54.5620    41.8930    42.8770    39.8310    24.2140    -8.4400     2.1210 
  108.7500    56.9060    38.9180    40.0540    34.0850    23.9230    -8.3310     2.1370 
  108.8750    61.2620    36.5080    37.6510    31.0010    23.8230    -8.2640     2.1560 
  109.0000    62.5840    34.6820    35.7560    27.4620    23.8590    -8.2090     2.1730 
  109.1250    57.4380    33.3840    34.3900    28.2200    23.9900    -8.1760     2.1890 
  109.2500    52.6600    32.3970    33.3740    29.2760    24.1280    -8.1790     2.2040 
  109.3750    51.3810    31.7200    32.6960    29.0320    24.2030    -8.2550     2.2140 
  109.5000    51.4330    31.4800    32.4500    26.6480    24.1960    -8.3980     2.2170 
  109.6250    50.0950    31.8880    32.8360    24.6740    24.1360    -8.5190     2.2190 
  109.7500    50.6900    32.7660    33.7140    26.0300    24.1300    -8.5940     2.2270 
  109.8750    52.7230    33.8240    34.8450    28.6370    24.2570    -8.6680     2.2400 
  110.0000    53.9510    34.6580    35.8510    31.3630    24.4910    -8.7830     2.2540 
  110.1250    53.0650    34.8230    36.2530    33.3590    24.7300    -8.9170     2.2580 
  110.2500    52.0560    34.4740    36.0880    34.4140    24.8930    -9.0180     2.2450 
  110.3750    54.1850    34.0000    35.6680    33.6420    24.9590    -9.0500     2.2170 
  110.5000    59.1830    33.8210    35.3970    31.9980    24.9750    -9.0330     2.1840 
  110.6250    59.8770    34.2110    35.6070    31.3640    24.9820    -9.0220     2.1670 
  110.7500    56.0290    34.9140    36.1640    33.4530    24.9820    -9.0240     2.1630 
  110.8750    52.0240    35.5430    36.7750    35.7630    24.9820    -8.9940     2.1610 
  111.0000    52.5380    35.6830    37.0590    37.3480    24.9810    -8.9050     2.1500 
  111.1250    57.4800    34.9920    36.6110    37.2830    24.9690    -8.7460     2.1270 
  111.2500    60.7290    33.8220    35.6180    35.5740    24.9430    -8.5510     2.1030 
  111.3750    60.2060    32.6740    34.4860    33.5680    24.9190    -8.3140     2.0880 
  111.5000    56.7610    32.0620    33.7160    31.7520    24.9190    -8.0380     2.0930 
  111.6250    53.6480    32.5110    33.8690    30.2430    24.9400    -7.7350     2.1380 
  111.7500    53.2980    33.9260    34.9680    29.7520    24.9300    -7.3970     2.2330 
  111.8750    54.5260    35.9900    36.8000    32.3140    24.8480    -7.0280     2.3560 
  112.0000    55.6440    37.9660    38.7310    39.3820    24.7410    -6.6410     2.4550 
  112.1250    53.7090    38.5630    39.5380    41.6210    24.6900    -6.3090     2.4710 
  112.2500    50.7990    37.4580    38.7330    43.9520    24.6800    -6.0550     2.4370 
  112.3750    49.7240    35.3150    36.7780    42.8250    24.6770    -5.8690     2.4050 
  112.5000    48.9900    33.4990    34.8770    38.2850    24.6420    -5.7190     2.4030 
  112.6250    46.2860    33.7610    34.7140    30.4440    24.5060    -5.5970     2.4440 
  112.7500    45.1470    36.6900    37.0700    27.4520    24.3010    -5.5330     2.5110 
  112.8750    46.9880    42.5000    42.3280    31.5510    24.1410    -5.5560     2.5900 
  113.0000    48.7080    50.4890    49.9400    46.8120    24.1280    -5.6520     2.6570 
  113.1250    46.8400    57.3680    57.1050    81.8370    24.3050    -5.7920     2.6780 
  113.2500    44.1730    58.8730    59.9040   101.2780    24.5240    -5.9540     2.6370 
  113.3750    42.7040    54.3850    57.1230    85.7530    24.6660    -6.1570     2.5340 
  113.5000    42.7020    47.4350    51.1310    58.7090    24.7260    -6.4090     2.3980 
  113.6250    44.5650    42.3530    45.8600    44.8890    24.7940    -6.7250     2.2880 
  113.7500    46.0770    40.4070    43.3110    40.4130    24.9380    -7.0860     2.2300 
  113.8750    47.3190    41.4870    43.7790    41.7710    25.1200    -7.4480     2.2170 
  114.0000    49.8160    44.6570    46.5230    47.3830    25.2090    -7.8060     2.2250 
  114.1250    52.2130    47.1660    49.0010    56.7410    25.1550    -8.1270     2.2370 
  114.2500    52.9950    45.5790    47.7730    61.6180    25.0280    -8.4010     2.2510 
  114.3750    53.4350    39.2200    41.7710    55.6490    24.9100    -8.6300     2.2710 
  114.5000    55.9090    30.8560    33.2690    40.8730    24.8350    -8.8260     2.2970 
  114.6250    59.3900    24.0930    25.8720    28.8310    24.7700    -8.9680     2.3160 
  114.7500    62.8220    19.8410    20.8950    17.7010    24.6990    -9.0550     2.3130 
  114.8750    66.1020    17.8490    18.2120    13.2780    24.6660    -9.1000     2.2860 
  115.0000    65.6510    17.6120    17.3460    14.9670    24.6740    -9.1000     2.2520 
  115.1250    59.7400    18.7520    18.0190    17.4600    24.6840    -9.0770     2.2290 
  115.2500    54.1900    20.4910    19.5420    18.9400    24.6890    -9.0610     2.2160 
  115.3750    53.7930    22.3160    21.4280    19.7530    24.6890    -9.0580     2.2050 
  115.5000    58.4440    23.8790    23.2340    20.9490    24.6890    -9.0450     2.1950 
  115.6250    61.4000    25.0830    24.6840    22.2700    24.6900    -8.9770     2.1870 
  115.7500    59.3860    26.0950    25.8490    23.7260    24.6960    -8.8780     2.1820 
  115.8750    55.1120    26.9000    26.7220    25.0250    24.7280    -8.7970     2.1760 
  116.0000    53.0740    27.3450    27.1840    25.5620    24.7980    -8.7520     2.1700 
  116.1250    57.1720    27.1640    26.9900    24.4330    24.8720    -8.7280     2.1660 
  116.2500    64.1700    26.4000    26.1900    23.6350    24.8980    -8.6850     2.1660 
  116.3750    67.2460    25.1650    24.8960    23.5350    24.8900    -8.6150     2.1680 
  116.5000    64.1620    23.7020    23.3570    23.4680    24.8590    -8.5510     2.1710 
  116.6250    57.9980    22.5050    22.0230    22.6590    24.8440    -8.5510     2.1760 
  116.7500    53.7350    22.1010    21.3460    21.7290    24.8380    -8.5780     2.1850 
  116.8750    52.3350    22.9170    21.6950    21.4230    24.8380    -8.5880     2.2060 
  117.0000    53.1130    25.1420    23.2950    21.6010    24.8300    -8.5690     2.2510 
  117.1250    55.7110    28.4070    26.0490    23.2500    24.7900    -8.5330     2.3250 
  117.2500    56.6870    30.6350    28.3470    28.9840    24.6980    -8.5110     2.3980 
  117.3750    56.4500    29.4920    28.1980    38.4280    24.5770    -8.5080     2.4440 
  117.5000    56.1030    24.7880    25.2440    44.5190    24.4900    -8.5020     2.4670 
  117.6250    54.9510    18.8030    20.6840    27.8670    24.4500    -8.4640     2.4870 
  117.7500    54.7300    13.7720    16.0960    14.4560    24.4520    -8.3800     2.4920 
  117.8750    58.6350    10.1860    12.1160     7.5400    24.5230    -8.2500     2.4640 
  118.0000    66.2250     7.9070     9.0360     5.3680    24.6450    -8.0810     2.4240 
  118.1250    72.1250     6.7750     7.0900     5.3150    24.7300    -7.9280     2.4040 
  118.2500    74.4800     6.3490     6.0390     5.7530    24.7600    -7.8160     2.3990 
  118.3750    74.7870     6.4100     5.7310     6.2640    24.7640    -7.7160     2.3930 
