~V
VERS. 2.00: Ver 2.00
~W
STRT.M 48.0000:
STOP.M 229.0000:
STEP.M 0.1250:
NULL. -999.2500:
UWI. F10623:
~C
DEPT.M :
GR.API :
RML.OHMM :
RI. :
RXO.OHMM :
CALI.CM :
DEN.GM/CC :
SP.MV :
~A
# ...
  216.7500    41.3980     3.4180     3.2420     3.3080    24.7140     2.3250    -6.7760 
  216.8750    41.5780     3.4170     3.2170     3.3060    24.2660     2.3330    -6.7840 
  217.0000    40.2330     3.4530     3.2310     3.3110    24.0690     2.3450    -6.8050 
  217.1250    38.7910     3.4950     3.2630     3.3160    24.1090     2.3630    -6.8120 
  217.2500    38.5520     3.5260     3.2940     3.3340    24.2010     2.3800    -6.8030 
  217.3750    38.9380     3.5490     3.3250     3.3710    24.3170     2.3900    -6.7800 
  217.5000    38.9230     3.5760     3.3610     3.4350    24.4450     2.3870    -6.7600 
  217.6250    39.1680     3.6260     3.4120     3.5350    24.6470     2.3700    -6.7670 
  217.7500    39.7590     3.7040     3.4820     3.6840    24.8890     2.3460    -6.7980 
  217.8750    39.9890     3.8050     3.5680     3.8880    25.0650     2.3220    -6.8590 
  218.0000    39.5190     3.9150     3.6590     4.0970    25.0820     2.3070    -6.9380 
  218.1250    39.3470     4.0160     3.7420     4.2050    25.1340     2.3080    -7.0430 
  218.2500    40.3000     4.0950     3.8100     4.2100    25.2950     2.3220    -7.1660 
  218.3750    41.6510     4.1460     3.8580     4.1490    25.4500     2.3410    -7.3170 
  218.5000    41.9010     4.1690     3.8860     4.1300    25.4410     2.3580    -7.4940 
  218.6250    40.4380     4.1640     3.8960     4.2420    25.3290     2.3660    -7.7070 
  218.7500    39.0140     4.1490     3.9020     4.2990    25.1790     2.3700    -7.9560 
  218.8750    39.0140     4.1400     3.9120     4.2040    25.1470     2.3760    -8.2140 
  219.0000    39.0140     4.1520     3.9350     4.0580    25.1470     2.3870    -8.4690 
  219.1250    39.0140     4.1940     3.9750     4.1530    25.0670     2.3990    -8.7150 
  219.2500    39.0140     4.2450     4.0170     4.3980    24.8850     2.4060    -8.9280 
  219.3750    39.0140     4.2750     4.0400     4.5940    24.6670     2.4050    -9.0870 
  219.5000    39.0140     4.2560     4.0250     4.5770    24.5680     2.3960    -9.1780 
  219.6250    39.0140     4.1650     3.9510     4.3870    24.5780     2.3810    -9.1810 
  219.7500    39.0140     4.0350     3.8400     4.1600    24.6540     2.3670    -9.1510 
  219.8750    39.0140     3.9030     3.7170     3.9560    24.7560     2.3570    -8.9620 
  220.0000    39.0140     3.8040     3.6100     3.8430    24.9230     2.3510    -8.8200 
  220.1250    39.0140     3.7560     3.5400     3.8090    24.9310     2.3490    -8.6930 
  220.2500    39.0140     3.7390     3.5020     3.8290    24.8070     2.3490    -8.5950 
  220.3750    39.0140     3.7320     3.4830     3.8710    24.6650     2.3500    -8.5200 
  220.5000    39.0140     3.7230     3.4700     3.9200    24.5510     2.3520    -8.4650 
  220.6250    39.0140     3.7120     3.4610     3.9270    24.4120     2.3540    -8.4370 
  220.7500    39.0140     3.7100     3.4600     3.8800    24.3220     2.3570    -8.4310 
  220.8750    39.0140     3.7330     3.4790     3.8120    24.3880     2.3610    -8.4390 
  221.0000    39.0140     3.7880     3.5280     3.7840    24.6190     2.3670    -8.4620 
  221.1250    39.0140     3.8760     3.6110     3.8190    24.8630     2.3720    -8.4740 
  221.2500    39.0140     3.9770     3.7100     3.8930    24.9970     2.3710    -8.4770 
  221.3750    39.0140     4.0700     3.8050     3.9650    24.9760     2.3580    -8.4690 
  221.5000    39.0140     4.1330     3.8760     3.9840    24.8680     2.3300    -8.4310 
  221.6250    39.0140     4.1540     3.9010     3.9480    24.8670     2.2860    -8.3530 
  221.7500    39.0140     4.1380     3.8820     3.8670    24.9030     2.2370    -8.2290 
  221.8750    39.0140     4.1030     3.8300     3.7680    24.8870     2.1900    -8.0700 
  222.0000    39.0140     4.0710     3.7600     3.6490    24.8830     2.1540    -7.8550 
  222.1250    39.0140     4.0340     3.6980     3.5540    24.9510     2.1380    -7.6110 
  222.2500    39.0140     4.0000     3.6550     3.4930    24.8650     2.1410    -7.3410 
  222.3750    39.0140     3.9620     3.6320     3.4810    24.6630     2.1610    -7.0680 
  222.5000    39.0140     3.9350     3.6240     3.5400    24.4870     2.1940    -6.8300 
  222.6250    39.0140     3.9300     3.6230     3.6560    24.4020     2.2320    -6.6230 
  222.7500    39.0140     3.9300     3.6230     3.7930    24.3350     2.2680    -6.4750 
  222.8750    39.0140     3.9310     3.6240     3.8950    24.2860     2.3010    -6.3780 
  223.0000    39.0140     3.9310     3.6250     3.9030    24.2910     2.3310    -6.3340 
  223.1250    39.0140     3.9290     3.6250     3.8400    24.3450     2.3590    -6.3230 
  223.2500    39.0140     3.9220     3.6240     3.8300    24.4530     2.3860    -6.3310 
  223.3750    39.0140     3.9080     3.6230     3.8550    24.5680     2.4080    -6.3530 
  223.5000    39.0140     3.8900     3.6230     3.8730    24.6610     2.4220    -6.3790 
  223.6250    39.0140     3.8730     3.6250     3.8650    24.7020     2.4200    -6.4310 
  223.7500    39.0140     3.8700     3.6290     3.8330    24.6760     2.4040    -6.4870 
  223.8750    39.0140     3.8700     3.6350     3.8090    24.6300     2.3770    -6.5390 
  224.0000    39.0140     3.8700     3.6400     3.8200    24.6220     2.3440    -6.6130 
  224.1250    39.0140     3.8700     3.6430     3.8520    24.6770     2.3120    -6.7080 
  224.2500    39.0140     3.8700     3.6440     3.8600    24.6600     2.2910    -6.8310 
  224.3750    39.0140     3.8700     3.6440     3.8260    24.5780     2.2860    -6.9870 
  224.5000    39.0140     3.8700     3.6440     3.7350    24.5110     2.2990    -7.1720 
  224.6250    39.0140     3.8700     3.6450     3.6430    24.4960     2.3240    -7.3450 
  224.7500    39.0140     3.8700     3.6450     3.5970    24.4490     2.3450    -7.5110 
  224.8750    39.0140     3.8700     3.6450     3.5960    24.3580     2.3470    -7.6720 
  225.0000    39.0140     3.8700     3.6450     3.6210    24.3180     2.3280    -7.8020 
  225.1250    39.0140     3.8700     3.6450     3.7270    24.4540     2.2930    -7.9030 
  225.2500    39.0140     3.8700     3.6450     3.9530    24.7720     2.2630    -7.9780 
  225.3750    39.0140     3.8700     3.6450     4.2940    25.2170     2.2520    -8.0180 
  225.5000    39.0140     3.8700     3.6450     4.7220    25.5990     2.2640    -8.0180 
  225.6250    39.0140     3.8700     3.6450     5.0650    25.6140     2.2920    -8.0180 
  225.7500    39.0140     3.8700     3.6450     5.1250    25.0260     2.3160  -999.2500 
  225.8750    39.0140     3.8700     3.6450     5.0010    23.7680     2.3220  -999.2500 
  226.0000    39.0140     3.8700     3.6450     4.6900    21.8530     2.3060  -999.2500 
  226.1250    39.0140     3.8700     3.6450     4.1700    19.2670     2.2750  -999.2500 
  226.2500    39.0140     3.8700     3.6450     3.6090    16.5760     2.2450  -999.2500 
  226.3750    39.0140     3.8700     3.6450     3.3690    15.0910     2.2230  -999.2500 
  226.5000    39.0140     3.8700     3.6450     3.3260    14.6790     2.2100  -999.2500 
  226.6250    39.0140     3.8700     3.6450     3.3260    14.6740     2.2050  -999.2500 
  226.7500    39.0140     3.8700     3.6450     3.3260    14.6740     2.2020  -999.2500 
  226.8750    39.0140     3.8700     3.6450     3.3260    14.6740     2.2010  -999.2500 
  227.0000    39.0140     3.8700     3.6450     3.3260    14.6740     2.2010  -999.2500 
  227.1250    39.0140     3.8700     3.6450     3.3260    14.6740     2.2030  -999.2500 
  227.2500    39.0140     3.8700     3.6450     3.3260    14.6720     2.2040  -999.2500 
  227.3750    39.0140     3.8700     3.6450     3.3250    14.6700     2.2040  -999.2500 
  227.5000    39.0140     3.8700     3.6450     3.3240    14.6670     2.2030  -999.2500 
  227.6250    39.0140     3.8700     3.6450     3.3240    14.6650     2.2020  -999.2500 
  227.7500    39.0140     3.8700     3.6450     3.3240    14.6640     2.2000  -999.2500 
  227.8750    39.0140     3.8700     3.6450     3.3240    14.6640     2.1980  -999.2500 
