~V
VERS. 2.00: Ver 2.00
~W
STRT.M 50.0000:
STOP.M 219.0000:
STEP.M 0.1250:
NULL. -999.2500:
UWI. F10688:
~C
DEPT.M :
SP.MV :
DEN.GM/CC :
GR.API :
RML.OHMM :
RI. :
RXO.OHMM :
CALI.CM :
~A
# ...
  185.0000   -25.3110     1.8850    75.6980     7.3560     7.9360     3.7040    27.8990 
  185.1250   -25.4590     1.7960    76.0780     7.3940     7.8470     4.8960    28.8070 
  185.2500   -25.6290     1.6710    76.1590     7.1640     7.4010     5.4320    29.9910 
  185.3750   -25.7750     1.5820    76.6470     6.7720     6.7380     4.8080    31.3620 
  185.5000   -25.8790     1.5850    76.4000     6.3840     6.0630     3.4420    32.5940 
  185.6250   -26.0130     1.7190    73.8330     6.2020     5.5970     2.6200    33.2650 
  185.7500   -26.1410     1.9260    75.1550     6.2880     5.4030     2.1370    33.1280 
  185.8750   -26.3380     2.1350    84.1960     6.6320     5.4700     2.1360    32.3880 
  186.0000   -26.6480     2.2790    96.9280     7.1720     5.7390     2.7630    31.2380 
  186.1250   -27.0050     2.3310   104.6510     7.8710     6.1640     4.2430    29.8490 
  186.2500   -27.3160     2.3400   105.4100     8.7210     6.7040     5.6210    28.6320 
  186.3750   -27.6550     2.3390    99.9720     9.8310     7.4070     6.3750    27.7010 
  186.5000   -28.0270     2.3460    90.1010    11.3830     8.3810     7.2460    27.1510 
  186.6250   -28.3480     2.3600    78.9610    13.7080     9.8530     9.7410    27.0540 
  186.7500   -28.6620     2.3710    72.1230    16.7840    11.8550    13.8840    27.0430 
  186.8750   -28.9400     2.3750    70.8240    20.4320    14.3300    19.5160    27.0560 
  187.0000   -29.1630     2.3680    71.5310    24.1840    17.0100    22.4380    27.1020 
  187.1250   -29.3150     2.3490    70.3580    27.2160    19.3330    22.3220    27.1970 
  187.2500   -29.4740     2.3270    67.5200    29.1630    20.9370    23.3550    27.2980 
  187.3750   -29.5820     2.3030    64.6380    30.1440    21.8140    23.9380    27.4070 
  187.5000   -29.5840     2.2780    62.6680    30.6470    22.2580    22.3730    27.5340 
  187.6250   -29.5680     2.2520    62.3450    31.3170    22.6900    20.8480    27.7150 
  187.7500   -29.5130     2.2270    62.5150    32.5080    23.4120    20.1880    27.9720 
  187.8750   -29.4450     2.2100    61.8780    34.2110    24.4820    21.1340    28.2820 
  188.0000   -29.3520     2.2050    60.3780    36.1320    25.7710    18.4030    28.6110 
  188.1250   -29.2720     2.2110    58.3500    37.7020    26.9780    13.4670    28.9220 
  188.2500   -29.1410     2.2200    56.4710    38.5450    27.8340    12.3340    29.1890 
  188.3750   -28.9500     2.2230    55.7290    38.6160    28.2680    18.9810    29.3890 
  188.5000   -28.7660     2.2160    58.1520    38.2110    28.4250    28.1970    29.5050 
  188.6250   -28.5520     2.2040    62.4180    37.8780    28.6230    35.1150    29.5250 
  188.7500   -28.3720     2.2050    63.6580    38.0300    29.1280    36.3200    29.4850 
  188.8750   -28.1740     2.2260    60.6200    38.8170    30.0560    32.6700    29.4350 
  189.0000   -27.9600     2.2660    56.2680    40.1970    31.4070    30.2200    29.3880 
  189.1250   -27.7680     2.3090    56.3030    41.7810    32.9570    33.0380    29.3000 
  189.2500   -27.5970     2.3350    58.9580    42.7020    34.0780    35.6570    29.1310 
  189.3750   -27.5040     2.3300    60.8040    42.1200    34.0890    35.1990    28.8730 
  189.5000   -27.4410     2.2920    60.4110    39.6050    32.5580    32.2450    28.5460 
  189.6250   -27.4180     2.2400    60.7140    35.4380    29.5620    28.2250    28.1750 
  189.7500   -27.4020     2.1930    63.9080    31.1480    26.2780    22.7230    27.8120 
  189.8750   -27.4210     2.1560    66.4330    27.8860    23.6200    18.1690    27.5190 
  190.0000   -27.5080     2.1330    67.0130    26.4040    22.1920    16.2140    27.3630 
  190.1250   -27.6490     2.1320    66.6940    27.4410    22.5820    16.5270    27.3960 
  190.2500   -27.8470     2.1580    64.7010    30.7200    24.6910    20.1080    27.5520 
  190.3750   -28.0680     2.2070    60.4060    36.0240    28.5170    28.8930    27.7690 
  190.5000   -28.3200     2.2570    56.2420    42.6620    33.7130    41.3900    27.9630 
  190.6250   -28.6240     2.2670    56.1040    49.0090    39.1880    46.4700    28.0720 
  190.7500   -28.9520     2.2300    56.6440    53.2050    43.2980    45.4030    28.0890 
  190.8750   -29.2750     2.1730    55.8800    54.3790    45.0970    45.0900    28.0180 
  191.0000   -29.6020     2.1300    54.8810    53.0570    44.7260    44.9210    27.8790 
  191.1250   -29.9030     2.1310    55.1110    50.8300    43.2470    43.2800    27.7230 
  191.2500   -30.1790     2.1620    55.9840    49.3890    42.1100    39.0660    27.5770 
  191.3750   -30.4460     2.2010    56.7460    49.3890    41.9630    36.8080    27.4470 
  191.5000   -30.7310     2.2320    57.9900    50.7930    42.9240    37.7530    27.3430 
  191.6250   -30.9770     2.2520    59.4360    52.7580    44.5290    37.4860    27.2680 
  191.7500   -31.2350     2.2730    59.6930    53.5910    45.5190    35.4940    27.1780 
  191.8750   -31.5290     2.3000    57.6810    52.0950    44.8760    33.4340    27.0320 
  192.0000   -31.8850     2.3270    55.8230    48.2520    42.3740    31.2240    26.8250 
  192.1250   -32.3350     2.3450    56.5300    43.4710    38.8690    27.6150    26.5890 
  192.2500   -32.8520     2.3460    58.0870    39.7900    35.9830    22.6610    26.3910 
  192.3750   -33.3740     2.3310    57.9580    38.3020    34.6970    18.3660    26.2910 
  192.5000   -33.8740     2.3040    55.1860    39.3810    35.4950    16.9170    26.3120 
  192.6250   -34.3470     2.2710    53.1730    43.0360    38.6520    19.6150    26.4620 
  192.7500   -34.7500     2.2450    52.4380    47.8260    43.1340    27.1530    26.6830 
  192.8750   -35.0890     2.2390    51.0980    52.2190    47.6860    41.1620    26.9260 
  193.0000   -35.3210     2.2560    49.2960    54.5800    50.7240    51.2230    27.1330 
  193.1250   -35.4030     2.2840    49.8030    53.7400    50.8190    43.2380    27.2330 
  193.2500   -35.3640     2.2980    52.5290    51.2250    49.0400    36.5360    27.2230 
  193.3750   -35.2550     2.2860    55.3420    48.6190    46.7750    35.2430    27.1220 
  193.5000   -35.1070     2.2580    56.5550    47.0870    45.1820    34.5160    26.9690 
  193.6250   -34.9810     2.2480    55.5530    47.5070    45.1870    32.1420    26.8030 
  193.7500   -34.8880     2.2690    54.0820    49.7170    46.7840    32.2770    26.6100 
  193.8750   -34.7850     2.3090    54.4090    53.5570    49.8680    34.6380    26.3980 
  194.0000   -34.6980     2.3370    55.6830    58.7800    54.2020    36.4290    26.2020 
  194.1250   -34.6010     2.3260    54.0900    65.3120    59.6730    39.4180    26.0930 
  194.2500   -34.5310     2.2910    51.7880    72.5420    65.7430    47.6180    26.0840 
  194.3750   -34.5060     2.2550    50.8910    79.6650    71.7550    63.6550    26.1480 
  194.5000   -34.4420     2.2370    50.0570    85.4720    76.7290    59.5750    26.2570 
  194.6250   -34.3180     2.2410    48.1950    88.1610    79.1560    51.9870    26.4020 
  194.7500   -34.1250     2.2550    48.7990    87.8680    78.9930    45.0290    26.5610 
  194.8750   -33.8300     2.2690    53.0700    85.6870    76.9940    44.0270    26.6750 
  195.0000   -33.4170     2.2730    56.0840    83.3310    74.5730    45.1280    26.7170 
  195.1250   -32.8800     2.2570    54.7060    82.5850    73.3830    45.4140    26.6990 
  195.2500   -32.2450     2.2200    52.8390    83.8690    73.9900    44.4960    26.7140 
  195.3750   -31.4500     2.1710    52.6090    87.1420    76.4330    47.8050    26.7930 
  195.5000   -30.5790     2.1240    52.8040    92.0080    80.3640    55.1610    26.8950 
  195.6250   -29.6280     2.1080    51.9000    97.3150    84.7800    59.0080    26.8860 
  195.7500   -28.5980     2.1440    51.1770   100.8070    87.7820    53.0000    26.7300 
  195.8750   -27.5950     2.2400    51.9290   100.2090    87.5860    38.6670    26.4240 
  196.0000   -26.6230     2.3730    53.4520    94.1350    83.0640    24.0420    25.9720 
  196.1250   -25.7750     2.4900    55.1740    82.6040    73.9230    18.3570    25.4040 
