~V
VERS. 2.00: Ver 2.00
~W
STRT.M 55.0000:
STOP.M 253.0000:
STEP.M 0.1250:
NULL. -999.2500:
UWI. F10665:
~C
DEPT.M :
SP.MV :
DEN.GM/CC :
GR.API :
RML.OHMM :
RI. :
RXO.OHMM :
CALI.CM :
~A
# ...
  235.0000    -9.9150     2.3030    28.4370     4.9870     3.7690     4.4900    23.1590 
  235.1250    -9.6810     2.3100    27.1000     5.0090     3.7890     4.5170    23.1350 
  235.2500    -9.4290     2.3220    26.0040     5.0350     3.8140     4.6000    23.1200 
  235.3750    -9.1960     2.3320    25.4100     5.0540     3.8370     4.5650    23.1240 
  235.5000    -8.9810     2.3390    25.1490     5.0620     3.8550     4.6120    23.1430 
  235.6250    -8.8050     2.3420    26.2280     5.0530     3.8610     4.8530    23.1660 
  235.7500    -8.7150     2.3420    28.3490     5.0310     3.8560     4.8890    23.1380 
  235.8750    -8.7030     2.3380    29.5170     5.0000     3.8400     4.6100    23.1090 
  236.0000    -8.8100     2.3340    28.3540     4.9710     3.8170     4.3720    23.1550 
  236.1250    -9.0770     2.3320    25.9450     4.9620     3.7970     4.3300    23.2440 
  236.2500    -9.4810     2.3320    25.5700     4.9730     3.7890     4.3220    23.2710 
  236.3750   -10.0270     2.3310    27.4170     5.0000     3.7970     4.3040    23.2790 
  236.5000   -10.7200     2.3290    30.6020     5.0330     3.8180     4.4010    23.3610 
  236.6250   -11.5300     2.3220    35.4910     5.0680     3.8500     4.7280    23.5560 
  236.7500   -12.4380     2.3070    41.4660     5.1260     3.8990     5.1310    23.7090 
  236.8750   -13.4290     2.2840    46.9630     5.2410     3.9870     5.3310    23.7390 
  237.0000   -14.4920     2.2560    52.1820     5.4610     4.1460     5.5900    23.7710 
  237.1250   -15.7140     2.2300    60.2080     5.8370     4.4240     6.1050    23.8060 
  237.2500   -17.0370     2.2110    69.7870     6.3230     4.8000     7.0740    23.8420 
  237.3750   -18.3140     2.2030    77.3720     6.8390     5.2280     8.0850    23.8540 
  237.5000   -19.4600     2.2080    82.3370     7.2710     5.6270     8.6780    23.7970 
  237.6250   -20.3260     2.2270    86.7630     7.4880     5.8850     8.5480    23.6980 
  237.7500   -20.8860     2.2510    89.3730     7.5090     5.9910     7.8940    23.7120 
  237.8750   -21.2950     2.2690    87.1470     7.4090     5.9810     7.4970    23.8090 
  238.0000   -21.6030     2.2770    83.2100     7.2890     5.9210     7.6430    23.8760 
  238.1250   -21.6500     2.2720    84.2580     7.2230     5.8650     8.0450    23.8820 
  238.2500   -21.4650     2.2660    85.4170     7.2030     5.8280     8.0760    23.8770 
  238.3750   -21.1480     2.2670    81.8080     7.1950     5.8010     7.7460    23.8720 
  238.5000   -20.7910     2.2750    75.8460     7.1660     5.7690     7.2990    23.8640 
  238.6250   -20.6320     2.2860    73.7700     7.1120     5.7290     7.0430    23.8390 
  238.7500   -20.7760     2.2920    74.9940     7.0760     5.7010     7.0980    23.8050 
  238.8750   -21.0890     2.2930    77.5910     7.1060     5.7130     7.2990    23.7850 
  239.0000   -21.4810     2.2910    80.9720     7.2220     5.7830     7.4290    23.7750 
  239.1250   -22.0070     2.2850    82.2380     7.4180     5.9250     7.5400    23.7420 
  239.2500   -22.6620     2.2740    80.0910     7.6270     6.1020     7.8110    23.6570 
  239.3750   -23.3670     2.2560    79.2610     7.7850     6.2650     8.2200    23.5380 
  239.5000   -23.9530     2.2360    83.7800     7.8350     6.3610     8.3700    23.4610 
  239.6250   -24.2720     2.2230    88.3060     7.7360     6.3420     8.0800    23.4630 
  239.7500   -24.2940     2.2260    85.9930     7.5500     6.2350     7.6780    23.5140 
  239.8750   -24.0560     2.2400    78.2950     7.3410     6.0840     7.2780    23.5720 
  240.0000   -23.6900     2.2550    71.9500     7.1700     5.9350     7.3830    23.5730 
  240.1250   -23.2320     2.2600    70.7790     7.0790     5.8320     7.8170    23.5140 
  240.2500   -22.6920     2.2600    71.5480     7.0440     5.7780     7.6450    23.4870 
  240.3750   -22.1610     2.2630    73.3560     7.0450     5.7660     7.3110    23.4750 
  240.5000   -21.7860     2.2710    75.1600     7.0680     5.7880     7.1480    23.4350 
  240.6250   -21.6560     2.2820    76.3790     7.1170     5.8370     7.0110    23.3750 
  240.7500   -21.7610     2.2860    76.4280     7.1950     5.9060     7.0770    23.3410 
  240.8750   -22.0680     2.2820    74.7850     7.2960     5.9870     7.2970    23.3450 
  241.0000   -22.4270     2.2740    74.0300     7.3990     6.0680     7.4760    23.3780 
  241.1250   -22.7400     2.2670    76.4050     7.4730     6.1300     7.4790    23.4140 
  241.2500   -23.0130     2.2620    79.3020     7.5030     6.1580     7.5310    23.4260 
  241.3750   -23.2630     2.2570    79.2940     7.4800     6.1460     7.6520    23.4150 
  241.5000   -23.4770     2.2540    76.0060     7.4000     6.0930     7.6590    23.3840 
  241.6250   -23.6280     2.2550    73.9980     7.2660     6.0040     7.5650    23.3560 
  241.7500   -23.7240     2.2620    75.4520     7.1190     5.9070     7.4960    23.3570 
  241.8750   -23.7920     2.2730    77.2540     7.0050     5.8310     7.3970    23.3440 
  242.0000   -23.9280     2.2830    77.2660     6.9660     5.8030     7.1620    23.2940 
  242.1250   -24.2300     2.2890    76.0110     7.0250     5.8490     7.1410    23.2020 
  242.2500   -24.6760     2.2880    74.9530     7.1460     5.9480     7.4210    23.1670 
  242.3750   -25.1630     2.2840    74.4630     7.2860     6.0750     7.9770    23.1040 
  242.5000   -25.6310     2.2770    74.4630     7.4010     6.1900     8.1480    23.0400 
  242.6250   -26.0900     2.2710    74.4630     7.4490     6.2480     7.5340    23.0090 
  242.7500   -26.4980     2.2650    74.4630     7.4320     6.2400     7.1600    22.9910 
  242.8750   -26.7820     2.2570    74.4630     7.3560     6.1760     6.9460    22.9600 
  243.0000   -26.8760     2.2510    74.4630     7.2350     6.0760     6.6340    22.9490 
  243.1250   -26.7250     2.2520    74.4630     7.0920     5.9630     6.3730    22.9490 
  243.2500   -26.3850     2.2610    74.4630     6.9610     5.8590     6.4110    22.9570 
  243.3750   -25.9800     2.2770    74.4630     6.8660     5.7740     6.6010    22.9680 
  243.5000   -25.6370     2.2910    74.4630     6.8150     5.7140     6.7160    22.9860 
  243.6250   -25.3960     2.2950    74.4630     6.8050     5.6830     6.7880    23.0000 
  243.7500   -25.2280     2.2900    74.4630     6.8010     5.6690     6.8760    23.0090 
  243.8750   -25.1700     2.2830    74.4630     6.7810     5.6600     6.9580    23.0020 
  244.0000   -25.2400     2.2810    74.4630     6.7460     5.6470     7.0950    22.9750 
  244.1250   -25.4890     2.2830    74.4630     6.7260     5.6410     6.9270    22.9550 
  244.2500   -25.9640     2.2860    74.4630     6.7520     5.6600     7.0250    22.9170 
  244.3750   -26.6900     2.2840    74.4630     6.8360     5.7220     7.0850    22.8380 
  244.5000   -27.5960     2.2730    74.4630     6.9670     5.8350     7.1840    22.7360 
  244.6250   -28.6280     2.2530    74.4630     7.1150     5.9950     7.4730    22.6390 
  244.7500   -29.6720     2.2290    74.4630     7.2430     6.1610     7.7360    22.5380 
  244.8750   -30.5870     2.2060    74.4630     7.3340     6.3000     7.8350    22.4770 
  245.0000   -31.2710     2.1900    74.4630     7.3870     6.3900     7.7400    22.4370 
  245.1250   -31.6280     2.1840    74.4630     7.3940     6.4140     7.7350    22.4240 
  245.2500   -31.6400     2.1870    74.4630     7.3520     6.3800     7.8920    22.4290 
  245.3750   -31.2680     2.1960    74.4630     7.2430     6.2860     8.0750    22.4540 
  245.5000   -30.5080     2.2110    74.4630     7.0490     6.1210     8.1520    22.4750 
  245.6250   -29.2860     2.2330    74.4630     6.7650     5.8780     7.7170    22.5000 
  245.7500   -27.8680     2.2560    74.4630     6.4580     5.6050     7.0950    22.5460 
  245.8750   -26.5150     2.2750    74.4630     6.1930     5.3500     6.6530    22.5970 
  246.0000   -25.3810     2.2850    74.4630     6.0080     5.1570     6.2260    22.6050 
  246.1250   -24.5750     2.2820    74.4630     5.9150     5.0520     6.0240    22.5550 
