~V
VERS. 2.00: Ver 2.00
~W
STRT.M 49.0000:
STOP.M 254.0000:
STEP.M 0.1250:
NULL. -999.2500:
UWI. F10669:
~C
DEPT.M :
DEN.GM/CC :
GR.API :
RML.OHMM :
RI. :
RXO.OHMM :
CALI.CM :
SP.MV :
~A
# ...
  116.5000     2.1470    61.9420    10.7320     9.5340    11.9240    23.6510   -22.7970 
  116.6250     2.1260    59.9440    10.2310     8.9830    11.7180    23.6960   -23.1220 
  116.7500     2.1220    59.2030    10.2610     8.8480    11.7670    23.6930   -23.2910 
  116.8750     2.1300    59.0270    10.5930     9.0310    11.9730    23.5940   -23.3600 
  117.0000     2.1440    58.0550    10.9220     9.2970    12.2020    23.3770   -23.2970 
  117.1250     2.1500    57.4230    11.1190     9.5260    12.3180    23.0910   -23.1520 
  117.2500     2.1380    58.8730    11.1700     9.6710    12.2610    22.8370   -22.9610 
  117.3750     2.1130    62.1590    11.1340     9.7370    12.0130    22.9530   -22.7740 
  117.5000     2.0970    62.8820    11.1140     9.7850    11.6950    23.2080   -22.5950 
  117.6250     2.1050    60.2420    11.1480     9.8470    11.9970    23.3970   -22.4350 
  117.7500     2.1350    58.6460    11.2090     9.9160    13.0360    23.4350   -22.3140 
  117.8750     2.1620    60.7400    11.2050     9.9420    14.4290    23.4510   -22.1560 
  118.0000     2.1680    60.6810    11.0800     9.8840    13.2440    23.3560   -22.0120 
  118.1250     2.1550    57.1220    10.8380     9.7390    12.1820    23.0980   -21.8550 
  118.2500     2.1410    55.0250    10.5500     9.5440    11.7330    23.0430   -21.6550 
  118.3750     2.1340    55.8630    10.3820     9.4070    11.7000    23.3880   -21.3730 
  118.5000     2.1210    55.4980    10.4850     9.4530    11.7480    23.4900   -21.0020 
  118.6250     2.1020    53.1280    10.9030     9.7600    11.8500    23.1330   -20.5350 
  118.7500     2.0890    51.4740    11.5060    10.2800    12.0660    22.9120   -19.9400 
  118.8750     2.1170    52.3880    11.8820    10.7430    12.3660    23.2490   -19.2060 
  119.0000     2.1920    55.1530    11.6350    10.7720    14.5090    23.7320   -18.3690 
  119.1250     2.2920    61.3760    10.6170    10.1460    17.8330    23.8960   -17.4580 
  119.2500     2.3730    72.4430     9.0710     8.9440    17.0930    23.8540   -16.5410 
  119.3750     2.3930    83.5720     7.5330     7.5440     9.1740    23.9010   -15.6680 
  119.5000     2.3750    89.6470     6.3560     6.3400     6.4720    24.0030   -14.8740 
  119.6250     2.3490    90.9680     5.5840     5.4550     5.7140    24.0720   -14.1770 
  119.7500     2.3370    90.6920     5.1260     4.8740     5.5110    24.1020   -13.6050 
  119.8750     2.3440    92.4360     4.8570     4.5340     5.4590    24.1440   -13.1880 
  120.0000     2.3560    94.5940     4.6780     4.3230     5.4500    24.1840   -12.8940 
  120.1250     2.3700    94.4190     4.6600     4.2560     5.3110    24.1750   -12.7140 
  120.2500     2.3940    91.5250     4.9580     4.4240     5.1850    24.1240   -12.6100 
  120.3750     2.4310    89.6850     5.8570     5.0470     5.7110    24.0590   -12.5820 
  120.5000     2.4570    89.0800     7.4330     6.2210     8.1290    23.9200   -12.5980 
  120.6250     2.4430    82.9450     9.7270     8.0430    14.7990    23.7740   -12.6820 
  120.7500     2.3790    71.4300    12.5440    10.4400    24.2610    23.6880   -12.7500 
  120.8750     2.2860    63.6810    15.2030    12.9490    23.4690    23.7190   -12.8520 
  121.0000     2.2030    61.5010    16.9720    14.8630    20.3170    23.7500   -12.9970 
  121.1250     2.1520    59.7120    17.7080    15.8980    19.3990    23.7800   -13.1560 
  121.2500     2.1360    57.5010    17.8220    16.2700    19.8210    23.8030   -13.3180 
  121.3750     2.1460    57.9390    17.9000    16.4200    20.1750    23.8770   -13.4640 
  121.5000     2.1580    58.5100    18.1930    16.6530    20.4390    23.9380   -13.5860 
  121.6250     2.1600    57.0030    18.6340    16.9700    20.5560    23.8780   -13.6440 
  121.7500     2.1480    55.3410    19.1100    17.2990    20.5460    23.7890   -13.6960 
  121.8750     2.1260    55.8270    19.5690    17.6030    20.6550    23.6600   -13.6980 
  122.0000     2.1050    56.3940    19.9610    17.8690    20.3600    23.4930   -13.6630 
  122.1250     2.0910    56.3520    20.0940    17.9830    19.6220    23.4310   -13.5910 
  122.2500     2.0880    56.6920    19.5950    17.6740    19.0110    23.5640   -13.5070 
  122.3750     2.0940    57.8800    17.9010    16.4500    18.6950    23.6750   -13.3870 
  122.5000     2.1110    59.9940    15.3020    14.4220    18.2920    23.7370   -13.2570 
  122.6250     2.1370    63.3340    12.4640    12.0480    16.6630    23.7640   -13.1450 
  122.7500     2.1780    69.2010    10.1180     9.9150    12.9800    23.7540   -13.0250 
  122.8750     2.2440    76.7470     8.8140     8.5290     8.9170    23.7560   -12.9460 
  123.0000     2.3280    79.8270     8.3910     7.8490     7.3720    23.7740   -12.8510 
  123.1250     2.4100    77.5300     8.6250     7.7610     8.2650    23.8000   -12.7700 
  123.2500     2.4570    74.4180     9.1480     8.0310    11.5800    23.7970   -12.6950 
  123.3750     2.4500    73.4790     9.3570     8.2300    13.7800    23.7030   -12.6400 
  123.5000     2.4130    72.7580     8.9300     8.0010    11.6380    23.5700   -12.6010 
  123.6250     2.3750    74.3030     8.0410     7.3650     9.0230    23.5600   -12.5700 
  123.7500     2.3490    80.5030     7.1510     6.6250     7.4050    23.6670   -12.6040 
  123.8750     2.3300    86.8530     6.6930     6.1420     6.6180    23.7670   -12.6390 
  124.0000     2.3000    87.7430     6.6690     6.0000     6.7110    23.7090   -12.6980 
  124.1250     2.2600    83.6870     6.9730     6.1670     7.7780    23.5100   -12.7440 
  124.2500     2.2270    78.5970     7.4560     6.5460     9.5340    23.4110   -12.7690 
  124.3750     2.2360    74.8780     7.9740     7.0210     9.4180    23.5390   -12.7900 
  124.5000     2.2910    73.3460     8.4420     7.4700     8.4130    23.7440   -12.8020 
  124.6250     2.3710    72.7710     8.8180     7.8240     8.6370    23.8640   -12.8010 
  124.7500     2.4350    71.6490     9.0210     8.0100    10.9160    23.8660   -12.7620 
  124.8750     2.4410    71.5830     8.8680     7.9000    12.2660    23.8390   -12.6820 
  125.0000     2.4090    74.3450     8.3740     7.5190    10.6050    23.8660   -12.5760 
  125.1250     2.3700    78.6010     7.6710     6.9620     8.5370    23.9240   -12.4710 
  125.2500     2.3490    81.2320     6.9770     6.3860     7.2290    23.9510   -12.3660 
  125.3750     2.3540    80.4140     6.5320     5.9650     6.6510    23.9380   -12.2360 
  125.5000     2.3650    79.2240     6.3670     5.7500     6.3060    23.9370   -12.1120 
  125.6250     2.3670    79.9210     6.4070     5.7140     6.3150    23.9220   -11.9840 
  125.7500     2.3550    81.9520     6.5130     5.7700     6.4230    23.8940   -11.8530 
  125.8750     2.3370    84.4050     6.5330     5.8050     6.5310    23.9020   -11.7280 
  126.0000     2.3230    86.1450     6.4350     5.7630     6.5780    23.9450   -11.6060 
  126.1250     2.3160    87.4430     6.2610     5.6490     6.5800    23.9740   -11.5020 
  126.2500     2.3170    88.2350     6.0800     5.4990     6.4850    23.9920   -11.4140 
  126.3750     2.3220    88.8400     5.9690     5.3620     6.3030    24.0180   -11.3860 
  126.5000     2.3290    89.4380     5.9380     5.2760     6.3680    24.0180   -11.3460 
  126.6250     2.3350    88.9640     5.9620     5.2450     6.5220    23.9940   -11.3430 
  126.7500     2.3370    86.9700     6.0020     5.2500     6.6020    23.9590   -11.3340 
  126.8750     2.3350    84.6240     6.0440     5.2750     6.3780    23.9110   -11.3450 
  127.0000     2.3330    83.4620     6.1120     5.3130     6.4300    23.8970   -11.3950 
  127.1250     2.3320    84.9620     6.2370     5.3830     6.6770    23.9330   -11.4590 
  127.2500     2.3240    87.8390     6.4520     5.5160     6.7830    23.9590   -11.5300 
  127.3750     2.3110    88.3600     6.8050     5.7770     7.0900    23.9460   -11.5720 
  127.5000     2.3050    85.7230     7.2670     6.1620     8.0590    23.8930   -11.6210 
  127.6250     2.3120    82.7970     7.8030     6.6440     8.9020    23.8270   -11.6380 
