~V
VERS. 2.00: Ver 2.00
~W
STRT.M 55.0000:
STOP.M 213.0000:
STEP.M 0.1250:
NULL. -999.2500:
UWI. F10686:
~C
DEPT.M :
SP.MV :
DEN.GM/CC :
GR.API :
RML.OHMM :
RI. :
RXO.OHMM :
CALI.CM :
~A
# ...
  178.7500   -21.3000     2.4690    58.5730    13.8920    11.1440    13.0870    25.7170 
  178.8750   -21.3530     2.4700    56.9730    16.0520    13.0490    18.1310    25.7340 
  179.0000   -21.4390     2.4500    54.6470    19.1470    15.4780    22.6310    25.7300 
  179.1250   -21.5650     2.4110    52.8470    22.4550    18.1160    25.0830    25.6870 
  179.2500   -21.7620     2.3670    50.8810    25.2940    20.5380    27.5280    25.6830 
  179.3750   -21.9900     2.3280    49.3860    27.6640    22.6180    29.6340    25.7200 
  179.5000   -22.2130     2.2980    49.7130    29.8660    24.5060    30.4970    25.7370 
  179.6250   -22.4520     2.2850    51.5260    32.2320    26.4740    31.1780    25.7370 
  179.7500   -22.6880     2.2840    52.3550    34.6290    28.5240    33.0350    25.7190 
  179.8750   -22.8460     2.2940    52.4740    36.5250    30.3130    36.7390    25.6080 
  180.0000   -22.9130     2.3060    53.8150    37.1730    31.2440    40.6800    25.4850 
  180.1250   -22.9470     2.3140    55.2340    35.6640    30.4340    42.2820    25.4360 
  180.2500   -22.9760     2.3140    53.4340    32.5770    28.1570    40.3450    25.4010 
  180.3750   -23.0460     2.3070    50.8000    28.9770    25.2100    35.7890    25.3710 
  180.5000   -23.1370     2.3000    51.0840    26.0730    22.5980    28.7300    25.3560 
  180.6250   -23.1640     2.2960    51.9380    25.0010    21.2670    24.1340    25.2930 
  180.7500   -23.1910     2.2950    49.5250    25.7890    21.3560    21.6710    25.1950 
  180.8750   -23.2730     2.2940    46.3040    28.2940    22.9120    22.1150    25.2230 
  181.0000   -23.4160     2.2890    45.7020    32.0450    25.7700    29.9680    25.3840 
  181.1250   -23.5370     2.2740    48.0800    36.2210    29.5040    37.0530    25.3670 
  181.2500   -23.6040     2.2480    50.4760    39.9050    33.2240    37.1440    25.3840 
  181.3750   -23.5970     2.2110    50.4090    42.8540    36.4910    33.7320    25.4700 
  181.5000   -23.5480     2.1660    48.5800    45.4360    39.3830    32.4150    25.6400 
  181.6250   -23.5080     2.1270    48.2640    48.4610    42.5150    35.8530    25.9120 
  181.7500   -23.4430     2.1160    49.1840    52.1580    46.3180    39.9900    26.1860 
  181.8750   -23.3190     2.1540    49.0260    55.8720    50.4670    44.5310    26.5160 
  182.0000   -23.1620     2.2440    48.2260    58.2090    53.8170    49.2060    26.6680 
  182.1250   -23.0360     2.3620    49.7090    57.0570    54.2460    47.6260    26.2770 
  182.2500   -22.9260     2.4480    52.3100    52.4590    51.2460    47.3930    25.2710 
  182.3750   -22.7790     2.4680    55.0270    45.5050    45.4450    47.6520    24.3410 
  182.5000   -22.5560     2.4250    58.5330    37.9950    38.4670    39.6960    23.9920 
  182.6250   -22.2760     2.3530    61.7790    31.6730    32.1380    28.7560    23.9500 
  182.7500   -21.9750     2.2940    62.6710    26.8960    27.1340    23.4790    23.9420 
  182.8750   -21.6690     2.2610    62.4130    23.5050    23.4260    20.6320    23.9250 
  183.0000   -21.3580     2.2550    63.8750    21.1840    20.7730    18.8990    23.8600 
  183.1250   -21.0120     2.2650    68.8710    19.8190    19.0890    18.1880    23.8030 
  183.2500   -20.6790     2.2810    73.8980    19.2940    18.1940    17.2300    23.7950 
  183.3750   -20.4190     2.2960    74.3890    19.8550    18.2180    16.1180    23.8050 
  183.5000   -20.2760     2.3030    70.5660    21.8510    19.3970    15.6440    23.8700 
  183.6250   -20.2280     2.2950    64.8170    25.9520    22.3420    17.4630    23.9830 
  183.7500   -20.2170     2.2760    58.8290    32.0480    27.1340    23.5620    24.0250 
  183.8750   -20.2420     2.2520    53.4180    39.8960    33.7470    36.0730    24.0320 
  184.0000   -20.2980     2.2340    49.8640    48.6460    41.5320    49.4200    24.0320 
  184.1250   -20.3970     2.2290    48.9310    56.3880    48.7590    55.0200    24.0320 
  184.2500   -20.4860     2.2340    49.3840    61.3670    53.6450    55.9280    24.0300 
  184.3750   -20.5710     2.2430    50.3520    62.9060    55.4160    55.1780    24.0200 
  184.5000   -20.6500     2.2470    51.4240    61.7410    54.5460    54.8300    23.9530 
  184.6250   -20.6830     2.2400    50.3740    59.4900    52.3340    51.7280    23.9130 
  184.7500   -20.6950     2.2220    48.3320    57.7980    50.4540    47.4980    23.8660 
  184.8750   -20.7070     2.2030    47.9530    57.3050    49.7680    44.8650    23.8580 
  185.0000   -20.7220     2.1960    49.1560    58.0620    50.5900    45.6120    23.8570 
  185.1250   -20.7400     2.2230    49.1570    59.4220    52.4710    49.5250    23.8570 
  185.2500   -20.7610     2.2780    47.7830    59.8840    53.8970    56.4600    23.8580 
  185.3750   -20.7270     2.3390    46.5900    58.3270    53.7860    63.5670    23.8670 
  185.5000   -20.6280     2.3710    45.7980    54.8990    52.0400    64.8970    23.9080 
  185.6250   -20.5170     2.3510    44.4140    51.4620    49.7820    58.5310    23.9610 
  185.7500   -20.4260     2.3130    43.2650    49.5480    48.3840    47.9910    23.8730 
  185.8750   -20.3400     2.3020    43.2520    48.7490    47.8810    41.1810    23.6880 
  186.0000   -20.2360     2.3450    43.9630    47.2080    46.9930    43.1040    23.4960 
  186.1250   -20.1260     2.4350    45.1460    42.0850    43.0680    56.4960    23.4400 
  186.2500   -20.0610     2.5130    49.2310    33.7920    35.8210    64.4860    23.4110 
  186.3750   -20.0650     2.5380    57.0780    24.7190    27.0800    59.6790    23.4860 
  186.5000   -20.1060     2.5040    66.3880    17.3250    19.3080    38.1910    23.6570 
  186.6250   -20.1670     2.4410    71.5890    12.8050    14.1080    19.1880    23.6000 
  186.7500   -20.2210     2.3850    73.1230    10.1960    10.8880    10.9360    23.5350 
  186.8750   -20.2710     2.3450    73.6800     8.8420     9.0900     9.1770    23.4360 
  187.0000   -20.3420     2.3180    75.6540     8.2710     8.2530     8.9780    23.3820 
  187.1250   -20.4290     2.2930    79.0980     8.2300     8.0960     8.6160    23.3060 
  187.2500   -20.4820     2.2720    80.6270     8.4170     8.2360     8.4720    23.2260 
  187.3750   -20.5120     2.2590    79.0530     8.6680     8.4800     8.6650    23.1870 
  187.5000   -20.5300     2.2600    76.9040     8.8500     8.6810     9.1350    23.2760 
  187.6250   -20.5110     2.2750    76.8810     8.8440     8.7140     9.8230    23.3520 
  187.7500   -20.4830     2.2950    78.3040     8.6680     8.5750     9.9550    23.2680 
  187.8750   -20.4690     2.3120    77.7150     8.3870     8.3050     8.8900    22.9950 
  188.0000   -20.4420     2.3220    73.9410     8.0970     7.9740     7.9430    22.8000 
  188.1250   -20.4010     2.3250    70.1580     7.9010     7.6690     7.6510    22.7600 
  188.2500   -20.3990     2.3220    71.3230     7.8400     7.4490     7.6420    22.6980 
  188.3750   -20.4610     2.3090    75.4030     7.9250     7.3470     7.9860    22.6230 
  188.5000   -20.5810     2.2860    75.9660     8.1370     7.3660     8.9720    22.6210 
  188.6250   -20.7790     2.2530    71.7230     8.4510     7.4980    10.2520    22.7240 
  188.7500   -21.0530     2.2260    67.3890     8.7850     7.6700    10.4300    22.8580 
  188.8750   -21.3410     2.2140    65.8840     9.0710     7.8270     9.9560    22.9980 
  189.0000   -21.6230     2.2220    67.8540     9.2740     7.9330     9.4830    23.1930 
  189.1250   -21.9120     2.2440    70.7760     9.2660     8.0000    10.0810    23.2200 
  189.2500   -22.1830     2.2660    71.8040     9.3330     8.0780    11.6180    23.1930 
  189.3750   -22.4000     2.2830    71.9760     9.4440     8.2020    13.3030    23.1430 
  189.5000   -22.5850     2.2970    71.9340     9.5470     8.3860    13.5590    23.0250 
  189.6250   -22.7770     2.3150    70.2180     9.6260     8.6250    12.5980    22.7240 
  189.7500   -22.9810     2.3370    68.0020     9.7500     8.8740    11.7350    22.4230 
  189.8750   -23.2170     2.3510    67.4120     9.8470     9.0980    11.3630    22.3640 
