~V
VERS. 2.00: Ver 2.00
~W
STRT.M 50.0000:
STOP.M 209.0000:
STEP.M 0.1250:
NULL. -999.2500:
UWI. F10692:
~C
DEPT.M :
DEN.GM/CC :
GR.API :
RML.OHMM :
RI. :
RXO.OHMM :
CALI.CM :
SP.MV :
~A
# ...
  196.2500     2.3770    24.3670     5.0160     4.4980     4.8430    25.3070   -16.4790 
  196.3750     2.3740    24.5010     4.9720     4.4600     4.9350    25.3250   -16.3990 
  196.5000     2.3880    23.4200     5.0640     4.5020     4.8790    25.3670   -16.3110 
  196.6250     2.4240    22.5730     5.4140     4.7110     4.8400    25.3890   -16.2410 
  196.7500     2.4630    23.0470     5.9390     5.0440     5.1840    25.3660   -16.2010 
  196.8750     2.4960    24.1800     6.4690     5.3930     6.5810    25.2870   -16.1720 
  197.0000     2.5160    24.3970     6.7450     5.5870     8.4990    25.1510   -16.1180 
  197.1250     2.5030    23.6580     6.4790     5.4270     9.0210    24.9680   -16.0230 
  197.2500     2.4590    23.4030     5.8430     5.0060     6.2510    24.9230   -15.9230 
  197.3750     2.4100    23.5840     5.1270     4.4920     4.7870    25.1220   -15.8510 
  197.5000     2.3800    24.1720     4.5790     4.0490     4.3250    25.3960   -15.8190 
  197.6250     2.3740    24.1720     4.3500     3.8000     4.1670    25.5310   -15.8180 
  197.7500     2.3780    24.1720     4.3520     3.7250     4.0930    25.5770   -15.8240 
  197.8750     2.3850    24.1720     4.4780     3.7740     4.0440    25.5870   -15.8360 
  198.0000     2.3910    24.1720     4.6210     3.8760     3.9890    25.5860   -15.8760 
  198.1250     2.3880    24.1720     4.7090     3.9670     4.0880    25.5860   -15.9600 
  198.2500     2.3710    24.1720     4.7500     4.0260     4.2150    25.5920   -16.0580 
  198.3750     2.3500    24.1720     4.7640     4.0560     4.2640    25.6170   -16.1390 
  198.5000     2.3410    24.1720     4.7660     4.0680     4.3300    25.6640   -16.1920 
  198.6250     2.3480    24.1720     4.7610     4.0640     4.4550    25.7200   -16.2260 
  198.7500     2.3590    24.1720     4.7560     4.0530     4.5950    25.7760   -16.2760 
  198.8750     2.3790    24.1720     4.7750     4.0500     4.6570    25.8260   -16.3570 
  199.0000     2.4150    24.1720     4.8470     4.0780     4.6170    25.8270   -16.4550 
  199.1250     2.4520    24.1720     5.0060     4.1680     4.6470    25.7510   -16.5410 
  199.2500     2.4730    24.1720     5.2260     4.3030     5.4410    25.6220   -16.6040 
  199.3750     2.4880    24.1720     5.4470     4.4460     6.8350    25.5080   -16.6470 
  199.5000     2.4970    24.1720     5.5820     4.5410     7.4220    25.4600   -16.6740 
  199.6250     2.4710    24.1720     5.5340     4.5280     5.6680    25.4950   -16.6920 
  199.7500     2.4040    24.1720     5.3660     4.4360     4.7720    25.6160   -16.7150 
  199.8750     2.3280    24.1720     5.1840     4.3170     4.6010    25.7530   -16.7530 
  200.0000     2.2800    24.1720     5.0820     4.2270     4.6270    25.8510   -16.8120 
  200.1250     2.2720    24.1720     5.1160     4.2110     4.5890    26.0390   -16.8950 
  200.2500     2.2880    24.1720     5.2330     4.2500     4.5340    26.4340   -16.9760 
  200.3750     2.3140    24.1720     5.3700     4.3160     4.5270    26.7130   -17.0240 
  200.5000     2.3440    24.1720     5.4730     4.3780     4.4530    26.9130   -17.0250 
  200.6250     2.3690    24.1720     5.5140     4.4110     4.4370    27.3400   -17.0040 
  200.7500     2.3810    24.1720     5.5100     4.4170     4.4670    27.8800   -17.0270 
  200.8750     2.3730    24.1720     5.4830     4.4080     4.6270    28.2360   -17.1490 
  201.0000     2.3580    24.1720     5.4620     4.4060     4.7730    28.2810   -17.3830 
  201.1250     2.3660    24.1720     5.4960     4.4430     4.9280    28.2560   -17.6850 
  201.2500     2.3980    24.1720     5.6140     4.5330     5.0370    28.1790   -17.9680 
  201.3750     2.4350    24.1720     5.8160     4.6710     5.2190    27.9260   -18.1850 
  201.5000     2.4530    24.1720     6.0600     4.8310     5.4280    27.4800   -18.3190 
  201.6250     2.4360    24.1720     6.2500     4.9570     5.5650    27.0870   -18.3640 
  201.7500     2.4010    24.1720     6.3170     5.0130     5.5510    27.0600   -18.3470 
  201.8750     2.3730    24.1720     6.2450     4.9880     5.3500    27.2830   -18.2790 
  202.0000     2.3690    24.1720     6.0630     4.9020     5.0570    27.5820   -18.1700 
  202.1250     2.3840    24.1720     5.8450     4.7820     4.8470    27.8160   -18.0160 
  202.2500     2.4020    24.1720     5.6520     4.6620     4.8540    27.9660   -17.8110 
  202.3750     2.4180    24.1720     5.4880     4.5590     4.8460    27.9590   -17.5440 
  202.5000     2.4350    24.1720     5.3390     4.4830     4.7850    27.7590   -17.2190 
  202.6250     2.4450    24.1720     5.2140     4.4430     4.7150    27.4970   -16.8700 
  202.7500     2.4410    24.1720     5.1770     4.4300     4.6400    27.4750   -16.5520 
  202.8750     2.4320    24.1720     5.2740     4.4340     4.6340    27.4460   -16.3000 
  203.0000     2.4240    24.1720     5.4400     4.4430     4.6940    27.2480   -16.1230 
  203.1250     2.4080    24.1720     5.5370     4.4480     4.7390    26.9410   -16.0110 
  203.2500     2.3850    24.1720     5.5190     4.4510     4.7180    26.7870   -15.9180 
  203.3750     2.3640    24.1720     5.4180     4.4520     4.7090    26.8540   -15.8180 
  203.5000     2.3500    24.1720     5.3940     4.4530     4.6880    27.1580   -15.7070 
  203.6250     2.3380    24.1720     5.3940     4.4530     4.6520    27.6940   -15.6140 
  203.7500     2.3360    24.1720     5.3940     4.4530     4.6650    28.2720   -15.5770 
  203.8750     2.3530    24.1720     5.3940     4.4530     4.6180    28.5580   -15.6120 
  204.0000     2.3830    24.1720     5.3940     4.4530     4.6550    28.4510   -15.7060 
  204.1250     2.3920    24.1720     5.3940     4.4530     4.6780    28.0560   -15.8130 
  204.2500     2.3600    24.1720     5.3940     4.4530     4.7040    27.7710   -15.8770 
  204.3750     2.3000    24.1720     5.3940     4.4530     4.6860    27.5580   -15.8740 
  204.5000     2.2430    24.1720     5.3940     4.4530     4.6150    27.2520   -15.8230 
  204.6250     2.2090    24.1720     5.3940     4.4530     4.5490    26.8770   -15.7830 
  204.7500     2.1930    24.1720     5.3940     4.4530     4.5260    26.8490   -15.8200 
  204.8750     2.1970    24.1720     5.3940     4.4530     4.5620    27.4810   -15.9710 
  205.0000     2.2340    24.1720     5.3940     4.4530     4.7050    28.8030   -16.2410 
  205.1250     2.3050    24.1720     5.3940     4.4530     4.8280    29.9380   -16.5990 
  205.2500     2.3740    24.1720     5.3940     4.4530     4.7920    29.7110   -16.9610 
  205.3750     2.4130    24.1720     5.3940     4.4530     4.6250    28.2490   -17.2540 
  205.5000     2.4130    24.1720     5.3940     4.4530     4.5030    26.7950   -17.4150 
  205.6250     2.3890    24.1720     5.3940     4.4530     4.5160    26.0100   -17.4020 
  205.7500     2.3680    24.1720     5.3940     4.4530     4.5750    25.7130   -17.2820 
  205.8750     2.3590    24.1720     5.3940     4.4530     4.5580    25.7260   -17.2210 
  206.0000     2.3570    24.1720     5.3940     4.4530     4.5140    25.8060   -16.9810 
  206.1250     2.3510    24.1720     5.3940     4.4530     4.5970    25.7290   -16.8850 
  206.2500     2.3320    24.1720     5.3940     4.4530     4.6500    25.5310   -16.8430 
  206.3750     2.2960    24.1720     5.3940     4.4530     4.6720    25.3620   -16.8430 
  206.5000     2.2430    24.1720     5.3940     4.4530     4.5750    25.3400   -16.8430 
  206.6250     2.1870    24.1720     5.3940     4.4530     4.4240    25.6070  -999.2500 
  206.7500     2.1490    24.1720     5.3940     4.4530     4.3440    26.2050  -999.2500 
  206.8750     2.1400    24.1720     5.3940     4.4530     4.4460    26.6660  -999.2500 
  207.0000     2.1540    24.1720     5.3940     4.4530     4.7430    26.1270  -999.2500 
  207.1250     2.1720    24.1720     5.3940     4.4530     5.0390    24.2840  -999.2500 
  207.2500     2.1820    24.1720     5.3940     4.4530     5.1810    22.9310  -999.2500 
  207.3750     2.1880    24.1720     5.3940     4.4530     5.2190    22.4250  -999.2500 
