~V
VERS. 2.00: Ver 2.00
~W
STRT.M 55.0000:
STOP.M 197.0000:
STEP.M 0.1250:
NULL. -999.2500:
UWI. F10681:
~C
DEPT.M :
DEN.GM/CC :
GR.API :
RML.OHMM :
RI. :
RXO.OHMM :
CALI.CM :
SP.MV :
~A
# ...
  133.7500     2.5470    53.3950    29.2330    24.5590    26.0090    24.6670   -12.8070 
  133.8750     2.5390    54.3650    28.3570    23.9020    25.1810    24.7430   -12.7420 
  134.0000     2.5350    55.4200    27.5740    23.2470    25.5740    24.8040   -12.7120 
  134.1250     2.5370    55.9340    27.0430    22.7010    26.0570    24.7540   -12.6860 
  134.2500     2.5410    55.5430    26.8180    22.3240    25.4650    24.7470   -12.6480 
  134.3750     2.5420    54.3620    26.9390    22.1820    23.8660    24.7290   -12.6190 
  134.5000     2.5400    52.7270    27.3630    22.3180    22.9030    24.7150   -12.6140 
  134.6250     2.5320    52.6310    27.8690    22.6920    23.6230    24.7130   -12.6110 
  134.7500     2.5210    53.0530    28.0310    23.0200    24.3850    24.6630   -12.6020 
  134.8750     2.5060    53.3650    27.4380    22.9520    25.5180    24.6250   -12.6250 
  135.0000     2.4880    54.0340    25.8510    22.1590    27.4600    24.6220   -12.6750 
  135.1250     2.4700    54.8800    23.3760    20.5080    24.8690    24.6590   -12.7300 
  135.2500     2.4550    53.1500    20.8090    18.5600    19.9890    24.6620   -12.8100 
  135.3750     2.4490    49.5960    18.7300    16.8080    16.1810    24.6680   -12.9120 
  135.5000     2.4490    48.6690    17.4430    15.5690    14.5550    24.6570   -12.9680 
  135.6250     2.4490    51.3490    17.0720    15.0410    14.8590    24.6540   -13.0160 
  135.7500     2.4440    53.7310    17.2470    15.0250    15.8810    24.6750   -13.0630 
  135.8750     2.4320    54.2190    17.6680    15.3240    16.3340    24.6810   -13.1060 
  136.0000     2.4140    53.8140    18.0630    15.7110    15.9860    24.6720   -13.1270 
  136.1250     2.3970    52.8440    18.2030    15.9500    15.6310    24.6830   -13.1160 
  136.2500     2.3870    50.0240    18.0540    15.9450    15.2030    24.6910   -13.1120 
  136.3750     2.3820    47.4190    17.6390    15.6840    14.7350    24.7130   -13.0700 
  136.5000     2.3830    47.8110    17.0250    15.2210    14.6210    24.6600   -13.0540 
  136.6250     2.3880    49.8020    16.3240    14.6430    14.0250    24.5250   -13.0410 
  136.7500     2.3990    51.5930    15.7050    14.0950    13.0690    24.1310   -13.0200 
  136.8750     2.4160    54.5650    15.3080    13.6950    12.7690    23.7690   -13.0080 
  137.0000     2.4380    57.2770    15.2300    13.5330    13.0500    23.7870   -12.9870 
  137.1250     2.4610    57.4000    15.5660    13.7100    14.0590    23.7520   -12.9590 
  137.2500     2.4790    58.1090    16.2220    14.1790    14.7140    23.8270   -12.9290 
  137.3750     2.4850    63.1740    17.1030    14.8850    15.3570    24.0140   -12.9580 
  137.5000     2.4800    70.6950    18.0550    15.7170    16.4680    24.3320   -12.9930 
  137.6250     2.4690    75.4490    18.8320    16.4860    16.9720    24.6840   -13.0370 
  137.7500     2.4610    80.1300    19.2440    17.0040    16.8560    24.7300   -13.1360 
  137.8750     2.4570    84.5080    19.1380    17.1060    16.9920    24.7200   -13.2220 
  138.0000     2.4560    86.0000    18.4490    16.6800    17.3670    24.6790   -13.3280 
  138.1250     2.4510    83.2560    17.2470    15.7140    16.0390    24.6790   -13.4660 
  138.2500     2.4410    77.3120    15.9750    14.5740    15.0170    24.6450   -13.6000 
  138.3750     2.4280    69.5800    15.0200    13.5890    13.3030    24.4340   -13.7110 
  138.5000     2.4200    62.6840    14.6850    13.0280    11.4990    24.3300   -13.8110 
  138.6250     2.4210    61.0250    15.2370    13.1500    11.6160    24.2820   -13.9220 
  138.7500     2.4290    61.8590    16.4550    13.8690    13.6670    24.2780   -13.9880 
  138.8750     2.4380    60.4450    18.0850    15.0630    17.2450    24.1570   -14.0760 
  139.0000     2.4440    57.2940    19.7890    16.5000    20.0270    24.2590   -14.1580 
  139.1250     2.4430    57.1650    21.1880    17.8430    20.5220    24.3570   -14.2160 
  139.2500     2.4350    61.0580    22.2120    18.8910    19.8730    24.3940   -14.2960 
  139.3750     2.4200    65.0110    22.9660    19.6580    20.3130    24.5960   -14.3840 
  139.5000     2.4030    64.4280    23.5810    20.2550    21.6800    24.7190   -14.4820 
  139.6250     2.3910    60.9700    24.0640    20.7320    22.7240    24.7290   -14.5960 
  139.7500     2.3900    59.3810    24.3760    21.0760    22.9020    24.6930   -14.7540 
  139.8750     2.4020    61.3100    24.5610    21.2810    23.0170    24.6750   -14.9240 
  140.0000     2.4260    65.5910    24.8380    21.4670    23.6460    24.6750   -15.1110 
  140.1250     2.4540    67.2280    25.6540    21.9470    25.1030    24.5140   -15.3200 
  140.2500     2.4730    64.5830    27.1790    22.9290    27.3630    24.1480   -15.5070 
  140.3750     2.4740    59.9890    29.3730    24.4830    31.2480    24.1700   -15.6860 
  140.5000     2.4560    58.8160    31.9370    26.4810    33.1830    24.4390   -15.8550 
  140.6250     2.4250    62.6830    34.2280    28.5180    33.2760    24.7010   -16.0090 
  140.7500     2.3930    66.5390    35.6670    30.0470    33.5010    24.8450   -16.1300 
  140.8750     2.3700    67.7960    36.0330    30.7590    33.7130    24.9960   -16.2370 
  141.0000     2.3590    66.7340    35.5660    30.7090    34.3030    25.0420   -16.3250 
  141.1250     2.3620    66.2870    34.9010    30.2950    33.0760    24.9710   -16.4170 
  141.2500     2.3700    67.7650    34.7920    30.1370    30.8720    25.0540   -16.4960 
  141.3750     2.3770    69.1780    35.6930    30.6510    29.0630    24.9870   -16.5800 
  141.5000     2.3790    70.4420    37.7520    32.0660    28.7130    24.8430   -16.7040 
  141.6250     2.3740    72.5860    40.7840    34.4280    30.1930    24.8090   -16.8070 
  141.7500     2.3660    76.4870    43.8560    37.1000    32.2540    24.9250   -16.9390 
  141.8750     2.3600    80.7950    46.0360    39.3510    35.9450    25.0840   -17.0560 
  142.0000     2.3580    82.4120    46.5700    40.4660    40.0900    25.1340   -17.1490 
  142.1250     2.3610    80.1590    45.1500    39.9530    39.3010    25.2040   -17.2500 
  142.2500     2.3650    75.5020    42.9130    38.5390    34.4060    25.2560   -17.3600 
  142.3750     2.3680    72.1500    40.8470    36.9810    30.5580    25.2160   -17.4600 
  142.5000     2.3690    71.5570    39.6700    35.9300    30.5710    25.1900   -17.5520 
  142.6250     2.3680    71.2300    39.8970    35.9500    33.6630    25.1610   -17.6620 
  142.7500     2.3680    70.1740    41.2270    36.9690    36.9140    25.1070   -17.7530 
  142.8750     2.3670    68.9810    43.3270    38.8310    40.4870    24.9070   -17.8770 
  143.0000     2.3650    68.0010    45.7010    41.2060    46.5100    24.7480   -18.0220 
  143.1250     2.3650    64.7270    47.4680    43.4740    46.0420    24.7510   -18.1550 
  143.2500     2.3730    63.2330    47.6600    44.7140    45.3990    24.7060   -18.2970 
  143.3750     2.3930    66.2220    45.3880    43.8620    45.5000    24.8460   -18.4200 
  143.5000     2.4170    69.1460    40.4830    40.2920    45.1220    24.8670   -18.5410 
  143.6250     2.4200    66.1580    34.0230    34.5200    41.0720    24.7950   -18.6870 
  143.7500     2.3910    61.2660    28.1330    28.6950    34.2060    24.7020   -18.8340 
  143.8750     2.3400    59.2550    23.8740    24.0620    27.6210    24.4730   -18.9660 
  144.0000     2.2880    59.9140    21.5300    21.1020    21.4740    23.7780   -19.1270 
  144.1250     2.2590    61.2500    21.1080    19.9760    22.3820    23.1890   -19.2790 
  144.2500     2.2490    62.4420    21.8820    20.0890    22.9550    23.0150   -19.4140 
  144.3750     2.2440    63.6280    23.4720    21.1340    22.3110    23.1330   -19.5840 
  144.5000     2.2280    65.0060    25.6020    22.8560    20.5260    23.1140   -19.7370 
  144.6250     2.1940    66.5120    28.3010    25.1970    20.4190    22.9820   -19.8360 
  144.7500     2.1590    66.6260    31.6570    28.1430    23.1410    22.9910   -19.9410 
  144.8750     2.1340    64.5690    35.7540    31.8310    29.0930    23.1410   -20.0420 
