~V
VERS. 2.00: Ver 2.00
~W
STRT.M 57.0000:
STOP.M 248.0000:
STEP.M 0.1250:
NULL. -999.2500:
UWI. F10637:
~C
DEPT.M :
SP.MV :
GR.API :
RML.OHMM :
RI. :
RXO.OHMM :
CALI.CM :
DEN.GM/CC :
~A
# ...
  158.2500   -12.2110    44.7210    21.3500    17.8460    20.8900    25.1670     2.5300 
  158.3750   -12.2280    44.6210    23.4290    19.5910    22.7700    25.1220     2.5450 
  158.5000   -12.2170    45.3410    25.0510    21.0890    23.5230    25.0790     2.5470 
  158.6250   -12.1800    46.3190    25.6260    21.8370    23.9350    25.0000     2.5370 
  158.7500   -12.1100    48.2790    24.6460    21.3200    23.9560    24.8840     2.5160 
  158.8750   -12.0080    51.3700    22.7390    19.9500    23.5240    24.8300     2.4920 
  159.0000   -11.8800    53.2400    20.6510    18.2860    21.5430    24.8230     2.4730 
  159.1250   -11.7360    52.8690    19.0410    16.8610    17.6020    24.8090     2.4620 
  159.2500   -11.5760    52.1010    18.3640    16.0830    17.5970    24.7080     2.4580 
  159.3750   -11.4130    52.4850    18.4300    15.8980    18.0930    24.4640     2.4510 
  159.5000   -11.2570    52.7380    19.0250    16.2080    18.3190    24.1220     2.4360 
  159.6250   -11.1180    50.5380    19.8630    16.8350    18.0430    23.8120     2.4170 
  159.7500   -11.0160    46.4100    20.5760    17.5020    17.7960    23.6550     2.4050 
  159.8750   -10.9500    43.9610    20.9210    17.9320    17.5160    23.5910     2.4040 
  160.0000   -10.9160    44.7320    20.8480    18.0200    17.2950    23.5800     2.4090 
  160.1250   -10.9090    47.9740    20.4540    17.8060    17.1730    23.5900     2.4140 
  160.2500   -10.9310    49.9260    19.9070    17.4060    17.1430    23.6110     2.4130 
  160.3750   -10.9700    49.2750    19.4390    17.0180    17.1600    23.6180     2.4100 
  160.5000   -11.0160    47.7420    19.1910    16.7640    17.2230    23.5830     2.4080 
  160.6250   -11.0650    47.1800    19.2200    16.7080    17.3450    23.4930     2.4090 
  160.7500   -11.0970    46.6350    19.5080    16.8680    17.5200    23.2630     2.4120 
  160.8750   -11.1110    45.1750    19.8680    17.1230    17.7460    22.9430     2.4150 
  161.0000   -11.1070    46.0850    20.1420    17.3550    18.0190    22.6390     2.4190 
  161.1250   -11.0820    49.5240    20.2240    17.4650    18.3160    22.5510     2.4230 
  161.2500   -11.0300    50.1350    20.0730    17.3940    18.5780    22.8510     2.4250 
  161.3750   -10.9590    48.5190    19.8050    17.2040    18.7370    23.3390     2.4300 
  161.5000   -10.8760    48.3100    19.5090    16.9470    18.7540    23.7980     2.4380 
  161.6250   -10.7820    50.2260    19.2700    16.6970    18.5820    24.0860     2.4470 
  161.7500   -10.6850    49.5370    19.2200    16.5790    18.0730    24.0510     2.4510 
  161.8750   -10.5970    47.2040    19.4040    16.6580    17.2410    23.8210     2.4530 
  162.0000   -10.5200    45.3250    19.8140    16.9450    16.3550    23.5600     2.4560 
  162.1250   -10.4560    44.1860    20.3610    17.3780    15.8030    23.2890     2.4640 
  162.2500   -10.4170    44.8040    20.8370    17.8040    15.7200    22.8410     2.4770 
  162.3750   -10.4080    46.2340    21.0020    18.0240    15.8520    22.4500     2.4900 
  162.5000   -10.4250    47.7800    20.7300    17.9140    16.1630    22.2800     2.4970 
  162.6250   -10.4690    49.3340    20.0880    17.4880    16.6770    22.3060     2.4950 
  162.7500   -10.5410    51.0850    19.3080    16.8860    16.7660    22.4210     2.4840 
  162.8750   -10.6320    52.1320    18.6620    16.3250    16.6730    22.5880     2.4710 
  163.0000   -10.7350    50.9120    18.2770    15.9250    16.3560    23.0070     2.4600 
  163.1250   -10.8520    48.3580    18.1950    15.7480    15.9550    23.6010     2.4530 
  163.2500   -10.9790    47.4430    18.4030    15.8210    15.7020    24.1210     2.4540 
  163.3750   -11.0990    48.9910    18.7670    16.0530    15.7530    24.4070     2.4580 
  163.5000   -11.2080    52.3680    19.2120    16.3840    16.0980    24.4930     2.4610 
  163.6250   -11.3050    54.6490    19.6570    16.7500    16.5840    24.4070     2.4580 
  163.7500   -11.3750    51.9930    20.0010    17.0570    16.8550    24.1460     2.4450 
  163.8750   -11.4180    47.1610    20.2030    17.2510    16.8070    23.9340     2.4280 
  164.0000   -11.4330    44.2330    20.2580    17.3210    16.5250    23.9210     2.4150 
  164.1250   -11.4180    45.4180    20.1960    17.2880    15.6610    24.1190     2.4110 
  164.2500   -11.3650    47.0290    20.0790    17.2010    15.3470    24.2870     2.4180 
  164.3750   -11.2870    46.1670    20.0090    17.1410    15.2180    24.3490     2.4260 
  164.5000   -11.1930    44.8520    20.0600    17.1670    15.5530    24.3390     2.4320 
  164.6250   -11.0850    45.1300    20.2820    17.3230    16.2050    24.2640     2.4310 
  164.7500   -10.9710    47.0060    20.6920    17.6390    15.9470    24.1320     2.4280 
  164.8750   -10.8630    48.8670    21.1780    18.0380    15.8180    24.1380     2.4280 
  165.0000   -10.7680    49.1350    21.6170    18.4300    16.1610    24.2100     2.4320 
  165.1250   -10.6870    48.1140    21.8820    18.7070    16.9420    24.2020     2.4340 
  165.2500   -10.6360    47.0720    21.8170    18.7390    16.9900    24.1150     2.4320 
  165.3750   -10.6110    46.2570    21.4340    18.5220    16.3880    24.0920     2.4270 
  165.5000   -10.6050    44.5710    20.7860    18.0760    15.4350    24.0980     2.4210 
  165.6250   -10.6220    41.1300    19.9730    17.4670    14.9260    24.0710     2.4250 
  165.7500   -10.6690    38.1080    19.1230    16.7790    14.7660    24.0770     2.4420 
  165.8750   -10.7280    38.5800    18.3540    16.1250    13.9730    24.1870     2.4650 
  166.0000   -10.7940    41.5430    17.7170    15.5660    13.1970    24.3000     2.4840 
  166.1250   -10.8670    44.2760    17.2310    15.1320    12.6190    24.3460     2.4950 
  166.2500   -10.9330    46.3150    16.9320    14.8570    12.9560    24.3580     2.4970 
  166.3750   -10.9870    48.6430    16.8030    14.7220    13.4070    24.3740     2.4910 
  166.5000   -11.0330    50.3520    16.8360    14.7230    13.6060    24.3780     2.4800 
  166.6250   -11.0640    50.5490    17.0030    14.8450    13.6160    24.3830     2.4650 
  166.7500   -11.0660    49.4740    17.2590    15.0620    13.8790    24.3730     2.4510 
  166.8750   -11.0490    48.3740    17.5200    15.3050    14.1360    24.2700     2.4410 
  167.0000   -11.0160    47.6400    17.7170    15.5260    14.4400    24.0810     2.4360 
  167.1250   -10.9650    47.4280    17.8010    15.6780    14.6100    23.9390     2.4370 
  167.2500   -10.8950    47.8580    17.7390    15.7230    14.3350    24.0270     2.4390 
  167.3750   -10.8150    47.4690    17.5910    15.6880    13.8890    24.2660     2.4390 
  167.5000   -10.7220    47.2500    17.4080    15.6110    13.7910    24.4950     2.4360 
  167.6250   -10.6190    47.5850    17.2340    15.5190    14.0550    24.6970     2.4280 
  167.7500   -10.5190    47.5600    17.1000    15.4310    14.4590    24.8500     2.4200 
  167.8750   -10.4250    46.2260    16.9960    15.3440    14.6600    24.9040     2.4180 
  168.0000   -10.3330    44.8010    16.8830    15.2290    14.4760    24.8320     2.4260 
  168.1250   -10.2500    46.0040    16.6860    15.0380    13.6710    24.6500     2.4400 
  168.2500   -10.1920    47.3320    16.2890    14.6890    13.0360    24.5570     2.4540 
  168.3750   -10.1560    45.4910    15.7000    14.1870    12.4690    24.6720     2.4610 
  168.5000   -10.1450    42.5730    15.0130    13.5890    12.0020    24.8300     2.4620 
  168.6250   -10.1630    42.2020    14.4030    13.0170    11.1950    24.9090     2.4610 
  168.7500   -10.2120    45.3830    14.1330    12.6750    10.4790    24.8910     2.4620 
  168.8750   -10.2820    48.2870    14.2910    12.6630    10.3370    24.8120     2.4650 
  169.0000   -10.3720    50.4780    14.8940    13.0270    11.0620    24.6960     2.4660 
  169.1250   -10.4790    52.8380    15.8640    13.7410    12.5900    24.6190     2.4670 
  169.2500   -10.5840    53.9860    17.0650    14.7320    14.4880    24.5880     2.4680 
  169.3750   -10.6800    53.2790    18.2660    15.7930    16.7380    24.5510     2.4680 
