~V
VERS. 2.00: Ver 2.00
~W
STRT.M 57.0000:
STOP.M 242.0000:
STEP.M 0.1250:
NULL. -999.2500:
UWI. F10636:
~C
DEPT.M :
GR.API :
RML.OHMM :
RI. :
RXO.OHMM :
CALI.CM :
DEN.GM/CC :
SP.MV :
~A
   57.0000    43.6030     0.5550     0.3140     0.7110    23.8150     2.3470    90.6560 
   57.1250    47.9930     0.3370     0.2670     0.6990    23.7360     2.3680    82.3640 
   57.2500    52.4860     0.1250     0.2280     0.6860    23.6600     2.4390    72.7140 
   57.3750    56.1550     0.0540     0.2000     0.6990    23.6070     2.5190    61.8550 
   57.5000    59.5240     0.1640     0.2270     0.8370    23.5850     2.5570    50.0710 
   57.6250    62.7400     0.5140     0.5520     3.8320    23.6040     2.5040    37.9390 
   57.7500    63.7760     1.1570     1.3040     5.9800    23.6730     2.3900    26.2240 
   57.8750    61.9470     2.1340     2.3640     7.0470    23.8060     2.2640    15.3420 
   58.0000    60.4580     3.2900     3.4830     7.1260    23.9930     2.1750     5.6300 
   58.1250    63.8320     4.2360     4.5050     7.2900    24.1790     2.1490    -2.3970 
   58.2500    68.3730     4.8650     5.3970     7.4860    24.3000     2.1560    -8.8400 
   58.3750    70.3600     5.3190     6.1250     7.7400    24.3530     2.1690   -13.6940 
   58.5000    69.5950     5.7190     6.7010     8.0990    24.4110     2.1730   -17.0780 
   58.6250    68.1860     6.0170     7.0980     8.5450    24.5700     2.1690   -19.2410 
   58.7500    67.8470     6.1240     7.3350     8.6290    24.7670     2.1670   -20.8420 
   58.8750    69.4380     6.0190     7.4350     8.3000    24.8640     2.1700   -22.0910 
   59.0000    72.4700     5.7790     7.4530     7.9840    24.7880     2.1760   -23.0800 
   59.1250    72.8270     5.5360     7.4440     7.6720    24.6230     2.1780   -23.8330 
   59.2500    69.7320     5.4070     7.4270     7.4930    24.5330     2.1750   -24.4180 
   59.3750    65.6920     5.4740     7.3890     7.5470    24.5190     2.1700   -24.8610 
   59.5000    64.1520     5.7730     7.3220     7.8090    24.4520     2.1600   -25.1880 
   59.6250    66.3500     6.2550     7.2380     8.0630    24.2100     2.1460   -25.3790 
   59.7500    69.7460     6.7180     7.1600     7.9840    23.8950     2.1310   -25.4700 
   59.8750    71.8180     7.0300     7.0890     7.7430    23.6360     2.1180   -25.4960 
   60.0000    71.0250     7.1820     7.0220     7.5970    23.4910     2.1090   -25.5020 
   60.1250    68.7540     7.3110     6.9980     7.4880    23.4500     2.1080   -25.5050 
   60.2500    68.2070     7.5920     7.0890     7.4020    23.4560     2.1180   -25.5150 
   60.3750    69.3420     8.1060     7.3700     7.3450    23.4720     2.1410   -25.5480 
   60.5000    68.3560     8.8320     7.8640     7.2590    23.4650     2.1790   -25.6080 
   60.6250    63.3070     9.6040     8.4860     7.5750    23.4390     2.2210   -25.7090 
   60.7500    61.0690    10.1280     9.0000     7.7790    23.4530     2.2480   -25.8500 
   60.8750    63.6840    10.1830     9.2170     7.7920    23.5120     2.2480   -26.0410 
   61.0000    66.1610     9.7490     9.0590     7.7310    23.5070     2.2240   -26.2810 
   61.1250    64.1700     9.0370     8.5940     7.8230    23.3030     2.1880   -26.5490 
   61.2500    61.6650     8.4000     8.0790     7.9840    23.0420     2.1580   -26.8440 
   61.3750    62.1950     7.9850     7.6700     8.0420    22.9380     2.1430   -27.1570 
   61.5000    64.8970     7.7970     7.4310     7.9900    23.0710     2.1410   -27.4860 
   61.6250    67.6080     7.7740     7.3560     7.9860    23.2990     2.1440   -27.8330 
   61.7500    68.9930     7.8170     7.3540     8.0120    23.4340     2.1450   -28.1770 
   61.8750    68.4220     7.8820     7.3850     8.1340    23.4610     2.1440   -28.5120 
   62.0000    66.2560     7.9300     7.4390     8.3490    23.4400     2.1420   -28.8190 
   62.1250    63.6700     7.9180     7.5140     8.4800    23.4410     2.1440   -29.0760 
   62.2500    63.1570     7.8580     7.5840     8.3740    23.4910     2.1520   -29.2930 
   62.3750    64.5790     7.7840     7.6140     8.1020    23.5850     2.1640   -29.4650 
   62.5000    66.2260     7.7230     7.5780     7.7520    23.6970     2.1780   -29.5900 
   62.6250    67.2170     7.6860     7.4830     7.4420    23.8110     2.1860   -29.6490 
   62.7500    69.6510     7.6720     7.3930     7.4070    23.9310     2.1850   -29.6130 
   62.8750    74.4770     7.6930     7.3580     7.4250    24.0560     2.1790   -29.4440 
   63.0000    79.0670     7.7470     7.3910     7.4580    24.1630     2.1720   -29.1290 
   63.1250    80.0840     7.7740     7.4460     7.5640    24.2160     2.1680   -28.6790 
   63.2500    80.1070     7.6950     7.4390     7.7460    24.2250     2.1680   -28.1140 
   63.3750    81.5430     7.4850     7.3190     7.8530    24.2190     2.1680   -27.4110 
   63.5000    83.6180     7.1990     7.0940     7.5470    24.2290     2.1680   -26.5560 
   63.6250    84.5950     6.9450     6.8300     6.9510    24.2640     2.1760   -25.5430 
   63.7500    85.5200     6.7710     6.6050     6.3260    24.2970     2.1970   -24.4540 
   63.8750    86.6130     6.6560     6.4440     5.9880    24.3050     2.2320   -23.3650 
   64.0000    87.1980     6.5590     6.3210     6.0860    24.2900     2.2740   -22.3340 
   64.1250    88.1030     6.4430     6.1870     6.4290    24.2900     2.3100   -21.4120 
   64.2500    88.9000     6.3110     6.0220     6.0850    24.3260     2.3310   -20.5650 
   64.3750    88.1660     6.1840     5.8540     5.5680    24.3850     2.3350   -19.8200 
   64.5000    87.4460     6.0940     5.7300     5.4270    24.4350     2.3280   -19.2120 
   64.6250    88.1540     6.0870     5.6950     5.4740    24.4530     2.3160   -18.7940 
   64.7500    88.8830     6.1560     5.7220     5.4940    24.4390     2.3080   -18.5380 
   64.8750    88.0830     6.2650     5.7650     5.6320    24.4030     2.3040   -18.3970 
   65.0000    86.1120     6.3530     5.7800     5.7940    24.3590     2.3060   -18.3230 
   65.1250    83.9750     6.3600     5.7490     5.7840    24.3120     2.3110   -18.2900 
   65.2500    83.1720     6.3020     5.7030     5.4540    24.2630     2.3140   -18.3180 
   65.3750    83.3470     6.2170     5.6650     5.3240    24.2200     2.3130   -18.4100 
   65.5000    84.0080     6.1520     5.6400     5.5070    24.1890     2.3060   -18.5390 
   65.6250    84.8680     6.1500     5.6060     5.6130    24.1610     2.2970   -18.6810 
   65.7500    87.9470     6.2100     5.5480     5.5990    24.1260     2.2920   -18.8330 
   65.8750    92.0130     6.3040     5.4680     5.7850    24.0900     2.2950   -18.9850 
   66.0000    93.2860     6.3670     5.3780     5.9880    24.0640     2.3020   -19.1270 
   66.1250    92.3360     6.3230     5.3030     6.0680    24.0440     2.3070   -19.2770 
   66.2500    92.4640     6.2270     5.2710     6.0460    24.0190     2.3050   -19.4330 
   66.3750    93.6180     6.2300     5.3270     5.9340    23.9940     2.3010   -19.5940 
   66.5000    91.6330     6.5080     5.5260     5.6760    23.9770     2.3050   -19.7640 
   66.6250    85.1940     7.2290     5.9610     5.8490    23.9550     2.3280   -19.9460 
   66.7500    80.2530     8.2510     6.6170     7.4900    23.8930     2.3590   -20.1470 
   66.8750    79.2540     9.3260     7.4160    12.1970    23.7720     2.3770   -20.3660 
   67.0000    80.5560    10.1070     8.1610    17.0220    23.6110     2.3670   -20.6030 
   67.1250    81.2780    10.1930     8.5070    13.1190    23.4560     2.3240   -20.8200 
   67.2500    81.4740     9.6840     8.3580     9.4220    23.3350     2.2720   -20.9850 
   67.3750    81.1180     8.8400     7.8080     7.7190    23.2620     2.2340   -21.0870 
   67.5000    79.5230     7.9840     7.0950     6.7310    23.2440     2.2260   -21.1420 
   67.6250    78.8960     7.3840     6.4920     6.4530    23.2850     2.2460   -21.1730 
   67.7500    79.2530     7.0640     6.1100     6.1030    23.3500     2.2660   -21.1920 
   67.8750    77.4860     7.0140     5.9670     6.3430    23.3850     2.2620   -21.2200 
   68.0000    72.7020     7.2680     6.0780     7.2770    23.3420     2.2250   -21.2670 
   68.1250    70.1580     8.0830     6.6240     8.2790    23.2290     2.1700   -21.3530 
