~V
VERS. 2.00: Ver 2.00
~W
STRT.M 51.0000:
STOP.M 206.0000:
STEP.M 0.1250:
NULL. -999.2500:
UWI. F10683:
~C
DEPT.M :
GR.API :
RML.OHMM :
RI. :
RXO.OHMM :
CALI.CM :
SP.MV :
DEN.GM/CC :
~A
# ...
  118.5000    75.2880     6.6870     5.9040     5.6860    24.7630    -7.6050     2.3820 
  118.6250    76.8130     6.8070     6.1200     5.0280    24.7520    -7.5010     2.3730 
  118.7500    78.2390     6.6930     6.1460     5.0630    24.7320    -7.4680     2.3760 
  118.8750    77.7060     6.4330     6.0030     5.3720    24.7190    -7.5160     2.3920 
  119.0000    75.0580     6.0990     5.7410     5.1630    24.7210    -7.6420     2.4130 
  119.1250    73.7520     5.7450     5.4160     4.4710    24.7070    -7.7800     2.4250 
  119.2500    74.3570     5.4480     5.1090     4.1020    24.6470    -7.8860     2.4220 
  119.3750    75.0640     5.2950     4.8910     4.0100    24.5760    -7.9860     2.4040 
  119.5000    76.0000     5.3580     4.8220     4.0940    24.5260    -8.1120     2.3770 
  119.6250    77.4540     5.6810     4.9440     4.3540    24.4890    -8.2520     2.3450 
  119.7500    76.1550     6.1450     5.1820     4.8690    24.4750    -8.3590     2.3170 
  119.8750    73.3300     6.6090     5.4490     5.7660    24.4710    -8.4340     2.2970 
  120.0000    74.2710     6.9290     5.6430     6.9880    24.4710    -8.4900     2.2860 
  120.1250    79.5150     7.0160     5.6990     7.0740    24.4710    -8.5370     2.2840 
  120.2500    81.0470     7.0340     5.7050     6.6690    24.4710    -8.5970     2.2860 
  120.3750    76.2590     7.1910     5.7920     6.4830    24.4710    -8.6750     2.2910 
  120.5000    70.4130     7.6540     6.0760     6.8820    24.4780    -8.7710     2.3020 
  120.6250    68.2130     8.5440     6.6690     8.6290    24.4990    -8.8810     2.3120 
  120.7500    67.5870     9.7040     7.5020    11.2430    24.5260    -9.0120     2.2980 
  120.8750    67.3040    10.9200     8.4600    13.1350    24.5380    -9.1480     2.2550 
  121.0000    68.1150    11.9320     9.3530    14.1780    24.5430    -9.2710     2.2060 
  121.1250    68.9370    12.5290     9.9770    13.8150    24.5720    -9.4160     2.1790 
  121.2500    66.5800    12.8640    10.3720    13.5520    24.6380    -9.5550     2.1710 
  121.3750    62.5910    13.1300    10.6530    13.9920    24.7100    -9.6660     2.1710 
  121.5000    61.2080    13.4770    10.9430    14.2530    24.7430    -9.7170     2.1690 
  121.6250    60.8740    13.9700    11.3220    14.0490    24.7470    -9.6880     2.1610 
  121.7500    57.9970    14.4940    11.7450    14.5190    24.7800    -9.6310     2.1510 
  121.8750    56.2320    14.9170    12.1230    15.5070    24.8170    -9.5750     2.1470 
  122.0000    59.8660    15.1620    12.3880    16.1950    24.8340    -9.5210     2.1490 
  122.1250    64.1080    15.2310    12.5220    16.1700    24.8360    -9.4440     2.1540 
  122.2500    62.8140    15.2370    12.5950    15.9890    24.8340    -9.3630     2.1620 
  122.3750    59.0620    15.2650    12.6610    15.2120    24.8390    -9.3000     2.1750 
  122.5000    60.1670    15.3660    12.7660    14.6280    24.8440    -9.3020     2.1940 
  122.6250    71.4000    15.5060    12.9160    14.7680    24.8280    -9.3520     2.2200 
  122.7500    79.1480    15.5540    13.0390    14.9530    24.7830    -9.3840     2.2380 
  122.8750    74.6350    15.4340    13.0790    15.4410    24.7840    -9.4160     2.2340 
  123.0000    62.9960    15.1780    13.0400    16.3710    24.8400    -9.4730     2.2110 
  123.1250    58.1600    14.9570    13.0210    16.4440    24.8400    -9.5630     2.1830 
  123.2500    60.5350    14.9490    13.1510    16.0300    24.8100    -9.6770     2.1620 
  123.3750    63.1190    15.2240    13.5010    15.9980    24.8010    -9.7820     2.1460 
  123.5000    66.4780    15.7270    14.0550    16.6310    24.8010    -9.8510     2.1380 
  123.6250    69.1130    16.2300    14.6840    18.5560    24.8050    -9.8790     2.1530 
  123.7500    67.2860    16.0320    15.1430    22.6710    24.8210    -9.8910     2.1900 
  123.8750    62.3820    14.7540    15.1920    26.9520    24.7800    -9.8940     2.2290 
  124.0000    59.3890    13.0670    14.6660    23.8210    24.6660    -9.8820     2.2470 
  124.1250    59.8850    11.7400    13.4950    18.2850    24.5860    -9.8540     2.2360 
  124.2500    59.7940    10.8040    11.9900    15.0710    24.6040    -9.7960     2.2240 
  124.3750    58.9100    10.0970    10.4150    12.7690    24.6350    -9.7020     2.2350 
  124.5000    59.1820     9.4740     9.0280    10.8030    24.6280    -9.6070     2.2720 
  124.6250    60.3460     8.9900     8.1130     9.2760    24.6140    -9.6070     2.3040 
  124.7500    59.9230     8.9050     7.7370     8.5240    24.5660    -9.6770     2.3030 
  124.8750    58.3520     9.4850     7.9760     8.4840    24.4650    -9.7560     2.2670 
  125.0000    57.8400    10.8630     8.8970     9.6810    24.3880    -9.8330     2.2160 
  125.1250    56.9180    13.1430    10.6560    13.1890    24.4540    -9.9120     2.1760 
  125.2500    55.9050    15.9510    13.0110    18.7780    24.6330   -10.0220     2.1550 
  125.3750    56.0770    18.7800    15.5960    23.2770    24.7910   -10.1910     2.1490 
  125.5000    55.0980    20.9530    17.8210    25.6540    24.8790   -10.3820     2.1560 
  125.6250    51.9300    21.7820    18.9760    26.1910    24.8790   -10.4900     2.1770 
  125.7500    49.5330    21.6100    19.1710    25.8350    24.8120   -10.5350     2.2050 
  125.8750    50.2790    20.9260    18.7370    25.2200    24.6810   -10.5740     2.2350 
  126.0000    52.6630    20.1440    18.0270    24.0590    24.5420   -10.6380     2.2580 
  126.1250    53.2490    19.5290    17.3040    23.3220    24.5340   -10.7250     2.2520 
  126.2500    52.6920    19.1370    16.7090    23.1880    24.6590   -10.8310     2.2090 
  126.3750    51.6570    18.9760    16.3100    22.9270    24.8490   -10.9500     2.1520 
  126.5000    52.7190    19.0400    16.1460    22.4340    24.9180   -11.0900     2.1190 
  126.6250    56.5720    19.3760    16.2910    21.2710    24.8640   -11.3010     2.1440 
  126.7500    58.6600    19.9730    16.7250    20.6650    24.8760   -11.5810     2.1980 
  126.8750    56.5970    20.8470    17.4610    21.5300    24.8890   -11.9030     2.2390 
  127.0000    51.6930    21.9640    18.4740    24.5500    24.8840   -12.2310     2.2410 
  127.1250    47.9770    23.1600    19.6530    28.8480    24.8370   -12.5640     2.2180 
  127.2500    46.5100    24.1320    20.7240    32.2440    24.7540   -12.8600     2.2090 
  127.3750    46.6070    24.6450    21.4590    31.9550    24.6720   -13.0780     2.2290 
  127.5000    47.4610    24.5910    21.7080    30.1770    24.6020   -13.2260     2.2640 
  127.6250    47.3270    23.9160    21.3600    27.9260    24.3090   -13.3150     2.2870 
  127.7500    44.9840    22.7940    20.5480    26.1630    24.2960   -13.3210     2.2920 
  127.8750    43.4710    21.2810    19.3170    24.9840    24.3040   -13.1990     2.2920 
  128.0000    46.0140    19.4060    17.7060    24.1050    24.2490   -12.9460     2.3010 
  128.1250    49.7100    17.2370    15.7860    22.4720    24.2860   -12.5640     2.3330 
  128.2500    49.9190    15.0710    13.8270    20.2170    24.3880   -12.1060     2.3750 
  128.3750    48.5660    13.1830    12.0680    17.1660    24.5330   -11.6070     2.4110 
  128.5000    48.5870    11.7760    10.6800    13.8780    24.6220   -11.0600     2.4370 
  128.6250    48.3040    10.9800     9.7870    11.3480    24.6240   -10.4250     2.4620 
  128.7500    45.7410    10.5820     9.2460    10.4410    24.6270    -9.7660     2.4890 
  128.8750    42.9410    10.3820     8.9280    11.2720    24.6650    -9.1660     2.5130 
  129.0000    41.8350    10.1930     8.6940    12.6260    24.7190    -8.6360     2.5310 
  129.1250    41.8500     9.9210     8.4600    11.5360    24.7600    -8.1540     2.5480 
  129.2500    41.5130     9.6430     8.2400     9.9010    24.7780    -7.7090     2.5710 
  129.3750    40.4960     9.4750     8.0920     8.9960    24.7720    -7.3090     2.6030 
  129.5000    39.0830     9.4930     8.0660     9.2580    24.7410    -7.0010     2.6380 
  129.6250    38.9560     9.7220     8.1960     9.9970    24.6600    -6.8760     2.6590 
