~V
VERS. 2.00: Ver 2.00
~W
STRT.M 58.0000:
STOP.M 244.0000:
STEP.M 0.1250:
NULL. -999.2500:
UWI. F10638:
~C
DEPT.M :
SP.MV :
GR.API :
RML.OHMM :
RI. :
RXO.OHMM :
CALI.CM :
DEN.GM/CC :
~A
# ...
  114.2500   -28.9820    53.6440    10.8410     8.7650    10.4480    23.5510     2.1010 
  114.3750   -29.0320    57.5340    10.9390     8.7190    10.6440    23.5710     2.1060 
  114.5000   -29.0910    61.4150    11.2730     8.8920    11.1990    23.6240     2.1120 
  114.6250   -29.2010    63.3260    11.7030     9.1970    12.0080    23.7340     2.1300 
  114.7500   -29.3900    64.3930    12.1010     9.5380    12.8340    23.9220     2.1520 
  114.8750   -29.5880    65.4250    12.3450     9.8090    13.5200    24.0920     2.1610 
  115.0000   -29.7620    63.7880    12.4180     9.9560    13.3190    24.1890     2.1540 
  115.1250   -29.9220    59.4110    12.3420     9.9670    12.8310    24.2130     2.1360 
  115.2500   -30.0790    55.5060    12.1690     9.8710    12.5850    24.1720     2.1200 
  115.3750   -30.2110    54.9130    11.9550     9.7100    12.4170    24.1220     2.1160 
  115.5000   -30.2920    55.4930    11.7700     9.5450    12.1810    24.1200     2.1210 
  115.6250   -30.3270    55.0230    11.6710     9.4240    11.9360    24.1580     2.1280 
  115.7500   -30.3040    52.9900    11.7060     9.3890    11.9920    24.1940     2.1350 
  115.8750   -30.2150    50.5910    11.9120     9.4850    12.3060    24.0930     2.1440 
  116.0000   -30.0680    50.1240    12.2130     9.6790    12.6520    23.7890     2.1570 
  116.1250   -29.8580    52.6230    12.5250     9.9220    13.3110    23.3860     2.1730 
  116.2500   -29.6070    55.7650    12.7490    10.1440    14.6580    23.1200     2.1870 
  116.3750   -29.3410    55.8960    12.7820    10.2480    15.3890    23.0330     2.1930 
  116.5000   -29.0510    54.9950    12.6580    10.2260    14.9670    23.0230     2.1940 
  116.6250   -28.7150    55.8190    12.4440    10.1090    13.9210    23.0550     2.1910 
  116.7500   -28.3430    58.6640    12.2220     9.9560    13.3700    23.0700     2.1900 
  116.8750   -28.0160    60.1220    12.0650     9.8330    13.4390    22.9810     2.1890 
  117.0000   -27.7590    58.7650    11.9880     9.7670    13.8030    22.8610     2.1870 
  117.1250   -27.5670    57.7380    11.9770     9.7560    14.0430    22.7850     2.1820 
  117.2500   -27.4080    58.4970    12.0060     9.7840    14.1090    22.7780     2.1750 
  117.3750   -27.2600    57.9130    12.0600     9.8370    13.4150    22.8310     2.1720 
  117.5000   -27.1670    53.9500    12.1300     9.9000    13.0490    22.8930     2.1730 
  117.6250   -27.1420    50.0540    12.1850     9.9520    13.0490    22.9710     2.1760 
  117.7500   -27.1510    49.7210    12.1380     9.9350    13.0700    23.0510     2.1770 
  117.8750   -27.1250    51.4540    11.8340     9.7340    13.2020    23.1050     2.1700 
  118.0000   -27.0590    54.0200    11.2870     9.3460    13.0980    23.1530     2.1580 
  118.1250   -26.9840    58.2300    10.6210     8.8450    12.6180    23.2650     2.1500 
  118.2500   -26.9360    63.1230    10.0320     8.3660    11.3620    23.5200     2.1550 
  118.3750   -26.9310    66.2830     9.7540     8.0770     9.9810    23.7490     2.1790 
  118.5000   -26.9660    67.0700     9.8150     8.0210     9.7190    23.9300     2.2060 
  118.6250   -27.0380    65.9220    10.1580     8.1800    11.0340    23.9950     2.2230 
  118.7500   -27.1190    63.4470    10.6490     8.4780    12.1160    23.9680     2.2220 
  118.8750   -27.1640    60.7800    11.0980     8.7900    12.1600    23.9340     2.2030 
  119.0000   -27.1330    58.4050    11.3750     9.0070    11.9040    23.9110     2.1820 
  119.1250   -27.0340    57.2370    11.4740     9.1050    11.9640    23.8780     2.1670 
  119.2500   -26.8980    58.5080    11.4890     9.1300    12.0580    23.8120     2.1610 
  119.3750   -26.7420    60.9830    11.5490     9.1650    12.4030    23.7550     2.1610 
  119.5000   -26.5160    60.9790    11.6810     9.2430    12.6290    23.6790     2.1630 
  119.6250   -26.1890    58.0420    11.8280     9.3450    13.1170    23.5530     2.1610 
  119.7500   -25.8230    55.6880    11.9170     9.4240    13.3890    23.3700     2.1570 
  119.8750   -25.4900    55.5200    11.9050     9.4470    13.4190    23.2630     2.1530 
  120.0000   -25.2390    55.3930    11.8670     9.4450    13.2480    23.2780     2.1530 
  120.1250   -25.0350    54.4600    11.8930     9.4640    13.0620    23.4250     2.1590 
  120.2500   -24.8090    54.2460    12.0340     9.5430    13.1250    23.6260     2.1700 
  120.3750   -24.5640    56.4000    12.2790     9.6940    13.2740    23.8130     2.1840 
  120.5000   -24.3540    59.5100    12.5180     9.8610    13.4100    23.9500     2.1960 
  120.6250   -24.1980    62.0030    12.6450     9.9810    13.7560    24.0150     2.2000 
  120.7500   -24.0630    62.4820    12.5970    10.0080    13.9580    24.0230     2.1950 
  120.8750   -23.8980    61.0960    12.3900     9.9270    13.6800    24.0000     2.1790 
  121.0000   -23.6780    59.8550    12.1660     9.8090    13.6950    23.9890     2.1640 
  121.1250   -23.4030    59.2670    12.0270     9.7100    14.1720    23.9820     2.1600 
  121.2500   -23.0550    57.8950    12.0390     9.6760    14.7410    23.9790     2.1750 
  121.3750   -22.5500    56.0130    12.2070     9.7340    14.8660    23.9800     2.2030 
  121.5000   -21.8710    55.8310    12.3740     9.8100    14.2820    23.9810     2.2260 
  121.6250   -21.0270    59.4880    12.3640     9.7930    14.8840    23.9980     2.2340 
  121.7500   -20.0390    65.4210    12.0410     9.5860    15.3820    24.0470     2.2320 
  121.8750   -18.9360    69.5270    11.3280     9.1230    13.9720    24.1440     2.2420 
  122.0000   -17.7900    72.4030    10.4000     8.5020    10.0180    24.1280     2.2830 
  122.1250   -16.6570    75.6840     9.4330     7.8270     8.2930    24.0170     2.3570 
  122.2500   -15.6250    78.5380     8.5800     7.1970     8.1850    23.8530     2.4440 
  122.3750   -14.7860    77.4830     7.9450     6.6960     8.2820    23.7030     2.5000 
  122.5000   -14.0930    74.9290     7.5130     6.3420     8.0080    23.6480     2.5070 
  122.6250   -13.5190    74.4440     7.2870     6.1520     7.4610    23.6730     2.4740 
  122.7500   -13.0610    77.0890     7.2530     6.1270     7.0780    23.7450     2.4200 
  122.8750   -12.7570    80.1220     7.3690     6.2400     7.2160    23.8500     2.3720 
  123.0000   -12.5510    79.6400     7.5100     6.3890     7.7930    23.8970     2.3470 
  123.1250   -12.3630    77.3190     7.5690     6.4890     8.1060    23.9170     2.3500 
  123.2500   -12.1200    77.8300     7.4670     6.4740     8.2050    23.9690     2.3690 
  123.3750   -11.7950    81.4870     7.1900     6.3090     7.7160    24.1430     2.3820 
  123.5000   -11.4790    84.7170     6.8690     6.0800     6.8490    24.3930     2.3760 
  123.6250   -11.2130    86.4010     6.6040     5.8660     6.5160    24.5920     2.3530 
  123.7500   -10.9840    87.2330     6.4410     5.7150     6.7680    24.6710     2.3210 
  123.8750   -10.7410    86.3580     6.3840     5.6410     6.9800    24.6600     2.3000 
  124.0000   -10.4980    84.3210     6.3620     5.6060     7.0720    24.6270     2.2970 
  124.1250   -10.3060    83.4070     6.3280     5.5740     7.0020    24.6150     2.3110 
  124.2500   -10.1710    84.0840     6.2650     5.5230     6.7430    24.6160     2.3320 
  124.3750   -10.0900    85.0210     6.2160     5.4680     6.5140    24.6170     2.3440 
  124.5000   -10.0400    85.4860     6.2470     5.4560     6.3400    24.6190     2.3450 
  124.6250    -9.9890    86.4330     6.3840     5.5180     6.3980    24.6290     2.3410 
  124.7500    -9.9260    86.9710     6.5990     5.6480     6.5480    24.6510     2.3360 
  124.8750    -9.8910    84.3760     6.8020     5.7900     6.8620    24.6660     2.3280 
  125.0000    -9.8860    81.0890     6.8850     5.8570     7.4320    24.6780     2.3140 
  125.1250    -9.8910    80.7280     6.7960     5.7930     7.7110    24.6770     2.3020 
  125.2500    -9.8890    83.6500     6.5620     5.6020     7.3190    24.6740     2.2980 
  125.3750    -9.8890    86.3350     6.3070     5.3640     6.7930    24.6580     2.3070 
