~V
VERS. 2.00: Ver 2.00
~W
STRT.M 52.0000:
STOP.M 260.0000:
STEP.M 0.1250:
NULL. -999.2500:
UWI. F10654:
~C
DEPT.M :
SP.MV :
GR.API :
RML.OHMM :
RI. :
RXO.OHMM :
CALI.CM :
DEN.GM/CC :
~A
# ...
   63.2500   -12.1910   102.2670     3.8420     4.1730     2.8840    17.9220     2.3700 
   63.3750   -12.2220    98.2030     3.9260     4.2490     3.2010    18.0930     2.3700 
   63.5000   -12.2700    95.2500     4.0760     4.3920     3.6860    18.1050     2.3670 
   63.6250   -12.3350    90.6360     4.2530     4.5690     4.1700    18.0990     2.3580 
   63.7500   -12.4160    84.8620     4.4170     4.7400     4.4950    18.1540     2.3430 
   63.8750   -12.5350    79.6760     4.5320     4.8700     4.6960    18.2830     2.3290 
   64.0000   -12.7000    77.4630     4.5770     4.9240     4.7750    18.4390     2.3190 
   64.1250   -12.8970    78.5700     4.5830     4.9230     4.9780    18.5660     2.3130 
   64.2500   -13.1420    81.0080     4.5860     4.9000     5.2730    18.6690     2.3060 
   64.3750   -13.4360    81.0940     4.6220     4.8930     5.4410    18.7910     2.2940 
   64.5000   -13.8130    76.8940     4.7350     4.9560     5.4670    19.0320     2.2720 
   64.6250   -14.2220    71.8700     4.9610     5.1300     5.4660    19.4560     2.2450 
   64.7500   -14.6360    68.8410     5.3730     5.4880     5.4750    20.1050     2.2260 
   64.8750   -15.0330    69.0930     6.0920     6.1420     5.6280    20.9580     2.2300 
   65.0000   -15.3830    72.4480     7.3540     7.3140     6.3460    21.9830     2.2720 
   65.1250   -15.7060    74.6410     9.1600     9.0130     8.0930    22.8850     2.3420 
   65.2500   -15.9530    73.1370    11.3920    11.1490    10.7150    23.4440     2.4230 
   65.3750   -16.1690    68.5090    13.6990    13.4230    13.7010    23.6590     2.4920 
   65.5000   -16.3190    67.4630    15.3760    15.1990    15.5070    23.3730     2.5310 
   65.6250   -16.4470    71.0420    15.9510    15.9920    14.7090    22.7090     2.5410 
   65.7500   -16.6020    74.3650    15.3050    15.6090    11.7580    22.1040     2.5240 
   65.8750   -16.7700    72.9740    13.7700    14.2610     9.4870    21.6760     2.4830 
   66.0000   -16.9900    66.6510    11.9440    12.4400     8.2220    21.3680     2.4220 
   66.1250   -17.2490    62.0180    10.3550    10.7270     7.0110    21.1220     2.3600 
   66.2500   -17.5460    60.8560     9.1710     9.3550     5.9220    20.8780     2.3110 
   66.3750   -17.8610    63.2810     8.4010     8.3850     5.1700    20.5880     2.2790 
   66.5000   -18.1810    66.4150     8.0200     7.8290     4.7860    20.3430     2.2660 
   66.6250   -18.4770    68.1080     7.8570     7.5320     4.6700    20.3230     2.2610 
   66.7500   -18.7540    69.3750     7.8180     7.4040     4.7350    20.5520     2.2590 
   66.8750   -19.0370    70.4000     7.8270     7.3640     4.8750    20.9930     2.2560 
   67.0000   -19.2770    69.1930     7.8370     7.3560     5.0680    21.5170     2.2530 
   67.1250   -19.4960    65.4400     7.8350     7.3470     5.3080    21.8820     2.2520 
   67.2500   -19.6990    63.7420     7.8190     7.3270     5.5910    22.0120     2.2530 
   67.3750   -19.8370    66.0080     7.7810     7.2850     6.0270    22.1910     2.2500 
   67.5000   -19.9260    68.0490     7.6930     7.2000     6.3650    22.6690     2.2330 
   67.6250   -20.0250    66.8210     7.5460     7.0670     6.4710    23.1380     2.2020 
   67.7500   -20.0840    64.0970     7.3470     6.8920     6.2710    23.4640     2.1620 
   67.8750   -20.0770    62.1240     7.1280     6.6950     5.7810    23.6920     2.1280 
   68.0000   -20.0510    61.2360     6.9470     6.5210     5.1730    23.8880     2.1170 
   68.1250   -19.9990    61.3320     6.8450     6.4040     4.7600    23.8450     2.1280 
   68.2500   -19.9520    62.8910     6.8430     6.3630     4.7120    23.3770     2.1520 
   68.3750   -19.9370    65.4600     6.9360     6.3940     4.9650    22.6000     2.1790 
   68.5000   -19.9150    67.1510     7.1000     6.4800     5.1300    22.0050     2.1980 
   68.6250   -19.8890    66.7690     7.2780     6.5740     5.2030    21.8200     2.2100 
   68.7500   -19.9060    65.5960     7.4210     6.6410     5.3140    21.9230     2.2140 
   68.8750   -19.9830    64.6310     7.4910     6.6610     5.5470    22.1890     2.2100 
   69.0000   -20.1020    63.5380     7.4630     6.6230     5.8620    22.6660     2.1990 
   69.1250   -20.2500    61.1710     7.3800     6.5560     6.1330    23.4780     2.1890 
   69.2500   -20.4090    59.0290     7.2840     6.4900     6.3170    24.5460     2.1870 
   69.3750   -20.5540    57.7930     7.2140     6.4480     6.3990    25.4720     2.1940 
   69.5000   -20.6810    57.7860     7.1930     6.4450     6.4200    25.7430     2.2090 
   69.6250   -20.7750    58.9630     7.2030     6.4670     6.4440    25.7000     2.2230 
   69.7500   -20.8370    60.7260     7.2230     6.4970     6.4560    25.5990     2.2330 
   69.8750   -20.8670    62.9160     7.2340     6.5170     6.5170    25.5130     2.2350 
   70.0000   -20.8410    64.8180     7.2210     6.5120     6.6090    25.4620     2.2320 
   70.1250   -20.7800    65.2420     7.1860     6.4820     6.6490    25.3930     2.2260 
   70.2500   -20.7000    63.5000     7.1340     6.4350     6.6190    25.3910     2.2210 
   70.3750   -20.5970    60.8080     7.0750     6.3790     6.5470    25.4360     2.2170 
   70.5000   -20.5180    59.8430     7.0250     6.3240     6.5130    25.4080     2.2150 
   70.6250   -20.4510    61.1290     6.9920     6.2780     6.4860    25.3300     2.2130 
   70.7500   -20.3620    63.3290     6.9780     6.2470     6.4560    25.3330     2.2090 
   70.8750   -20.2710    65.4510     6.9830     6.2310     6.4130    25.3750     2.2050 
   71.0000   -20.2000    65.9340     7.0040     6.2350     6.3620    25.3650     2.2010 
   71.1250   -20.1840    64.2170     7.0330     6.2540     6.3200    25.3390     2.2000 
   71.2500   -20.1700    61.8460     7.0680     6.2860     6.2940    25.3630     2.2020 
   71.3750   -20.1930    60.2670     7.1050     6.3270     6.2700    25.4960     2.2030 
   71.5000   -20.2250    59.3140     7.1360     6.3650     6.2870    25.6630     2.2010 
   71.6250   -20.2460    58.8180     7.1580     6.3950     6.3440    25.7800     2.1950 
   71.7500   -20.2840    58.9920     7.1720     6.4130     6.4150    25.8020     2.1870 
   71.8750   -20.3080    58.0150     7.1850     6.4200     6.4590    25.7620     2.1790 
   72.0000   -20.3330    56.2020     7.2090     6.4200     6.4540    25.6370     2.1780 
   72.1250   -20.2890    57.1750     7.2480     6.4180     6.4550    25.4360     2.1830 
   72.2500   -20.1820    60.1390     7.3020     6.4160     6.4160    25.1010     2.1920 
   72.3750   -20.0270    61.6680     7.3650     6.4130     6.3370    24.5840     2.2000 
   72.5000   -19.8360    61.5880     7.4200     6.4010     6.3080    23.8390     2.2010 
   72.6250   -19.6050    62.6110     7.4450     6.3740     6.3130    22.9400     2.1910 
   72.7500   -19.3480    64.3020     7.4260     6.3250     6.3230    22.2480     2.1710 
   72.8750   -19.0660    65.9770     7.3770     6.2660     6.3330    21.9360     2.1460 
   73.0000   -18.7360    68.1720     7.3900     6.2550     6.2700    21.9090     2.1290 
   73.1250   -18.4170    70.1430     7.6080     6.3900     6.2250    21.9430     2.1340 
   73.2500   -18.1100    71.7140     8.1830     6.7840     6.2160    21.9670     2.1790 
   73.3750   -17.8040    73.2350     9.1910     7.5150     6.3050    21.8930     2.2660 
   73.5000   -17.4900    71.0750    10.5690     8.5860     6.3180    21.5760     2.3830 
   73.6250   -17.1680    66.1550    11.9120     9.7170     6.1320    20.8350     2.4820 
   73.7500   -16.8370    63.3000    12.8050    10.5830     5.5420    19.4920     2.5250 
   73.8750   -16.5250    65.7070    12.9100    10.8700     4.5210    17.5230     2.4940 
   74.0000   -16.2160    70.4360    12.0350    10.3310     3.8030    15.3870     2.4070 
   74.1250   -15.8570    70.5190    10.6470     9.2740     3.7290    14.1530     2.3150 
   74.2500   -15.4740    66.3240     9.1580     8.0200     3.9330    13.6860     2.2410 
   74.3750   -15.0870    63.6170     7.8580     6.8350     4.1380    13.5760     2.1970 
