~V
VERS. 2.00: Ver 2.00
~W
STRT.M 50.0000:
STOP.M 219.0000:
STEP.M 0.1250:
NULL. -999.2500:
UWI. F10688:
~C
DEPT.M :
SP.MV :
DEN.GM/CC :
GR.API :
RML.OHMM :
RI. :
RXO.OHMM :
CALI.CM :
~A
   50.0000     7.4280     2.5680    33.2780     0.6730     0.7630     1.1930    25.5440 
   50.1250     6.7700     2.4030    34.4500     0.5210     0.7890     1.9760    25.5530 
   50.2500     5.8380     2.2820    34.3220     0.4890     0.7980     3.4470    25.5610 
   50.3750     4.7090     2.2180    33.5240     0.4940     0.7860     7.2590    25.5660 
   50.5000     3.5160     2.2000    32.5490     0.4870     0.7570    25.5540    25.5680 
   50.6250     2.3860     2.2040    31.1820     0.4680     0.7250    20.6430    25.5680 
   50.7500     1.4280     2.2120    30.4850     0.4540     0.7070    14.4070    25.5670 
   50.8750     0.7490     2.2180    31.7680     0.4420     0.7110    14.2200    25.5670 
   51.0000     0.3850     2.2180    34.6530     0.4060     0.7290    22.5630    25.5660 
   51.1250     0.3160     2.2070    35.6800     0.3190     0.7430    26.6160    25.5670 
   51.2500     0.3970     2.1830    34.5430     0.2050     0.7380    31.9410    25.5700 
   51.3750     0.5230     2.1490    33.1740     0.1010     0.7150    30.5980    25.5720 
   51.5000     0.6470     2.1120    32.7330     0.0360     0.6840    25.3260    25.5750 
   51.6250     0.7580     2.0840    34.2560     0.0170     0.6640    21.6520    25.5770 
   51.7500     0.8480     2.0730    36.7610     0.0080     0.6590    17.9380    25.5780 
   51.8750     0.9200     2.0770    38.9480     0.0040     0.6640    15.0460    25.5780 
   52.0000     0.9830     2.0890    40.1180     0.0170     0.6680    13.4320    25.5770 
   52.1250     1.0270     2.1040    40.5180     0.0520     0.6580    13.1160    25.5730 
   52.2500     1.1260     2.1200    40.8370     0.0920     0.6380    13.1840    25.5670 
   52.3750     1.3080     2.1380    41.6270     0.1180     0.6210    11.8430    25.5610 
   52.5000     1.5380     2.1590    42.7500     0.1090     0.6180    11.0250    25.5530 
   52.6250     1.7930     2.1780    42.2290     0.0760     0.6350    10.3310    25.5440 
   52.7500     2.0750     2.1880    41.5150     0.0620     0.6650     9.1770    25.5340 
   52.8750     2.3900     2.1830    42.0090     0.0790     0.7050     7.8810    25.5250 
   53.0000     2.7340     2.1650    42.1270     0.1080     0.7460     6.9890    25.5170 
   53.1250     3.2120     2.1450    39.2100     0.1170     0.7790     6.8820    25.5120 
   53.2500     3.7930     2.1320    36.0290     0.1020     0.7920     6.8290    25.5080 
   53.3750     4.4430     2.1340    35.4000     0.0710     0.7780     6.6780    25.5030 
   53.5000     5.1820     2.1500    35.8050     0.0350     0.7450     6.6580    25.4990 
   53.6250     6.1000     2.1750    35.7140     0.0130     0.7110     6.8150    25.4970 
   53.7500     7.2050     2.1960    35.9390     0.0220     0.6980     6.7250    25.4930 
   53.8750     8.3970     2.2080    37.3820     0.0730     0.7130     5.0350    25.4900 
   54.0000     9.5580     2.2080    40.4220     0.1960     0.7530     3.0170    25.4860 
   54.1250    10.7150     2.1940    42.1630     0.4410     0.8090     2.1090    25.4850 
   54.2500    11.8900     2.1690    41.5150     0.7470     0.8600     2.0210    25.4830 
   54.3750    13.0690     2.1420    39.8440     1.0100     0.8930     2.4820    25.4810 
   54.5000    14.2390     2.1190    39.2730     1.1140     0.9040     3.2610    25.4800 
   54.6250    15.3080     2.1060    40.3970     0.9930     0.8990     4.3130    25.4790 
   54.7500    16.2350     2.0990    40.5190     0.7840     0.8930     5.1640    25.4800 
   54.8750    17.0300     2.0890    38.7100     0.6200     0.8920     5.7200    25.4820 
   55.0000    17.7120     2.0750    37.0020     0.5610     0.9010     6.1980    25.4840 
   55.1250    18.2420     2.0600    38.4860     0.5690     0.9160     6.6410    25.4870 
   55.2500    18.6610     2.0530    40.9260     0.5490     0.9300     6.2780    25.4900 
   55.3750    18.9710     2.0560    40.2880     0.4890     0.9420     5.2490    25.4940 
   55.5000    19.1530     2.0670    36.5940     0.4140     0.9530     4.1940    25.4970 
   55.6250    19.2460     2.0770    33.5660     0.3620     0.9600     3.3590    25.4980 
   55.7500    19.3240     2.0840    32.3850     0.3500     0.9610     2.7640    25.4970 
   55.8750    19.4560     2.0880    32.3020     0.3830     0.9580     2.4190    25.4960 
   56.0000    19.6290     2.0940    31.7200     0.4450     0.9550     2.2410    25.4940 
   56.1250    19.6520     2.1030    31.0950     0.4940     0.9560     2.1790    25.4920 
   56.2500    19.5160     2.1140    31.9700     0.5050     0.9630     2.5950    25.4890 
   56.3750    19.2790     2.1250    33.9840     0.4810     0.9740     4.5740    25.4880 
   56.5000    18.9390     2.1400    35.9920     0.4360     0.9850    10.1170    25.4880 
   56.6250    18.4460     2.1620    36.1180     0.3940     0.9940    16.9220    25.4880 
   56.7500    17.7610     2.1910    35.3710     0.3680     1.0020    19.1690    25.4900 
   56.8750    16.8200     2.2130    36.4140     0.3610     1.0120    20.8840    25.4910 
   57.0000    15.6980     2.2140    40.0790     0.3760     1.0240    19.5980    25.4920 
   57.1250    14.5580     2.1830    42.7550     0.4220     1.0360    14.7150    25.4940 
   57.2500    13.3850     2.1360    41.6180     0.4810     1.0460     9.8330    25.4960 
   57.3750    12.1660     2.0930    38.9770     0.5240     1.0510     7.2590    25.4970 
   57.5000    10.9370     2.0680    39.2240     0.5340     1.0490     6.3900    25.4980 
   57.6250     9.7530     2.0720    42.0720     0.5220     1.0380     8.2180    25.4970 
   57.7500     8.6640     2.1000    43.3420     0.5280     1.0160    12.0390    25.4950 
   57.8750     7.6710     2.1380    41.1980     0.5820     0.9770    13.6090    25.4950 
   58.0000     6.7200     2.1780    37.0710     0.6640     0.8950    10.5170    25.5030 
   58.1250     5.8200     2.2350    35.1960     0.6620     0.7290     8.3580    25.5230 
   58.2500     4.9410     2.3460    35.7590     0.5270     0.5080     8.4820    25.5500 
   58.3750     4.0160     2.5190    36.1960     0.3210     0.2930     9.3900    25.5790 
   58.5000     3.0330     2.6890    35.2700     0.1440     0.1390    10.7300    25.6070 
   58.6250     1.9680     2.7370    34.4790     0.0540     0.0650    11.3400    25.6330 
   58.7500     0.8330     2.6560    35.4230     0.0240     0.0390    13.8440    25.6740 
   58.8750    -0.3570     2.4980    37.9350     0.0330     0.0450    13.8370    25.7400 
   59.0000    -1.5930     2.3330    41.1220     0.0700     0.0830     9.0110    25.8230 
   59.1250    -2.8670     2.2290    44.4090     0.1550     0.1840     3.9610    25.7720 
   59.2500    -4.1320     2.2000    48.4560     0.3200     0.3880     1.7410    25.5770 
   59.3750    -5.3740     2.2290    53.3390     0.6200     0.7580     1.7860    25.2620 
   59.5000    -6.6100     2.2760    58.2980     1.1120     1.3600     2.8850    24.8820 
   59.6250    -7.8800     2.3000    63.7810     1.8560     2.2790     4.1690    24.5060 
   59.7500    -9.2010     2.2970    69.8750     2.7220     3.4010     5.0570    24.1860 
   59.8750   -10.4900     2.2810    74.3240     3.5410     4.5520     5.1640    23.9600 
   60.0000   -11.6760     2.2650    75.5260     4.2050     5.5320     7.9770    23.8720 
   60.1250   -12.8430     2.2580    73.7220     4.7430     6.1910     8.3640    23.9540 
   60.2500   -13.9830     2.2600    72.2840     5.2790     6.6210     8.8550    24.1170 
   60.3750   -15.0090     2.2660    73.6540     5.8240     6.9160     9.0190    24.2270 
   60.5000   -15.8750     2.2680    76.6710     6.2870     7.1320     8.8760    24.2600 
   60.6250   -16.5890     2.2670    77.9250     6.4800     7.2420     8.9090    24.2110 
   60.7500   -17.1970     2.2660    78.3190     6.3960     7.2350     9.4350    24.1320 
   60.8750   -17.7080     2.2670    78.9780     6.1860     7.1620    10.0340    24.0370 
   61.0000   -18.1210     2.2760    77.7520     6.0920     7.1430     9.1520    23.9330 
   61.1250   -18.4160     2.3050    76.9760     6.3640     7.3510     8.1460    23.8320 
