~V
VERS. 2.00: Ver 2.00
~W
STRT.M 50.0000:
STOP.M 212.0000:
STEP.M 0.1250:
NULL. -999.2500:
UWI. F10691:
~C
DEPT.M :
GR.API :
RML.OHMM :
RI. :
RXO.OHMM :
CALI.CM :
SP.MV :
DEN.GM/CC :
~A
# ...
  196.2500    41.9900     7.7230     6.8950     8.4330    25.7150   -20.9610     2.4770 
  196.3750    35.2480     5.1430     4.5920     4.2900    26.0790   -20.6280     2.3990 
  196.5000    31.4280     3.9160     3.4970     3.4350    26.2530   -20.3710     2.3220 
  196.6250    32.3190     3.5770     3.1940     3.5520    26.3820   -20.1820     2.2670 
  196.7500    33.2680     3.6420     3.2520     3.6070    26.5980   -20.0450     2.2370 
  196.8750    31.5590     3.8810     3.4660     3.6320    26.9160   -19.9590     2.2300 
  197.0000    28.9900     4.1030     3.6640     3.6970    27.3180   -19.9280     2.2390 
  197.1250    29.4960     4.1750     3.7270     3.8160    28.0610   -19.9160     2.2540 
  197.2500    30.4140     4.1380     3.6950     3.9010    28.5150   -19.9260     2.2630 
  197.3750    29.1120     4.0810     3.6440     3.8950    28.5590   -19.9500     2.2670 
  197.5000    26.5570     4.0860     3.6480     3.8080    28.2690   -19.9670     2.2730 
  197.6250    25.2770     4.2110     3.7600     3.7640    27.5040   -19.9890     2.3010 
  197.7500    25.4580     4.4080     3.9350     4.3350    27.0180   -20.0020     2.3540 
  197.8750    25.7530     4.5850     4.0940     6.1960    26.6220   -20.0060     2.4230 
  198.0000    26.1460     4.6360     4.1390     9.4540    26.3160   -19.9940     2.4860 
  198.1250    25.0240     4.4640     3.9860     9.6980    26.1930   -19.9780     2.5110 
  198.2500    22.7210     4.1440     3.7000     6.4070    26.1970   -19.9530     2.4880 
  198.3750    22.1000     3.7730     3.3690     4.1210    26.4080   -19.9180     2.4270 
  198.5000    23.6350     3.4450     3.0760     3.2320    26.7220   -19.8810     2.3490 
  198.6250    24.5370     3.2370     2.8900     3.1890    27.0200   -19.8510     2.2820 
  198.7500    23.6040     3.1430     2.8060     3.3010    27.1860   -19.8210     2.2430 
  198.8750    22.9390     3.1360     2.8000     3.4450    27.2690   -19.7820     2.2400 
  199.0000    23.4360     3.1790     2.8380     3.5480    26.5090   -19.7190     2.2640 
  199.1250    23.4610     3.2310     2.8850     3.5700    26.1060   -19.6310     2.2900 
  199.2500    23.4880     3.2640     2.9140     3.6300    25.4240   -19.5180     2.2870 
  199.3750    24.3260     3.2720     2.9220     3.7120    25.3430   -19.4020     2.2450 
  199.5000    25.7890     3.2600     2.9110     3.6890    26.4230   -19.2880     2.1840 
  199.6250    26.3360     3.2360     2.8890     3.5830    26.8790   -19.1590     2.1380 
  199.7500    25.3440     3.2100     2.8660     3.5990    27.4750   -19.0360     2.1210 
  199.8750    23.7870     3.1870     2.8450     3.6010    28.4930   -18.9360     2.1270 
  200.0000    22.9510     3.1640     2.8250     3.5540    28.3330   -18.8750     2.1370 
  200.1250    23.1300     3.1370     2.8010     3.5340    27.4260   -18.8710     2.1420 
  200.2500    23.7960     3.1040     2.7720     3.5030    27.9910   -18.9260     2.1520 
  200.3750    24.0120     3.0740     2.7450     3.5170    29.3320   -19.0070     2.1830 
  200.5000    23.9040     3.0660     2.7370     3.5880    30.3550   -19.0980     2.2420 
  200.6250    23.8750     3.1200     2.7850     3.5880    30.3800   -19.1990     2.3130 
  200.7500    24.0150     3.2500     2.9020     3.5920    30.2340   -19.3070     2.3730 
  200.8750    24.3190     3.3230     3.0890     3.6380    28.3040   -19.4280     2.4090 
  201.0000    24.7960     3.5580     3.3260     3.8720    26.2320   -19.5640     2.4210 
  201.1250    25.8290     3.8470     3.5550     4.4490    25.8440   -19.6720     2.4160 
  201.2500    26.7280     4.0510     3.7080     5.0960    26.1860   -19.7390     2.4000 
  201.3750    26.6470     4.1190     3.7450     5.3240    26.7470   -19.7940     2.3780 
  201.5000    25.4660     4.0620     3.6750     5.1450    27.0710   -19.8350     2.3530 
  201.6250    24.2360     3.9500     3.5440     4.7370    27.0900   -19.8680     2.3260 
  201.7500    24.4040     3.8630     3.4200     4.2870    27.4270   -19.9070     2.2970 
  201.8750    26.6380     3.8170     3.3270     3.8740    27.9380   -19.9370     2.2610 
  202.0000    27.2020     3.7960     3.2650     3.7140    27.9850   -19.9600     2.2160 
  202.1250    27.2020     3.7580     3.2190     3.8260    27.9100   -20.0140     2.1640 
  202.2500    27.2020     3.6810     3.1760     3.8980    29.1930   -20.1080     2.1220 
  202.3750    27.2020     3.5890     3.1350     3.9020    30.8960   -20.2290     2.1030 
  202.5000    27.2020     3.5260     3.1050     3.8500    32.4530   -20.3660     2.1150 
  202.6250    27.2020     3.5320     3.0950     3.8480    33.9610   -20.4550     2.1590 
  202.7500    27.2020     3.5860     3.1050     3.9360    35.2990   -20.4860     2.2150 
  202.8750    27.2020     3.6560     3.1300     4.1180    35.7440   -20.4760     2.2650 
  203.0000    27.2020     3.7140     3.1630     4.2410    34.8470   -20.4290     2.3020 
  203.1250    27.2020     3.7450     3.1960     4.1590    33.6990   -20.3460     2.3310 
  203.2500    27.2020     3.7570     3.2190     4.0990    33.1430   -20.2230     2.3580 
  203.3750    27.2020     3.7560     3.2290     4.0540    32.3950   -20.0680     2.3760 
  203.5000    27.2020     3.7500     3.2280     3.8710    29.6280   -19.8950     2.3760 
  203.6250    27.2020     3.7430     3.2220     3.6740    28.0770   -19.8070     2.3510 
  203.7500    27.2020     3.7390     3.2250     3.6640    28.2820   -19.8200     2.3160 
  203.8750    27.2020     3.7340     3.2410     3.7530    28.4320   -19.8920     2.2850 
  204.0000    27.2020     3.7350     3.2670     3.9380    27.9450   -19.9830     2.2630 
  204.1250    27.2020     3.7490     3.2970     4.0260    27.9520   -20.0630     2.2510 
  204.2500    27.2020     3.7720     3.3210     4.1400    28.3790   -20.1550     2.2490 
  204.3750    27.2020     3.7940     3.3310     4.2100    29.1960   -20.2610     2.2590 
  204.5000    27.2020     3.7960     3.3160     4.2390    30.1480   -20.3610     2.2790 
  204.6250    27.2020     3.7640     3.2640     4.2300    30.2960   -20.4420     2.2920 
  204.7500    27.2020     3.7130     3.1890     4.1970    30.3240   -20.4690     2.2730 
  204.8750    27.2020     3.6500     3.1100     4.1350    30.1050   -20.4080     2.2160 
  205.0000    27.2020     3.6050     3.0520     4.0160    29.9700   -20.2630     2.1350 
  205.1250    27.2020     3.6240     3.0450     3.9120    30.6300   -20.0480     2.0820 
  205.2500    27.2020     3.7480     3.1070     3.9260    31.7260   -19.7390     2.0640 
  205.3750    27.2020     4.0040     3.2560     4.0690    31.9890   -19.3370     2.1180 
  205.5000    27.2020     4.3950     3.5000     4.3250    30.9220   -18.9070     2.2350 
  205.6250    27.2020     4.8830     3.8320     4.9750    28.3160   -18.4730     2.3650 
  205.7500    27.2020     5.3040     4.1640     6.4560    26.8840   -18.0260     2.4460 
  205.8750    27.2020     5.5110     4.3960     8.0620    27.2020   -17.5650     2.4270 
  206.0000    27.2020     5.4280     4.4470     7.8650    28.3920   -17.1240     2.3420 
  206.1250    27.2020     5.0830     4.2830     5.9330    29.2570   -16.6980     2.2440 
  206.2500    27.2020     4.6750     4.0190     4.7910    29.9060   -16.3080     2.1840 
  206.3750    27.2020     4.3300     3.7500     4.4060    30.5500   -16.0170     2.1940 
  206.5000    27.2020     4.1310     3.5490     4.2760    29.7940   -15.7970     2.2460 
  206.6250    27.2020     4.1060     3.4720     4.1270    29.2580   -15.6080     2.3050 
  206.7500    27.2020     4.1760     3.4920     4.0790    29.1960   -15.4680     2.3460 
  206.8750    27.2020     4.2820     3.5740     4.1650    28.6560   -15.4230     2.3660 
  207.0000    27.2020     4.3770     3.6740     4.5870    27.3140   -15.4630     2.3810 
  207.1250    27.2020     4.4360     3.7470     5.2350    26.3420   -15.5720     2.3970 
  207.2500    27.2020     4.4700     3.7820     5.6940    26.6880   -15.7390     2.4080 
  207.3750    27.2020     4.4920     3.7910     5.5180    27.7530   -15.9000     2.4060 
