~V
VERS. 2.00: Ver 2.00
~W
STRT.M 58.0000:
STOP.M 221.0000:
STEP.M 0.1250:
NULL. -999.2500:
UWI. F10613:
~C
DEPT.M :
SP.MV :
GR.API :
RML.OHMM :
RI. :
RXO.OHMM :
CALI.CM :
DEN.GM/CC :
~A
# ...
  136.7500   -10.2160    49.7940    16.2430    14.4170    13.7790    24.2790     2.4460 
  136.8750   -10.2900    50.7910    15.4400    13.6070    14.0080    24.2750     2.4340 
  137.0000   -10.3740    51.7970    15.1580    13.2360    14.7810    24.3010     2.4240 
  137.1250   -10.3730    50.5440    15.1370    13.1060    14.9040    24.3140     2.4100 
  137.2500   -10.3530    48.7780    15.2720    13.1250    14.2350    24.2990     2.3960 
  137.3750   -10.3700    50.0800    15.5280    13.2640    13.5610    24.2530     2.3930 
  137.5000   -10.3300    52.8510    15.8890    13.5220    14.1070    24.2030     2.4140 
  137.6250   -10.2660    54.1130    16.2420    13.8170    14.6640    24.1030     2.4480 
  137.7500   -10.2390    53.9950    16.4630    14.0440    16.4020    23.9960     2.4790 
  137.8750   -10.1930    54.0770    16.4490    14.1000    17.9280    23.9270     2.4920 
  138.0000   -10.1260    55.1670    16.1790    13.9160    17.2350    23.9330     2.4790 
  138.1250   -10.1070    57.4630    15.8660    13.6330    15.0690    24.0160     2.4550 
  138.2500   -10.0890    60.0360    15.7240    13.4180    13.6920    24.1550     2.4380 
  138.3750   -10.0220    61.1590    15.8990    13.4150    14.4130    24.2570     2.4370 
  138.5000    -9.9520    60.5380    16.4650    13.7310    15.2170    24.3120     2.4560 
  138.6250    -9.9120    58.8080    17.2540    14.2800    16.7260    24.3300     2.4800 
  138.7500    -9.8720    56.3040    18.1100    14.9550    17.7260    24.3360     2.4950 
  138.8750    -9.8270    53.1030    18.9000    15.6290    17.9630    24.3380     2.4990 
  139.0000    -9.8190    49.2420    19.5570    16.2060    18.5050    24.3430     2.4940 
  139.1250    -9.8480    47.7270    20.1200    16.6870    19.1320    24.3440     2.4920 
  139.2500    -9.8820    48.4460    20.5680    17.0600    19.7040    24.3250     2.4990 
  139.3750    -9.9490    49.1270    20.8060    17.2660    20.2840    24.2780     2.5100 
  139.5000   -10.0800    47.4510    20.6560    17.1790    20.2500    24.2240     2.5200 
  139.6250   -10.1620    46.2570    20.1730    16.8250    19.1890    24.1920     2.5240 
  139.7500   -10.2080    48.3430    19.5220    16.3060    17.2740    24.1290     2.5180 
  139.8750   -10.2360    51.3650    18.9540    15.7970    15.8590    23.9670     2.5010 
  140.0000   -10.1900    52.4090    18.7530    15.5220    15.3730    23.8410     2.4750 
  140.1250   -10.1010    52.1540    18.9430    15.5500    15.8690    23.9030     2.4510 
  140.2500    -9.9720    51.4650    19.4450    15.8700    16.7420    23.9610     2.4380 
  140.3750    -9.7900    50.8790    20.0910    16.3790    16.8640    23.7650     2.4370 
  140.5000    -9.5900    50.0180    20.6690    16.9140    16.4780    23.4140     2.4450 
  140.6250    -9.4120    49.5270    21.1010    17.3490    16.6530    23.2400     2.4520 
  140.7500    -9.1920    50.5040    21.4510    17.6870    16.9680    23.3700     2.4530 
  140.8750    -8.9660    52.0440    21.8360    18.0050    17.3190    23.7430     2.4500 
  141.0000    -8.8210    52.3430    22.3010    18.3650    17.4390    24.1980     2.4470 
  141.1250    -8.6700    50.2920    22.6740    18.6800    18.5230    24.4060     2.4480 
  141.2500    -8.5560    48.9800    22.6870    18.7650    20.5290    24.4690     2.4520 
  141.3750    -8.5390    50.6550    22.1320    18.4410    21.7720    24.4690     2.4580 
  141.5000    -8.5250    52.9530    21.0130    17.6560    21.2060    24.4350     2.4620 
  141.6250    -8.4990    52.8410    19.8170    16.7400    18.0710    24.4150     2.4630 
  141.7500    -8.5420    51.8900    18.9560    16.0000    15.9790    24.4040     2.4640 
  141.8750    -8.6360    52.7300    18.6870    15.6560    15.5740    24.3990     2.4670 
  142.0000    -8.6790    52.8840    19.1450    15.8680    17.0320    24.3940     2.4730 
  142.1250    -8.7220    50.2640    20.0190    16.4710    18.7960    24.3940     2.4740 
  142.2500    -8.7600    48.0260    20.9770    17.2500    19.7360    24.3830     2.4670 
  142.3750    -8.7280    47.8420    21.6630    17.9170    19.6480    24.3700     2.4510 
  142.5000    -8.7050    48.1290    21.7670    18.1670    19.6730    24.3660     2.4400 
  142.6250    -8.7040    47.7410    21.4390    18.0370    19.6070    24.3820     2.4420 
  142.7500    -8.6650    47.5040    20.9260    17.6910    18.9470    24.3900     2.4560 
  142.8750    -8.6240    47.3670    20.4870    17.3340    17.9850    24.3770     2.4720 
  143.0000    -8.6140    47.5990    20.2920    17.1280    17.7130    24.3670     2.4770 
  143.1250    -8.5850    50.1010    20.2750    17.0530    18.7440    24.3610     2.4750 
  143.2500    -8.5690    52.9250    20.3530    17.0530    20.4300    24.3610     2.4720 
  143.3750    -8.5690    53.6050    20.4680    17.0880    21.9910    24.3560     2.4750 
  143.5000    -8.4790    51.9970    20.6020    17.1580    22.4400    24.3440     2.4830 
  143.6250    -8.3860    50.1470    20.7490    17.2670    19.9300    24.3420     2.4880 
  143.7500    -8.3300    49.1730    20.9360    17.4290    18.4230    24.3470     2.4870 
  143.8750    -8.2340    51.5040    21.2150    17.6740    19.6250    24.3440     2.4830 
  144.0000    -8.1410    56.4310    21.6140    18.0220    21.5180    24.3390     2.4830 
  144.1250    -8.1120    58.9060    22.0440    18.4030    21.5990    24.3150     2.4880 
  144.2500    -8.0730    57.6230    22.4040    18.7340    20.2250    24.2590     2.4910 
  144.3750    -8.0260    55.9480    22.6010    18.9340    20.3630    24.1900     2.4900 
  144.5000    -8.0750    55.4810    22.5620    18.9340    21.2140    24.0930     2.4830 
  144.6250    -8.1570    55.0040    22.3970    18.8180    20.7960    23.9970     2.4760 
  144.7500    -8.2080    55.1370    22.2450    18.6920    19.1600    23.9500     2.4740 
  144.8750    -8.2700    56.1240    22.2210    18.6500    18.2580    23.8870     2.4790 
  145.0000    -8.3790    58.2250    22.3910    18.7510    17.7020    23.7170     2.4870 
  145.1250    -8.4410    60.2580    22.6560    18.9460    17.5840    23.4870     2.4950 
  145.2500    -8.4810    59.8800    22.8650    19.1440    17.6900    23.2050     2.5000 
  145.3750    -8.5510    56.9340    22.8620    19.2200    18.4190    22.9690     2.5030 
  145.5000    -8.5750    53.1130    22.5730    19.0630    18.5800    23.0760     2.5050 
  145.6250    -8.5880    51.2710    22.1820    18.7690    18.3450    23.5340     2.5060 
  145.7500    -8.6230    52.3380    21.8430    18.4590    18.5560    24.0530     2.5040 
  145.8750    -8.6430    56.5070    21.6410    18.2320    18.7770    24.3350     2.4980 
  146.0000    -8.6300    59.7140    21.5870    18.1420    19.0560    24.3920     2.4880 
  146.1250    -8.5910    56.9680    21.5690    18.1060    20.1130    24.3930     2.4780 
  146.2500    -8.5240    50.8370    21.4890    18.0210    20.9040    24.3970     2.4730 
  146.3750    -8.4410    47.8200    21.2920    17.8140    20.6450    24.4010     2.4740 
  146.5000    -8.3820    50.6310    20.9990    17.4840    18.5190    24.4170     2.4780 
  146.6250    -8.2670    53.2010    20.7190    17.1460    17.2090    24.4610     2.4800 
  146.7500    -8.1210    52.8800    20.5360    16.8880    16.8870    24.4810     2.4780 
  146.8750    -8.0140    50.1440    20.4960    16.7650    17.0980    24.4360     2.4750 
  147.0000    -7.8830    46.5230    20.6170    16.7930    17.9120    24.3890     2.4740 
  147.1250    -7.7670    44.6750    20.8190    16.8940    18.6310    24.3540     2.4750 
  147.2500    -7.7150    46.8800    21.0410    17.0140    18.8010    24.3420     2.4780 
  147.3750    -7.6840    51.6720    21.2270    17.1090    18.7530    24.3370     2.4780 
  147.5000    -7.6290    52.5690    21.2910    17.1300    18.3840    24.3270     2.4730 
  147.6250    -7.6350    49.7360    21.2080    17.0560    18.7490    24.3260     2.4700 
  147.7500    -7.7060    48.0720    20.9990    16.8820    18.8720    24.3280     2.4720 
  147.8750    -7.7580    49.8570    20.7410    16.6470    18.7130    24.3330     2.4790 
