~V
VERS. 2.00: Ver 2.00
~W
STRT.M 59.0000:
STOP.M 270.0000:
STEP.M 0.1250:
NULL. -999.2500:
UWI. F10667:
~C
DEPT.M :
GR.API :
RML.OHMM :
RI. :
RXO.OHMM :
CALI.CM :
DEN.GM/CC :
SP.MV :
~A
# ...
  205.2500    71.9290    13.9830    12.9620    16.1840    23.8240     2.3600   -16.0130 
  205.3750    70.0390    16.7270    15.3660    21.0070    23.8990     2.3360   -16.0050 
  205.5000    66.4200    19.9530    18.3000    24.4500    23.9450     2.3310   -16.0030 
  205.6250    61.0090    23.3280    21.5470    25.3680    23.9460     2.3680   -15.9870 
  205.7500    57.5940    26.2510    24.5680    28.7910    23.9390     2.4370   -15.9700 
  205.8750    57.1580    28.0900    26.7770    35.2670    23.9260     2.5110   -15.9480 
  206.0000    57.5520    28.3570    27.6450    41.0440    23.9110     2.5550   -15.9000 
  206.1250    59.7560    26.7920    26.7220    38.5210    23.8860     2.5380   -15.8860 
  206.2500    64.0530    24.2930    24.6530    29.6450    23.9150     2.4780   -15.8660 
  206.3750    68.0960    21.6830    22.1360    22.6530    24.0000     2.4040   -15.8420 
  206.5000    68.1960    19.6430    19.8690    19.4820    24.0540     2.3440   -15.8450 
  206.6250    63.9490    18.7120    18.4810    17.8320    24.0680     2.3210   -15.8450 
  206.7500    61.0280    18.7700    18.0210    17.5540    24.0650     2.3260   -15.8870 
  206.8750    61.4900    19.6680    18.4410    18.6060    24.0560     2.3490   -15.9260 
  207.0000    63.0870    21.1570    19.5830    21.4670    24.0260     2.3750   -15.9360 
  207.1250    61.5800    22.9140    21.2310    25.0120    23.9630     2.3890   -15.9480 
  207.2500    58.7480    24.5300    22.9610    26.1600    23.9350     2.3900   -15.9420 
  207.3750    58.7820    25.7410    24.4650    26.3700    23.9280     2.3790   -15.9180 
  207.5000    61.2610    26.3560    25.4740    26.6490    23.9280     2.3650   -15.8750 
  207.6250    63.0920    26.1330    25.6460    26.6830    23.9280     2.3570   -15.8050 
  207.7500    63.9970    25.1490    24.9920    26.5840    23.9280     2.3550   -15.6920 
  207.8750    65.3620    23.4800    23.5570    25.7350    23.9280     2.3580   -15.5750 
  208.0000    67.4980    21.3370    21.5420    23.5350    23.9280     2.3620   -15.4540 
  208.1250    70.5740    19.0780    19.3000    19.9470    23.9280     2.3610   -15.3340 
  208.2500    73.5890    17.0910    17.2730    16.6960    23.9280     2.3530   -15.2250 
  208.3750    73.9930    15.5890    15.7090    15.1110    23.9280     2.3400   -15.1400 
  208.5000    70.9830    14.6470    14.7170    14.4340    23.9280     2.3260   -15.0630 
  208.6250    70.8320    14.3010    14.3600    14.8790    23.9280     2.3140   -15.0240 
  208.7500    74.0660    14.3380    14.4290    15.8680    23.9280     2.3050   -15.0390 
  208.8750    75.1680    14.6180    14.7790    16.7450    23.9280     2.2980   -15.0540 
  209.0000    71.8350    15.0130    15.2550    16.9850    23.9280     2.2890   -15.1120 
  209.1250    68.6660    15.4170    15.7170    17.3040    23.9280     2.2800   -15.1820 
  209.2500    70.6040    15.7630    16.0900    17.8870    23.9280     2.2720   -15.2310 
  209.3750    74.7300    16.0240    16.3640    18.1760    23.9290     2.2680   -15.3030 
  209.5000    75.7620    16.1860    16.5610    18.0580    23.9320     2.2690   -15.3930 
  209.6250    71.7000    16.2250    16.6970    17.6450    23.9340     2.2750   -15.4830 
  209.7500    67.5990    16.1650    16.7860    17.5930    23.9340     2.2830   -15.5730 
  209.8750    66.3960    16.0170    16.8160    18.0600    23.9340     2.2920   -15.6810 
  210.0000    66.3880    15.8010    16.7710    18.4870    23.9300     2.2990   -15.7710 
  210.1250    65.9270    15.5510    16.6220    18.1840    23.9270     2.3030   -15.8580 
  210.2500    66.6200    15.3070    16.3750    17.4990    23.9450     2.3060   -15.9910 
  210.3750    69.3560    15.0740    16.0220    16.9560    23.9720     2.3100   -16.1060 
  210.5000    72.0010    14.8160    15.5490    16.7350    23.8930     2.3160   -16.2170 
  210.6250    71.1870    14.4530    14.9250    15.8060    23.8190     2.3260   -16.3330 
  210.7500    70.2220    13.9810    14.2150    15.3010    23.7630     2.3350   -16.4210 
  210.8750    73.1660    13.4770    13.5290    14.6930    23.7290     2.3400   -16.5100 
  211.0000    78.7090    13.1020    13.0270    13.5570    23.6930     2.3390   -16.5830 
  211.1250    80.6890    13.1250    12.9590    12.5350    23.6760     2.3350   -16.6240 
  211.2500    78.2460    13.6520    13.3980    13.0210    23.6780     2.3320   -16.6380 
  211.3750    73.0420    14.7300    14.3780    15.6500    23.7010     2.3300   -16.6380 
  211.5000    68.7560    16.2880    15.8320    20.3480    23.7260     2.3290   -16.6140 
  211.6250    68.7500    18.1260    17.5830    22.2970    23.7380     2.3240   -16.5330 
  211.7500    71.0070    19.8660    19.2690    22.6920    23.7490     2.3190   -16.4280 
  211.8750    70.9300    21.2420    20.6270    23.2900    23.7680     2.3170   -16.3040 
  212.0000    66.6110    22.1160    21.5140    23.8730    23.7910     2.3190   -16.1800 
  212.1250    62.3520    22.4410    21.8810    23.8160    23.8190     2.3210   -16.0710 
  212.2500    61.7660    22.4310    21.9470    23.5030    23.8570     2.3190   -15.9480 
  212.3750    64.1440    22.2280    21.8490    23.3190    23.8930     2.3100   -15.8360 
  212.5000    66.3190    21.9690    21.6880    23.3840    23.9380     2.2960   -15.7350 
  212.6250    66.4850    21.8070    21.5420    23.5230    24.0210     2.2840   -15.6720 
  212.7500    65.6570    21.8280    21.4640    23.6210    24.1050     2.2770   -15.6370 
  212.8750    64.7500    22.0550    21.4900    23.6770    24.1450     2.2760   -15.6110 
  213.0000    64.3540    22.4450    21.6330    23.5390    24.1540     2.2840   -15.6070 
  213.1250    65.7670    22.8950    21.8820    23.6560    24.1540     2.3020   -15.6220 
  213.2500    67.4450    23.2780    22.1670    23.9390    24.1540     2.3220   -15.6370 
  213.3750    67.4340    23.5320    22.4440    24.3390    24.1540     2.3380   -15.6570 
  213.5000    66.2620    23.6580    22.6930    24.7680    24.1540     2.3430   -15.6860 
  213.6250    65.9800    23.7290    22.9220    24.3890    24.1540     2.3340   -15.7090 
  213.7500    65.8510    23.8660    23.1670    24.2100    24.1540     2.3200   -15.7410 
  213.8750    65.5090    24.1430    23.4510    24.7810    24.1540     2.3080   -15.7960 
  214.0000    65.6200    24.5750    23.7770    25.6630    24.1540     2.3040   -15.8390 
  214.1250    65.3410    25.1260    24.1210    26.2090    24.1450     2.3080   -15.8550 
  214.2500    64.0980    25.6840    24.4490    26.7090    24.1220     2.3130   -15.8810 
  214.3750    64.2190    26.1740    24.7500    27.5640    24.0890     2.3170   -15.9070 
  214.5000    67.4630    26.5560    25.0460    27.2790    24.0600     2.3150   -15.9180 
  214.6250    70.1640    26.8330    25.4090    27.5080    24.0450     2.3110   -15.9190 
  214.7500    69.4570    27.0780    25.8830    28.4790    24.0310     2.3110   -15.9240 
  214.8750    66.8400    27.3700    26.4840    29.7030    24.0060     2.3160   -15.9100 
  215.0000    66.3470    27.8440    27.2390    30.5060    23.9890     2.3250   -15.8940 
  215.1250    68.5590    28.8240    28.3130    31.9790    23.9850     2.3310   -15.8920 
  215.2500    69.9640    30.4610    29.8410    33.5010    23.9880     2.3330   -15.8810 
  215.3750    67.2520    32.6080    31.7970    33.5660    23.9890     2.3410   -15.8570 
  215.5000    62.7360    34.4240    33.6330    33.8210    23.9890     2.3670   -15.8200 
  215.6250    62.2790    33.8590    33.7160    39.9490    23.9920     2.4200   -15.7640 
  215.7500    65.1770    30.1190    31.0540    51.0280    23.9950     2.4880   -15.6460 
  215.8750    66.9120    23.9730    25.8560    54.5540    23.9940     2.5490   -15.5010 
  216.0000    65.6080    17.3560    19.6000    36.2200    23.9930     2.5820   -15.3380 
  216.1250    62.3710    12.2650    14.2420    16.8100    24.0020     2.5730   -15.1000 
  216.2500    59.1530     9.0020    10.4780     8.4630    24.0190     2.5390   -14.8680 
  216.3750    56.9280     7.2900     8.2030     6.7310    24.0330     2.4960   -14.6360 
