~V
VERS. 2.00: Ver 2.00
~W
STRT.M 58.0000:
STOP.M 272.0000:
STEP.M 0.1250:
NULL. -999.2500:
UWI. F10670:
~C
DEPT.M :
DEN.GM/CC :
GR.API :
RML.OHMM :
RI. :
RXO.OHMM :
CALI.CM :
SP.MV :
~A
# ...
  260.5000     2.3570    23.4420     4.2360     4.0220     4.1370    23.4440   -12.4390 
  260.6250     2.3680    22.2440     4.2420     4.0550     4.0790    23.5200   -12.6400 
  260.7500     2.3740    21.0130     4.2430     4.0790     4.0830    23.5310   -12.7870 
  260.8750     2.3760    21.1110     4.2430     4.0890     4.1730    23.5170   -12.8780 
  261.0000     2.3750    22.2560     4.2430     4.0880     4.2060    23.4860   -12.9840 
  261.1250     2.3720    22.7690     4.2430     4.0870     4.2190    23.4310   -13.0980 
  261.2500     2.3690    22.3950     4.2450     4.0940     4.1870    23.3880   -13.2490 
  261.3750     2.3680    22.1220     4.2560     4.1130     4.2560    23.3650   -13.3300 
  261.5000     2.3720    21.9880     4.3030     4.1380     4.2750    23.3370   -13.4030 
  261.6250     2.3770    21.9880     4.3930     4.1630     4.3670    23.2730   -13.5440 
  261.7500     2.3800    21.9880     4.4960     4.1820     4.5340    23.1590   -13.7210 
  261.8750     2.3780    21.9880     4.5600     4.2020     4.7060    23.0640   -13.9710 
  262.0000     2.3710    21.9880     4.6230     4.2530     4.8920    23.1260   -14.3000 
  262.1250     2.3600    21.9880     4.7850     4.3590     5.0640    23.2760   -14.5720 
  262.2500     2.3460    21.9880     5.1140     4.5430     5.2360    23.3820   -14.8210 
  262.3750     2.3350    21.9880     5.5630     4.8090     5.6810    23.3940   -15.1310 
  262.5000     2.3280    21.9880     6.0160     5.1400     6.6250    23.3790   -15.4370 
  262.6250     2.3270    21.9880     6.3470     5.4630     7.6450    23.3720   -15.6620 
  262.7500     2.3310    21.9880     6.4800     5.7060     8.2590    23.3630   -15.7850 
  262.8750     2.3370    21.9880     6.4050     5.8180     8.6200    23.3420   -15.8750 
  263.0000     2.3420    21.9880     6.1930     5.7850     7.8570    23.3570   -15.8660 
  263.1250     2.3450    21.9880     6.0150     5.7160     6.9740    23.4220   -15.8940 
  263.2500     2.3470    21.9880     6.0020     5.7290     6.6380    23.4880   -15.7790 
  263.3750     2.3500    21.9880     6.2410     5.9300     7.0170    23.5150   -15.6190 
  263.5000     2.3520    21.9880     6.7760     6.3980     8.2030    23.5130   -15.4040 
  263.6250     2.3550    21.9880     7.4360     7.0130    10.0990    23.5060   -15.1090 
  263.7500     2.3600    21.9880     7.9780     7.5800    11.8800    23.4880   -14.8610 
  263.8750     2.3650    21.9880     8.1360     7.8600    11.8320    23.4590   -14.5930 
  264.0000     2.3700    21.9880     7.7060     7.6280     9.2440    23.4460   -14.2290 
  264.1250     2.3720    21.9880     6.9330     7.0290     6.7200    23.4360   -13.8820 
  264.2500     2.3710    21.9880     6.0830     6.2670     5.3630    23.4070   -13.6320 
  264.3750     2.3710    21.9880     5.3700     5.5420     4.7590    23.3520   -13.3300 
  264.5000     2.3760    21.9880     4.9230     5.0070     4.5230    23.3230   -13.0430 
  264.6250     2.3870    21.9880     4.6810     4.6530     4.3890    23.3150   -12.8300 
  264.7500     2.4000    21.9880     4.5760     4.4450     4.3160    23.3140   -12.6110 
  264.8750     2.4090    21.9880     4.5360     4.3370     4.2880    23.3200   -12.4150 
  265.0000     2.4110    21.9880     4.5110     4.2990     4.3620    23.3360   -12.2730 
  265.1250     2.4070    21.9880     4.4870     4.2980     4.3540    23.3570   -12.1610 
  265.2500     2.3990    21.9880     4.4680     4.3180     4.3250    23.3560   -12.0220 
  265.3750     2.3900    21.9880     4.4540     4.3430     4.3090    23.3350   -11.8900 
  265.5000     2.3840    21.9880     4.4410     4.3580     4.3120    23.3220   -11.8850 
  265.6250     2.3800    21.9880     4.4280     4.3630     4.3880    23.3160   -11.9380 
  265.7500     2.3790    21.9880     4.4210     4.3660     4.5970    23.3140   -11.9830 
  265.8750     2.3780    21.9880     4.4250     4.3790     4.8240    23.3150   -12.0480 
  266.0000     2.3740    21.9880     4.4330     4.4020     4.8000    23.3250   -12.0730 
  266.1250     2.3670    21.9880     4.4340     4.4240     4.6110    23.3460   -12.0770 
  266.2500     2.3580    21.9880     4.4250     4.4330     4.4680    23.3660   -12.1580 
  266.3750     2.3510    21.9880     4.4140     4.4230     4.4430    23.3740   -12.2890 
  266.5000     2.3500    21.9880     4.4100     4.4000     4.4500    23.3690   -12.3600 
  266.6250     2.3550    21.9880     4.4110     4.3770     4.7390    23.3500   -12.2960 
  266.7500     2.3630    21.9880     4.4120     4.3650     5.3960    23.3120   -12.2680 
  266.8750     2.3730    21.9880     4.4160     4.3660     6.1660    23.2660   -12.2860 
  267.0000     2.3860    21.9880     4.4300     4.3800     6.6140    23.1750   -12.3600 
  267.1250     2.4010    21.9880     4.4540     4.3950     6.8270    23.0050   -12.3500 
  267.2500     2.4160    21.9880     4.4760     4.4020     7.0660    22.8410   -12.3350 
  267.3750     2.4280    21.9880     4.4870     4.4000     7.5190    22.8500   -12.3520 
  267.5000     2.4310    21.9880     4.4860     4.3920     7.7370    23.0480   -12.3110 
  267.6250     2.4280    21.9880     4.4840     4.3890     7.3390    23.2170   -12.3370 
  267.7500     2.4200    21.9880     4.4830     4.3880     7.0720    23.2540   -12.3960 
  267.8750     2.4090    21.9880     4.4830     4.3880     7.0000    23.1890   -12.3820 
  268.0000     2.3990    21.9880     4.4830     4.3880     7.9120    23.1230   -12.4330 
  268.1250     2.3920    21.9880     4.4830     4.3880     8.6760    23.0640   -12.5320 
  268.2500     2.3910    21.9880     4.4830     4.3880     8.2910    23.0040   -12.5030 
  268.3750     2.3970    21.9880     4.4830     4.3880     7.5520    22.9320   -12.4420 
  268.5000     2.4100    21.9880     4.4830     4.3880     6.6120    22.8940   -12.4570 
  268.6250     2.4230    21.9880     4.4830     4.3880     6.4340    22.8640   -12.5090 
  268.7500     2.4300    21.9880     4.4830     4.3880     6.5150    22.8170   -12.5550 
  268.8750     2.4310    21.9880     4.4830     4.3880     6.6540    22.7400   -12.5870 
  269.0000     2.4180    21.9880     4.4830     4.3880     6.9290    22.6800   -12.4570 
  269.1250     2.4070    21.9880     4.4830     4.3880     7.0100    22.6010   -12.4100 
  269.2500     2.3990    21.9880     4.4830     4.3880     6.7640    22.4300   -12.4180 
  269.3750     2.3900    21.9880     4.4830     4.3880     6.8170    22.0190   -12.4070 
  269.5000     2.3750    21.9880     4.4830     4.3880     6.5750    21.0830   -12.4210 
  269.6250     2.3450    21.9880     4.4830     4.3880     6.1460    19.8790   -12.2990 
  269.7500     2.3060    21.9880     4.4830     4.3880     5.8830    19.1450   -12.2440 
  269.8750     2.2670    21.9880     4.4830     4.3880     5.8240    18.9170   -12.2440 
  270.0000     2.2360    21.9880     4.4830     4.3880     5.8240    18.9030   -12.2440 
  270.1250     2.2200    21.9880     4.4830     4.3880     5.8230    18.9020  -999.2500 
  270.2500     2.2120    21.9880     4.4830     4.3880     5.8230    18.9020  -999.2500 
  270.3750     2.2110    21.9880     4.4830     4.3880     5.8240    18.9010  -999.2500 
  270.5000     2.2120    21.9880     4.4830     4.3880     5.8240    18.9000  -999.2500 
  270.6250     2.2150    21.9880     4.4830     4.3880     5.8230    18.9000  -999.2500 
  270.7500     2.2210    21.9880     4.4830     4.3880     5.8220    18.8980  -999.2500 
  270.8750     2.2270    21.9880     4.4830     4.3880     5.8210    18.8960  -999.2500 
  271.0000     2.2250    21.9880     4.4830     4.3880     5.8210    18.8960  -999.2500 
  271.1250     2.2230    21.9880     4.4830     4.3880     5.8210    18.8960  -999.2500 
  271.2500  -999.2500    21.9880     4.4830     4.3880     5.8220    18.8960  -999.2500 
  271.3750  -999.2500    21.9880     4.4830     4.3880     5.8200    18.8960  -999.2500 
  271.5000  -999.2500    21.9880     4.4830     4.3880     5.8200    18.8960  -999.2500 
  271.6250  -999.2500    21.9880     4.4830     4.3880     5.8200    18.8960  -999.2500 
