~V
VERS. 2.00: Ver 2.00
~W
STRT.M 50.0000:
STOP.M 216.0000:
STEP.M 0.1250:
NULL. -999.2500:
UWI. F10607:
~C
DEPT.M :
GR.API :
RML.OHMM :
RI. :
RXO.OHMM :
CALI.CM :
DEN.GM/CC :
SP.MV :
~A
# ...
  117.5000    64.0340    20.3520    18.7820    19.3030    24.2920     2.5310    -3.9720 
  117.6250    61.0280    22.1760    19.9400    22.6350    24.2850     2.5460    -4.2360 
  117.7500    55.6220    25.2390    22.1240    32.5380    24.2350     2.5670    -4.4700 
  117.8750    52.5170    29.1800    25.2550    37.5040    24.1900     2.5800    -4.6480 
  118.0000    52.5110    33.1980    28.8220    36.7330    24.1730     2.5800    -4.7840 
  118.1250    53.7800    36.0420    31.6910    36.7880    24.1730     2.5670    -4.8690 
  118.2500    53.3180    37.4470    33.2750    38.6510    24.1680     2.5520    -4.9140 
  118.3750    51.7120    37.9080    33.8290    36.3910    24.1500     2.5430    -4.9190 
  118.5000    51.1040    38.1360    33.9870    33.3690    24.1360     2.5490    -4.9050 
  118.6250    50.5960    38.4940    34.1610    35.2070    24.1290     2.5700    -4.8830 
  118.7500    49.2560    38.8990    34.3790    40.6060    24.1150     2.5830    -4.8800 
  118.8750    49.0180    39.2870    34.6110    43.2090    24.1090     2.5740    -4.9230 
  119.0000    51.1540    39.7010    34.8750    37.6360    24.1240     2.5430    -5.0200 
  119.1250    52.7610    40.2550    35.2360    34.0080    24.1260     2.5110    -5.1820 
  119.2500    51.4130    40.9940    35.7240    35.0040    24.1160     2.4980    -5.3860 
  119.3750    49.7860    41.9230    36.3760    40.8270    24.1040     2.5010    -5.5900 
  119.5000    51.3210    43.0040    37.2030    49.9310    24.0990     2.5080    -5.7640 
  119.6250    54.5070    44.1940    38.1870    46.3640    24.0990     2.5080    -5.9190 
  119.7500    55.2070    45.4170    39.2190    41.8050    24.0870     2.5030    -6.0960 
  119.8750    52.9850    46.5800    40.1910    41.6910    24.0750     2.5010    -6.3100 
  120.0000    49.1990    47.4990    40.9630    43.0430    24.0870     2.5090    -6.5570 
  120.1250    45.3450    47.7990    41.2760    43.4690    24.0750     2.5240    -6.8250 
  120.2500    44.4400    47.3800    41.0430    43.8150    24.0400     2.5360    -7.1060 
  120.3750    48.4120    46.3830    40.3260    42.5280    24.0210     2.5340    -7.4180 
  120.5000    53.2160    45.2870    39.4370    39.9990    24.0600     2.5180    -7.7640 
  120.6250    52.3920    44.8950    38.9700    37.9420    24.0920     2.4980    -8.1290 
  120.7500    48.6950    45.5680    39.2940    37.8150    24.1020     2.4900    -8.4350 
  120.8750    48.4390    47.2860    40.5020    39.9380    24.0990     2.4990    -8.6500 
  121.0000    51.2350    49.5790    42.3310    44.6900    24.0960     2.5240    -8.7520 
  121.1250    50.6230    51.4170    44.0420    48.2550    24.0940     2.5500    -8.7460 
  121.2500    47.4160    51.9730    44.8600    49.9930    24.0770     2.5630    -8.6700 
  121.3750    46.3700    50.9940    44.4540    49.5680    24.0330     2.5570    -8.5430 
  121.5000    47.8760    48.8260    42.9690    46.3810    23.9870     2.5380    -8.3730 
  121.6250    47.7250    46.2810    40.9480    39.0230    23.9620     2.5130    -8.1560 
  121.7500    46.5380    44.2790    39.1910    33.9650    23.9630     2.4910    -7.9180 
  121.8750    46.7650    43.2490    38.1340    33.8780    23.9500     2.4820    -7.6750 
  122.0000    48.5140    43.2230    37.8990    35.5470    23.8880     2.4910    -7.4510 
  122.1250    49.5040    43.9330    38.3650    34.5420    23.7670     2.5110    -7.2390 
  122.2500    47.9340    44.6400    38.9550    35.5520    23.6790     2.5300    -7.0320 
  122.3750    44.5160    44.7720    39.1860    37.4960    23.6000     2.5370    -6.8260 
  122.5000    42.4980    44.0300    38.7530    36.5850    23.4820     2.5300    -6.6140 
  122.6250    45.1810    42.4290    37.5940    33.1290    23.3050     2.5140    -6.3860 
  122.7500    48.9960    40.5620    36.1450    31.3450    23.2430     2.5000    -6.1710 
  122.8750    51.7820    38.9370    34.8000    30.8790    23.3100     2.4880    -5.9830 
  123.0000    52.7620    37.9710    33.9220    31.8000    23.4040     2.4800    -5.8440 
  123.1250    50.9870    37.9730    33.8380    32.8810    23.4230     2.4800    -5.7630 
  123.2500    47.7280    38.6340    34.3630    31.5400    23.4480     2.4920    -5.7460 
  123.3750    46.0180    39.6080    35.2390    30.8320    23.5190     2.5100    -5.7930 
  123.5000    47.0020    40.4990    36.1320    32.8340    23.5640     2.5240    -5.9100 
  123.6250    45.8680    40.8520    36.6230    35.7550    23.5300     2.5220    -6.1010 
  123.7500    42.1910    40.5460    36.5440    34.7280    23.5060     2.5090    -6.3280 
  123.8750    41.3290    39.5660    35.8410    32.2060    23.4840     2.5020    -6.5640 
  124.0000    45.1920    38.0130    34.5790    31.1460    23.3610     2.5110    -6.7760 
  124.1250    48.2780    36.0900    32.9230    31.4510    23.2090     2.5290    -6.9780 
  124.2500    47.7180    34.2150    31.2570    29.9670    23.1860     2.5390    -7.1570 
  124.3750    47.4610    32.6930    29.8570    27.7990    23.1970     2.5370    -7.3280 
  124.5000    49.1970    31.7480    28.9160    26.4820    23.1470     2.5320    -7.4840 
  124.6250    49.2880    31.6170    28.6470    25.9570    23.0010     2.5310    -7.6330 
  124.7500    48.3770    32.1490    28.9610    26.9050    22.8220     2.5340    -7.7670 
  124.8750    48.9310    33.1790    29.7610    29.3840    22.6580     2.5370    -7.8690 
  125.0000    49.9960    34.4260    30.8360    31.8040    22.5820     2.5360    -7.9280 
  125.1250    47.9830    35.4720    31.8390    32.5220    22.5790     2.5380    -7.9340 
  125.2500    45.8310    35.9700    32.4280    32.5450    22.5560     2.5470    -7.8880 
  125.3750    46.3660    35.7010    32.3780    33.6340    22.5610     2.5560    -7.7970 
  125.5000    48.1780    34.6420    31.6200    34.5040    22.6790     2.5520    -7.6770 
  125.6250    48.5880    32.9690    30.2260    32.4390    22.8140     2.5280    -7.5840 
  125.7500    48.2090    31.2400    28.6560    28.1910    22.8210     2.4960    -7.5370 
  125.8750    48.1650    29.8980    27.2900    26.0690    22.8170     2.4660    -7.5580 
  126.0000    49.1720    29.2720    26.4470    25.3340    22.9770     2.4490    -7.6520 
  126.1250    51.1310    29.5780    26.4100    25.7130    23.2780     2.4500    -7.8230 
  126.2500    51.4820    30.4570    26.9720    27.2690    23.4940     2.4670    -8.0610 
  126.3750    48.1070    31.5730    27.8920    27.8740    23.5430     2.4960    -8.3630 
  126.5000    42.5010    32.6070    28.8800    27.9780    23.4420     2.5290    -8.7140 
  126.6250    39.6580    33.2820    29.6310    28.6090    23.3430     2.5540    -9.0520 
  126.7500    40.2440    33.5750    30.0310    29.4740    23.3650     2.5650    -9.3630 
  126.8750    40.5050    33.5090    30.0610    30.5350    23.3460     2.5660    -9.6470 
  127.0000    40.4150    33.1250    29.7600    32.1020    23.1870     2.5590    -9.9030 
  127.1250    44.5560    32.4560    29.1650    32.9700    22.9230     2.5480   -10.1320 
  127.2500    50.3140    31.6780    28.4350    31.3710    22.7530     2.5390   -10.3450 
  127.3750    50.5600    30.9270    27.6940    29.0230    22.6540     2.5390   -10.5260 
  127.5000    45.1880    30.2890    27.0310    27.7680    22.5160     2.5530   -10.6830 
  127.6250    43.0360    29.8440    26.5280    28.7490    22.4510     2.5790   -10.8130 
  127.7500    46.1050    29.6130    26.2160    28.7930    22.4760     2.6050   -10.9300 
  127.8750    49.6760    29.6330    26.1250    28.0030    22.6720     2.6240   -11.0160 
  128.0000    49.6250    29.9330    26.2710    24.1470    22.9660     2.6320   -11.0670 
  128.1250    47.1590    30.6230    26.7380    23.4940    23.2160     2.6330   -11.0840 
  128.2500    46.1010    31.6470    27.5060    26.3000    23.3960     2.6350   -11.0730 
  128.3750    47.1370    32.8830    28.5040    31.1480    23.5060     2.6410   -11.0480 
  128.5000    48.2260    34.1330    29.5770    33.8810    23.5840     2.6520   -11.0050 
  128.6250    46.9980    35.0980    30.4630    35.0170    23.6140     2.6650   -10.9560 
