~V
VERS. 2.00: Ver 2.00
~W
STRT.M 57.0000:
STOP.M 242.0000:
STEP.M 0.1250:
NULL. -999.2500:
UWI. F10636:
~C
DEPT.M :
GR.API :
RML.OHMM :
RI. :
RXO.OHMM :
CALI.CM :
DEN.GM/CC :
SP.MV :
~A
# ...
  102.0000    89.6660     7.7790     6.1150     6.8750    24.0260     2.3200   -13.3140 
  102.1250    95.1040     7.6590     6.1140     6.7470    24.0790     2.3040   -13.3760 
  102.2500    94.9880     7.6810     6.1990     6.6550    24.2010     2.2900   -13.4280 
  102.3750    88.2540     7.9520     6.4150     6.7390    24.3370     2.2890   -13.4940 
  102.5000    79.8150     8.4950     6.7740     7.3200    24.4290     2.3070   -13.5790 
  102.6250    75.9020     9.1580     7.2140     9.3270    24.4500     2.3380   -13.6620 
  102.7500    76.9910     9.5840     7.5580    12.1570    24.4250     2.3620   -13.7170 
  102.8750    80.0420     9.5280     7.6530    11.0450    24.3590     2.3630   -13.7500 
  103.0000    82.9550     8.9900     7.4340     8.8230    24.2490     2.3390   -13.7770 
  103.1250    86.2740     8.2040     6.9450     7.1590    24.1070     2.3030   -13.8000 
  103.2500    90.6110     7.4870     6.4000     6.3430    23.9790     2.2780   -13.7990 
  103.3750    94.3230     6.9740     5.9500     6.0860    23.8940     2.2740   -13.7660 
  103.5000    94.0140     6.7150     5.6860     5.9300    23.8510     2.2850   -13.7120 
  103.6250    90.1240     6.7580     5.6650     5.9840    23.8320     2.2970   -13.6410 
  103.7500    88.4710     6.9990     5.7950     6.2320    23.8180     2.3000   -13.5790 
  103.8750    90.4450     7.3110     5.9800     6.5440    23.8050     2.2900   -13.5260 
  104.0000    93.0230     7.5460     6.1140     6.6200    23.8000     2.2720   -13.4880 
  104.1250    93.9610     7.5930     6.1020     6.4630    23.8170     2.2580   -13.4830 
  104.2500    95.4130     7.5140     5.9740     6.5360    23.8480     2.2540   -13.5080 
  104.3750    97.4090     7.3870     5.7960     6.2920    23.8700     2.2610   -13.5420 
  104.5000    98.0590     7.2660     5.6420     6.0580    23.8700     2.2720   -13.5760 
  104.6250    99.9640     7.1710     5.5790     5.8610    23.8570     2.2810   -13.6210 
  104.7500   103.7640     7.1100     5.6000     6.2460    23.8460     2.2850   -13.6780 
  104.8750   104.7990     7.0980     5.6770     6.5570    23.8370     2.2890   -13.7400 
  105.0000   100.2370     7.1440     5.7740     6.5220    23.8320     2.2970   -13.8230 
  105.1250    94.3230     7.2500     5.8580     6.2980    23.8330     2.3090   -13.9090 
  105.2500    89.4980     7.4010     5.9180     6.2470    23.8360     2.3190   -13.9950 
  105.3750    84.3790     7.5970     5.9560     6.3450    23.8300     2.3170   -14.0940 
  105.5000    81.3530     7.8240     5.9810     6.5330    23.8150     2.2990   -14.1970 
  105.6250    84.3030     8.0210     6.0090     7.1260    23.7970     2.2680   -14.2830 
  105.7500    89.0210     8.1180     6.0560     7.5510    23.7820     2.2390   -14.3140 
  105.8750    91.2460     8.0790     6.1240     7.3570    23.7600     2.2270   -14.2950 
  106.0000    92.1510     7.9290     6.2050     6.9370    23.7280     2.2420   -14.2300 
  106.1250    94.3110     7.7530     6.2900     7.3400    23.6980     2.2860   -14.1190 
  106.2500    95.5350     7.6480     6.3740     8.2920    23.6840     2.3360   -13.9690 
  106.3750    94.1130     7.6630     6.4520     8.5070    23.6910     2.3760   -13.8000 
  106.5000    90.4280     7.7810     6.5180     7.4760    23.7130     2.4000   -13.6160 
  106.6250    87.9520     7.8930     6.5480     8.2950    23.7420     2.4130   -13.4240 
  106.7500    89.0930     7.8560     6.5150    10.7980    23.7820     2.4250   -13.2570 
  106.8750    92.2590     7.6180     6.4070    10.9980    23.8390     2.4350   -13.1260 
  107.0000    94.2680     7.2460     6.2380     8.1250    23.9030     2.4330   -13.0260 
  107.1250    94.3140     6.9050     6.0610     6.5110    23.9410     2.4090   -12.9600 
  107.2500    94.3820     6.7170     5.9330     6.2410    23.9510     2.3740   -12.9240 
  107.3750    94.4750     6.7210     5.8890     6.4720    23.9490     2.3470   -12.9060 
  107.5000    94.1140     6.8930     5.9310     7.2280    23.9540     2.3390   -12.9130 
  107.6250    92.5140     7.1690     6.0370     8.7600    23.9870     2.3480   -12.9640 
  107.7500    89.5020     7.4320     6.1450     8.6930    24.0610     2.3560   -13.0700 
  107.8750    86.6580     7.6050     6.2140     7.4470    24.1680     2.3480   -13.2170 
  108.0000    86.7050     7.6370     6.2210     6.7180    24.2780     2.3220   -13.3730 
  108.1250    90.7520     7.4870     6.1440     6.7180    24.3370     2.2890   -13.5400 
  108.2500    95.8310     7.2130     6.0040     6.5010    24.3350     2.2660   -13.7280 
  108.3750    98.5130     6.8800     5.8280     6.1520    24.2860     2.2610   -13.9480 
  108.5000    96.9510     6.5910     5.6650     5.7460    24.2090     2.2750   -14.2240 
  108.6250    91.4370     6.5340     5.6180     5.9160    24.1250     2.3000   -14.5810 
  108.7500    85.4670     6.8410     5.7890     6.9850    24.0520     2.3210   -15.0030 
  108.8750    79.8360     7.6230     6.2780     8.7980    24.0060     2.3370   -15.4930 
  109.0000    74.2780     8.9120     7.1460     9.2140    23.9960     2.3490   -16.0750 
  109.1250    69.0620    10.5960     8.3770    10.5210    24.0120     2.3620   -16.7750 
  109.2500    65.4800    12.1550     9.6520    13.6970    24.0250     2.3700   -17.5690 
  109.3750    63.6000    13.0750    10.6200    15.4070    24.0280     2.3620   -18.4310 
  109.5000    62.8510    13.0980    11.0110    13.8900    24.0360     2.3300   -19.3190 
  109.6250    62.2540    12.3830    10.7430    12.0500    24.0910     2.2760   -20.1480 
  109.7500    61.3900    11.5770    10.1930    11.5920    24.2010     2.2210   -20.8880 
  109.8750    60.5210    11.0090     9.6560    11.2790    24.3470     2.1810   -21.5240 
  110.0000    60.6710    10.7570     9.3190    10.9380    24.4820     2.1590   -22.0490 
  110.1250    60.9140    10.7510     9.2560    10.7980    24.5580     2.1510   -22.4650 
  110.2500    60.7110    10.8290     9.3400    10.7050    24.5890     2.1450   -22.7830 
  110.3750    59.6050    10.9280     9.4660    10.5810    24.6090     2.1360   -23.0000 
  110.5000    59.0440    11.0210     9.5570    10.4990    24.6370     2.1240   -23.1500 
  110.6250    60.7250    11.0800     9.5750    10.7810    24.6700     2.1150   -23.2740 
  110.7500    62.1440    11.1140     9.5540    11.2860    24.6930     2.1150   -23.3950 
  110.8750    61.3140    11.1450     9.5360    11.6190    24.6990     2.1230   -23.5350 
  111.0000    58.3590    11.1750     9.5520    11.7060    24.6830     2.1360   -23.6900 
  111.1250    57.3170    11.1480     9.6000    11.4960    24.6500     2.1490   -23.8350 
  111.2500    59.7420    11.0300     9.6280    11.4690    24.6170     2.1600   -23.9620 
  111.3750    62.4100    10.8380     9.5870    11.4760    24.5930     2.1700   -24.0580 
  111.5000    63.7060    10.6310     9.4560    11.5670    24.5810     2.1800   -24.1010 
  111.6250    63.8830    10.4650     9.2610    11.7820    24.5340     2.1900   -24.0980 
  111.7500    64.1270    10.3300     9.0850    11.6180    24.4310     2.1940   -24.0530 
  111.8750    64.0610    10.2160     8.9870    11.1930    24.3240     2.1840   -23.9530 
  112.0000    62.8710    10.1500     8.9880    11.0400    24.2730     2.1640   -23.8040 
  112.1250    62.1300    10.2140     9.0800    10.8030    24.2760     2.1420   -23.5830 
  112.2500    62.0040    10.4090     9.2070    10.2650    24.3000     2.1280   -23.3020 
  112.3750    63.2400    10.6750     9.3460     9.8080    24.3330     2.1250   -22.9650 
  112.5000    65.0910    10.9090     9.4830     9.5930    24.3380     2.1300   -22.5670 
  112.6250    67.3120    10.9710     9.5660     9.7480    24.3020     2.1380   -22.0770 
  112.7500    71.5630    10.7820     9.5020    10.1370    24.2750     2.1470   -21.5040 
  112.8750    79.5440    10.2800     9.1800    10.5610    24.2540     2.1530   -20.8340 
  113.0000    90.7180     9.4680     8.5430    10.3630    24.2220     2.1580   -20.0550 
  113.1250    99.7340     8.4400     7.6260     8.8260    24.1730     2.1670   -19.1940 
