~V
VERS. 2.00: Ver 2.00
~W
STRT.M 58.0000:
STOP.M 244.0000:
STEP.M 0.1250:
NULL. -999.2500:
UWI. F10638:
~C
DEPT.M :
SP.MV :
GR.API :
RML.OHMM :
RI. :
RXO.OHMM :
CALI.CM :
DEN.GM/CC :
~A
# ...
  181.7500   -15.6350    65.9400    11.5030     9.3380    12.3710    24.4180     2.3450 
  181.8750   -15.6300    67.6440    11.5980     9.5600    12.0490    24.3640     2.3600 
  182.0000   -15.6990    70.5180    11.5400     9.6440    12.4750    24.2840     2.3680 
  182.1250   -15.7990    70.1200    11.4450     9.6560    12.7970    24.2010     2.3690 
  182.2500   -15.8720    66.7660    11.3850     9.6590    11.5580    24.1920     2.3650 
  182.3750   -15.8750    67.1070    11.3350     9.6530    11.4600    24.2560     2.3600 
  182.5000   -15.8350    71.4190    11.1670     9.5550    12.6030    24.2340     2.3580 
  182.6250   -15.7910    74.4850    10.7990     9.2830    13.3640    24.1600     2.3570 
  182.7500   -15.7370    72.5800    10.2520     8.8310    12.3180    24.0590     2.3560 
  182.8750   -15.6100    70.1640     9.6750     8.2950    10.7110    23.9790     2.3560 
  183.0000   -15.3920    72.3430     9.2700     7.8510     9.7530    23.9130     2.3530 
  183.1250   -15.1280    76.3180     9.1850     7.6250     9.2780    23.8140     2.3420 
  183.2500   -14.8630    77.7350     9.4880     7.6930     9.3990    23.7120     2.3210 
  183.3750   -14.6110    75.8440    10.1710     8.1050    10.3340    23.6780     2.2970 
  183.5000   -14.3840    71.4110    10.9910     8.7100    12.0250    23.6800     2.2780 
  183.6250   -14.1930    65.3980    11.7480     9.3600    13.7180    23.7020     2.2660 
  183.7500   -14.0390    61.4740    12.3640     9.9470    14.2820    23.7670     2.2560 
  183.8750   -13.9180    63.2260    13.0850    10.5490    14.1100    23.8130     2.2470 
  184.0000   -13.8180    66.0730    14.3510    11.4370    14.6490    23.8510     2.2560 
  184.1250   -13.7190    66.3820    16.4980    12.8990    16.4770    23.9790     2.3120 
  184.2500   -13.6290    64.2690    19.5680    15.1080    21.4560    24.1910     2.4280 
  184.3750   -13.6150    59.4510    22.9940    17.9210    30.7570    24.3360     2.5510 
  184.5000   -13.6470    53.5170    25.4030    20.3480    47.9850    24.3780     2.5960 
  184.6250   -13.6510    48.3180    25.6600    21.3300    60.5940    24.3800     2.5470 
  184.7500   -13.6280    48.2170    23.7110    20.4930    45.8390    24.3390     2.4460 
  184.8750   -13.6490    55.3460    20.7740    18.5070    29.0180    24.4000     2.3490 
  185.0000   -13.7100    62.7220    18.3790    16.6240    21.5730    24.4680     2.2840 
  185.1250   -13.7660    65.8170    16.9950    15.3310    20.1100    24.5330     2.2520 
  185.2500   -13.8160    66.0270    16.5270    14.7050    19.9670    24.5600     2.2380 
  185.3750   -13.8710    67.7110    16.5840    14.5980    19.6000    24.5510     2.2250 
  185.5000   -13.9070    69.1370    16.5140    14.5350    19.7450    24.5310     2.2100 
  185.6250   -13.9250    67.5120    15.9220    14.1600    19.8120    24.5250     2.2030 
  185.7500   -13.9310    65.8790    14.7080    13.2940    17.7350    24.5370     2.2150 
  185.8750   -13.9340    67.6780    13.0480    11.9780    14.5780    24.5550     2.2570 
  186.0000   -13.9280    71.0180    11.3670    10.5460    12.0200    24.5670     2.3150 
  186.1250   -13.9260    73.4570     9.9120     9.2170    10.3530    24.5620     2.3660 
  186.2500   -13.9420    75.1100     8.8160     8.1320     9.5560    24.5860     2.3920 
  186.3750   -13.9330    76.2580     8.1870     7.4120     9.0300    24.6010     2.3900 
  186.5000   -13.9080    76.1850     7.9450     7.0210     8.5430    24.6040     2.3770 
  186.6250   -13.9250    74.4250     8.0750     6.9610     8.5580    24.6190     2.3590 
  186.7500   -13.9720    70.9710     8.5610     7.2330     9.1330    24.6200     2.3360 
  186.8750   -13.9690    67.9960     9.4180     7.8720    10.4660    24.6260     2.3050 
  187.0000   -13.9500    67.4020    10.5200     8.7760    12.7650    24.6390     2.2720 
  187.1250   -13.9780    67.6940    11.7850     9.8690    16.2640    24.6690     2.2460 
  187.2500   -14.0080    66.9030    13.1410    11.0710    18.3800    24.6730     2.2340 
  187.3750   -13.9910    65.0950    14.5190    12.3110    18.7800    24.6460     2.2400 
  187.5000   -13.9430    64.0990    15.8560    13.5220    19.4520    24.6220     2.2590 
  187.6250   -13.8870    62.9290    17.0980    14.6540    21.6700    24.5820     2.2860 
  187.7500   -13.8240    61.0890    18.1890    15.6520    24.8430    24.5360     2.3190 
  187.8750   -13.7520    58.7140    19.0630    16.4500    26.5210    24.4900     2.3450 
  188.0000   -13.6800    55.5420    19.7710    17.0880    24.7250    24.5020     2.3540 
  188.1250   -13.6130    55.3640    20.3620    17.6070    23.3080    24.5500     2.3360 
  188.2500   -13.5540    59.9520    20.8660    18.0400    24.2050    24.5770     2.2970 
  188.3750   -13.4930    63.2620    21.2120    18.3500    25.9940    24.5540     2.2610 
  188.5000   -13.4590    59.9730    21.2740    18.4550    26.9950    24.5300     2.2500 
  188.6250   -13.4580    54.5800    20.9100    18.2480    24.8810    24.5300     2.2610 
  188.7500   -13.4620    52.3350    20.0830    17.6720    21.7350    24.5110     2.2800 
  188.8750   -13.4820    52.6380    18.9210    16.7810    19.8390    24.5070     2.2850 
  189.0000   -13.5470    53.2190    17.7880    15.8410    18.7660    24.5800     2.2710 
  189.1250   -13.6170    55.1820    16.9150    15.0340    18.1480    24.6590     2.2520 
  189.2500   -13.6500    59.8070    16.3770    14.4550    17.6350    24.6760     2.2470 
  189.3750   -13.7490    64.5810    16.0980    14.1080    17.1450    24.6470     2.2590 
  189.5000   -13.8730    64.4020    15.7930    13.8200    17.4580    24.5980     2.2720 
  189.6250   -13.9410    59.8920    15.2620    13.4360    17.9770    24.5630     2.2750 
  189.7500   -14.0090    56.3420    14.5360    12.9260    17.6060    24.5550     2.2700 
  189.8750   -14.1370    57.8100    14.1120    12.5610    16.8770    24.5700     2.2800 
  190.0000   -14.2440    60.0730    14.6330    12.7670    16.2970    24.5770     2.3240 
  190.1250   -14.2910    60.5870    16.6260    13.9680    16.2590    24.5700     2.3940 
  190.2500   -14.3500    58.4390    20.2820    16.4860    19.2930    24.5350     2.4560 
  190.3750   -14.4310    53.3360    25.0610    20.3290    31.6220    24.4530     2.4720 
  190.5000   -14.5150    48.1300    28.6030    23.7990    51.7510    24.3590     2.4520 
  190.6250   -14.6030    45.8820    28.3860    24.5470    60.5370    24.2610     2.4200 
  190.7500   -14.6730    47.8910    23.9850    21.6650    44.3810    24.2340     2.4000 
  190.8750   -14.7430    53.9860    18.0920    17.0400    23.8320    24.3680     2.3970 
  191.0000   -14.8400    60.5690    13.5600    13.1720    13.2190    24.4440     2.3930 
  191.1250   -14.9650    65.4280    10.8420    10.5910    11.1980    24.4640     2.3850 
  191.2500   -15.1050    68.7680     9.5050     9.1090    11.5910    24.4880     2.3750 
  191.3750   -15.2290    71.4190     9.0420     8.4610    11.8920    24.4960     2.3670 
  191.5000   -15.3400    73.0770     8.8690     8.2040    11.4370    24.4730     2.3610 
  191.6250   -15.4470    74.3240     8.7750     8.1340    10.4410    24.4460     2.3570 
  191.7500   -15.5500    75.1380     8.7080     8.1400     9.6320    24.4300     2.3550 
  191.8750   -15.6290    75.7060     8.7340     8.2160     9.5630    24.4130     2.3550 
  192.0000   -15.6590    76.5220     8.8650     8.3600    10.1710    24.3760     2.3540 
  192.1250   -15.6810    78.2510     9.0410     8.5370    10.9440    24.2840     2.3510 
  192.2500   -15.7140    77.5610     9.1560     8.6680    11.3230    24.2150     2.3440 
  192.3750   -15.6860    72.8880     9.1370     8.6680    10.9980    24.2050     2.3390 
  192.5000   -15.6280    69.3260     9.0970     8.6010    10.7070    24.1530     2.3450 
  192.6250   -15.5880    70.0060     9.1960     8.5890    10.5240    24.0730     2.3690 
  192.7500   -15.5180    73.2230     9.5440     8.7370    10.4170    24.0640     2.4070 
  192.8750   -15.3470    74.0540    10.1320     9.0780    10.9530    24.0470     2.4460 
