~V
VERS. 2.00: Ver 2.00
~W
STRT.M 48.0000:
STOP.M 229.0000:
STEP.M 0.1250:
NULL. -999.2500:
UWI. F10623:
~C
DEPT.M :
GR.API :
RML.OHMM :
RI. :
RXO.OHMM :
CALI.CM :
DEN.GM/CC :
SP.MV :
~A
# ...
  138.0000    52.3710    22.3550    21.1900    19.0300    23.6080     2.6200    -6.1670 
  138.1250    53.6260    22.1300    21.0610    18.7890    23.3940     2.6060    -6.1860 
  138.2500    54.8430    21.8480    20.8780    18.0750    23.1560     2.6000    -6.1850 
  138.3750    54.7750    21.5200    20.6270    17.5630    23.0220     2.5980    -6.1810 
  138.5000    52.6800    21.2130    20.3650    17.2660    23.0770     2.5910    -6.1780 
  138.6250    51.8370    21.0390    20.2190    16.8160    23.2340     2.5720    -6.1700 
  138.7500    53.4030    21.0110    20.2400    16.3100    23.2370     2.5390    -6.1570 
  138.8750    55.1000    21.0580    20.3850    16.4210    23.0240     2.5000    -6.1300 
  139.0000    55.4160    21.0450    20.5250    17.2180    22.6870     2.4600    -6.0690 
  139.1250    55.9220    20.8010    20.4650    17.5300    22.4940     2.4230    -5.9740 
  139.2500    57.3740    20.3130    20.1380    16.8050    22.2910     2.3890    -5.8720 
  139.3750    58.6690    19.6410    19.5700    15.4500    22.0600     2.3600    -5.7600 
  139.5000    59.4100    18.9100    18.8700    14.5010    22.0500     2.3390    -5.6420 
  139.6250    60.0680    18.3000    18.2140    14.2210    22.3040     2.3350    -5.5350 
  139.7500    59.6180    17.9180    17.7400    14.4760    22.5250     2.3450    -5.4300 
  139.8750    59.0330    17.8230    17.5140    14.8340    22.6230     2.3670    -5.3350 
  140.0000    60.0230    18.0340    17.5570    14.9170    22.5890     2.3940    -5.2620 
  140.1250    61.5560    18.5860    17.8850    14.6050    22.3960     2.4210    -5.2170 
  140.2500    62.0300    19.3530    18.3920    14.2170    22.1050     2.4450    -5.1830 
  140.3750    61.0300    20.1830    18.9750    14.3090    21.8340     2.4660    -5.1770 
  140.5000    59.5280    20.8530    19.4790    14.5950    21.6040     2.4820    -5.2090 
  140.6250    59.8850    21.0150    19.6510    14.6420    21.5700     2.4890    -5.2670 
  140.7500    61.5940    20.5750    19.3860    14.3620    21.6390     2.4860    -5.3320 
  140.8750    61.7290    19.5880    18.6800    13.7770    21.7180     2.4730    -5.3820 
  141.0000    59.2250    18.2780    17.6630    12.7660    21.5790     2.4570    -5.4140 
  141.1250    55.7540    16.9770    16.5570    11.1910    21.0970     2.4430    -5.4500 
  141.2500    53.6330    15.9310    15.5790     9.7190    20.4140     2.4340    -5.5090 
  141.3750    54.5490    15.2160    14.8220     8.8530    19.6410     2.4330    -5.5820 
  141.5000    58.8050    14.7880    14.2920     8.7060    18.8690     2.4360    -5.6600 
  141.6250    62.7110    14.5350    13.9410     8.8310    18.3110     2.4400    -5.7240 
  141.7500    63.5560    14.2900    13.6420     8.9330    18.0260     2.4410    -5.7820 
  141.8750    62.2970    13.9850    13.3320     9.0770    17.9960     2.4400    -5.8470 
  142.0000    60.3020    13.6340    13.0080     9.2860    18.1910     2.4380    -5.9110 
  142.1250    59.2810    13.3450    12.7450     9.4110    18.7070     2.4400    -5.9380 
  142.2500    60.3760    13.2330    12.6350     9.5480    19.4730     2.4460    -5.9310 
  142.3750    63.1690    13.3720    12.7430     9.8220    20.3230     2.4550    -5.9040 
  142.5000    64.4230    13.7730    13.0910    10.3210    21.0990     2.4620    -5.8620 
  142.6250    62.6480    14.4010    13.6650    10.9480    21.6890     2.4600    -5.8020 
  142.7500    61.2300    15.0840    14.3200    11.6340    22.0440     2.4480    -5.7210 
  142.8750    62.4350    15.6690    14.9150    12.4060    22.1850     2.4270    -5.6200 
  143.0000    65.2080    16.0260    15.3140    13.0980    22.2800     2.4030    -5.5150 
  143.1250    65.3170    16.0610    15.3990    13.2440    22.4240     2.3830    -5.4440 
  143.2500    61.5920    15.8900    15.2580    13.2580    22.5290     2.3730    -5.3980 
  143.3750    57.0050    15.6490    15.0060    13.0410    22.5610     2.3760    -5.3490 
  143.5000    55.2190    15.4880    14.7850    12.3600    22.5500     2.3900    -5.2830 
  143.6250    55.1580    15.5570    14.7470    12.1820    22.5040     2.4070    -5.1840 
  143.7500    53.9570    15.8280    14.8990    12.3500    22.4250     2.4200    -5.0740 
  143.8750    53.5570    16.2040    15.1810    12.5920    22.3110     2.4250    -4.9730 
  144.0000    55.5380    16.5420    15.4770    12.7040    22.1840     2.4240    -4.8790 
  144.1250    55.6040    16.6700    15.6290    13.1480    22.2770     2.4190    -4.7780 
  144.2500    52.7150    16.5840    15.5940    13.8120    22.5470     2.4140    -4.6570 
  144.3750    51.6060    16.3790    15.4250    14.2080    22.8500     2.4130    -4.5160 
  144.5000    54.9500    16.2250    15.2570    14.1390    23.0790     2.4150    -4.3710 
  144.6250    56.4940    16.3460    15.2900    13.9930    23.1600     2.4220    -4.2750 
  144.7500    53.7070    16.7700    15.5870    14.1890    23.1920     2.4320    -4.2330 
  144.8750    51.5680    17.4050    16.1030    14.8470    23.2460     2.4450    -4.2290 
  145.0000    53.9100    18.0560    16.6900    15.9340    23.3570     2.4590    -4.2570 
  145.1250    58.0560    18.4350    17.1020    17.0550    23.4330     2.4690    -4.3070 
  145.2500    59.7810    18.4470    17.2130    17.6460    23.4490     2.4750    -4.3810 
  145.3750    59.4320    18.1580    17.0400    17.3530    23.4760     2.4760    -4.4840 
  145.5000    58.2650    17.7700    16.7310    16.2740    23.5470     2.4740    -4.6010 
  145.6250    55.5400    17.5750    16.5310    15.5560    23.6790     2.4700    -4.6970 
  145.7500    52.3680    17.6820    16.5700    15.8770    23.8070     2.4670    -4.7520 
  145.8750    50.4410    18.0480    16.8480    16.5900    23.8530     2.4670    -4.7770 
  146.0000    50.3800    18.5210    17.2580    17.1810    23.7740     2.4700    -4.7830 
  146.1250    51.0960    18.8730    17.6180    17.5920    23.5490     2.4740    -4.7770 
  146.2500    52.7200    18.9850    17.7940    17.6920    23.2060     2.4750    -4.7650 
  146.3750    54.6860    18.8530    17.7580    17.3170    22.7840     2.4710    -4.7370 
  146.5000    56.0400    18.5640    17.5670    16.7980    22.4990     2.4620    -4.7010 
  146.6250    54.3200    18.2550    17.3280    16.4020    22.4490     2.4530    -4.6890 
  146.7500    51.6960    18.0400    17.1470    16.2490    22.5450     2.4500    -4.7080 
  146.8750    50.7490    17.9590    17.0700    16.3010    22.7590     2.4520    -4.7400 
  147.0000    53.5160    18.0050    17.1020    16.4900    23.0370     2.4580    -4.7690 
  147.1250    58.6380    18.1480    17.2260    16.5800    23.2720     2.4630    -4.7780 
  147.2500    61.0680    18.3270    17.3880    16.2340    23.3100     2.4640    -4.7800 
  147.3750    58.6780    18.5090    17.5580    15.7800    23.2290     2.4620    -4.8040 
  147.5000    53.9790    18.6730    17.7120    15.6040    23.2100     2.4600    -4.8570 
  147.6250    51.7530    18.7850    17.8210    15.7370    23.3950     2.4600    -4.9310 
  147.7500    52.8510    18.8250    17.8680    16.0550    23.6110     2.4620    -5.0170 
  147.8750    55.1290    18.7750    17.8340    16.3820    23.7080     2.4650    -5.1010 
  148.0000    56.0780    18.6400    17.7140    16.5840    23.7270     2.4690    -5.1820 
  148.1250    53.5640    18.4560    17.5330    16.7070    23.7300     2.4750    -5.2660 
  148.2500    50.8810    18.3090    17.3640    16.6820    23.7980     2.4800    -5.3470 
  148.3750    50.6710    18.2800    17.2810    16.5580    23.8670     2.4830    -5.4210 
  148.5000    52.2960    18.4450    17.3600    16.4440    23.9380     2.4830    -5.4930 
  148.6250    53.3870    18.8890    17.6890    16.5570    24.0120     2.4790    -5.5530 
  148.7500    53.4240    19.5460    18.2290    16.9010    24.0360     2.4750    -5.5930 
  148.8750    53.2390    20.3340    18.9190    17.2330    24.0130     2.4740    -5.6180 
  149.0000    53.3080    21.1330    19.6580    17.6390    23.9480     2.4770    -5.6240 
  149.1250    53.7330    21.7740    20.3000    18.4990    23.8360     2.4830    -5.6200 
