~V
VERS. 2.00: Ver 2.00
~W
STRT.M 57.0000:
STOP.M 248.0000:
STEP.M 0.1250:
NULL. -999.2500:
UWI. F10637:
~C
DEPT.M :
SP.MV :
GR.API :
RML.OHMM :
RI. :
RXO.OHMM :
CALI.CM :
DEN.GM/CC :
~A
# ...
  225.7500   -21.1690    57.6810     6.1100     4.8230     5.4940    25.8100     2.2910 
  225.8750   -21.0270    58.1360     6.3020     4.9580     5.5900    25.8200     2.3230 
  226.0000   -20.9110    58.9860     6.5350     5.1570     5.7090    25.6400     2.3620 
  226.1250   -20.8160    58.9240     6.7360     5.3610     5.8370    25.4710     2.3890 
  226.2500   -20.7340    59.3320     6.8380     5.5020     5.9440    25.4700     2.3900 
  226.3750   -20.6520    61.9720     6.8370     5.5570     6.0080    25.5040     2.3720 
  226.5000   -20.5660    66.9440     6.7510     5.5250     6.0160    25.5540     2.3500 
  226.6250   -20.4790    70.7600     6.6110     5.4290     5.9670    25.6140     2.3350 
  226.7500   -20.3870    69.9490     6.4470     5.2970     5.8680    25.6540     2.3290 
  226.8750   -20.2930    67.0140     6.2850     5.1580     5.7470    25.7110     2.3270 
  227.0000   -20.2110    65.7920     6.1390     5.0260     5.6230    25.7970     2.3220 
  227.1250   -20.1500    68.5480     6.0280     4.9190     5.5260    25.8540     2.3110 
  227.2500   -20.1300    72.1480     5.9930     4.8690     5.5000    25.7750     2.2970 
  227.3750   -20.1690    72.0410     6.0470     4.8890     5.5490    25.7250     2.2860 
  227.5000   -20.2790    69.2790     6.1950     4.9820     5.6610    25.7100     2.2830 
  227.6250   -20.4510    67.8770     6.4150     5.1340     5.8140    25.7130     2.2850 
  227.7500   -20.6860    69.2610     6.6810     5.3360     5.9830    25.7100     2.2920 
  227.8750   -20.9710    67.7860     6.9790     5.5810     6.1310    25.7080     2.3000 
  228.0000   -21.2850    62.9790     7.3140     5.8760     6.2310    25.7100     2.3110 
  228.1250   -21.6030    58.8090     7.6800     6.2090     6.2650    25.7050     2.3270 
  228.2500   -21.8980    58.2020     8.0070     6.5150     6.2050    25.6900     2.3440 
  228.3750   -22.1490    58.7520     8.1950     6.7080     6.0740    25.6760     2.3530 
  228.5000   -22.3390    59.0070     8.1580     6.7170     5.9210    25.6710     2.3500 
  228.6250   -22.4630    58.8470     7.8770     6.5180     5.8080    25.6710     2.3380 
  228.7500   -22.5090    58.0160     7.4290     6.1500     5.7600    25.6910     2.3260 
  228.8750   -22.4870    57.1740     7.0080     5.7640     5.7380    25.7080     2.3210 
  229.0000   -22.4020    56.5460     6.7390     5.4750     5.7350    25.7180     2.3220 
  229.1250   -22.2780    54.6620     6.6780     5.3540     5.7720    25.7220     2.3260 
  229.2500   -22.1330    53.1680     6.8170     5.4310     5.8420    25.7210     2.3280 
  229.3750   -21.9730    56.0870     7.0230     5.6110     5.8980    25.7170     2.3280 
  229.5000   -21.8090    61.9240     7.1900     5.7990     5.9200    25.7090     2.3260 
  229.6250   -21.6470    65.6270     7.2510     5.9220     5.9150    25.7090     2.3230 
  229.7500   -21.4800    65.7540     7.1980     5.9550     5.8830    25.7100     2.3160 
  229.8750   -21.2980    65.1570     7.1070     5.9460     5.8240    25.7110     2.3080 
  230.0000   -21.1010    63.4170     7.0290     5.9340     5.7430    25.7060     2.3030 
  230.1250   -20.8910    61.7620     6.9810     5.9360     5.6420    25.6830     2.2990 
  230.2500   -20.6640    62.7780     6.9280     5.9250     5.5280    25.6350     2.2990 
  230.3750   -20.4320    64.0030     6.7990     5.8410     5.4070    25.5900     2.2980 
  230.5000   -20.1980    61.0150     6.5570     5.6440     5.2830    25.5690     2.2990 
  230.6250   -19.9600    55.7120     6.2250     5.3440     5.1560    25.5690     2.3050 
  230.7500   -19.7340    52.9530     5.8720     5.0000     5.0320    25.6010     2.3200 
  230.8750   -19.5440    51.5130     5.5700     4.6920     4.9530    25.7010     2.3390 
  231.0000   -19.3960    49.6250     5.3490     4.4580     4.9250    25.8370     2.3550 
  231.1250   -19.2960    47.6410     5.2080     4.3040     4.9480    25.8210     2.3650 
  231.2500   -19.2650    46.7110     5.1480     4.2250     5.0170    25.6980     2.3670 
  231.3750   -19.2980    46.4740     5.1560     4.2050     5.1210    25.6150     2.3640 
  231.5000   -19.4010    48.0320     5.2540     4.2570     5.2670    25.5660     2.3590 
  231.6250   -19.5830    50.7040     5.4720     4.4120     5.4580    25.5710     2.3520 
  231.7500   -19.8500    54.0590     5.8740     4.7350     5.6960    25.6220     2.3400 
  231.8750   -20.1730    60.1840     6.4520     5.2250     5.9680    25.7010     2.3230 
  232.0000   -20.5290    69.0640     7.1780     5.8710     6.2620    25.7430     2.3050 
  232.1250   -20.8820    77.3280     7.9630     6.6110     6.5350    25.7300     2.2890 
  232.2500   -21.1690    81.4530     8.5870     7.2760     6.6930    25.6580     2.2800 
  232.3750   -21.3490    83.2210     8.8300     7.6540     6.6950    25.5800     2.2770 
  232.5000   -21.3870    83.5250     8.5650     7.5910     6.5440    25.5260     2.2810 
  232.6250   -21.2590    81.7040     7.8330     7.0730     6.2830    25.5000     2.2890 
  232.7500   -20.9280    76.0900     6.8410     6.2310     5.9640    25.4850     2.2920 
  232.8750   -20.4350    67.0030     5.9130     5.3600     5.6420    25.4580     2.2900 
  233.0000   -19.8120    55.6590     5.2120     4.6320     5.3470    25.3920     2.2840 
  233.1250   -19.1070    46.3910     4.7990     4.1350     5.0950    25.3190     2.2820 
  233.2500   -18.3930    42.9040     4.6930     3.9260     4.9370    25.2760     2.2870 
  233.3750   -17.7430    42.4530     4.7760     3.9230     4.8340    25.3030     2.2980 
  233.5000   -17.2010    43.2420     4.9460     4.0490     4.7550    25.3940     2.3110 
  233.6250   -16.7790    45.1940     5.0910     4.1990     4.6300    25.4630     2.3240 
  233.7500   -16.4990    46.9820     5.0940     4.2560     4.4080    25.4860     2.3380 
  233.8750   -16.3280    44.7170     4.9700     4.1920     4.2560    25.4860     2.3490 
  234.0000   -16.2420    38.9750     4.7810     4.0400     4.2030    25.5290     2.3500 
  234.1250   -16.2100    34.8370     4.6090     3.8720     4.2650    25.7070     2.3350 
  234.2500   -16.1890    34.3550     4.5350     3.7730     4.4210    26.1520     2.3100 
  234.3750   -16.1440    33.9310     4.5670     3.7760     4.6020    26.4540     2.2950 
  234.5000   -16.0660    33.0770     4.6910     3.8820     4.7720    26.2550     2.3010 
  234.6250   -15.9510    35.3390     4.8740     4.0650     4.8980    25.6930     2.3210 
  234.7500   -15.8010    41.2690     5.0640     4.2740     4.9220    25.1940     2.3310 
  234.8750   -15.6270    44.8540     5.2130     4.4440     4.8330    25.0920     2.3220 
  235.0000   -15.4320    44.2070     5.2890     4.5280     4.6770    25.3010     2.3020 
  235.1250   -15.2260    41.1590     5.2720     4.5070     4.5450    25.4870     2.2870 
  235.2500   -15.0210    38.6280     5.1500     4.3750     4.4360    25.5280     2.2920 
  235.3750   -14.8290    36.9770     4.9590     4.1780     4.3180    25.4520     2.3070 
  235.5000   -14.6570    35.4260     4.7270     3.9490     4.2120    25.4110     2.3210 
  235.6250   -14.5190    33.7630     4.4890     3.7170     4.1880    25.3600     2.3300 
  235.7500   -14.4340    32.6680     4.3020     3.5230     4.3280    25.3380     2.3380 
  235.8750   -14.4090    33.4460     4.2200     3.4040     4.6290    25.3290     2.3460 
  236.0000   -14.4580    35.5840     4.3010     3.4070     5.0720    25.3310     2.3500 
  236.1250   -14.5910    36.6820     4.6010     3.5790     5.6420    25.2060     2.3470 
  236.2500   -14.8160    36.3670     5.1940     3.9980     6.3190    24.6980     2.3360 
  236.3750   -15.1050    36.5060     5.9940     4.6200     6.9880    23.8670     2.3220 
  236.5000   -15.4310    38.2740     6.8500     5.3520     7.4290    23.2810     2.3100 
  236.6250   -15.7670    41.4510     7.5120     6.0010     7.5260    23.4670     2.3020 
  236.7500   -16.0810    42.7650     7.6500     6.2560     7.3990    24.1080     2.3020 
  236.8750   -16.3390    42.5790     7.3460     6.1050     7.2350    24.5330     2.3070 
