~V
VERS. 2.00: Ver 2.00
~W
STRT.M 52.0000:
STOP.M 239.0000:
STEP.M 0.1250:
NULL. -999.2500:
UWI. F10645:
~C
DEPT.M :
SP.MV :
GR.API :
RML.OHMM :
RI. :
RXO.OHMM :
CALI.CM :
DEN.GM/CC :
~A
# ...
   97.0000   -26.2650    81.5050     5.9020     4.7640     4.5770    24.0640     2.2700 
   97.1250   -26.3950    80.7890     5.7060     4.5920     4.3680    24.1320     2.2720 
   97.2500   -26.5330    82.7980     5.7450     4.5780     4.0080    24.2300     2.2810 
   97.3750   -26.6830    85.6530     5.9780     4.7000     4.2260    24.2560     2.3060 
   97.5000   -26.8240    85.1050     6.3300     4.9130     5.0950    24.2500     2.3430 
   97.6250   -26.9590    80.2780     6.6660     5.1330     6.0640    24.2790     2.3700 
   97.7500   -27.0720    75.6880     6.8090     5.2410     5.8070    24.3650     2.3600 
   97.8750   -27.1760    74.3500     6.7460     5.2030     5.2680    24.4080     2.3260 
   98.0000   -27.2440    76.3250     6.5690     5.0610     4.9510    24.4040     2.2950 
   98.1250   -27.2780    81.5360     6.4200     4.8980     4.7460    24.4030     2.2850 
   98.2500   -27.2800    85.2780     6.4200     4.8120     4.3980    24.3700     2.2960 
   98.3750   -27.2550    82.8000     6.5230     4.8120     4.5090    24.3380     2.3010 
   98.5000   -27.2020    76.5080     6.6450     4.8630     5.1620    24.3030     2.2850 
   98.6250   -27.1340    73.1910     6.7060     4.9140     5.9610    24.2240     2.2550 
   98.7500   -27.0490    74.7410     6.6660     4.9280     6.3200    24.0720     2.2310 
   98.8750   -26.9390    76.7700     6.5710     4.9070     5.3890    23.8840     2.2240 
   99.0000   -26.8340    77.4990     6.4680     4.8700     4.9270    23.7700     2.2300 
   99.1250   -26.7330    77.5260     6.4060     4.8450     5.0190    23.7350     2.2380 
   99.2500   -26.6390    77.0890     6.4280     4.8620     5.0820    23.7350     2.2400 
   99.3750   -26.5540    77.4600     6.5030     4.9060     4.8700    23.7320     2.2390 
   99.5000   -26.4920    79.2090     6.5630     4.9370     4.8230    23.7180     2.2340 
   99.6250   -26.4540    81.1330     6.5290     4.9050     4.9490    23.6870     2.2300 
   99.7500   -26.4480    82.8220     6.3370     4.7620     5.2220    23.6730     2.2330 
   99.8750   -26.4760    84.7190     6.0490     4.5420     5.0960    23.6810     2.2460 
  100.0000   -26.5410    85.8800     5.7410     4.2980     4.3430    23.7120     2.2720 
  100.1250   -26.6390    86.2960     5.5060     4.0940     3.7640    23.7320     2.3040 
  100.2500   -26.7780    86.9830     5.4310     3.9970     3.6990    23.7190     2.3260 
  100.3750   -26.9450    88.6420     5.4960     4.0100     3.9700    23.6800     2.3280 
  100.5000   -27.1210    89.8850     5.6660     4.1170     4.4280    23.6650     2.3170 
  100.6250   -27.3000    89.5830     5.8910     4.2820     4.7240    23.7060     2.3020 
  100.7500   -27.4560    87.0930     6.1270     4.4650     4.8590    23.7860     2.2930 
  100.8750   -27.6000    83.2420     6.3470     4.6390     4.6860    23.8520     2.2880 
  101.0000   -27.7080    79.0410     6.5440     4.7940     4.5880    23.8760     2.2800 
  101.1250   -27.7780    75.7880     6.7050     4.9230     4.7380    23.9350     2.2640 
  101.2500   -27.7730    74.8470     6.7880     5.0090     5.1730    24.0750     2.2460 
  101.3750   -27.7370    76.9730     6.8020     5.0630     5.3670    24.1780     2.2320 
  101.5000   -27.6550    82.0120     6.7970     5.1070     5.2740    24.2080     2.2260 
  101.6250   -27.5480    85.2850     6.8300     5.1680     5.0440    24.1960     2.2250 
  101.7500   -27.4190    81.4040     6.9450     5.2630     5.2340    24.2100     2.2310 
  101.8750   -27.2930    75.0980     7.0930     5.3670     5.9310    24.2660     2.2520 
  102.0000   -27.1530    71.6100     7.2000     5.4440     6.9680    24.2600     2.2900 
  102.1250   -27.0260    72.4930     7.1880     5.4580     7.4410    24.2080     2.3330 
  102.2500   -26.9210    75.6010     7.0280     5.3770     6.4230    24.1800     2.3510 
  102.3750   -26.8460    78.5330     6.8170     5.2410     5.1890    24.2320     2.3340 
  102.5000   -26.8040    80.8790     6.6260     5.0910     4.7740    24.2760     2.2980 
  102.6250   -26.8080    82.5820     6.4800     4.9580     4.7200    24.2630     2.2660 
  102.7500   -26.8560    84.4020     6.3610     4.8510     4.6300    24.1910     2.2580 
  102.8750   -26.9400    85.5710     6.2420     4.7520     4.4170    24.1060     2.2660 
  103.0000   -27.0700    85.1540     6.1550     4.6740     4.4330    24.0720     2.2760 
  103.1250   -27.2310    84.3100     6.1680     4.6500     4.5450    24.0510     2.2800 
  103.2500   -27.4190    83.6510     6.3550     4.7360     4.4150    24.0520     2.2770 
  103.3750   -27.6100    82.8130     6.6480     4.9080     4.3570    24.0920     2.2730 
  103.5000   -27.8200    80.5720     6.9220     5.1000     4.7230    24.1630     2.2680 
  103.6250   -28.0140    77.7500     7.0200     5.2060     5.4370    24.2210     2.2610 
  103.7500   -28.2150    78.0680     6.7870     5.1080     5.5100    24.2290     2.2540 
  103.8750   -28.4000    82.1890     6.3860     4.8740     4.9610    24.1050     2.2560 
  104.0000   -28.5850    86.6510     6.0950     4.6630     4.4770    23.8940     2.2660 
  104.1250   -28.7670    88.5080     6.2010     4.6690     4.3280    23.7320     2.2800 
  104.2500   -28.9760    86.7040     7.0260     5.1360     4.9720    23.6820     2.3110 
  104.3750   -29.1950    82.2210     8.5470     6.1000     6.2510    23.6750     2.3790 
  104.5000   -29.4410    75.3830    10.6300     7.5200    10.1360    23.6900     2.4830 
  104.6250   -29.6970    68.4290    12.7920     9.1290    17.1290    23.7620     2.5710 
  104.7500   -29.9820    65.3950    13.9430    10.2340    19.3240    24.0340     2.5610 
  104.8750   -30.2620    65.6260    13.6460    10.3910    13.6490    24.6960     2.4690 
  105.0000   -30.5330    66.3510    12.3110     9.7050     9.1590    25.5750     2.3410 
  105.1250   -30.7730    64.7790    10.7510     8.6570     7.5570    26.1340     2.2230 
  105.2500   -30.9720    63.6450     9.6130     7.7450     7.2720    26.2080     2.1440 
  105.3750   -31.1400    66.1260     8.9450     7.1360     6.8040    26.0090     2.1120 
  105.5000   -31.2720    69.0940     8.6210     6.7960     6.3040    25.7130     2.1110 
  105.6250   -31.3970    68.6050     8.4950     6.6320     6.0230    25.4220     2.1210 
  105.7500   -31.5380    64.8300     8.4830     6.5790     6.1750    25.1780     2.1310 
  105.8750   -31.7190    62.0550     8.5350     6.5820     6.3930    24.9850     2.1380 
  106.0000   -31.9360    61.1160     8.6390     6.6300     6.4280    24.8740     2.1470 
  106.1250   -32.1990    61.9180     8.7770     6.7110     6.3440    24.8150     2.1600 
  106.2500   -32.4970    63.2350     8.9160     6.8130     6.4980    24.8510     2.1650 
  106.3750   -32.8040    62.0550     9.0160     6.9090     6.7960    24.9560     2.1550 
  106.5000   -33.0890    59.3410     9.0520     6.9730     7.1100    25.1050     2.1310 
  106.6250   -33.3240    57.2310     9.0120     6.9840     7.1990    25.2010     2.1040 
  106.7500   -33.4470    57.6480     8.9020     6.9280     7.1860    25.1070     2.0860 
  106.8750   -33.4810    59.8470     8.7660     6.8380     7.0670    24.9230     2.0820 
  107.0000   -33.4090    61.9630     8.6340     6.7550     6.9130    24.8210     2.0900 
  107.1250   -33.2410    62.2170     8.5410     6.7240     6.7950    24.7960     2.1050 
  107.2500   -32.9500    60.7020     8.5430     6.7880     6.8300    24.8350     2.1210 
  107.3750   -32.5610    59.0590     8.6570     6.9400     6.9790    24.8980     2.1350 
  107.5000   -32.0900    56.3210     8.8680     7.1550     7.1590    24.9670     2.1470 
  107.6250   -31.5460    51.2170     9.1130     7.3880     7.2070    25.0150     2.1570 
  107.7500   -30.8990    48.2890     9.2380     7.5430     7.2500    24.9380     2.1690 
  107.8750   -30.1830    52.4090     9.1120     7.5330     7.1480    24.7580     2.1820 
  108.0000   -29.4020    60.5030     8.6770     7.2980     6.7550    24.5930     2.1850 
  108.1250   -28.5750    66.6700     7.9800     6.8340     5.7570    24.5260     2.1740 
