~V
VERS. 2.00: Ver 2.00
~W
STRT.M 57.0000:
STOP.M 242.0000:
STEP.M 0.1250:
NULL. -999.2500:
UWI. F10636:
~C
DEPT.M :
GR.API :
RML.OHMM :
RI. :
RXO.OHMM :
CALI.CM :
DEN.GM/CC :
SP.MV :
~A
# ...
  147.0000    47.2470    26.7270    26.8010    21.5550    24.3440     2.5900   -20.2550 
  147.1250    46.8750    26.3030    26.4480    23.9690    24.3370     2.5950   -20.4550 
  147.2500    47.0280    25.6800    25.7930    24.5530    24.3240     2.5970   -20.6210 
  147.3750    48.8990    24.9010    24.8850    22.9050    24.3070     2.5950   -20.7700 
  147.5000    50.7800    24.1360    23.9220    21.2920    24.3010     2.5890   -20.9150 
  147.6250    51.5890    23.6890    23.2420    20.3920    24.3270     2.5820   -21.0400 
  147.7500    51.3940    23.6900    23.0030    20.1820    24.3720     2.5780   -21.1410 
  147.8750    51.0100    24.0700    23.2190    21.2260    24.4050     2.5800   -21.2280 
  148.0000    50.0070    24.6260    23.7830    24.6620    24.4060     2.5860   -21.3060 
  148.1250    49.0800    25.0820    24.5420    28.5680    24.3730     2.5920   -21.4060 
  148.2500    48.6670    25.7290    25.3270    28.7790    24.3360     2.5970   -21.5450 
  148.3750    47.5820    26.4570    26.0840    26.3150    24.3140     2.6000   -21.7070 
  148.5000    46.1370    27.2440    26.8260    24.9120    24.3120     2.6040   -21.8630 
  148.6250    45.0930    28.1740    27.6380    27.0610    24.3150     2.6120   -22.0190 
  148.7500    46.2290    29.2230    28.5460    30.0000    24.3080     2.6200   -22.1990 
  148.8750    50.0180    30.1970    29.4350    31.6270    24.2890     2.6250   -22.4300 
  149.0000    54.0660    30.7610    30.0230    31.9370    24.2660     2.6240   -22.6750 
  149.1250    55.8420    30.4910    29.8710    33.6770    24.2450     2.6160   -22.9210 
  149.2500    55.7720    29.5620    29.0520    34.6820    24.2180     2.6070   -23.1820 
  149.3750    54.6520    28.3510    27.8860    32.2780    24.1830     2.6020   -23.4710 
  149.5000    52.6910    27.3290    26.8400    27.2680    24.1560     2.6020   -23.7930 
  149.6250    50.5330    26.9370    26.3730    22.0770    24.1620     2.6110   -24.1550 
  149.7500    50.7300    27.0480    26.3820    23.0240    24.2000     2.6250   -24.5350 
  149.8750    53.3000    27.2540    26.4710    27.1200    24.2500     2.6370   -24.9150 
  150.0000    55.1570    26.9700    26.0850    29.4710    24.2890     2.6450   -25.3140 
  150.1250    56.4110    25.6200    24.6930    26.7830    24.3000     2.6460   -25.7230 
  150.2500    57.3390    23.5250    22.5910    23.4310    24.2980     2.6470   -26.1050 
  150.3750    57.2540    21.2410    20.2840    19.8730    24.2950     2.6520   -26.4360 
  150.5000    55.9810    19.3280    18.2920    15.8080    24.2940     2.6590   -26.7190 
  150.6250    55.8480    18.2520    17.0790    13.5840    24.2940     2.6590   -26.9190 
  150.7500    58.4160    17.9510    16.6260    15.1220    24.2880     2.6460   -27.0240 
  150.8750    60.2560    18.3160    16.8600    17.0010    24.2700     2.6230   -26.9930 
  151.0000    59.4360    19.1380    17.6110    17.2000    24.2330     2.5980   -26.7930 
  151.1250    57.7980    20.0980    18.5980    17.2800    24.1890     2.5880   -26.3640 
  151.2500    57.1030    20.8110    19.4040    18.1840    24.1590     2.5940   -25.6920 
  151.3750    57.7510    21.0520    19.7780    19.5020    24.1460     2.6070   -24.7720 
  151.5000    58.8860    20.7530    19.6490    19.9690    24.1410     2.6180   -23.6510 
  151.6250    59.3630    19.9660    19.0830    20.0830    24.1310     2.6130   -22.3640 
  151.7500    58.1360    18.9970    18.3400    19.4030    24.1210     2.5960   -20.9650 
  151.8750    55.0110    18.0710    17.5710    17.7770    24.1220     2.5720   -19.4980 
  152.0000    51.8440    17.3530    16.8920    16.1490    24.1310     2.5480   -18.0540 
  152.1250    51.7050    16.9330    16.4090    16.3770    24.1380     2.5280   -16.7330 
  152.2500    53.6030    16.6940    16.0970    16.5730    24.1510     2.5130   -15.6040 
  152.3750    56.0450    16.5390    15.9040    16.3000    24.1910     2.5040   -14.7030 
  152.5000    56.8750    16.3910    15.7470    16.5870    24.2660     2.5000   -14.0080 
  152.6250    56.1690    16.1970    15.5450    17.7330    24.3510     2.4980   -13.5070 
  152.7500    54.6770    15.9470    15.2800    16.8180    24.4140     2.4970   -13.1590 
  152.8750    53.1830    15.6490    14.9690    15.0990    24.4540     2.4960   -12.9350 
  153.0000    53.5670    15.3310    14.6320    14.4190    24.4830     2.4940   -12.7750 
  153.1250    54.5840    15.0300    14.2830    14.9510    24.5000     2.4880   -12.6680 
  153.2500    54.6350    14.7900    13.9670    13.9990    24.5030     2.4770   -12.6040 
  153.3750    53.8070    14.6720    13.7640    12.8130    24.5010     2.4610   -12.5720 
  153.5000    53.4600    14.7360    13.7580    13.0930    24.5140     2.4440   -12.5490 
  153.6250    54.0630    15.0390    14.0070    13.6150    24.5510     2.4340   -12.5260 
  153.7500    54.9220    15.4770    14.3990    14.2920    24.5920     2.4350   -12.4970 
  153.8750    56.6180    15.9220    14.8110    14.8730    24.6110     2.4450   -12.4630 
  154.0000    59.0500    16.2520    15.1330    16.3060    24.5920     2.4570   -12.4510 
  154.1250    60.3820    16.3810    15.2840    16.5690    24.5500     2.4680   -12.4500 
  154.2500    59.0390    16.3870    15.3080    14.8970    24.5260     2.4750   -12.4330 
  154.3750    56.5720    16.3560    15.2560    13.9610    24.5360     2.4810   -12.3840 
  154.5000    56.3950    16.3720    15.2030    14.5900    24.5730     2.4890   -12.3050 
  154.6250    59.6250    16.5290    15.2660    15.1220    24.6140     2.4990   -12.1840 
  154.7500    61.9930    16.8650    15.5300    15.6020    24.6500     2.5120   -12.0390 
  154.8750    62.2850    17.4110    16.0370    15.5190    24.6790     2.5250   -11.9030 
  155.0000    62.5340    18.1850    16.7770    16.2320    24.7010     2.5340   -11.7740 
  155.1250    62.6430    19.2150    17.7240    17.8490    24.6990     2.5310   -11.6320 
  155.2500    60.4660    20.4100    18.8020    20.1200    24.6650     2.5140   -11.4650 
  155.3750    57.3890    21.6690    19.9750    23.0510    24.5920     2.4870   -11.2990 
  155.5000    56.5260    22.8420    21.1620    24.4830    24.4810     2.4580   -11.1570 
  155.6250    58.2510    23.6860    22.1440    23.7470    24.3540     2.4440   -11.0600 
  155.7500    58.8500    24.0620    22.7000    24.9350    24.2640     2.4480   -11.0170 
  155.8750    57.5860    23.8590    22.6660    26.9650    24.2370     2.4630   -11.0020 
  156.0000    56.5240    23.0820    22.0350    27.4200    24.2600     2.4800   -10.9800 
  156.1250    57.7470    21.8830    20.9450    23.9830    24.2880     2.4880   -10.9600 
  156.2500    58.7920    20.6710    19.7660    18.8280    24.3020     2.4850   -10.9650 
  156.3750    57.8730    19.7070    18.7230    16.9620    24.3120     2.4760   -10.9970 
  156.5000    56.4170    19.0990    17.9480    17.3830    24.3190     2.4670   -11.0350 
  156.6250    56.3980    18.8600    17.5390    18.5150    24.3070     2.4630   -11.0350 
  156.7500    56.7390    18.8280    17.4190    19.4490    24.2840     2.4630   -11.0020 
  156.8750    56.3630    18.9290    17.5180    19.6340    24.2640     2.4660   -10.9730 
  157.0000    55.3430    19.1380    17.7580    18.3820    24.2560     2.4690   -10.9560 
  157.1250    53.6000    19.4830    18.0940    17.8150    24.2540     2.4720   -10.9620 
  157.2500    50.4980    19.9530    18.5100    18.8040    24.2560     2.4740   -11.0050 
  157.3750    47.7920    20.5090    19.0090    20.5970    24.2650     2.4740   -11.0890 
  157.5000    47.3210    21.0540    19.5480    21.5930    24.2810     2.4700   -11.2060 
  157.6250    47.5510    21.4210    19.9700    20.6870    24.2870     2.4600   -11.3570 
  157.7500    47.3510    21.5310    20.1420    19.6280    24.2640     2.4500   -11.5330 
  157.8750    47.8060    21.3760    20.0250    18.9180    24.2020     2.4450   -11.7080 
  158.0000    49.8600    21.0210    19.7040    18.0690    24.1000     2.4460   -11.9020 
  158.1250    52.4010    20.5990    19.3560    17.4000    23.9850     2.4520   -12.0930 
