~V
VERS. 2.00: Ver 2.00
~W
STRT.M 50.0000:
STOP.M 219.0000:
STEP.M 0.1250:
NULL. -999.2500:
UWI. F10688:
~C
DEPT.M :
SP.MV :
DEN.GM/CC :
GR.API :
RML.OHMM :
RI. :
RXO.OHMM :
CALI.CM :
~A
# ...
  117.5000   -11.5420     2.1520    56.5530    34.7380    31.9230    40.9010    24.7500 
  117.6250   -11.4850     2.1580    55.7480    31.3460    29.0770    37.9160    24.9110 
  117.7500   -11.3860     2.1710    56.2730    28.5850    26.7420    33.4790    24.9700 
  117.8750   -11.2910     2.1860    60.2340    26.3160    24.8320    29.2820    24.9420 
  118.0000   -11.1510     2.1970    65.3890    24.4880    23.3030    25.8020    24.8830 
  118.1250   -10.9570     2.1980    67.2020    23.1720    22.2000    24.0600    24.8360 
  118.2500   -10.7880     2.1950    65.8270    22.2390    21.4170    23.9510    24.8010 
  118.3750   -10.6000     2.1900    63.2090    21.5650    20.8570    24.3790    24.7650 
  118.5000   -10.3270     2.1870    61.6390    21.0370    20.4220    22.5820    24.7210 
  118.6250   -10.0170     2.1850    61.8530    20.6350    20.0820    20.9000    24.6710 
  118.7500    -9.7500     2.1820    62.4100    20.3920    19.8420    20.7190    24.6210 
  118.8750    -9.4510     2.1790    61.1180    20.3770    19.7370    20.8000    24.5760 
  119.0000    -9.1550     2.1760    58.5730    20.6160    19.7850    20.2580    24.5390 
  119.1250    -8.9190     2.1750    59.2330    20.9850    19.9130    22.0730    24.5270 
  119.2500    -8.6850     2.1760    63.1300    21.1610    19.8830    24.0520    24.5240 
  119.3750    -8.4880     2.1810    66.5430    20.9630    19.5350    23.5220    24.5140 
  119.5000    -8.3680     2.1900    67.1650    20.5080    18.9380    22.3760    24.4970 
  119.6250    -8.3310     2.1940    66.5920    20.3180    18.4920    22.7340    24.4730 
  119.7500    -8.3400     2.1850    66.1370    20.9980    18.6720    25.3590    24.4530 
  119.8750    -8.4000     2.1650    65.4460    23.0700    19.8990    33.0530    24.4540 
  120.0000    -8.5330     2.1450    64.3960    26.8460    22.4810    50.3170    24.4760 
  120.1250    -8.6750     2.1460    61.2710    32.4230    26.6420    59.4530    24.4990 
  120.2500    -8.8040     2.1660    56.0210    38.7000    31.5680    59.1840    24.5050 
  120.3750    -8.9480     2.1890    51.9010    44.4610    36.2630    56.8560    24.4980 
  120.5000    -9.1310     2.1990    51.6260    48.6560    39.7780    53.2450    24.4620 
  120.6250    -9.3050     2.1930    54.0860    50.8780    41.6350    51.4250    24.3950 
  120.7500    -9.3990     2.1840    54.8900    52.1510    42.6250    54.9840    24.3130 
  120.8750    -9.4800     2.1800    53.4540    52.9530    43.1970    61.0470    24.2260 
  121.0000    -9.5090     2.1790    51.7060    53.1710    43.3470    67.2660    24.1600 
  121.1250    -9.4450     2.1710    51.3520    52.3930    42.7810    68.9140    24.1250 
  121.2500    -9.3780     2.1610    52.8890    51.1620    41.8360    65.9350    24.0940 
  121.3750    -9.3200     2.1630    54.6010    50.4630    41.1890    58.3960    24.0380 
  121.5000    -9.2040     2.1940    53.6580    51.2390    41.5720    53.1860    23.9560 
  121.6250    -9.0230     2.2740    51.5380    53.4520    43.1340    54.2410    23.8930 
  121.7500    -8.8780     2.3930    50.9820    54.5030    44.0500    66.5230    23.8800 
  121.8750    -8.6910     2.5120    51.5380    51.2180    41.8470    91.9650    23.9290 
  122.0000    -8.4960     2.5740    52.1590    42.2720    35.2850   121.7920    24.0410 
  122.1250    -8.3790     2.5460    53.1880    30.4260    26.2370    86.0340    24.2120 
  122.2500    -8.2700     2.4680    56.3250    20.4020    18.3470    37.9460    24.4150 
  122.3750    -8.1300     2.3840    62.8910    13.6420    12.8070    15.6830    24.6150 
  122.5000    -7.9960     2.3250    71.8790     9.7680     9.4340     9.2710    24.7750 
  122.6250    -7.9380     2.3030    76.9710     8.0300     7.7570     8.3680    24.8630 
  122.7500    -7.8920     2.3000    77.7860     7.2980     6.9560     8.3250    24.8970 
  122.8750    -7.8640     2.3000    78.6600     7.1300     6.7160     8.2300    24.9100 
  123.0000    -7.8740     2.2980    80.0040     7.2200     6.7940     8.1990    24.9120 
  123.1250    -7.9120     2.2980    77.9640     7.3420     6.9860     8.4440    24.9120 
  123.2500    -7.9500     2.3030    74.4700     7.3530     7.1110     8.3380    24.9120 
  123.3750    -8.0020     2.3090    72.3160     7.2080     7.0980     8.0370    24.9110 
  123.5000    -8.0810     2.3100    71.6390     6.9330     6.9450     8.1280    24.9110 
  123.6250    -8.1990     2.3080    73.6010     6.6640     6.7440     7.9800    24.9080 
  123.7500    -8.3370     2.3160    76.4110     6.5850     6.6640     7.5990    24.9020 
  123.8750    -8.5310     2.3490    77.1420     6.8080     6.8170     7.3080    24.8940 
  124.0000    -8.7460     2.4040    74.9070     7.3160     7.2170     7.6620    24.8840 
  124.1250    -8.8680     2.4560    72.9800     7.9100     7.7200     9.2360    24.8730 
  124.2500    -8.9660     2.4730    72.6660     8.2230     8.0140    11.8950    24.8620 
  124.3750    -9.0910     2.4550    73.1750     8.0050     7.8640    13.2440    24.8520 
  124.5000    -9.2160     2.4200    74.5460     7.2780     7.2490    11.1040    24.8450 
  124.6250    -9.2420     2.3940    76.0980     6.3710     6.4090     7.8020    24.8420 
  124.7500    -9.2590     2.3830    77.3160     5.6870     5.7020     6.2900    24.8420 
  124.8750    -9.2390     2.3760    77.6250     5.3960     5.3010     6.0280    24.8420 
  125.0000    -9.1430     2.3610    77.3230     5.5210     5.2610     6.3120    24.8420 
  125.1250    -9.0710     2.3280    77.7590     6.0240     5.5840     6.8710    24.8440 
  125.2500    -9.0150     2.2930    76.4790     6.6820     6.0840     7.5030    24.8490 
  125.3750    -8.9170     2.2660    72.5200     7.3060     6.6000     8.1390    24.8570 
  125.5000    -8.7590     2.2590    70.9390     7.7280     6.9780     8.5070    24.8670 
  125.6250    -8.6330     2.2750    74.7900     7.8180     7.0870     8.6470    24.8800 
  125.7500    -8.5140     2.2980    77.1590     7.6830     6.9910     8.6350    24.8980 
  125.8750    -8.3950     2.3140    74.2690     7.4560     6.7910     8.5250    24.9210 
  126.0000    -8.3560     2.3140    71.6570     7.3000     6.6230     8.4480    24.9490 
  126.1250    -8.4010     2.2940    75.2120     7.4710     6.6720     8.6080    24.9880 
  126.2500    -8.4840     2.2640    78.6800     8.1200     7.0420     9.1850    25.0340 
  126.3750    -8.5940     2.2300    76.9620     9.3680     7.8150    10.4310    25.0870 
  126.5000    -8.7650     2.1980    71.2440    11.2370     9.0280    12.9790    25.1440 
  126.6250    -8.9770     2.1730    66.7790    13.6220    10.6880    16.7240    25.2000 
  126.7500    -9.1830     2.1590    65.0170    16.0470    12.5110    21.9000    25.2520 
  126.8750    -9.4070     2.1560    64.1210    18.0810    14.1810    24.5930    25.3010 
  127.0000    -9.6440     2.1610    62.6910    19.4670    15.4180    23.8870    25.3530 
  127.1250    -9.8220     2.1680    60.7120    20.2540    16.1170    23.2920    25.4110 
  127.2500    -9.9360     2.1740    58.1300    20.9880    16.6360    23.8420    25.4770 
  127.3750   -10.0370     2.1770    56.8720    22.1090    17.3110    24.7720    25.5490 
  127.5000   -10.1380     2.1770    56.6340    23.9190    18.3980    25.8350    25.6210 
  127.6250   -10.1390     2.1720    56.6840    26.6130    20.1010    27.9120    25.6760 
  127.7500   -10.0920     2.1630    56.6820    29.8120    22.2340    32.5750    25.7020 
  127.8750   -10.0270     2.1540    56.0440    33.0490    24.5350    38.6530    25.6890 
  128.0000    -9.8820     2.1490    53.8090    35.8060    26.6610    41.8620    25.6420 
  128.1250    -9.7240     2.1500    52.1010    37.5960    28.2240    43.4140    25.5660 
  128.2500    -9.5700     2.1550    53.6980    38.6220    29.2480    43.5670    25.4770 
  128.3750    -9.3520     2.1580    55.7880    39.2330    29.9140    42.9330    25.3710 
  128.5000    -9.0580     2.1560    54.5230    39.8380    30.4960    42.7030    25.2530 
  128.6250    -8.8040     2.1490    52.1050    40.7610    31.2510    44.7500    25.1360 
