~V
VERS. 2.00: Ver 2.00
~W
STRT.M 61.0000:
STOP.M 247.0000:
STEP.M 0.1250:
NULL. -999.2500:
UWI. F10600:
~C
DEPT.M :
GR.API :
RML.OHMM :
RI. :
RXO.OHMM :
CALI.CM :
DEN.GM/CC :
SP.MV :
~A
# ...
  128.5000    72.2610    16.7060    16.2800    12.5350    24.7790     2.2370   -22.2760 
  128.6250    72.3910    17.0000    16.6590    11.9130    24.7850     2.2120   -22.3660 
  128.7500    70.2940    17.7550    17.3470    12.1060    24.8060     2.1820   -22.4490 
  128.8750    67.8580    19.1200    18.3730    13.5740    24.8570     2.1560   -22.5370 
  129.0000    66.3860    20.9570    19.6960    16.5980    24.9120     2.1370   -22.6140 
  129.1250    64.6060    22.8910    21.2030    18.9510    25.0070     2.1320   -22.6570 
  129.2500    62.1620    24.4930    22.6900    20.6700    25.0420     2.1350   -22.6950 
  129.3750    62.1940    25.8020    24.0320    21.2530    25.0050     2.1430   -22.6930 
  129.5000    65.6360    26.6360    25.1860    21.3560    24.8990     2.1560   -22.6580 
  129.6250    67.2770    27.3230    26.1600    21.9650    24.8020     2.1730   -22.6470 
  129.7500    66.2010    28.1960    27.0050    23.2420    24.7600     2.1910   -22.6210 
  129.8750    65.3890    29.0880    27.6580    24.0740    24.7180     2.2040   -22.6120 
  130.0000    66.9110    29.5270    27.9690    23.6810    24.6360     2.2110   -22.6230 
  130.1250    68.5700    29.1750    27.6780    22.6060    24.5340     2.2080   -22.6460 
  130.2500    68.0600    27.8410    26.8410    21.4230    24.4800     2.2010   -22.6650 
  130.3750    66.1160    25.7770    25.6310    20.1870    24.4610     2.1930   -22.6900 
  130.5000    65.4550    24.1270    24.3380    19.0780    24.4560     2.1880   -22.7310 
  130.6250    67.1350    23.4780    23.3030    17.4850    24.4540     2.1850   -22.7620 
  130.7500    67.8580    23.3100    22.5970    16.2780    24.4440     2.1840   -22.8320 
  130.8750    65.5350    23.2070    22.0970    16.3500    24.4480     2.1850   -22.8790 
  131.0000    62.5860    23.0140    21.5480    16.7440    24.4840     2.1880   -22.8940 
  131.1250    61.4780    22.5910    20.6280    16.5460    24.5710     2.1930   -22.9030 
  131.2500    60.9980    21.4470    19.3080    15.0890    24.6950     2.1980   -22.8890 
  131.3750    61.9610    19.3620    17.7230    13.1910    24.8260     2.2030   -22.8380 
  131.5000    64.7350    17.3860    16.1270    12.1640    24.8980     2.2060   -22.7560 
  131.6250    66.5300    16.1970    14.8560    12.3250    24.8940     2.2090   -22.6460 
  131.7500    65.4100    15.6500    14.0440    12.5160    24.8240     2.2110   -22.4770 
  131.8750    62.6530    15.4560    13.7260    12.3890    24.7220     2.2100   -22.3250 
  132.0000    60.9330    15.5420    13.8380    11.9290    24.6490     2.2010   -22.1420 
  132.1250    60.9580    15.8050    14.2460    11.7360    24.5990     2.1840   -21.9740 
  132.2500    62.3070    16.0400    14.6550    11.9530    24.5830     2.1630   -21.8070 
  132.3750    63.8490    16.0660    14.8210    12.1580    24.5790     2.1440   -21.5800 
  132.5000    63.6740    15.7280    14.5380    12.2550    24.5790     2.1310   -21.3610 
  132.6250    62.8180    14.8610    13.6320    11.7770    24.5800     2.1290   -21.1000 
  132.7500    65.8580    13.5940    12.3250    10.9380    24.5830     2.1370   -20.8040 
  132.8750    75.0230    12.1180    10.8910    10.3630    24.6000     2.1560   -20.4780 
  133.0000    85.6120    10.7110     9.6240     9.5330    24.6770     2.1870   -20.1510 
  133.1250    88.7040     9.7800     8.8390     8.7010    24.8940     2.2310   -19.8430 
  133.2500    86.1780     9.5320     8.6050     7.8020    25.1810     2.2900   -19.5750 
  133.3750    82.2340    10.1060     8.9780     8.2260    25.3760     2.3650   -19.3540 
  133.5000    79.9180    11.4800     9.9380    10.1230    25.4270     2.4530   -19.1880 
  133.6250    78.8770    13.3360    11.3050    15.0880    25.3900     2.5370   -19.0780 
  133.7500    78.8110    14.7810    12.4630    20.9730    25.3380     2.5890   -19.0160 
  133.8750    81.0580    15.0310    12.8200    24.0850    25.2040     2.5950   -19.0250 
  134.0000    85.9180    13.8330    12.1030    20.0750    24.9360     2.5540   -19.0900 
  134.1250    91.3830    11.6890    10.5600    11.0240    24.6720     2.4890   -19.1380 
  134.2500    94.4500     9.6400     8.9630     7.5660    24.6010     2.4330   -19.1830 
  134.3750    95.3950     8.1410     7.6990     6.3870    24.6790     2.4020   -19.2460 
  134.5000    96.6340     7.3010     6.8920     6.0940    24.8350     2.3930   -19.3080 
  134.6250    96.6450     7.1560     6.5750     6.4140    24.9600     2.3880   -19.4050 
  134.7500    93.4940     7.5200     6.6030     6.9730    25.0080     2.3690   -19.5130 
  134.8750    88.2320     8.3140     6.9370     7.2900    25.0120     2.3290   -19.5980 
  135.0000    82.2270     9.4130     7.5490     7.8980    24.9750     2.2770   -19.6380 
  135.1250    78.4310    10.5720     8.3990     8.9990    24.8570     2.2290   -19.6450 
  135.2500    78.5190    11.4340     9.2650    10.2390    24.6960     2.2020   -19.6050 
  135.3750    80.1740    11.7230     9.8920    12.0000    24.6240     2.2020   -19.5110 
  135.5000    81.3330    11.3350    10.0520    13.2810    24.7210     2.2260   -19.3970 
  135.6250    85.1720    10.3790     9.5970    12.0320    24.9600     2.2660   -19.2260 
  135.7500    91.9030     9.3250     8.7850     8.9560    25.0920     2.3070   -19.0420 
  135.8750    96.9480     8.4850     7.8640     7.4570    25.1300     2.3440   -18.8890 
  136.0000    96.5630     7.9460     7.0540     6.7970    25.1330     2.3710   -18.7510 
  136.1250    93.9350     7.6040     6.5470     6.6060    25.1140     2.3820   -18.6650 
  136.2500    92.0980     7.2820     6.3450     6.7060    25.0440     2.3790   -18.6420 
  136.3750    90.5680     7.1680     6.4040     6.7840    24.8990     2.3670   -18.6670 
  136.5000    90.9970     7.2920     6.6300     6.5110    24.6760     2.3540   -18.6760 
  136.6250    93.6800     7.6010     6.8940     6.3720    24.4610     2.3460   -18.7290 
  136.7500    95.1620     7.7260     7.0890     6.2660    24.3080     2.3440   -18.8020 
  136.8750    93.8480     7.7540     7.1880     6.2930    24.2380     2.3430   -18.8330 
  137.0000    90.3610     7.8380     7.2200     6.3630    24.2100     2.3430   -18.8790 
  137.1250    88.9590     8.0740     7.2560     6.5390    24.1710     2.3400   -18.9020 
  137.2500    89.3850     8.4270     7.3520     6.9840    24.1120     2.3320   -18.9330 
  137.3750    89.8050     8.8380     7.5130     7.5910    24.0680     2.3210   -18.9940 
  137.5000    90.1630     9.1870     7.6990     8.3180    24.0350     2.3100   -19.0980 
  137.6250    91.4150     9.2870     7.8240     8.8390    23.9580     2.3070   -19.1390 
  137.7500    91.2540     9.1350     7.8410     9.0060    23.8570     2.3110   -19.1440 
  137.8750    88.7940     8.8620     7.7680     8.4520    23.7840     2.3180   -19.1550 
  138.0000    87.1190     8.7110     7.6910     7.4890    23.7580     2.3220   -19.1420 
  138.1250    88.4150     9.0660     7.8130     6.9670    23.7600     2.3160   -19.1670 
  138.2500    88.4290    10.1260     8.3340     7.2700    23.7790     2.3000   -19.1410 
  138.3750    84.2920    12.0790     9.4880     8.5430    23.8360     2.2760   -19.0960 
  138.5000    78.4210    15.0390    11.5000    10.8000    23.9810     2.2460   -19.0600 
  138.6250    75.6200    19.0380    14.6230    15.7200    24.3380     2.2230   -19.0270 
  138.7500    75.7070    23.3860    18.4360    22.5760    24.9970     2.2200   -19.0190 
  138.8750    75.9410    27.2850    22.3670    27.8270    25.7230     2.2440   -19.0280 
  139.0000    74.2790    30.0570    25.7890    29.1220    25.9230     2.2820   -19.0570 
  139.1250    73.0420    31.4730    28.2670    28.4160    25.8910     2.3040   -19.1090 
  139.2500    73.5580    32.4130    30.1960    28.3190    25.7510     2.2910   -19.1620 
  139.3750    72.9200    33.6160    32.0400    28.0660    25.4910     2.2480   -19.2090 
  139.5000    69.8950    35.5730    34.1520    33.4300    25.0200     2.1940   -19.2440 
  139.6250    67.9160    38.5570    36.6540    34.4150    24.6560     2.1590   -19.2670 
