~V
VERS. 2.00: Ver 2.00
~W
STRT.M 50.0000:
STOP.M 224.0000:
STEP.M 0.1250:
NULL. -999.2500:
UWI. F10690:
~C
DEPT.M :
SP.MV :
DEN.GM/CC :
GR.API :
RML.OHMM :
RI. :
RXO.OHMM :
CALI.CM :
~A
   50.0000  -999.2500  -999.2500    35.6120     1.6640     0.6330     0.3580    25.0360 
   50.1250  -999.2500  -999.2500    35.4740     1.6970     0.6370     0.3350    25.0330 
   50.2500  -999.2500  -999.2500    36.6470     1.7160     0.6370     0.5020    25.0380 
   50.3750  -999.2500  -999.2500    38.2150     1.7170     0.6350     0.5980    25.0430 
   50.5000  -999.2500  -999.2500    38.6070     1.6990     0.6320     0.6050    25.0450 
   50.6250  -999.2500  -999.2500    37.2910     1.6720     0.6270     0.5660    25.0420 
   50.7500  -999.2500  -999.2500    35.1380     1.6660     0.6220     0.4810    25.0390 
   50.8750  -999.2500  -999.2500    33.8340     1.7120     0.6170     0.4400    25.0380 
   51.0000  -999.2500  -999.2500    34.1540     1.8240     0.6110     0.5440    25.0400 
   51.1250  -999.2500  -999.2500    36.1150     1.9650     0.6040     0.8220    25.0400 
   51.2500  -999.2500  -999.2500    38.6700     2.0450     0.5990     1.0240    25.0400 
   51.3750  -999.2500  -999.2500    41.7920     2.0020     0.5960     0.8740    25.0400 
   51.5000  -999.2500  -999.2500    43.4950     1.8530     0.5960     0.7270    25.0410 
   51.6250  -999.2500  -999.2500    40.5390     1.6770     0.5950     0.7250    25.0420 
   51.7500     0.0000  -999.2500    35.8510     1.5410     0.5920     0.7830    25.0420 
   51.8750     0.0000  -999.2500    33.1640     1.4570     0.5870     0.7970    25.0340 
   52.0000     0.0000  -999.2500    32.9740     1.4190     0.5850     0.7870    24.9970 
   52.1250    15.3160  -999.2500    32.7690     1.4260     0.5880     0.7790    24.9440 
   52.2500    61.2350  -999.2500    31.9230     1.4570     0.5980     0.7690    24.9070 
   52.3750    61.1710  -999.2500    32.5060     1.4870     0.6100     0.7520    24.8940 
   52.5000    61.0780  -999.2500    36.1370     1.4950     0.6190     0.7340    24.8930 
   52.6250    60.8570  -999.2500    40.4800     1.4820     0.6240     0.7420    24.9050 
   52.7500    60.5270  -999.2500    42.3950     1.4690     0.6250     0.7820    24.9380 
   52.8750    60.1460  -999.2500    41.5400     1.4780     0.6230     0.8780    24.9940 
   53.0000    59.7500  -999.2500    38.4590     1.5350     0.6180     1.0600    25.0600 
   53.1250    59.3170  -999.2500    35.4140     1.6710     0.6090     1.3380    25.1190 
   53.2500    58.8300  -999.2500    35.4460     1.8630     0.5980     1.4810    25.1580 
   53.3750    58.3140  -999.2500    37.5260     2.0750     0.5860     1.5710    25.1860 
   53.5000    57.8010  -999.2500    37.7090     2.2510     0.5760     1.4850    25.2250 
   53.6250    57.2720  -999.2500    34.5850     2.3260     0.5720     3.3250    25.3000 
   53.7500    56.6660  -999.2500    31.9940     2.3450     0.5720     5.3000    25.4490 
   53.8750    55.9380  -999.2500    30.7810     2.3770     0.5750     8.0250    25.6980 
   54.0000    55.1190     2.3150    29.9780     2.4500     0.5780     8.5910    25.9610 
   54.1250    54.3150     2.3150    30.1980     2.5260     0.5880     9.8340    26.0660 
   54.2500    53.6030     2.2230    31.5980     2.5600     0.6040     7.8100    26.0900 
   54.3750    52.9790     2.1540    33.2780     2.5460     0.6240     5.9830    26.0880 
   54.5000    52.4110     2.1260    34.7870     2.5040     0.6430     5.2900    26.0800 
   54.6250    51.8990     2.1290    35.7890     2.4710     0.6520     5.3810    26.0610 
   54.7500    51.4460     2.1300    36.1400     2.4450     0.6490     4.9620    26.0450 
   54.8750    51.0390     2.1240    34.5240     2.3750     0.6400     4.0220    26.0390 
   55.0000    50.6580     2.1230    31.3050     2.2050     0.6350     3.2020    26.0380 
   55.1250    50.2820     2.1300    29.6010     1.9350     0.6420     3.1870    26.0380 
   55.2500    49.8960     2.1400    31.3310     1.6580     0.6590     3.5750    26.0380 
   55.3750    49.4890     2.1460    34.2450     1.4300     0.6820     3.3910    26.0380 
   55.5000    49.0310     2.1530    34.9700     1.2720     0.7040     2.6830    26.0330 
   55.6250    48.4750     2.1620    33.1580     1.1860     0.7200     2.2890    26.0150 
   55.7500    47.8600     2.1710    31.6250     1.1420     0.7310     1.8980    25.9920 
   55.8750    47.2620     2.1760    31.3360     1.1240     0.7380     1.6890    25.9820 
   56.0000    46.7490     2.1770    32.0260     1.1200     0.7440     1.6690    25.9810 
   56.1250    46.3380     2.1750    32.9920     1.1180     0.7480     1.8580    25.9810 
   56.2500    45.9650     2.1750    33.2170     1.1010     0.7500     2.1210    25.9780 
   56.3750    45.5640     2.1840    32.4330     1.0640     0.7510     2.3540    25.9680 
   56.5000    45.0700     2.2160    30.9760     1.0160     0.7540     2.3080    25.9440 
   56.6250    44.4390     2.2770    29.7300     0.9730     0.7570     2.0640    25.9310 
   56.7500    43.7260     2.3450    29.5200     0.9420     0.7600     1.8360    25.9170 
   56.8750    42.9910     2.3980    30.3040     0.9170     0.7610     1.7180    25.8890 
   57.0000    42.2930     2.4200    31.0570     0.8910     0.7570     1.6640    25.8540 
   57.1250    41.6770     2.3950    32.0770     0.8540     0.7490     1.5370    25.8090 
   57.2500    41.0920     2.3300    33.2730     0.8110     0.7410     1.3020    25.7650 
   57.3750    40.4990     2.2350    33.3010     0.7700     0.7380     0.9660    25.7060 
   57.5000    39.9010     2.1380    31.9460     0.7400     0.7460     0.7790    25.6020 
   57.6250    39.3140     2.0630    33.0230     0.7220     0.7670     0.8420    25.4190 
   57.7500    38.6920     2.0130    35.9960     0.7110     0.7910     1.0210    25.2250 
   57.8750    37.9590     1.9930    37.0120     0.7020     0.8080     1.2120    25.1020 
   58.0000    37.0630     2.0010    35.8390     0.6860     0.8070     1.3110    25.0610 
   58.1250    35.9500     2.0230    36.6480     0.6590     0.7880     1.2290    25.0570 
   58.2500    34.6750     2.0410    38.7980     0.6290     0.7630     1.0970    25.0400 
   58.3750    33.3150     2.0570    39.8920     0.6030     0.7400     1.0440    24.9830 
   58.5000    31.9560     2.0820    40.7220     0.5870     0.7270     1.1250    24.8720 
   58.6250    30.6630     2.1060    42.5800     0.5820     0.7240     1.3200    24.7280 
   58.7500    29.4080     2.1280    44.0250     0.5820     0.7260     1.5590    24.5880 
   58.8750    28.1100     2.1560    44.1090     0.5810     0.7290     1.8140    24.4980 
   59.0000    26.6770     2.1940    43.5830     0.5800     0.7290     1.9850    24.4620 
   59.1250    25.0460     2.2310    43.3400     0.5780     0.7170     1.9310    24.4550 
   59.2500    23.2900     2.2760    43.6910     0.5700     0.6830     2.6220    24.4550 
   59.3750    21.4260     2.3490    43.7740     0.5520     0.6210     5.1610    24.4560 
   59.5000    19.4140     2.4530    42.8400     0.5240     0.5400     7.3450    24.4560 
   59.6250    17.1750     2.5680    41.6190     0.5010     0.4710     4.2770    24.4560 
   59.7500    14.7360     2.6650    41.8500     0.4940     0.4310     2.5520    24.4570 
   59.8750    12.1100     2.7170    44.3150     0.5010     0.4170     2.0460    24.4560 
   60.0000     9.2950     2.7000    49.5180     0.5240     0.4260     1.9820    24.4560 
   60.1250     6.1950     2.6070    57.5690     0.5840     0.4860     2.4450    24.4570 
   60.2500     2.7790     2.5020    64.5160     0.7170     0.6450     3.7310    24.4580 
   60.3750    -0.9150     2.4270    67.9890     0.9940     0.9940     5.1900    24.4730 
   60.5000    -4.6980     2.3920    68.9200     1.5210     1.6660     5.6680    24.5260 
   60.6250    -8.2090     2.3760    69.8010     2.4570     2.8700     6.0890    24.6520 
   60.7500   -11.2210     2.3530    69.5570     3.6250     4.4320     7.0530    24.7830 
   60.8750   -13.6500     2.3320    66.1530     4.6800     5.9870     7.5130    24.8650 
   61.0000   -15.5250     2.3260    61.9910     5.3760     7.1850     7.0780    24.9030 
   61.1250   -16.8830     2.3310    61.5650     5.6900     7.8380     6.5740    24.9620 
