~V
VERS. 2.00: Ver 2.00
~W
STRT.M 55.0000:
STOP.M 197.0000:
STEP.M 0.1250:
NULL. -999.2500:
UWI. F10681:
~C
DEPT.M :
DEN.GM/CC :
GR.API :
RML.OHMM :
RI. :
RXO.OHMM :
CALI.CM :
SP.MV :
~A
# ...
  145.0000     2.1260    62.0030    40.3010    36.1490    36.4580    23.6240   -20.0790 
  145.1250     2.1350    60.1390    44.2200    40.2780    46.1700    24.0040   -20.0830 
  145.2500     2.1510    57.9780    46.4010    43.0330    54.3200    24.4970   -20.1030 
  145.3750     2.1670    55.4210    46.4080    43.7400    51.1240    24.8500   -20.0960 
  145.5000     2.1790    55.4960    44.7410    42.6110    43.5220    24.9070   -20.0480 
  145.6250     2.1830    60.2870    42.5100    40.5240    38.2350    24.9140   -19.9980 
  145.7500     2.1810    63.6990    40.6870    38.5520    38.4280    24.8920   -19.9510 
  145.8750     2.1760    61.1890    39.4990    37.0670    39.5110    24.8780   -19.8710 
  146.0000     2.1720    54.9770    38.8210    36.0950    38.6810    24.8640   -19.7980 
  146.1250     2.1810    50.6090    38.3690    35.4790    36.5540    24.8080   -19.7770 
  146.2500     2.2030    48.4890    37.8780    34.9290    35.1320    24.7620   -19.7520 
  146.3750     2.2320    47.5890    37.3400    34.3780    34.1020    24.6790   -19.7230 
  146.5000     2.2530    50.1830    36.8760    33.8940    33.1760    24.6190   -19.7430 
  146.6250     2.2500    56.7360    36.6350    33.6140    32.7400    24.5730   -19.7750 
  146.7500     2.2310    60.8820    36.5870    33.5220    33.0720    24.4000   -19.7920 
  146.8750     2.2120    60.7340    36.6780    33.5600    34.2280    24.3040   -19.8590 
  147.0000     2.2080    58.6350    36.8800    33.6760    35.5660    24.3140   -19.9510 
  147.1250     2.2280    56.9900    37.2270    33.8900    36.4380    24.3610   -19.9980 
  147.2500     2.2560    55.6210    37.7170    34.2230    35.7570    24.3550   -20.0670 
  147.3750     2.2740    55.1700    38.3710    34.7090    35.8740    24.3640   -20.1580 
  147.5000     2.2730    55.2040    39.2250    35.3820    38.4620    24.3760   -20.2070 
  147.6250     2.2590    54.6680    40.3210    36.2900    41.6330    24.2430   -20.2300 
  147.7500     2.2510    54.3530    41.5570    37.3490    40.1360    23.9550   -20.2860 
  147.8750     2.2570    55.9610    42.7850    38.4390    39.4410    23.8980   -20.3290 
  148.0000     2.2680    57.7330    43.7850    39.3760    41.3480    24.1870   -20.3470 
  148.1250     2.2650    58.0790    44.1960    39.8440    44.2500    24.5730   -20.3870 
  148.2500     2.2430    60.0660    43.9190    39.7240    43.5120    24.6790   -20.4210 
  148.3750     2.2090    62.6950    42.9670    38.9910    40.9370    24.6640   -20.4130 
  148.5000     2.1760    62.6890    41.5670    37.7930    37.7580    24.6350   -20.4020 
  148.6250     2.1590    58.2230    40.2550    36.5250    34.8990    24.5190   -20.4400 
  148.7500     2.1600    53.6010    39.5920    35.7050    33.9320    24.4570   -20.4240 
  148.8750     2.1780    52.5510    39.8610    35.6510    34.3070    24.3750   -20.3790 
  149.0000     2.2060    54.2240    41.0320    36.4440    36.0890    24.4730   -20.3660 
  149.1250     2.2360    57.0980    42.8060    37.9600    39.5640    24.6380   -20.3280 
  149.2500     2.2620    58.1830    44.5050    39.6190    45.3080    24.6880   -20.2680 
  149.3750     2.2800    56.4860    45.6050    40.9110    47.3130    24.6180   -20.2590 
  149.5000     2.2960    53.8140    45.7640    41.4280    44.6680    24.6490   -20.2680 
  149.6250     2.3100    53.6020    44.8040    40.8680    42.2280    24.7650   -20.2380 
  149.7500     2.3160    55.7160    43.1680    39.5600    40.2810    24.7150   -20.2560 
  149.8750     2.3070    58.1240    41.2140    37.8270    39.1450    24.6170   -20.2880 
  150.0000     2.2810    59.5370    39.2620    36.0040    37.6820    24.6080   -20.2920 
  150.1250     2.2450    59.6620    37.5940    34.3990    35.4840    24.6410   -20.3210 
  150.2500     2.2130    59.7550    36.3150    33.1390    33.3900    24.6250   -20.3690 
  150.3750     2.1950    59.9980    35.4940    32.2900    32.8910    24.6780   -20.3890 
  150.5000     2.1890    59.8160    35.1570    31.8720    33.4950    24.6560   -20.3960 
  150.6250     2.1910    57.6360    35.3990    31.9740    33.0860    24.3510   -20.4190 
  150.7500     2.1950    55.0110    36.1390    32.5460    31.7980    24.0510   -20.4360 
  150.8750     2.1960    54.3140    37.3330    33.5850    30.7070    23.9320   -20.4250 
  151.0000     2.1940    55.0140    38.8280    35.0020    30.4050    24.0250   -20.4150 
  151.1250     2.1890    55.1170    40.2070    36.4970    33.1050    24.2080   -20.4300 
  151.2500     2.1820    53.7700    40.9040    37.5280    38.1680    24.4810   -20.4020 
  151.3750     2.1760    53.0550    40.4780    37.5940    41.3430    24.6460   -20.3750 
  151.5000     2.1720    55.3320    38.8920    36.5010    38.7770    24.7170   -20.3960 
  151.6250     2.1720    58.4500    36.6740    34.5450    33.0760    24.7000   -20.4150 
  151.7500     2.1730    59.0490    34.8300    32.6530    28.4100    24.6440   -20.4300 
  151.8750     2.1740    57.8040    33.9450    31.4270    27.1350    24.5820   -20.5090 
  152.0000     2.1710    56.8890    34.1800    31.1510    28.7150    24.4680   -20.6220 
  152.1250     2.1700    56.3670    35.3640    31.8530    32.5010    24.4420   -20.7460 
  152.2500     2.1750    54.6480    36.7770    32.9690    36.3360    24.5790   -20.9150 
  152.3750     2.1880    52.4970    37.9270    34.0510    37.1840    24.8960   -21.0840 
  152.5000     2.2030    52.0350    38.5520    34.7840    36.2660    25.1820   -21.2020 
  152.6250     2.2110    53.8650    38.6070    35.0480    34.7300    25.0820   -21.3120 
  152.7500     2.2070    57.0160    38.3650    35.0450    33.0730    24.9680   -21.4000 
  152.8750     2.1930    59.2310    37.9260    34.8820    32.1650    24.8320   -21.3880 
  153.0000     2.1800    58.9480    37.2900    34.5710    32.0600    24.6400   -21.3360 
  153.1250     2.1810    55.9880    36.4050    34.0330    31.8320    24.2300   -21.2520 
  153.2500     2.1970    54.2480    35.3790    33.3060    31.9390    24.2330   -21.1290 
  153.3750     2.2270    56.6290    34.3380    32.4720    30.3080    24.7520   -20.9870 
  153.5000     2.2600    59.6610    33.3960    31.6320    28.3300    24.9540   -20.8840 
  153.6250     2.2840    57.1490    32.6100    30.8670    28.4090    24.9820   -20.8110 
  153.7500     2.2940    52.5590    31.9000    30.1590    29.7770    24.9820   -20.7350 
  153.8750     2.2910    51.7640    31.1840    29.4590    29.6500    24.9720   -20.7230 
  154.0000     2.2790    55.0190    30.4220    28.7290    27.6710    24.9510   -20.7620 
  154.1250     2.2670    55.2580    29.6750    27.9890    26.0200    24.8390   -20.8020 
  154.2500     2.2580    53.5710    29.1180    27.3560    25.5910    24.7140   -20.8690 
  154.3750     2.2510    55.6140    28.9500    26.9960    25.7470    24.6480   -20.9870 
  154.5000     2.2420    60.6410    29.3410    27.0710    25.7630    24.6350   -21.0860 
  154.6250     2.2260    62.6760    30.4850    27.7910    26.0210    24.6360   -21.1810 
  154.7500     2.2050    62.7950    32.2300    29.0780    28.0090    24.6350   -21.3390 
  154.8750     2.1840    63.3530    34.4110    30.8270    32.1740    24.5920   -21.5300 
  155.0000     2.1700    63.3330    36.7640    32.8330    36.2640    24.4140   -21.7150 
  155.1250     2.1660    60.2740    38.8870    34.7640    36.5690    24.4460   -21.9460 
  155.2500     2.1710    57.5800    40.4590    36.2910    35.9300    24.6080   -22.1750 
  155.3750     2.1820    55.9280    41.2960    37.1950    37.3810    24.7800   -22.3580 
  155.5000     2.1950    54.8330    41.4150    37.4150    40.5610    24.9270   -22.5390 
  155.6250     2.2060    55.0730    40.9960    37.0510    41.5480    24.9500   -22.7280 
  155.7500     2.2160    55.9780    40.4670    36.4970    39.7790    24.8570   -22.8500 
  155.8750     2.2240    54.5620    40.0870    36.0060    36.6030    24.7830   -22.8940 
  156.0000     2.2290    51.1760    40.0070    35.7430    35.5410    24.8460   -22.9050 
  156.1250     2.2250    51.5470    40.2400    35.7730    36.6550    24.8500   -22.8990 
