~V
VERS. 2.00: Ver 2.00
~W
STRT.M 57.0000:
STOP.M 204.0000:
STEP.M 0.1250:
NULL. -999.2500:
UWI. F10604:
~C
DEPT.M :
SP.MV :
GR.API :
RML.OHMM :
RI. :
RXO.OHMM :
CALI.CM :
DEN.GM/CC :
~A
# ...
  158.2500    -1.2300    69.9880    31.3360    31.1060    35.0920    24.4140     2.2680 
  158.3750    -1.3380    69.9470    31.4930    31.2320    34.3800    24.3160     2.2620 
  158.5000    -1.3980    68.7150    31.8280    31.4780    35.6260    24.2950     2.2560 
  158.6250    -1.3990    65.6010    32.5190    32.0440    37.7650    24.4240     2.2540 
  158.7500    -1.3660    64.8170    33.4920    32.9140    39.1380    24.6420     2.2540 
  158.8750    -1.2980    66.5200    34.6100    33.9850    40.2140    24.7860     2.2560 
  159.0000    -1.2060    68.3160    35.7020    35.0640    41.9490    24.8260     2.2540 
  159.1250    -1.1240    68.3600    36.6360    35.9560    44.0810    24.8200     2.2420 
  159.2500    -1.0560    68.8510    37.4810    36.7150    45.4600    24.8360     2.2240 
  159.3750    -0.9750    70.9170    38.3690    37.4930    45.8160    24.8470     2.2100 
  159.5000    -0.9050    72.8810    39.4190    38.4320    46.1380    24.8470     2.2070 
  159.6250    -0.8770    71.6250    40.6950    39.6230    47.9740    24.8470     2.2170 
  159.7500    -0.8640    67.3230    42.0660    40.9570    50.6720    24.8470     2.2310 
  159.8750    -0.8730    63.3810    43.3740    42.2710    52.3890    24.8490     2.2410 
  160.0000    -0.8700    62.5050    44.4800    43.3920    51.9920    24.8470     2.2410 
  160.1250    -0.8400    64.6730    45.3270    44.1940    50.4530    24.8290     2.2290 
  160.2500    -0.8060    65.8710    46.0980    44.8410    49.7110    24.7930     2.2110 
  160.3750    -0.7770    65.0210    46.9680    45.5370    50.0990    24.7420     2.1930 
  160.5000    -0.7480    63.3750    48.0160    46.4170    51.0490    24.7010     2.1780 
  160.6250    -0.7220    61.7310    49.0750    47.3900    52.3100    24.6740     2.1730 
  160.7500    -0.7110    60.4930    49.7600    48.0760    54.0160    24.6920     2.1760 
  160.8750    -0.7210    60.0340    49.7390    48.0990    55.7670    24.7220     2.1850 
  161.0000    -0.7830    60.5660    48.8820    47.2670    56.4930    24.7580     2.1970 
  161.1250    -0.8590    61.5350    47.3100    45.6570    55.0580    24.7730     2.2050 
  161.2500    -0.9220    62.4020    45.5990    43.8710    52.3870    24.7810     2.2080 
  161.3750    -1.0120    62.7800    44.1730    42.3620    49.8410    24.7820     2.2070 
  161.5000    -1.1080    62.7050    43.3080    41.4330    48.4620    24.7740     2.2020 
  161.6250    -1.1930    64.0470    43.1590    41.2760    48.8360    24.7550     2.1960 
  161.7500    -1.2640    66.8950    43.4590    41.6380    50.4480    24.7290     2.1920 
  161.8750    -1.3050    68.6760    43.9640    42.2760    52.5440    24.7210     2.1940 
  162.0000    -1.3170    66.5120    44.4270    42.9300    54.0200    24.7330     2.2040 
  162.1250    -1.3200    60.8850    44.6030    43.3420    53.8760    24.7440     2.2270 
  162.2500    -1.3400    57.9620    44.4470    43.4350    52.6150    24.6890     2.2590 
  162.3750    -1.3730    59.4030    43.9580    43.1950    50.9010    24.5470     2.2930 
  162.5000    -1.3920    61.2770    43.1380    42.6320    49.0280    24.3980     2.3240 
  162.6250    -1.3790    59.9000    41.8630    41.6320    47.1250    24.3200     2.3430 
  162.7500    -1.3800    59.3740    40.0840    40.1170    45.6960    24.3500     2.3460 
  162.8750    -1.3910    61.1410    37.7450    37.9750    44.7670    24.4820     2.3350 
  163.0000    -1.3750    62.6860    34.9280    35.2540    43.1080    24.6390     2.3150 
  163.1250    -1.3540    63.5220    31.9070    32.2240    39.0940    24.6890     2.2990 
  163.2500    -1.3340    66.1300    29.1190    29.3650    34.0010    24.6830     2.2900 
  163.3750    -1.2960    69.0030    26.8660    26.9980    29.7770    24.7290     2.2870 
  163.5000    -1.2590    69.5120    25.3070    25.2870    27.3420    24.7300     2.2830 
  163.6250    -1.2150    69.1360    24.5220    24.3190    26.7600    24.6450     2.2740 
  163.7500    -1.1800    70.2480    24.2110    23.8370    27.3420    24.5480     2.2640 
  163.8750    -1.1760    70.3950    24.1430    23.6450    28.4300    24.5180     2.2570 
  164.0000    -1.1950    68.0400    24.1040    23.5420    29.1840    24.4690     2.2540 
  164.1250    -1.2010    67.2130    23.9520    23.3680    29.1650    24.4430     2.2520 
  164.2500    -1.2010    70.4250    23.7520    23.1500    28.9020    24.3810     2.2520 
  164.3750    -1.1920    74.0290    23.6890    23.0540    28.6590    24.2960     2.2560 
  164.5000    -1.1600    74.9730    23.9980    23.2950    28.4550    24.2680     2.2650 
  164.6250    -1.1090    73.4040    24.9830    24.1690    28.8670    24.2840     2.2800 
  164.7500    -1.0060    70.9040    26.5460    25.6530    30.8760    24.4120     2.2960 
  164.8750    -0.8430    67.8890    28.3820    27.5530    34.3860    24.6160     2.3080 
  165.0000    -0.6440    65.8010    29.9160    29.3320    37.5210    24.7560     2.3140 
  165.1250    -0.4210    66.0620    30.2190    29.9310    37.6310    24.7660     2.3120 
  165.2500    -0.1710    66.8220    29.0590    28.8920    34.7980    24.7630     2.3070 
  165.3750     0.0780    68.7100    26.6410    26.3900    30.0000    24.7880     2.3020 
  165.5000     0.3130    72.4510    23.5940    23.1790    24.6290    24.7990     2.2980 
  165.6250     0.5160    75.1530    20.7730    20.2230    20.5390    24.7890     2.2970 
  165.7500     0.6750    75.5730    18.7010    18.0030    18.3450    24.7810     2.2980 
  165.8750     0.8040    76.0940    17.5480    16.6300    17.5310    24.7810     2.3020 
  166.0000     0.8980    77.7990    17.2910    16.0800    17.4270    24.7810     2.3120 
  166.1250     0.9010    78.7180    17.9140    16.3770    18.0020    24.7810     2.3290 
  166.2500     0.8490    78.2920    19.1390    17.2720    19.3700    24.7790     2.3440 
  166.3750     0.7710    78.0900    20.9170    18.6940    21.6140    24.7620     2.3480 
  166.5000     0.6550    79.0500    23.3330    20.6760    24.1250    24.7040     2.3390 
  166.6250     0.5010    79.1150    26.7980    23.5240    25.9770    24.6420     2.3170 
  166.7500     0.3300    76.3530    31.4690    27.3990    29.0760    24.6270     2.2910 
  166.8750     0.1030    70.8890    37.3810    32.4930    37.5590    24.6590     2.2670 
  167.0000    -0.1860    66.9210    43.9360    38.5680    52.3270    24.6760     2.2520 
  167.1250    -0.5140    67.6530    49.1730    44.0270    65.4140    24.6570     2.2640 
  167.2500    -0.8960    68.7890    51.1980    46.5170    68.2780    24.6730     2.3130 
  167.3750    -1.3350    68.2130    49.3740    44.9100    60.6410    24.6820     2.3970 
  167.5000    -1.7980    67.4390    44.9040    40.4250    48.0190    24.6500     2.4920 
  167.6250    -2.2890    66.5320    40.6340    36.0250    36.6500    24.5110     2.5550 
  167.7500    -2.8560    63.2900    39.1630    33.9880    30.0970    24.3130     2.5720 
  167.8750    -3.4710    58.5420    41.9400    35.4930    31.6640    24.0890     2.5570 
  168.0000    -4.0770    53.4000    49.7220    41.5330    46.3530    23.9880     2.5450 
  168.1250    -4.6640    49.5990    62.2300    53.4270    77.4480    24.2000     2.5740 
  168.2500    -5.2390    48.0690    73.9330    67.6840   108.1350    24.4480     2.6330 
  168.3750    -5.7760    48.6710    77.9770    76.4410   121.2570    24.6050     2.6930 
  168.5000    -6.2740    49.8050    70.2100    70.8840   112.2170    24.6640     2.7210 
  168.6250    -6.6760    49.7960    52.8090    52.3570    87.6590    24.6730     2.6980 
  168.7500    -6.9000    54.4860    35.3320    34.4740    58.9060    24.6560     2.6470 
  168.8750    -6.9030    66.0440    22.4430    22.0790    32.1020    24.6100     2.5920 
  169.0000    -6.7210    78.1760    14.6400    14.8060    14.3650    24.5050     2.5460 
  169.1250    -6.3550    79.1760    10.7410    11.1210     9.3930    24.4480     2.5150 
  169.2500    -5.8650    70.6130     8.5860     8.9640     9.3030    24.4520     2.4900 
  169.3750    -5.3150    61.5520     7.3410     7.6360     9.6370    24.4640     2.4660 
