~V
VERS. 2.00: Ver 2.00
~W
STRT.M 50.0000:
STOP.M 212.0000:
STEP.M 0.1250:
NULL. -999.2500:
UWI. F10691:
~C
DEPT.M :
GR.API :
RML.OHMM :
RI. :
RXO.OHMM :
CALI.CM :
SP.MV :
DEN.GM/CC :
~A
# ...
   61.2500    73.2750     4.1090     5.0190     6.4360    23.6160    -7.2840     2.2450 
   61.3750    71.8640     4.1870     5.5410     6.1920    23.5910    -9.5140     2.2450 
   61.5000    70.6810     4.2920     5.9430     6.1050    23.7230   -11.1760     2.2420 
   61.6250    73.4460     4.4350     6.2820     6.1870    24.0130   -12.4420     2.2360 
   61.7500    75.6560     4.5690     6.5620     6.3240    24.1070   -13.4880     2.2280 
   61.8750    74.8280     4.6780     6.7640     6.3720    24.0990   -14.3780     2.2200 
   62.0000    74.2860     4.7530     6.8790     6.3050    24.0880   -15.1580     2.2150 
   62.1250    78.1530     4.8010     6.9170     6.1720    24.0870   -15.8560     2.2130 
   62.2500    83.4170     4.8690     6.9550     6.0780    24.0830   -16.4810     2.2130 
   62.3750    87.0360     5.0040     7.0560     5.9830    24.0520   -17.0330     2.2100 
   62.5000    87.2250     5.2220     7.2480     6.0180    23.8960   -17.5170     2.1990 
   62.6250    83.1170     5.4880     7.4920     6.2220    23.6000   -17.9170     2.1810 
   62.7500    77.8770     5.7030     7.6640     6.4010    23.5680   -18.2540     2.1640 
   62.8750    75.4940     5.7620     7.6440     6.3720    23.6460   -18.5350     2.1560 
   63.0000    75.7780     5.5960     7.3600     6.0300    23.8740   -18.7650     2.1590 
   63.1250    75.9510     5.2020     6.8020     5.6940    24.0140   -18.9530     2.1720 
   63.2500    75.5290     4.7440     6.1420     5.2210    24.1480   -19.1290     2.1860 
   63.3750    76.0420     4.3660     5.5320     4.9780    24.5380   -19.3010     2.1940 
   63.5000    79.1240     4.1910     5.1090     4.9280    24.7230   -19.4750     2.1950 
   63.6250    82.2700     4.3800     5.0420     5.0510    24.8100   -19.6880     2.1940 
   63.7500    81.3380     4.9620     5.3760     5.6100    24.6180   -19.9340     2.1990 
   63.8750    75.8960     6.0040     6.1910     6.4720    24.3900   -20.2170     2.2130 
   64.0000    68.6960     7.5680     7.5520     7.9200    24.1290   -20.5340     2.2300 
   64.1250    62.9750     9.6930     9.5390     9.4060    24.0040   -20.8820     2.2240 
   64.2500    59.0770    12.0160    11.8640    10.3200    24.2240   -21.2490     2.1810 
   64.3750    56.0490    14.0880    14.1620    10.2200    23.9820   -21.6210     2.1120 
   64.5000    53.5050    15.4770    15.9990    10.3900    23.8160   -22.0070     2.0390 
   64.6250    52.0510    15.7680    16.8180    10.9490    24.3880   -22.3880     2.0010 
   64.7500    52.3780    15.0820    16.5400    11.0190    24.8420   -22.7600     2.0160 
   64.8750    54.9620    13.5790    15.2180    10.7170    24.9370   -23.1040     2.0780 
   65.0000    59.1020    11.5950    13.1740    11.0340    24.9480   -23.4080     2.1650 
   65.1250    63.5280     9.6260    10.9530    10.6130    24.9480   -23.6770     2.2420 
   65.2500    66.5130     8.0810     9.0720     8.3940    24.9480   -23.9130     2.2820 
   65.3750    67.4180     7.1070     7.7370     6.1400    24.9480   -24.1350     2.2810 
   65.5000    68.2940     6.7000     6.9750     5.5940    24.9480   -24.3440     2.2500 
   65.6250    72.5430     6.8490     6.8030     5.9710    24.9480   -24.5430     2.2180 
   65.7500    75.8650     7.3750     7.0510     6.0910    24.9480   -24.7360     2.2070 
   65.8750    74.6670     8.1740     7.6320     6.2490    24.9400   -24.9200     2.2160 
   66.0000    69.6910     9.1040     8.4360     6.6830    24.9090   -25.0980     2.2310 
   66.1250    67.6750     9.9190     9.2710     7.3340    24.6910   -25.2460     2.2310 
   66.2500    68.5860    10.4040     9.8890     7.9360    24.4260   -25.3710     2.2110 
   66.3750    66.9090    10.5090    10.1650     8.1710    24.2060   -25.4720     2.1880 
   66.5000    61.5150    10.3990    10.1640     8.4050    24.1760   -25.5460     2.1830 
   66.6250    59.3130    10.3620    10.1110     8.3760    24.2010   -25.5830     2.2170 
   66.7500    63.1350    10.5360    10.1950     8.2880    24.2760   -25.6170     2.2770 
   66.8750    68.3680    10.8600    10.4220     9.3270    24.4530   -25.6610     2.3320 
   67.0000    68.9620    11.1130    10.6380    12.8330    24.8560   -25.7070     2.3510 
   67.1250    66.0230    10.9470    10.5330    15.3470    24.8960   -25.7180     2.3140 
   67.2500    65.5520    10.3530    10.0310    12.2810    24.8220   -25.7050     2.2510 
   67.3750    69.8340     9.5130     9.2510     8.4070    24.7500   -25.6740     2.1920 
   67.5000    76.1410     8.6730     8.3920     6.8120    24.7360   -25.6300     2.1600 
   67.6250    77.0930     8.0520     7.6620     6.7170    24.7560   -25.5720     2.1660 
   67.7500    70.2930     7.6650     7.1410     6.6500    24.8070   -25.4790     2.1960 
   67.8750    62.8950     7.4530     6.8210     6.6010    24.8630   -25.3730     2.2380 
   68.0000    62.5180     7.3480     6.6480     6.2220    24.9800   -25.2850     2.2790 
   68.1250    67.0180     7.3410     6.5870     6.1860    25.0790   -25.3010     2.3010 
   68.2500    66.9020     7.4270     6.6120     7.1210    25.0320   -25.3840     2.3020 
   68.3750    62.1950     7.6220     6.7290     8.4280    24.9050   -25.4440     2.2850 
   68.5000    59.8370     7.9450     6.9580     7.6270    24.8120   -25.4220     2.2610 
   68.6250    60.4110     8.4530     7.3470     7.1810    24.5440   -25.3560     2.2370 
   68.7500    58.7310     9.1160     7.8810     7.1090    24.4350   -25.2340     2.2130 
   68.8750    56.9270     9.8650     8.5240     7.5230    24.4150   -25.0170     2.1840 
   69.0000    57.6350    10.5440     9.1780     7.9830    24.4140   -24.7110     2.1520 
   69.1250    58.3070    10.8640     9.6180     8.1360    24.4360   -24.2820     2.1280 
   69.2500    56.6210    10.7120     9.6820     8.0210    24.5560   -23.7750     2.1230 
   69.3750    54.6480    10.1350     9.3380     7.8520    24.6790   -23.2900     2.1400 
   69.5000    55.1410     9.3310     8.7110     7.5790    24.6550   -22.9370     2.1740 
   69.6250    58.2690     8.5560     8.0050     7.0290    24.6970   -22.6720     2.2110 
   69.7500    61.0470     7.9450     7.3890     6.5600    24.7740   -22.4290     2.2380 
   69.8750    60.9260     7.5200     6.9160     6.3770    24.7270   -22.2360     2.2450 
   70.0000    58.8750     7.2790     6.5960     6.5530    24.5440   -22.0850     2.2310 
   70.1250    58.4330     7.2770     6.4710     6.5840    24.2220   -22.0130     2.2010 
   70.2500    62.2230     7.5140     6.5390     6.3630    23.9580   -21.9980     2.1700 
   70.3750    68.4920     8.0050     6.8190     5.9850    24.0360   -21.9930     2.1500 
   70.5000    71.5960     8.7050     7.3040     5.9990    24.3510   -21.9110     2.1480 
   70.6250    65.7810     9.4300     7.9090     6.9520    24.4410   -21.7600     2.1700 
   70.7500    58.8590     9.8790     8.4010     7.8150    24.5620   -21.6280     2.2030 
   70.8750    58.4490     9.8660     8.5890     8.1340    24.6220   -21.5280     2.2330 
   71.0000    62.8660     9.4500     8.4330     8.0490    24.6320   -21.4440     2.2460 
   71.1250    65.6210     8.9860     8.1220     7.6340    24.6300   -21.3190     2.2320 
   71.2500    67.3890     8.8680     7.9670     7.1050    24.6170   -21.1850     2.2010 
   71.3750    68.6500     9.2470     8.1350     7.1210    24.5360   -21.0880     2.1680 
   71.5000    67.5400    10.0570     8.6600     7.7870    24.4960   -21.0860     2.1470 
   71.6250    62.1720    10.9950     9.4140     8.6990    24.4950   -21.1520     2.1420 
   71.7500    56.5750    11.6000    10.0370     9.1440    24.5630   -21.2430     2.1470 
   71.8750    54.2000    11.6050    10.2420     8.8690    24.6400   -21.3250     2.1580 
   72.0000    55.5930    11.0610     9.9550     8.6190    24.7060   -21.3450     2.1760 
   72.1250    58.8860    10.3320     9.3740     8.3630    24.7890   -21.2880     2.2000 
   72.2500    61.8630     9.8140     8.8530     8.6400    24.7880   -21.1660     2.2250 
   72.3750    63.7640     9.5970     8.5280     9.7820    24.7170   -20.9850     2.2420 
