~V
VERS. 2.00: Ver 2.00
~W
STRT.M 52.0000:
STOP.M 238.0000:
STEP.M 0.1250:
NULL. -999.2500:
UWI. F10653:
~C
DEPT.M :
GR.API :
RML.OHMM :
RI. :
RXO.OHMM :
CALI.CM :
DEN.GM/CC :
SP.MV :
~A
# ...
  108.2500    58.4810    10.5130     7.9250    10.6120    24.3620     2.1500   -20.8810 
  108.3750    60.7650    10.5100     7.8510    10.5850    24.3020     2.1550   -21.1960 
  108.5000    62.8430    10.5130     7.8890    10.7630    24.3210     2.1610   -21.4590 
  108.6250    61.6480    10.5270     8.0010    10.7450    24.4030     2.1590   -21.7220 
  108.7500    58.4790    10.5410     8.1000    10.5360    24.4980     2.1510   -21.9790 
  108.8750    54.8160    10.5470     8.1270    10.4190    24.5660     2.1420   -22.1760 
  109.0000    52.6170    10.5320     8.0840    10.5280    24.6020     2.1370   -22.3650 
  109.1250    54.5400    10.5100     8.0290    10.8060    24.5910     2.1370   -22.5130 
  109.2500    58.9750    10.5050     8.0380    10.9850    24.5710     2.1370   -22.6400 
  109.3750    62.4520    10.5180     8.1230    11.0290    24.5850     2.1330   -22.6900 
  109.5000    60.8930    10.5390     8.2590    10.9860    24.6520     2.1230   -22.6540 
  109.6250    54.6230    10.5280     8.3480    11.0760    24.7820     2.1120   -22.5040 
  109.7500    50.4710    10.4460     8.3210    11.1440    24.8900     2.1070   -22.2190 
  109.8750    50.2040    10.2680     8.1700    11.1160    24.9580     2.1140   -21.8470 
  110.0000    52.3310     9.9880     7.9350    10.9650    24.9520     2.1290   -21.3320 
  110.1250    53.6320     9.6530     7.6870    10.7700    24.8340     2.1470   -20.6900 
  110.2500    53.1260     9.4380     7.5470    10.5470    24.7780     2.1570   -19.8960 
  110.3750    51.6230     9.5820     7.6430    10.3860    24.8060     2.1480   -18.9600 
  110.5000    49.4250    10.2630     8.0970    10.5110    24.8010     2.1180   -17.8860 
  110.6250    48.5300    11.4990     8.9980    10.8390    24.7350     2.0900   -16.6630 
  110.7500    49.1490    12.7680    10.0530    11.8040    24.7290     2.1000   -15.3760 
  110.8750    51.5990    13.3590    10.7880    14.8990    24.6710     2.1710   -14.0340 
  111.0000    57.2060    12.6560    10.6420    21.2460    24.4380     2.2940   -12.7250 
  111.1250    68.9080    10.6590     9.3480    23.0440    24.2870     2.4050   -11.5260 
  111.2500    84.6380     8.4880     7.6490    13.3000    24.3360     2.4490   -10.4770 
  111.3750    96.9380     6.7840     6.1150     7.1250    24.4540     2.4360    -9.6160 
  111.5000   100.5040     5.7030     4.9940     5.4480    24.5130     2.4100    -8.9800 
  111.6250    96.5210     5.1750     4.3390     5.4800    24.5130     2.4000    -8.6330 
  111.7500    92.0390     4.9220     3.9830     5.4660    24.5180     2.3990    -8.4810 
  111.8750    89.9360     4.8600     3.8520     5.3800    24.5890     2.4040    -8.5210 
  112.0000    89.0000     5.0330     3.9270     5.1940    24.7110     2.4160    -8.7320 
  112.1250    88.0740     5.6390     4.3260     5.2670    24.7430     2.4220    -9.0030 
  112.2500    84.8690     6.7490     5.1130     6.2150    24.5810     2.4020    -9.3410 
  112.3750    79.0430     8.3940     6.3620     8.7870    24.4140     2.3470    -9.6790 
  112.5000    72.9190    10.4750     8.0790    13.2460    24.3200     2.2680    -9.9860 
  112.6250    67.0990    12.6270    10.0920    15.6890    24.3220     2.1890   -10.2450 
  112.7500    60.2010    14.2970    11.8730    16.4170    24.3530     2.1350   -10.4300 
  112.8750    53.8270    15.1690    12.9850    16.5080    24.4210     2.1160   -10.5740 
  113.0000    51.7070    15.2910    13.3060    16.6010    24.5180     2.1230   -10.6540 
  113.1250    54.9980    15.0150    13.0500    16.1150    24.5580     2.1360   -10.6460 
  113.2500    59.3440    14.7830    12.7190    15.6500    24.5570     2.1470   -10.5610 
  113.3750    61.5120    14.7400    12.5660    15.5900    24.4990     2.1550   -10.4390 
  113.5000    59.5810    14.9030    12.6540    15.3940    24.3940     2.1620   -10.2660 
  113.6250    55.8550    15.2750    12.9360    15.3560    24.3540     2.1650   -10.1000 
  113.7500    55.0460    15.7630    13.2370    16.4240    24.4440     2.1640    -9.9770 
  113.8750    56.3940    16.2650    13.4490    17.9170    24.5370     2.1610    -9.8410 
  114.0000    57.1150    16.6600    13.5530    18.3020    24.5580     2.1560    -9.7010 
  114.1250    56.3630    16.8520    13.6960    18.1030    24.4980     2.1510    -9.5870 
  114.2500    54.9700    16.9370    13.9940    18.0760    24.4940     2.1470    -9.5190 
  114.3750    53.8720    17.0310    14.4240    17.7290    24.4470     2.1450    -9.4690 
  114.5000    56.0780    17.2180    14.8330    16.6120    24.2750     2.1480    -9.4530 
  114.6250    60.2990    17.4130    15.0160    16.1740    24.1290     2.1530    -9.4690 
  114.7500    59.9980    17.3960    14.9140    17.3280    24.1450     2.1540    -9.4970 
  114.8750    55.1680    16.9740    14.5480    18.7510    24.2540     2.1530    -9.5390 
  115.0000    51.0210    16.1090    13.9310    18.5380    24.2700     2.1620    -9.6020 
  115.1250    51.0150    15.0200    13.1000    16.0400    23.9690     2.1920    -9.6790 
  115.2500    53.6670    14.1500    12.2640    13.3620    23.6320     2.2380    -9.7260 
  115.3750    57.5560    13.8480    11.6720    11.9870    23.6400     2.2730    -9.7720 
  115.5000    59.7940    14.3150    11.5680    12.0300    24.0140     2.2620    -9.8310 
  115.6250    59.1040    15.5370    12.1540    12.9470    24.4510     2.1960    -9.8220 
  115.7500    58.4560    16.7630    13.0490    15.4440    24.7030     2.1160    -9.7860 
  115.8750    58.4240    17.0160    13.5760    17.4210    24.6900     2.0660    -9.7230 
  116.0000    59.5320    15.5800    13.0260    18.2450    24.2420     2.0850    -9.5890 
  116.1250    64.0970    12.7220    11.2490    15.3900    23.5460     2.1900    -9.4460 
  116.2500    71.5250     9.9130     9.1890    10.5350    23.3900     2.3160    -9.2640 
  116.3750    77.7420     7.8860     7.0070     7.0010    23.7960     2.3940    -9.0540 
  116.5000    79.5530     6.7890     5.7890     6.6780    24.1400     2.4020    -8.8410 
  116.6250    77.9410     6.5800     5.5800     8.0860    24.2410     2.3810    -8.6000 
  116.7500    76.3040     6.9240     5.9240     9.6720    24.2550     2.3650    -8.3510 
  116.8750    74.9430     7.6450     6.6450    10.0790    24.2520     2.3560    -8.1470 
  117.0000    73.4470     8.5510     7.5510     8.8930    24.2610     2.3500    -7.9890 
  117.1250    73.5180     9.4000     8.4000     8.6370    24.2550     2.3540    -7.8510 
  117.2500    75.0020     9.9680     8.9680     9.6100    24.2670     2.3700    -7.7980 
  117.3750    74.0280    10.0850     9.0850    11.4010    24.2450     2.3920    -7.7730 
  117.5000    70.3460     9.6680     8.6680    12.5040    24.2160     2.4090    -7.7530 
  117.6250    72.3740     8.7860     7.7860    10.4250    24.1870     2.4090    -7.8290 
  117.7500    80.8860     7.8250     6.8250     8.2580    24.1840     2.3930    -7.9290 
  117.8750    87.9470     7.0340     6.0340     7.5590    24.2160     2.3730    -8.0280 
  118.0000    89.5920     6.5420     5.5420     7.8170    24.2840     2.3590    -8.1470 
  118.1250    89.6580     6.3820     5.3820     7.2610    24.3560     2.3510    -8.2390 
  118.2500    90.6480     6.4060     5.4060     6.7410    24.3870     2.3430    -8.2940 
  118.3750    91.3860     6.4890     5.4890     6.6040    24.4200     2.3340    -8.3220 
  118.5000    90.7200     6.5660     5.5660     6.7360    24.4630     2.3260    -8.3380 
  118.6250    88.1490     6.6560     5.6560     6.7970    24.5010     2.3230    -8.2810 
  118.7500    85.1250     6.7910     5.7910     7.2050    24.5150     2.3250    -8.1810 
  118.8750    85.4220     6.9570     5.9570     7.5220    24.4980     2.3310    -8.0530 
  119.0000    89.1960     7.0970     6.0970     7.5070    24.4760     2.3370    -7.8590 
  119.1250    91.5920     7.1370     6.1370     7.9160    24.4490     2.3420    -7.5970 
  119.2500    90.3290     7.0960     6.0960     8.1160    24.4450     2.3480    -7.3050 
  119.3750    88.1270     7.0400     6.0400     7.4820    24.4520     2.3510    -7.0310 
