~V
VERS. 2.00: Ver 2.00
~W
STRT.M 58.0000:
STOP.M 244.0000:
STEP.M 0.1250:
NULL. -999.2500:
UWI. F10638:
~C
DEPT.M :
SP.MV :
GR.API :
RML.OHMM :
RI. :
RXO.OHMM :
CALI.CM :
DEN.GM/CC :
~A
# ...
  215.5000   -23.6130    52.2990   220.1330   191.0670   270.5350    24.4290     2.1360 
  215.6250   -23.3060    51.2670   242.2630   209.4110   291.1930    24.4580     2.1140 
  215.7500   -23.0270    51.2650   260.8370   224.7520   296.8220    24.5360     2.1080 
  215.8750   -22.7230    52.8640   270.2880   232.8850   296.9280    24.6070     2.1540 
  216.0000   -22.4100    52.4050   266.3310   230.8100   290.1380    24.6630     2.2580 
  216.1250   -22.0920    50.0520   246.2340   216.0880   287.4170    24.6620     2.3930 
  216.2500   -21.7930    48.2890   213.5240   190.2980   306.0520    24.5850     2.5050 
  216.3750   -21.5390    48.4900   177.3900   159.4870   283.0620    24.4800     2.5380 
  216.5000   -21.2890    47.7890   146.2280   131.4790   192.7790    24.4300     2.5180 
  216.6250   -21.0160    45.8030   122.4050   109.4540   121.6140    24.4200     2.4770 
  216.7500   -20.7420    45.6030   105.5210    93.7790    98.5440    24.4030     2.4470 
  216.8750   -20.5250    51.2580    95.0090    84.0820    93.8030    24.3440     2.4480 
  217.0000   -20.3360    59.4940    88.7590    78.2860    78.6280    24.2710     2.4800 
  217.1250   -20.1330    65.5680    85.9660    75.6850    64.4500    24.2710     2.5270 
  217.2500   -19.8690    67.4510    85.3340    75.3130    60.6840    24.3270     2.5650 
  217.3750   -19.5110    66.6280    83.8110    74.7840    66.5990    24.4380     2.5710 
  217.5000   -19.1480    65.0850    77.5200    70.4400    73.6940    24.5000     2.5570 
  217.6250   -18.8170    61.6460    64.6800    60.0360    90.9880    24.5030     2.5370 
  217.7500   -18.5310    55.9400    47.5480    45.0290   100.2270    24.4750     2.5150 
  217.8750   -18.2530    48.9480    31.6480    30.4660    66.5960    24.4370     2.4840 
  218.0000   -17.9260    43.2460    20.1060    19.6610    28.7200    24.3200     2.4440 
  218.1250   -17.5720    39.7060    12.8930    12.7090    10.8570    24.1570     2.4000 
  218.2500   -17.3030    36.6810     8.8100     8.5670     5.3390    24.0840     2.3680 
  218.3750   -17.1870    33.5030     5.9400     6.3750     4.4820    24.0430     2.3560 
  218.5000   -17.0980    30.9170     5.0410     5.1340     4.4030    24.0070     2.3520 
  218.6250   -16.9730    30.2140     4.5990     4.4910     4.3620    24.0450     2.3370 
  218.7500   -16.8320    31.2910     4.4000     4.2130     4.4160    24.1720     2.3090 
  218.8750   -16.7420    31.2720     4.3490     4.1650     4.5270    24.3000     2.2810 
  219.0000   -16.7130    30.8300     4.3820     4.2280     4.5230    24.3720     2.2750 
  219.1250   -16.7070    33.1330     4.4850     4.3670     4.7140    24.4210     2.2980 
  219.2500   -16.6970    38.9590     4.6390     4.5530     5.2210    24.4930     2.3450 
  219.3750   -16.6830    43.5030     4.8160     4.7600     5.6730    24.5600     2.3940 
  219.5000   -16.7030    43.7600     4.9780     4.9440     5.9080    24.5740     2.4240 
  219.6250   -16.7590    42.2650     5.0890     5.0660     6.1140    24.5490     2.4250 
  219.7500   -16.7940    41.9370     5.1230     5.0880     6.3790    24.5160     2.4060 
  219.8750   -16.7450    41.7770     5.0600     4.9810     6.4050    24.4850     2.3810 
  220.0000   -16.6710    39.3640     4.9410     4.7970     6.3170    24.4700     2.3660 
  220.1250   -16.6250    35.7640     4.8200     4.5910     5.7630    24.4440     2.3640 
  220.2500   -16.6040    34.3830     4.7590     4.4290     5.1630    24.4240     2.3730 
  220.3750   -16.5730    36.5950     4.8280     4.3810     5.0340    24.4360     2.3840 
  220.5000   -16.5240    40.0890     5.0100     4.4500     5.2740    24.4910     2.3920 
  220.6250   -16.4890    43.6630     5.2570     4.6100     5.7930    24.5450     2.3980 
  220.7500   -16.4990    46.3450     5.4900     4.7970     6.5020    24.5610     2.4050 
  220.8750   -16.5800    47.2620     5.6000     4.9090     6.7590    24.5230     2.4150 
  221.0000   -16.6970    45.7350     5.5600     4.8880     6.2320    24.4560     2.4200 
  221.1250   -16.8190    42.3670     5.3920     4.7320     5.6290    24.4150     2.4120 
  221.2500   -16.9260    39.4610     5.1740     4.4990     5.4110    24.3990     2.3880 
  221.3750   -17.0640    37.8090     5.0210     4.2900     5.4130    24.4030     2.3540 
  221.5000   -17.2700    38.1730     4.9920     4.1820     5.1600    24.4150     2.3250 
  221.6250   -17.5170    41.2540     5.1000     4.2040     5.1760    24.4600     2.3100 
  221.7500   -17.7730    46.8510     5.3130     4.3430     5.7890    24.5580     2.3130 
  221.8750   -18.0080    52.5100     5.5470     4.5440     6.6550    24.5770     2.3260 
  222.0000   -18.1940    55.4860     5.6960     4.7000     6.9670    24.5520     2.3410 
  222.1250   -18.3110    55.0210     5.7070     4.7460     6.8880    24.5290     2.3540 
  222.2500   -18.3640    50.8290     5.5940     4.6690     6.6470    24.5100     2.3660 
  222.3750   -18.3150    45.4840     5.4380     4.5200     6.1820    24.4480     2.3780 
  222.5000   -18.1900    41.8390     5.3420     4.3980     5.5930    24.3940     2.3870 
  222.6250   -18.0320    39.5930     5.3590     4.3610     5.5560    24.3900     2.3910 
  222.7500   -17.8690    39.2530     5.4940     4.4250     5.8270    24.4300     2.3920 
  222.8750   -17.7220    42.0060     5.7180     4.5810     6.0860    24.4800     2.3910 
  223.0000   -17.6000    44.9860     5.9640     4.7750     6.4510    24.5100     2.3890 
  223.1250   -17.5550    45.5260     6.1980     4.9730     6.6460    24.5040     2.3870 
  223.2500   -17.6360    43.0800     6.4090     5.1540     6.6870    24.5010     2.3860 
  223.3750   -17.8500    43.0260     6.6150     5.3130     6.9470    24.5030     2.3820 
  223.5000   -18.1090    47.3920     6.8400     5.4660     7.5310    24.5460     2.3730 
  223.6250   -18.3820    52.7870     7.0760     5.6160     8.0590    24.5680     2.3610 
  223.7500   -18.6550    56.2640     7.2640     5.7380     7.8750    24.5750     2.3480 
  223.8750   -18.9110    59.1360     7.2790     5.7570     7.7850    24.5790     2.3360 
  224.0000   -19.2060    62.6450     7.1000     5.6420     8.4810    24.5790     2.3240 
  224.1250   -19.4930    63.8190     6.7850     5.4130     8.5280    24.5630     2.3140 
  224.2500   -19.6970    61.9330     6.4690     5.1550     7.1800    24.5220     2.3050 
  224.3750   -19.8240    59.9790     6.3560     5.0150     6.3020    24.4540     2.3040 
  224.5000   -19.9720    60.0870     6.5510     5.0800     6.4050    24.4260     2.3100 
  224.6250   -20.1610    62.7860     7.0980     5.3980     7.7690    24.4430     2.3170 
  224.7500   -20.3490    68.1590     7.9270     5.9520     9.7610    24.4800     2.3190 
  224.8750   -20.4770    74.0270     8.7550     6.6000    11.3170    24.5320     2.3140 
  225.0000   -20.4920    76.6640     9.1900     7.0560    12.0760    24.5520     2.3100 
  225.1250   -20.4530    75.4900     9.0420     7.1330    12.0550    24.5540     2.3090 
  225.2500   -20.3850    72.0700     8.4630     6.8590    11.2770    24.5260     2.3140 
  225.3750   -20.2670    69.1430     7.8730     6.4640     9.2660    24.4450     2.3200 
  225.5000   -20.0980    69.4530     7.5830     6.2100     8.1730    24.4000     2.3210 
  225.6250   -19.8640    72.9640     7.6230     6.1790     9.2400    24.3980     2.3140 
  225.7500   -19.5660    76.9470     7.8540     6.3340    11.3610    24.4160     2.3010 
  225.8750   -19.2060    77.0740     8.0100     6.5300    11.1770    24.4080     2.2900 
  226.0000   -18.8000    74.3960     7.8980     6.5840    10.2970    24.4100     2.2880 
  226.1250   -18.3440    70.0490     7.4950     6.4100     8.4020    24.4380     2.2990 
  226.2500   -17.8810    64.9190     6.9360     6.0400     7.1980    24.4770     2.3180 
  226.3750   -17.4290    61.1970     6.4410     5.5980     7.0210    24.4700     2.3400 
  226.5000   -16.9340    59.6720     6.0940     5.2010     6.7440    24.4250     2.3600 
  226.6250   -16.4080    58.6650     5.8490     4.8820     6.0370    24.3910     2.3790 
