~V
VERS. 2.00: Ver 2.00
~W
STRT.M 58.0000:
STOP.M 240.0000:
STEP.M 0.1250:
NULL. -999.2500:
UWI. F10642:
~C
DEPT.M :
SP.MV :
GR.API :
RML.OHMM :
RI. :
RXO.OHMM :
CALI.CM :
DEN.GM/CC :
~A
# ...
  148.0000   -27.1180    50.4530    19.7400    19.1260     8.7920    19.1690     2.6100 
  148.1250   -26.9030    52.7030    18.0980    17.4350     8.1610    19.2970     2.6090 
  148.2500   -26.6970    52.9380    17.1260    16.2880     7.3700    19.3110     2.6000 
  148.3750   -26.5230    50.3220    16.6660    15.6140     6.9190    19.3150     2.5770 
  148.5000   -26.3670    48.0430    16.5050    15.2940     6.3820    19.3460     2.5460 
  148.6250   -26.2680    48.2310    16.4630    15.2250     6.2530    19.5000     2.5250 
  148.7500   -26.2180    47.8840    16.4360    15.2660     7.2060    19.8460     2.5250 
  148.8750   -26.2220    45.5970    16.4720    15.3940     8.7340    20.2770     2.5440 
  149.0000   -26.2690    43.9990    16.6960    15.6620     9.3310    20.6210     2.5650 
  149.1250   -26.3690    44.4930    17.2670    16.1850     9.3870    20.8750     2.5720 
  149.2500   -26.4980    44.0780    18.1120    16.9380     9.6320    21.2630     2.5670 
  149.3750   -26.6370    42.1250    19.0940    17.8410    10.6930    21.7890     2.5600 
  149.5000   -26.7880    40.6600    20.0200    18.7370    13.2300    22.2950     2.5590 
  149.6250   -26.9230    41.9020    20.5950    19.3330    16.8490    22.6060     2.5630 
  149.7500   -27.0420    43.3700    20.6900    19.4820    18.5740    22.7840     2.5600 
  149.8750   -27.1380    44.5340    20.3240    19.1940    18.9230    22.8030     2.5460 
  150.0000   -27.2090    47.1870    19.6490    18.6220    18.6370    22.6220     2.5260 
  150.1250   -27.2260    49.8740    18.8520    17.9430    17.4960    22.4050     2.5090 
  150.2500   -27.2160    50.6730    18.0840    17.2800    15.9350    22.3870     2.4990 
  150.3750   -27.1680    50.1550    17.3720    16.6370    15.3250    22.6150     2.4900 
  150.5000   -27.1120    49.4060    16.6890    15.9770    15.7670    22.8990     2.4740 
  150.6250   -27.0060    50.6430    16.0520    15.3040    14.8650    22.9340     2.4480 
  150.7500   -26.8770    54.1560    15.5550    14.7340    13.4580    22.9460     2.4260 
  150.8750   -26.7330    56.8240    15.3210    14.4020    13.2720    23.1180     2.4130 
  151.0000   -26.5990    54.7810    15.4160    14.3990    13.6430    23.4160     2.4140 
  151.1250   -26.4850    50.5630    15.8420    14.7730    14.5770    23.5180     2.4240 
  151.2500   -26.3850    51.4890    16.3600    15.3250    15.6700    23.5070     2.4340 
  151.3750   -26.3180    54.6770    16.7110    15.8160    15.7960    23.3890     2.4380 
  151.5000   -26.2510    53.1660    16.6710    15.9950    15.2230    23.1340     2.4340 
  151.6250   -26.2340    47.6140    16.1600    15.6890    11.8010    22.7870     2.4260 
  151.7500   -26.2540    45.8630    15.4990    15.1290     9.7190    22.4520     2.4210 
  151.8750   -26.3110    48.6510    14.9960    14.5810     9.2960    22.2680     2.4260 
  152.0000   -26.3920    52.2740    14.8870    14.2910    10.4340    22.2850     2.4450 
  152.1250   -26.5030    53.2720    15.3600    14.4950    11.2290    22.4710     2.4770 
  152.2500   -26.6330    51.9150    16.2820    15.1510    12.1040    22.6350     2.5070 
  152.3750   -26.7670    50.6090    17.4930    16.1700    13.3260    22.7760     2.5270 
  152.5000   -26.9160    50.9960    18.7690    17.3570    14.2400    22.8130     2.5360 
  152.6250   -27.0610    52.0910    19.7520    18.3630    15.0050    22.7990     2.5350 
  152.7500   -27.1940    51.8500    20.1920    18.8930    15.1330    22.7600     2.5290 
  152.8750   -27.2990    51.0330    19.9640    18.7950    15.8010    22.7940     2.5200 
  153.0000   -27.3680    51.2550    19.1480    18.1190    15.8990    22.9700     2.5120 
  153.1250   -27.3730    51.5110    18.0090    17.0780    14.7840    23.3010     2.5060 
  153.2500   -27.3380    52.4570    16.9760    16.0600    13.9840    23.6950     2.5000 
  153.3750   -27.2570    54.2910    16.2880    15.2990    13.9860    24.0290     2.4920 
  153.5000   -27.1540    53.5670    16.0550    14.9440    14.0590    24.2530     2.4790 
  153.6250   -27.0000    49.2050    16.3200    15.1200    14.0480    24.3650     2.4630 
  153.7500   -26.8310    46.5450    16.9030    15.6870    13.9070    24.3520     2.4510 
  153.8750   -26.6520    48.9870    17.6790    16.5110    14.9330    24.1930     2.4460 
  154.0000   -26.4830    52.0140    18.5210    17.4200    16.9300    23.9000     2.4490 
  154.1250   -26.3410    49.5380    19.2790    18.2120    18.0070    23.6940     2.4560 
  154.2500   -26.2240    44.8550    19.8490    18.7800    17.8040    23.6020     2.4640 
  154.3750   -26.1520    42.8460    20.2020    19.0990    17.1350    23.5720     2.4710 
  154.5000   -26.1170    44.2730    20.3750    19.2130    17.6100    23.6190     2.4740 
  154.6250   -26.1400    46.8190    20.3600    19.1570    17.7170    23.8620     2.4720 
  154.7500   -26.2050    48.0500    20.1470    18.9670    17.4130    24.1410     2.4710 
  154.8750   -26.3080    48.2550    19.7230    18.6270    17.8010    24.2840     2.4730 
  155.0000   -26.4460    47.9700    19.1390    18.1380    18.6850    24.3100     2.4780 
  155.1250   -26.6280    46.4450    18.5480    17.5690    18.1680    24.2880     2.4820 
  155.2500   -26.8370    45.0690    18.1350    17.0920    16.1990    24.2480     2.4810 
  155.3750   -27.0370    45.3050    17.9940    16.8510    14.8380    24.2120     2.4760 
  155.5000   -27.2090    48.1800    18.1290    16.9250    15.3110    24.2320     2.4730 
  155.6250   -27.3390    51.3700    18.5640    17.3840    16.7260    24.2600     2.4770 
  155.7500   -27.4290    52.2640    19.2230    18.1040    18.3700    24.2750     2.4850 
  155.8750   -27.4780    50.5400    19.9800    18.9380    19.6820    24.2300     2.4860 
  156.0000   -27.4840    47.3710    20.6140    19.6670    19.8600    24.1450     2.4760 
  156.1250   -27.4320    45.0540    20.8530    20.0250    19.5490    23.9830     2.4600 
  156.2500   -27.3250    44.5440    20.7050    19.9930    20.2200    23.8620     2.4490 
  156.3750   -27.1960    45.6780    20.2980    19.6390    19.8490    23.7570     2.4510 
  156.5000   -27.0320    47.5230    19.8310    19.0980    17.2430    23.6730     2.4640 
  156.6250   -26.8810    48.1390    19.4690    18.5460    15.1260    23.5430     2.4760 
  156.7500   -26.7000    47.4520    19.2330    18.1340    15.1740    23.3790     2.4790 
  156.8750   -26.5230    46.6770    19.1450    17.9630    15.5360    23.3010     2.4730 
  157.0000   -26.3550    46.4630    19.2350    18.0870    15.1610    23.4250     2.4660 
  157.1250   -26.2240    47.6130    19.4940    18.4900    14.5360    23.4690     2.4680 
  157.2500   -26.1110    49.4730    19.7880    18.9580    14.0800    23.3860     2.4780 
  157.3750   -26.0210    50.2500    19.9900    19.3090    14.0930    23.2390     2.4900 
  157.5000   -25.9890    48.6850    19.9840    19.4060    14.4700    23.1770     2.4960 
  157.6250   -25.9960    47.0970    19.6980    19.1790    14.7910    23.2710     2.4900 
  157.7500   -26.0800    47.7920    19.2910    18.7820    15.0430    23.3710     2.4770 
  157.8750   -26.2010    49.9090    18.9470    18.3810    15.9550    23.3700     2.4630 
  158.0000   -26.3550    50.8210    18.8280    18.1410    17.1510    23.2390     2.4570 
  158.1250   -26.4940    48.6270    19.0690    18.2380    17.6160    23.1480     2.4610 
  158.2500   -26.6420    46.8320    19.5760    18.6450    18.0410    23.1750     2.4720 
  158.3750   -26.7850    47.9630    20.2190    19.2860    18.7800    23.4440     2.4850 
  158.5000   -26.9100    49.9580    20.8510    20.0280    19.7360    23.9090     2.4960 
  158.6250   -27.0080    49.1490    21.3010    20.6770    20.8760    24.1140     2.5030 
  158.7500   -27.0540    47.7180    21.4820    21.0690    21.6570    24.0940     2.5020 
  158.8750   -27.0540    47.6890    21.3420    21.1000    20.5950    23.9810     2.4970 
  159.0000   -26.9960    47.8660    20.9200    20.7690    19.9830    23.9610     2.4930 
  159.1250   -26.9120    48.3900    20.3570    20.1750    20.2390    24.1010     2.4950 
