~V
VERS. 2.00: Ver 2.00
~W
STRT.M 50.0000:
STOP.M 209.0000:
STEP.M 0.1250:
NULL. -999.2500:
UWI. F10692:
~C
DEPT.M :
DEN.GM/CC :
GR.API :
RML.OHMM :
RI. :
RXO.OHMM :
CALI.CM :
SP.MV :
~A
# ...
   83.7500     2.1610    52.1660    19.0210    16.4280    12.4620    24.7410   -19.3970 
   83.8750     2.1580    49.8030    19.8480    17.7290    13.1180    24.7460   -19.2230 
   84.0000     2.1620    48.8200    20.3060    18.7150    13.2370    24.7550   -19.0640 
   84.1250     2.1740    49.4030    20.7080    19.5460    13.6110    24.7810   -18.9620 
   84.2500     2.1840    48.3890    21.2650    20.4260    14.5020    24.8440   -18.9130 
   84.3750     2.1910    45.7230    21.8860    21.3220    15.1670    24.9370   -18.8990 
   84.5000     2.2030    43.5590    22.2420    21.9660    15.2690    25.0270   -18.8970 
   84.6250     2.2240    44.0740    21.7520    21.7620    15.3500    25.0780   -18.8750 
   84.7500     2.2530    47.3010    20.2890    20.5170    15.8110    25.0810   -18.8120 
   84.8750     2.2820    52.8690    17.9870    18.3330    15.5500    25.0240   -18.6940 
   85.0000     2.3030    58.9370    15.2370    15.6300    12.9440    24.9490   -18.5190 
   85.1250     2.3070    64.0200    12.5410    12.9480    10.1900    24.9490   -18.3020 
   85.2500     2.3000    69.1400    10.1940    10.6000     9.1320    25.0060   -18.0890 
   85.3750     2.2880    72.6620     8.2830     8.6720     8.4980    25.0990   -17.9300 
   85.5000     2.2750    73.1160     6.8500     7.1990     7.7510    25.2310   -17.8740 
   85.6250     2.2570    70.8050     6.0380     6.3040     7.1750    25.3540   -17.9830 
   85.7500     2.2280    69.1730     5.8330     5.9450     6.8210    25.3890   -18.2390 
   85.8750     2.1880    68.5460     6.3240     6.1660     6.7770    25.3510   -18.6170 
   86.0000     2.1400    66.6560     7.6030     7.0410     7.5380    25.2770   -19.0600 
   86.1250     2.0980    62.6160     9.8130     8.7650     9.8150    25.2080   -19.4750 
   86.2500     2.0820    58.2010    12.5910    11.1570    12.5310    25.1640   -19.7780 
   86.3750     2.0970    54.4210    15.4340    13.8960    13.6700    25.1610   -19.9190 
   86.5000     2.1290    52.9240    17.7160    16.4120    13.4800    25.2150   -19.8910 
   86.6250     2.1630    52.6660    18.9140    18.0270    13.4410    25.2840   -19.7150 
   86.7500     2.1900    50.9600    19.4480    18.8790    13.6570    25.2930   -19.4800 
   86.8750     2.2000    48.3070    19.8600    19.3810    13.9130    25.2090   -19.2480 
   87.0000     2.1870    46.6940    20.5770    19.9440    14.4690    25.0850   -19.0620 
   87.1250     2.1650    46.1560    21.8400    20.8400    15.0770    25.0050   -18.9660 
   87.2500     2.1520    45.4720    23.5170    22.0590    15.5470    24.9730   -18.9540 
   87.3750     2.1470    45.0730    25.4370    23.5170    16.2510    24.9570   -19.0160 
   87.5000     2.1470    45.8380    27.2990    25.0010    17.3820    24.9670   -19.1290 
   87.6250     2.1550    46.2670    28.5850    26.0840    18.4860    24.9750   -19.2620 
   87.7500     2.1700    46.4510    29.0460    26.5030    19.3330    24.9790   -19.3790 
   87.8750     2.1920    47.1050    28.6460    26.1800    19.4890    24.9790   -19.4580 
   88.0000     2.2200    47.9170    27.6310    25.2890    18.3680    24.9860   -19.4850 
   88.1250     2.2410    47.1010    26.4910    24.2100    17.0910    25.0100   -19.4500 
   88.2500     2.2280    45.0660    25.7000    23.3670    16.9920    25.0530   -19.3780 
   88.3750     2.1820    43.4620    25.4440    22.9510    17.0200    25.1070   -19.3010 
   88.5000     2.1400    43.5890    25.7230    23.0110    16.6380    25.1670   -19.2520 
   88.6250     2.1380    44.9720    26.4310    23.5380    16.4970    25.2170   -19.2720 
   88.7500     2.1490    46.8530    27.2410    24.2870    17.2690    25.2020   -19.3610 
   88.8750     2.1440    48.4050    27.9230    25.0690    17.7630    25.1540   -19.5050 
   89.0000     2.1240    48.5780    28.3250    25.7120    18.2820    25.1480   -19.6840 
   89.1250     2.1180    48.9380    28.2980    26.0190    19.0030    25.1350   -19.8690 
   89.2500     2.1360    50.3150    27.8820    25.9420    19.6500    25.1120   -20.0420 
   89.3750     2.1570    52.1590    27.1710    25.5110    19.9920    25.0970   -20.2030 
   89.5000     2.1590    52.6730    26.3590    24.8740    19.3630    25.0610   -20.3570 
   89.6250     2.1420    50.6650    25.7300    24.2740    17.4910    24.9780   -20.5140 
   89.7500     2.1330    48.9050    25.4090    23.8790    16.1800    24.9000   -20.6800 
   89.8750     2.1450    48.9580    25.3550    23.7090    15.6000    24.8300   -20.8590 
   90.0000     2.1720    49.7500    25.3790    23.6510    15.9470    24.7850   -21.0530 
   90.1250     2.1950    48.5760    25.1810    23.4750    16.4610    24.7620   -21.2560 
   90.2500     2.2140    47.0400    24.6690    23.0530    16.5490    24.7800   -21.4430 
   90.3750     2.2360    46.7750    23.9340    22.4160    15.8280    24.8630   -21.5770 
   90.5000     2.2620    46.0380    23.1770    21.7180    15.0980    24.9550   -21.6220 
   90.6250     2.2870    44.8760    22.6430    21.1850    15.1550    24.9810   -21.5430 
   90.7500     2.2950    45.1130    22.4250    20.9370    16.0490    24.9480   -21.3680 
   90.8750     2.2700    47.0190    22.5580    21.0250    17.5670    24.9010   -21.1270 
   91.0000     2.2220    49.2310    23.0420    21.4530    18.3270    24.9070   -20.8550 
   91.1250     2.1920    49.8710    23.9030    22.2430    18.6280    24.9420   -20.5860 
   91.2500     2.1960    48.2030    25.0380    23.2930    19.2190    24.9770   -20.3350 
   91.3750     2.2100    45.0440    26.3520    24.5300    20.5920    25.0190   -20.1030 
   91.5000     2.2080    42.6600    27.6790    25.8150    22.4710    25.0440   -19.8800 
   91.6250     2.1850    42.0770    28.6780    26.8500    23.9450    25.0350   -19.6430 
   91.7500     2.1600    41.6540    29.0760    27.3500    24.7260    24.9950   -19.3730 
   91.8750     2.1430    42.7940    28.7060    27.1280    24.7790    24.9410   -19.0610 
   92.0000     2.1360    46.6430    27.6590    26.2370    24.3980    24.9090   -18.7080 
   92.1250     2.1360    50.1810    26.3200    25.0070    22.6130    24.9020   -18.3180 
   92.2500     2.1420    50.6440    25.2800    23.9900    20.9790    24.9080   -17.9060 
   92.3750     2.1500    48.1830    24.9420    23.5530    20.1860    24.9310   -17.4950 
   92.5000     2.1570    46.0480    25.5560    23.9420    20.8150    24.9790   -17.1140 
   92.6250     2.1650    46.2470    27.3360    25.4460    23.1940    25.0260   -16.8270 
   92.7500     2.1830    47.0200    29.8470    27.8010    25.8730    25.0450   -16.6690 
   92.8750     2.2110    46.5400    32.4650    30.5470    27.8200    25.0430   -16.6610 
   93.0000     2.2420    45.1300    34.2280    32.7860    29.3450    25.0280   -16.7950 
   93.1250     2.2650    44.5850    33.8200    33.0800    30.4490    24.9830   -17.0450 
   93.2500     2.2790    45.2920    31.3630    31.2460    29.8270    24.9210   -17.3350 
   93.3750     2.2860    47.5400    27.5420    27.8140    26.0630    24.8270   -17.6130 
   93.5000     2.2810    51.5020    23.3580    23.7780    20.3060    24.7060   -17.8340 
   93.6250     2.2530    56.6880    19.7870    20.1550    17.1090    24.5950   -17.9590 
   93.7500     2.2100    60.3420    17.1520    17.3550    15.9210    24.5110   -18.0040 
   93.8750     2.1720    61.2040    15.5470    15.4930    14.1570    24.4530   -17.9780 
   94.0000     2.1490    59.7350    14.9960    14.5980    11.5270    24.4080   -17.8840 
   94.1250     2.1410    56.8590    15.6630    14.8340    11.2770    24.3910   -17.7040 
   94.2500     2.1330    55.2280    17.3340    16.0350    12.7890    24.3920   -17.4430 
   94.3750     2.1240    54.1660    19.9290    18.1920    15.3040    24.4270   -17.1160 
   94.5000     2.1170    52.7400    23.2310    21.2150    19.9040    24.5330   -16.7550 
   94.6250     2.1120    50.9820    26.6850    24.7400    24.7730    24.6880   -16.4230 
   94.7500     2.1090    48.5570    29.3920    27.8320    26.9360    24.7860   -16.1670 
   94.8750     2.1140    46.1040    30.6680    29.6340    27.1360    24.7800   -16.0100 
