~V
VERS. 2.00: Ver 2.00
~W
STRT.M 55.0000:
STOP.M 226.0000:
STEP.M 0.1250:
NULL. -999.2500:
UWI. F10689:
~C
DEPT.M :
DEN.GM/CC :
GR.API :
RML.OHMM :
RI. :
RXO.OHMM :
CALI.CM :
SP.MV :
~A
# ...
   77.5000     2.2020    64.0690    10.2470     9.3340     7.2210    21.7710   -14.3210 
   77.6250     2.2020    60.0200    10.9330    10.1140     7.9030    22.1160   -14.3000 
   77.7500     2.2090    55.3770    10.8800    10.3840     8.5530    22.5430   -14.2690 
   77.8750     2.2230    55.8050    10.0180     9.9430     8.5280    22.7820   -14.1890 
   78.0000     2.2430    60.8160     8.6870     8.9600     7.4860    22.9920   -14.0830 
   78.1250     2.2670    66.5810     7.4400     7.8510     6.4060    23.1690   -13.9570 
   78.2500     2.2910    69.8250     6.5930     6.9680     5.7870    23.3940   -13.8450 
   78.3750     2.3100    70.5620     6.1890     6.4260     5.7580    23.5430   -13.7480 
   78.5000     2.3190    70.1440     6.1450     6.2210     5.8610    23.5670   -13.6740 
   78.6250     2.3160    70.5980     6.3440     6.3050     5.8350    23.5360   -13.6120 
   78.7500     2.3090    70.3240     6.5940     6.5050     5.6810    23.6250   -13.5520 
   78.8750     2.3070    66.7550     6.7740     6.6920     5.7400    23.6960   -13.4970 
   79.0000     2.3150    63.1200     6.7970     6.7530     5.8690    23.6750   -13.4180 
   79.1250     2.3310    64.3820     6.6050     6.5980     5.7650    23.6800   -13.2810 
   79.2500     2.3430    66.5850     6.2630     6.2760     5.6170    23.7400   -13.1040 
   79.3750     2.3450    67.3620     5.8540     5.8590     5.3740    23.8360   -12.9040 
   79.5000     2.3410    67.4960     5.5150     5.4700     5.1610    23.8890   -12.7040 
   79.6250     2.3420    67.1450     5.4900     5.3120     5.2050    23.9510   -12.5340 
   79.7500     2.3550    66.0370     5.9210     5.5070     5.4290    24.0510   -12.4320 
   79.8750     2.3750    65.0330     6.9570     6.1650     5.6690    24.1030   -12.3760 
   80.0000     2.3850    63.5610     8.7120     7.3800     6.0860    24.1250   -12.3620 
   80.1250     2.3670    60.1780    11.2600     9.2850     7.1070    23.9770   -12.4230 
   80.2500     2.3250    58.3380    14.1140    11.6100     8.7860    23.4820   -12.5210 
   80.3750     2.2750    60.1540    16.6690    13.9410    10.6170    23.0130   -12.6370 
   80.5000     2.2330    62.8180    18.3660    15.7640    12.0540    22.8920   -12.7650 
   80.6250     2.2180    61.5850    18.9210    16.6640    12.3770    22.8950   -12.8700 
   80.7500     2.2250    58.4460    18.8580    16.9320    11.8950    22.9420   -12.9360 
   80.8750     2.2460    56.3540    18.5410    16.8510    11.3890    23.0000   -12.9920 
   81.0000     2.2660    55.6210    18.1070    16.5640    11.1450    23.0270   -13.0580 
   81.1250     2.2730    54.0640    17.4910    16.0240    10.8010    23.0290   -13.1190 
   81.2500     2.2670    52.0610    16.7460    15.2880    10.1180    23.0590   -13.1800 
   81.3750     2.2530    51.0940    16.0360    14.4950     9.3720    23.2030   -13.2360 
   81.5000     2.2380    51.2820    15.5650    13.8390     8.9640    23.4140   -13.2410 
   81.6250     2.2260    52.3070    15.5650    13.5610     8.8330    23.2880   -13.1980 
   81.7500     2.2190    52.7130    16.0070    13.6960     9.0340    22.9480   -13.1190 
   81.8750     2.2130    52.1430    16.8150    14.2270     9.5920    22.7610   -12.9800 
   82.0000     2.2050    51.6880    17.8280    15.0540    10.4990    22.7080   -12.7830 
   82.1250     2.1920    52.8230    18.7470    15.9700    11.4280    22.6680   -12.5680 
   82.2500     2.1750    54.0650    19.3100    16.7090    11.8150    22.7290   -12.3590 
   82.3750     2.1580    54.0980    19.4290    17.1400    11.4140    22.9210   -12.1730 
   82.5000     2.1440    53.8040    19.2270    17.2910    10.9360    23.1300   -12.0450 
   82.6250     2.1400    52.7590    19.0170    17.3450    10.8380    23.2350   -11.9620 
   82.7500     2.1440    50.5430    19.0900    17.5420    11.0280    23.2600   -11.8980 
   82.8750     2.1570    47.2710    19.5570    18.0050    11.4490    23.2690   -11.8750 
   83.0000     2.1760    43.5670    20.3670    18.7410    11.9840    23.2770   -11.8980 
   83.1250     2.2050    41.4730    21.2950    19.6350    12.8440    23.3210   -11.9410 
   83.2500     2.2440    43.2750    21.9360    20.3740    13.6510    23.4680   -11.9990 
   83.3750     2.2920    47.6280    21.8530    20.5580    13.8970    23.6780   -12.0750 
   83.5000     2.3390    49.4470    20.6830    19.7790    13.1960    23.7950   -12.1730 
   83.6250     2.3680    48.4630    18.2640    17.7580    12.4230    23.7330   -12.3130 
   83.7500     2.3680    51.5600    15.3420    15.1300    11.2760    23.5530   -12.5050 
   83.8750     2.3380    57.9960    12.6130    12.5290     9.3660    23.5450   -12.7300 
   84.0000     2.2880    62.0410    10.5940    10.4420     7.4570    23.5940   -12.9720 
   84.1250     2.2370    63.6100     9.6520     9.2240     6.8660    23.5640   -13.2150 
   84.2500     2.2090    64.8060     9.6690     8.8060     7.0210    23.4580   -13.4420 
   84.3750     2.2220    63.6680    10.7010     9.2400     7.6060    23.2160   -13.6150 
   84.5000     2.2850    58.7270    12.9090    10.6670     8.5090    23.0840   -13.7170 
   84.6250     2.3920    54.1780    16.8190    13.5970    10.0970    22.9190   -13.7610 
   84.7500     2.5120    51.6570    22.4100    18.1820    13.9220    22.8350   -13.7600 
   84.8750     2.6150    48.6710    29.5660    24.6050    23.2400    22.9060   -13.7440 
   85.0000     2.6860    46.1790    37.5200    32.5060    40.7760    23.3520   -13.7050 
   85.1250     2.7160    45.8000    43.8570    40.0290    50.2330    23.5690   -13.6740 
   85.2500     2.7120    45.4970    45.8630    44.1770    49.2610    23.6550   -13.6470 
   85.3750     2.6700    44.3830    42.2890    42.8920    48.6160    23.6700   -13.6470 
   85.5000     2.5940    44.1960    34.6360    36.7010    49.4640    23.6470   -13.6740 
   85.6250     2.5010    47.3950    26.1940    28.4790    38.4540    23.5900   -13.7120 
   85.7500     2.4220    52.3930    19.3060    21.2340    23.0750    23.5810   -13.7440 
   85.8750     2.3700    57.4320    14.3770    15.7790    12.2830    23.5810   -13.7490 
   86.0000     2.3430    62.9190    11.0850    11.9910     8.4940    23.5910   -13.7480 
   86.1250     2.3310    69.1060     9.0330     9.5600     7.8150    23.6480   -13.7190 
   86.2500     2.3180    74.0940     7.6200     7.8740     7.3000    23.7190   -13.6930 
   86.3750     2.2980    76.2260     6.6530     6.7220     6.3490    23.7270   -13.6580 
   86.5000     2.2740    76.3340     6.0750     6.0150     5.4090    23.7060   -13.6250 
   86.6250     2.2540    76.9540     6.0520     5.8420     4.8460    23.5950   -13.6010 
   86.7500     2.2460    77.5070     6.6970     6.2170     5.0660    23.3840   -13.6100 
   86.8750     2.2500    74.5840     8.1970     7.2680     6.1010    23.1030   -13.6330 
   87.0000     2.2550    67.2730    10.6530     9.1130     7.7910    22.9770   -13.6560 
   87.1250     2.2480    59.2150    13.9880    11.8600    10.4100    22.9510   -13.6970 
   87.2500     2.2270    54.1320    17.3580    14.9580    14.3550    22.8790   -13.7200 
   87.3750     2.1960    51.1600    19.8290    17.5960    17.3260    22.8030   -13.7430 
   87.5000     2.1680    49.6450    20.7590    18.9890    15.6970    22.7660   -13.7780 
   87.6250     2.1500    50.4120    20.1540    18.8290    13.3650    22.6770   -13.8150 
   87.7500     2.1440    53.1980    19.0070    17.9320    12.0660    22.5820   -13.8480 
   87.8750     2.1520    58.1320    17.8360    16.8040    11.4300    22.5030   -13.8960 
   88.0000     2.1730    61.7610    16.8420    15.7080    10.9540    22.4380   -13.9730 
   88.1250     2.2020    58.6480    16.0710    14.7790    10.6900    22.3650   -14.0470 
   88.2500     2.2250    52.7150    15.4800    14.0320    10.2400    22.3430   -14.1380 
   88.3750     2.2340    51.9990    15.0850    13.4880     9.5480    22.3190   -14.2250 
   88.5000     2.2290    56.3120    14.9130    13.1620     9.0910    22.2370   -14.2850 
   88.6250     2.2160    58.5200    15.0050    13.0840     9.3020    22.1120   -14.3180 
