~V
VERS. 2.00: Ver 2.00
~W
STRT.M 57.0000:
STOP.M 204.0000:
STEP.M 0.1250:
NULL. -999.2500:
UWI. F10604:
~C
DEPT.M :
SP.MV :
GR.API :
RML.OHMM :
RI. :
RXO.OHMM :
CALI.CM :
DEN.GM/CC :
~A
   57.0000   109.7680    44.9040     7.4420     1.6870     0.5150    25.9700     1.8850 
   57.1250   103.4880    46.6360     5.8110     1.3050     0.5710    25.9700     1.8820 
   57.2500    97.8380    52.3190     3.8160     0.8520     0.6530    25.9670     1.9320 
   57.3750    92.8830    59.1840     2.0830     0.4750     0.8570    25.9500     2.0320 
   57.5000    88.5520    61.3450     0.9680     0.2360     1.2070    25.8860     2.1640 
   57.6250    84.7040    57.1580     0.5130     0.1320     1.6090    25.7470     2.2890 
   57.7500    80.7560    54.7530     0.4350     0.1140     2.1290    25.5300     2.3650 
   57.8750    75.7630    59.9740     0.6570     0.1870     3.0130    25.2650     2.3750 
   58.0000    69.1390    74.0270     1.1860     0.3890     4.2580    25.0420     2.3310 
   58.1250    61.3180    92.2550     2.0730     0.8280     5.3150    24.8380     2.2700 
   58.2500    53.1120   105.7120     3.1260     1.5220     5.7760    24.8040     2.2320 
   58.3750    44.6280   112.3710     4.0730     2.3970     5.7610    24.8870     2.2300 
   58.5000    35.8850   114.4240     4.6860     3.2630     5.6520    24.9560     2.2550 
   58.6250    27.0590   114.0600     4.9280     3.9360     5.7870    24.9490     2.2870 
   58.7500    18.6610   110.8810     5.0860     4.4680     6.0990    24.9520     2.3140 
   58.8750    11.5300   106.3290     5.3340     4.9370     6.3660    24.9700     2.3290 
   59.0000     6.3430   103.4010     5.7110     5.3820     6.4510    24.9850     2.3340 
   59.1250     2.9900   100.4460     6.1620     5.8030     6.4710    24.9890     2.3270 
   59.2500     0.4950    94.6300     6.5860     6.1860     6.6310    24.9850     2.3100 
   59.3750    -1.4510    88.9990     6.9170     6.4950     6.9380    24.9770     2.2880 
   59.5000    -3.0040    88.3580     7.1100     6.6850     7.2690    24.9730     2.2700 
   59.6250    -4.2870    91.6640     7.1310     6.7030     7.4230    24.9930     2.2660 
   59.7500    -5.3750    93.8330     7.0610     6.6020     7.3300    24.9950     2.2760 
   59.8750    -6.2340    96.3650     7.0010     6.4760     7.0620    24.9750     2.2900 
   60.0000    -6.9530   100.1130     7.0630     6.4430     6.8150    24.9750     2.2960 
   60.1250    -7.6210    99.9420     7.3640     6.6310     6.9100    24.9470     2.2830 
   60.2500    -8.2020    95.4210     7.8530     7.0140     7.4960    24.8810     2.2570 
   60.3750    -8.7050    91.0720     8.4130     7.5100     8.4840    24.8200     2.2290 
   60.5000    -9.1790    89.0840     8.8780     7.9720     9.3150    24.8040     2.2080 
   60.6250    -9.6330    88.7100     9.0360     8.1910     9.2000    24.8200     2.2010 
   60.7500   -10.0810    89.8010     8.8920     8.1230     8.4150    24.9090     2.2040 
   60.8750   -10.5550    91.2400     8.5290     7.8190     7.6060    24.9230     2.2140 
   61.0000   -11.0170    91.5640     8.0820     7.3890     7.1580    24.8090     2.2280 
   61.1250   -11.3720    92.6700     7.6810     6.9470     6.9540    24.6200     2.2450 
   61.2500   -11.6640    97.2010     7.3700     6.5670     6.7310    24.5120     2.2650 
   61.3750   -11.9510   103.4130     7.1340     6.2580     6.4740    24.4820     2.2850 
   61.5000   -12.2170   107.4310     6.9390     6.0010     6.2580    24.4800     2.3000 
   61.6250   -12.3710   107.0210     6.7840     5.7860     6.2140    24.4360     2.3040 
   61.7500   -12.4730   104.0020     6.7450     5.6620     6.3030    24.4100     2.2980 
   61.8750   -12.5650   100.8140     6.9680     5.7420     6.4090    24.4010     2.2930 
   62.0000   -12.6520    97.8200     7.6440     6.1750     6.5000    24.3950     2.3060 
   62.1250   -12.8260    92.9450     9.1000     7.2260     7.8460    24.3470     2.3600 
   62.2500   -13.0640    85.4950    11.3360     8.9440    12.4010    24.2940     2.4440 
   62.3750   -13.3060    75.5350    14.1680    11.2880    19.8610    24.3520     2.5300 
   62.5000   -13.5570    64.8130    17.0140    13.8750    26.2480    24.5700     2.5760 
   62.6250   -13.9190    57.3960    18.7880    15.7020    26.3370    24.8150     2.5400 
   62.7500   -14.3220    54.7680    19.1320    16.1920    22.1260    25.0990     2.4400 
   62.8750   -14.6730    55.7980    18.3580    15.5660    17.6180    25.5360     2.3160 
   63.0000   -15.0060    57.5200    17.2050    14.5310    15.1610    25.9740     2.2100 
   63.1250   -15.3220    58.8770    16.4330    13.7580    14.8490    26.1710     2.1570 
   63.2500   -15.6240    60.2400    16.2040    13.4210    15.2800    26.2460     2.1430 
   63.3750   -15.9120    60.3700    16.3730    13.4480    15.7010    26.3270     2.1450 
   63.5000   -16.1720    58.9680    16.6650    13.6610    15.8150    26.4920     2.1460 
   63.6250   -16.3890    58.8610    16.7450    13.8180    15.7980    26.6310     2.1390 
   63.7500   -16.6240    61.3380    16.4680    13.7390    15.6940    26.6230     2.1290 
   63.8750   -16.8940    63.9920    15.8590    13.3770    15.2120    26.5400     2.1240 
   64.0000   -17.1400    66.0350    15.0700    12.8060    14.1810    26.4340     2.1280 
   64.1250   -17.3140    70.1770    14.3410    12.1950    12.9090    26.1520     2.1410 
   64.2500   -17.4500    75.1560    13.8490    11.7190    12.0420    25.7800     2.1590 
   64.3750   -17.5520    77.2670    13.6530    11.4610    11.9360    25.4740     2.1760 
   64.5000   -17.6270    75.9850    13.7120    11.4310    12.5140    25.3000     2.1870 
   64.6250   -17.6300    73.5270    13.9030    11.5770    13.2490    25.2970     2.1870 
   64.7500   -17.5430    71.8560    14.0410    11.7520    13.6420    25.3110     2.1800 
   64.8750   -17.4560    71.1420    14.0410    11.8640    13.6480    25.3200     2.1710 
   65.0000   -17.4130    71.0960    13.8980    11.8700    13.4240    25.3220     2.1650 
   65.1250   -17.4160    71.8110    13.6720    11.7730    13.1290    25.3220     2.1660 
   65.2500   -17.4100    72.5230    13.4530    11.6440    12.8790    25.3200     2.1720 
   65.3750   -17.3390    73.2070    13.2810    11.5260    12.7590    25.3170     2.1790 
   65.5000   -17.2160    74.1760    13.1650    11.4340    12.7800    25.3170     2.1830 
   65.6250   -17.1160    74.9490    13.1120    11.3810    12.8740    25.3200     2.1820 
   65.7500   -17.0270    75.1380    13.1140    11.3660    12.9640    25.3210     2.1780 
   65.8750   -16.8470    72.7810    13.1670    11.3920    13.1150    25.3220     2.1750 
   66.0000   -16.5780    68.3320    13.2490    11.4470    13.4210    25.3220     2.1730 
   66.1250   -16.2550    65.2010    13.3060    11.4920    13.7940    25.3210     2.1740 
   66.2500   -15.9230    65.9560    13.2990    11.4890    13.9750    25.3190     2.1790 
   66.3750   -15.6430    70.2450    13.2270    11.4310    13.8240    25.3180     2.1890 
   66.5000   -15.4120    74.0530    13.1300    11.3490    13.3660    25.3130     2.2060 
   66.6250   -15.1660    74.8180    13.0850    11.3030    12.8790    25.2730     2.2220 
   66.7500   -14.8960    74.4290    13.1330    11.3340    12.8000    25.1980     2.2310 
   66.8750   -14.6440    74.1590    13.2790    11.4550    13.2650    25.1670     2.2280 
   67.0000   -14.4090    73.0650    13.4980    11.6530    13.9550    25.2470     2.2150 
   67.1250   -14.1930    70.3430    13.7510    11.9000    14.3460    25.3030     2.1970 
   67.2500   -13.9920    67.5670    14.0020    12.1560    14.4690    25.3210     2.1830 
   67.3750   -13.8080    65.9320    14.2350    12.4000    14.5610    25.3200     2.1750 
   67.5000   -13.6260    66.5020    14.4330    12.6130    14.6610    25.3170     2.1740 
   67.6250   -13.4970    70.1600    14.5610    12.7590    14.6280    25.3150     2.1760 
   67.7500   -13.4350    72.9600    14.5950    12.8180    14.5420    25.3110     2.1770 
   67.8750   -13.3600    72.4730    14.5100    12.7670    14.5170    25.3060     2.1760 
   68.0000   -13.2840    69.9560    14.3160    12.6050    14.5310    25.2850     2.1720 
   68.1250   -13.2290    67.8390    14.0890    12.3810    14.4840    25.2230     2.1670 
