~V
VERS. 2.00: Ver 2.00
~W
STRT.M 51.0000:
STOP.M 206.0000:
STEP.M 0.1250:
NULL. -999.2500:
UWI. F10683:
~C
DEPT.M :
GR.API :
RML.OHMM :
RI. :
RXO.OHMM :
CALI.CM :
SP.MV :
DEN.GM/CC :
~A
# ...
  186.0000    60.8830     9.8890     9.1510     9.5310    24.7470    -9.7840     2.3570 
  186.1250    60.5550     9.7300     8.9550     9.3930    24.7470   -10.3300     2.3520 
  186.2500    61.7850     9.6310     8.8110     9.1140    24.7470   -10.8400     2.3430 
  186.3750    64.6940     9.6330     8.7580     8.8890    24.7470   -11.2850     2.3310 
  186.5000    67.3190     9.7590     8.8170     8.9120    24.7470   -11.6640     2.3230 
  186.6250    67.2090    10.0040     8.9960     9.3630    24.7480   -11.8850     2.3260 
  186.7500    65.8640    10.2770     9.2230    10.5550    24.7360   -11.9200     2.3370 
  186.8750    65.4940    10.4880     9.4290    12.2710    24.6960   -11.7720     2.3500 
  187.0000    65.4290    10.5670     9.5480    13.7630    24.6360   -11.4750     2.3610 
  187.1250    63.2330    10.4960     9.5400    13.1620    24.6200   -11.0460     2.3740 
  187.2500    60.6090    10.3650     9.4600    10.6740    24.6460   -10.5830     2.3870 
  187.3750    59.1460    10.2510     9.3690     8.9970    24.6930   -10.1210     2.3960 
  187.5000    58.8210    10.2010     9.3170     8.7100    24.7320    -9.6740     2.4010 
  187.6250    59.9470    10.2260     9.3270     9.0970    24.7460    -9.3580     2.4020 
  187.7500    61.9890    10.2700     9.3630     9.4560    24.7470    -9.1980     2.4010 
  187.8750    63.1830    10.2910     9.3890     9.7150    24.7470    -9.1570     2.3980 
  188.0000    62.3660    10.2680     9.3840     9.7150    24.7470    -9.2100     2.3900 
  188.1250    61.4320    10.2160     9.3550     9.3540    24.7470    -9.3810     2.3790 
  188.2500    61.7590    10.1820     9.3370     8.7000    24.7490    -9.5890     2.3710 
  188.3750    61.2710    10.1960     9.3600     8.3880    24.7510    -9.7640     2.3750 
  188.5000    60.2870    10.2600     9.4290     8.6530    24.7510    -9.8690     2.3920 
  188.6250    62.2490    10.3370     9.5200     9.1690    24.7500    -9.8340     2.4110 
  188.7500    65.8640    10.3700     9.5870     9.2040    24.7500    -9.6920     2.4180 
  188.8750    66.7920    10.3340     9.6020     9.1270    24.7400    -9.4820     2.4160 
  189.0000    64.5370    10.2470     9.5660     9.2580    24.7100    -9.2350     2.4150 
  189.1250    62.4910    10.1620     9.5110     9.5840    24.6560    -8.9610     2.4170 
  189.2500    61.6250    10.1200     9.4780     9.6440    24.6180    -8.7220     2.4170 
  189.3750    60.9420    10.1130     9.4740     9.6310    24.6030    -8.5830     2.4140 
  189.5000    60.3290    10.1020     9.4820     9.7070    24.6020    -8.5690     2.4100 
  189.6250    59.1710    10.0300     9.4600     9.7870    24.6010    -8.7020     2.4010 
  189.7500    57.1820     9.8900     9.3800     9.4870    24.6020    -8.9230     2.3870 
  189.8750    56.1240     9.6920     9.2300     8.9110    24.6020    -9.1810     2.3710 
  190.0000    56.6410     9.4490     9.0090     8.8340    24.6000    -9.4670     2.3550 
  190.1250    55.6630     9.1510     8.7080     9.0540    24.5970    -9.7530     2.3450 
  190.2500    52.9970     8.7970     8.3430     8.9940    24.5840    -9.9550     2.3360 
  190.3750    51.8140     8.3950     7.9330     8.6460    24.5530   -10.0370     2.3240 
  190.5000    51.9040     7.9810     7.5110     8.2180    24.5300   -10.0220     2.3070 
  190.6250    51.4940     7.6170     7.1340     7.8140    24.5230    -9.9670     2.2910 
  190.7500    51.9840     7.3380     6.8350     7.0590    24.5230    -9.9400     2.2880 
  190.8750    52.8890     7.1590     6.6300     5.9780    24.5230   -10.0590     2.2990 
  191.0000    51.1700     7.0850     6.5280     5.1700    24.5230   -10.3520     2.3140 
  191.1250    48.2980     7.1510     6.5620     5.0470    24.5240   -10.8500     2.3150 
  191.2500    48.5930     7.3720     6.7390     5.2890    24.5350   -11.4900     2.3100 
  191.3750    50.1920     7.7770     7.0830     5.9160    24.5690   -12.2210     2.3200 
  191.5000    50.5300     8.3720     7.5930     7.0670    24.6340   -12.9940     2.3610 
  191.6250    52.5350     9.1230     8.2530     8.8970    24.6490   -13.7270     2.4260 
  191.7500    57.2840     9.8900     8.9590    10.6840    24.6230   -14.3460     2.4790 
  191.8750    60.4090    10.5470     9.6120    11.5440    24.5990   -14.7920     2.5000 
  192.0000    60.6550    10.9980    10.1230    12.6230    24.6260   -15.0450     2.4940 
  192.1250    62.9740    11.1870    10.4060    13.1250    24.6610   -15.1030     2.4730 
  192.2500    67.8200    11.2040    10.5040    13.3290    24.6760   -15.0700     2.4450 
  192.3750    70.9280    11.1060    10.4570    13.9340    24.6780   -14.9900     2.4130 
  192.5000    68.9890    10.9300    10.3040    15.4100    24.6740   -14.9050     2.3810 
  192.6250    64.3080    10.6780    10.0590    15.7290    24.6570   -14.8440     2.3520 
  192.7500    63.2620    10.3690     9.7530    15.6460    24.6270   -14.7700     2.3250 
  192.8750    65.9410    10.0260     9.4110    14.8130    24.6050   -14.6470     2.3010 
  193.0000    67.5550     9.6890     9.0680    13.4720    24.5970   -14.4840     2.2910 
  193.1250    65.2450     9.4130     8.7750    12.7080    24.6040   -14.2870     2.3070 
  193.2500    62.6160     9.2150     8.5540    12.5600    24.6180   -14.0470     2.3380 
  193.3750    61.4810     9.0970     8.4110    12.2130    24.6490   -13.7530     2.3670 
  193.5000    60.7800     9.0410     8.3360    11.7470    24.6710   -13.4090     2.3770 
  193.6250    59.7500     9.0200     8.3150    11.1340    24.6780   -12.9820     2.3650 
  193.7500    58.0520     9.0030     8.3190    10.5200    24.6780   -12.5180     2.3430 
  193.8750    57.2580     8.9840     8.3340     9.5930    24.6780   -12.0320     2.3250 
  194.0000    59.5070     8.9650     8.3550     8.6280    24.6780   -11.5300     2.3200 
  194.1250    62.6000     8.9510     8.3800     7.8530    24.6780   -11.0210     2.3350 
  194.2500    63.3780     8.9420     8.4040     7.5990    24.6780   -10.5530     2.3530 
  194.3750    64.7020     8.9290     8.4210     7.8020    24.6780   -10.1810     2.3610 
  194.5000    68.2630     8.9050     8.4210     8.1890    24.6780    -9.9370     2.3620 
  194.6250    69.0600     8.8670     8.3910     8.4430    24.6780    -9.8530     2.3600 
  194.7500    64.7450     8.8220     8.3350     8.7110    24.6770    -9.8600     2.3530 
  194.8750    60.0200     8.7750     8.2600     9.0080    24.6740    -9.9360     2.3450 
  195.0000    59.0340     8.7200     8.1710     9.2100    24.6730    -9.9980     2.3420 
  195.1250    61.6970     8.6410     8.0640     9.2680    24.6710   -10.0130     2.3480 
  195.2500    63.4170     8.5310     7.9360     9.1690    24.6630    -9.9730     2.3570 
  195.3750    63.6300     8.3980     7.7900     8.9210    24.6410    -9.8650     2.3630 
  195.5000    63.6300     8.2600     7.6370     8.7120    24.6130    -9.6740     2.3590 
  195.6250    63.6300     8.1490     7.5010     8.5900    24.6010    -9.4480     2.3440 
  195.7500    63.6300     8.0900     7.4080     8.4260    24.5970    -9.2960     2.3250 
  195.8750    63.6300     8.1040     7.3800     8.2740    24.5970    -9.2670     2.3110 
  196.0000    63.6300     8.2090     7.4390     8.1740    24.5970    -9.4240     2.3050 
  196.1250    63.6300     8.4200     7.6050     8.1950    24.5970    -9.8170     2.3090 
  196.2500    63.6300     8.6780     7.8320     8.1330    24.5970   -10.3520     2.3210 
  196.3750    63.6300     8.9110     8.0550     7.9430    24.5970   -10.9310     2.3340 
  196.5000    63.6300     9.0350     8.2020     7.6940    24.5970   -11.4680     2.3450 
  196.6250    63.6300     8.9830     8.2000     7.2320    24.5980   -11.8260     2.3520 
  196.7500    63.6300     8.8150     8.0830     6.5980    24.6040   -11.9600     2.3530 
  196.8750    63.6300     8.6120     7.9090     5.9410    24.6260   -11.9290     2.3460 
  197.0000    63.6300     8.4450     7.7390     5.5960    24.6710   -11.8160     2.3350 
  197.1250    63.6300     8.3580     7.6230     5.6030    24.7270   -11.6350     2.3250 
