~V
VERS. 2.00: Ver 2.00
~W
STRT.M 51.0000:
STOP.M 206.0000:
STEP.M 0.1250:
NULL. -999.2500:
UWI. F10683:
~C
DEPT.M :
GR.API :
RML.OHMM :
RI. :
RXO.OHMM :
CALI.CM :
SP.MV :
DEN.GM/CC :
~A
# ...
  152.2500    49.8450    24.1420    22.6050    25.1280    24.8110    -4.9530     2.3350 
  152.3750    48.4450    24.2720    22.7320    24.9730    24.8590    -4.9790     2.3300 
  152.5000    49.0870    24.4410    22.8720    25.7450    24.8580    -5.0350     2.3360 
  152.6250    50.8000    24.6950    23.0700    27.0740    24.8130    -5.1300     2.3450 
  152.7500    52.4190    24.9670    23.2810    27.6940    24.7700    -5.2550     2.3470 
  152.8750    53.3180    25.1270    23.3970    27.3080    24.7540    -5.4490     2.3360 
  153.0000    52.7700    25.0350    23.2950    26.7560    24.7520    -5.7070     2.3110 
  153.1250    51.2720    24.5660    22.8720    26.3230    24.7520    -5.9810     2.2750 
  153.2500    51.9040    23.8580    22.2480    25.6850    24.7520    -6.2010     2.2400 
  153.3750    55.1140    23.0660    21.5620    24.2230    24.7470    -6.3520     2.2150 
  153.5000    58.4240    22.3550    20.9420    22.2550    24.7230    -6.4580     2.2120 
  153.6250    57.6410    21.9100    20.5290    22.2380    24.6450    -6.5260     2.2490 
  153.7500    52.6850    21.8020    20.3790    23.5310    24.5590    -6.5430     2.3100 
  153.8750    48.2450    22.0980    20.5600    25.2200    24.5340    -6.4910     2.3680 
  154.0000    47.7590    22.8230    21.1090    24.6120    24.5900    -6.3660     2.3970 
  154.1250    48.5970    23.9490    22.0340    23.9490    24.6290    -6.2010     2.3910 
  154.2500    46.9750    25.1610    23.0890    25.0020    24.6130    -6.0610     2.3730 
  154.3750    46.0620    26.1060    23.9980    27.0400    24.5730    -5.9480     2.3520 
  154.5000    48.8290    26.4530    24.4830    28.6890    24.5440    -5.8230     2.3310 
  154.6250    51.3690    25.9850    24.3250    27.4960    24.6070    -5.6700     2.3190 
  154.7500    51.0350    25.1290    23.7920    25.8050    24.7370    -5.5180     2.3180 
  154.8750    49.6840    24.3690    23.2290    24.8570    24.8260    -5.3740     2.3250 
  155.0000    48.1170    24.0870    22.9500    25.4580    24.8360    -5.2610     2.3300 
  155.1250    47.8540    24.4850    23.1750    26.1940    24.8140    -5.1900     2.3280 
  155.2500    51.2820    25.2400    23.7290    27.0540    24.7830    -5.1330     2.3210 
  155.3750    55.8240    25.9650    24.3370    27.9730    24.7610    -5.0630     2.3150 
  155.5000    56.5540    26.2380    24.6480    26.7770    24.7520    -5.0110     2.3180 
  155.6250    51.7360    25.6580    24.2720    25.0310    24.7510    -5.0120     2.3390 
  155.7500    53.0470    24.4240    23.3070    23.7320    24.7390    -5.0780     2.3660 
  155.8750    63.0220    22.8500    21.9930    22.6540    24.7110    -5.2220     2.3880 
  156.0000    70.8800    21.3180    20.6540    20.8520    24.6900    -5.3950     2.3940 
  156.1250    67.3990    20.2750    19.6760    19.2530    24.6830    -5.5420     2.3840 
  156.2500    59.1350    19.8740    19.2200    18.7700    24.6790    -5.7190     2.3660 
  156.3750    53.1260    20.1220    19.3320    20.1250    24.6610    -5.9780     2.3420 
  156.5000    51.4070    20.8610    19.9330    22.6130    24.6030    -6.2930     2.3190 
  156.6250    52.8890    21.7840    20.8360    25.4970    24.4910    -6.6270     2.3080 
  156.7500    55.8990    22.4950    21.6800    24.0330    24.3360    -6.9400     2.3080 
  156.8750    55.9880    22.7760    22.2190    22.3620    24.2240    -7.2070     2.3150 
  157.0000    54.0500    22.5920    22.3370    20.2970    24.1780    -7.4520     2.3250 
  157.1250    53.3890    22.0460    22.0350    18.5260    24.1710    -7.7100     2.3370 
  157.2500    53.0270    21.3940    21.5320    18.2410    24.1690    -7.9440     2.3460 
  157.3750    52.5200    20.7680    20.9650    19.0930    24.1740    -8.1040     2.3540 
  157.5000    52.9390    20.2510    20.4430    19.7410    24.2000    -8.1910     2.3630 
  157.6250    53.8120    19.9550    20.0900    19.0790    24.2970    -8.2460     2.3650 
  157.7500    55.2810    19.9380    19.9770    19.0800    24.4610    -8.3100     2.3520 
  157.8750    56.2330    20.2860    20.1880    20.6020    24.6550    -8.3690     2.3230 
  158.0000    55.4120    21.0640    20.8000    22.8480    24.8030    -8.4110     2.2870 
  158.1250    53.3940    22.3440    21.9270    24.8070    24.8750    -8.4170     2.2570 
  158.2500    52.2470    23.9370    23.4280    26.6750    24.8980    -8.3680     2.2430 
  158.3750    52.2890    25.6340    25.1190    29.4350    24.9010    -8.2920     2.2490 
  158.5000    52.2580    27.1750    26.7420    33.0770    24.9010    -8.2340     2.2700 
  158.6250    51.2140    28.2740    27.9940    35.9890    24.9010    -8.1950     2.2900 
  158.7500    48.3490    28.9520    28.8400    36.3740    24.9010    -8.1600     2.2990 
  158.8750    45.6300    29.3490    29.3730    34.8830    24.9010    -8.1340     2.2970 
  159.0000    45.5810    29.6870    29.7760    33.2200    24.9010    -8.1120     2.2920 
  159.1250    48.0290    30.1740    30.2290    33.7430    24.9000    -8.1100     2.2840 
  159.2500    49.9660    30.7710    30.7460    36.2840    24.8870    -8.1570     2.2810 
  159.3750    50.3360    31.2940    31.1940    37.5140    24.8570    -8.2730     2.2840 
  159.5000    49.9140    31.5320    31.4020    36.9410    24.8340    -8.4230     2.2920 
  159.6250    48.0530    31.3520    31.2510    35.9000    24.8270    -8.5910     2.3010 
  159.7500    46.2200    31.0340    30.9690    35.2770    24.8270    -8.8100     2.3140 
  159.8750    45.4120    30.9530    30.8790    34.6900    24.8270    -9.1080     2.3340 
  160.0000    45.4040    31.4530    31.3010    34.1100    24.8260    -9.5090     2.3610 
  160.1250    45.4730    32.8180    32.5300    35.0770    24.8160   -10.0010     2.3930 
  160.2500    46.2360    34.8340    34.3860    37.5760    24.7680   -10.5440     2.4100 
  160.3750    48.7830    37.2620    36.6540    41.4110    24.6700   -11.1010     2.3920 
  160.5000    51.8820    39.8120    39.0790    42.8120    24.5790   -11.7000     2.3450 
  160.6250    52.7280    42.1760    41.4250    42.1410    24.5570   -12.3720     2.3080 
  160.7500    51.9650    44.2200    43.5450    42.9070    24.5930   -13.0310     2.2980 
  160.8750    51.2160    45.8850    45.3190    46.3980    24.6610   -13.6400     2.3070 
  161.0000    52.5140    47.1450    46.6640    52.2950    24.7240   -14.1660     2.3200 
  161.1250    55.2620    47.9990    47.5410    56.6630    24.7470   -14.6040     2.3250 
  161.2500    56.8000    48.7430    48.2470    53.8710    24.7520   -14.9780     2.3190 
  161.3750    56.1310    49.7780    49.1540    48.5660    24.7520   -15.3290     2.2990 
  161.5000    54.4380    51.5580    50.6940    49.0870    24.7520   -15.6550     2.2700 
  161.6250    54.5440    54.6290    53.4170    56.9530    24.7540   -15.9040     2.2400 
  161.7500    55.9090    58.8210    57.2310    66.7570    24.7610   -16.1040     2.2150 
  161.8750    57.1350    63.7240    61.8060    72.9440    24.7770   -16.3130     2.1970 
  162.0000    55.4550    68.5370    66.4130    77.7340    24.8130   -16.5830     2.1850 
  162.1250    53.6330    72.0960    69.8920    78.3200    24.8510   -16.9570     2.1900 
  162.2500    56.0760    74.1690    71.8080    81.8230    24.8820   -17.4100     2.2210 
  162.3750    58.9830    75.0290    72.2270    82.1710    24.8730   -17.9050     2.2770 
  162.5000    57.0200    75.2000    71.5820    78.1880    24.8150   -18.4510     2.3500 
  162.6250    50.0050    75.2870    70.5240    69.9740    24.7470   -19.1300     2.4310 
  162.7500    43.4220    75.8760    69.8810    65.4540    24.6900   -19.9310     2.5010 
  162.8750    39.8750    77.3670    70.2410    66.5100    24.6260   -20.7960     2.5320 
  163.0000    39.9570    79.8580    71.8880    67.5550    24.4930   -21.6670     2.5170 
  163.1250    42.9020    82.9130    74.6880    65.0570    24.3950   -22.5100     2.5140 
  163.2500    44.7370    85.3180    77.5460    68.3430    24.4520   -23.3180     2.5650 
  163.3750    45.6200    86.0230    79.4370    87.9780    24.6470   -24.0540     2.6550 
