~V
VERS. 2.00: Ver 2.00
~W
STRT.M 49.0000:
STOP.M 217.0000:
STEP.M 0.1250:
NULL. -999.2500:
UWI. F10685:
~C
DEPT.M :
SP.MV :
DEN.GM/CC :
GR.API :
RML.OHMM :
RI. :
RXO.OHMM :
CALI.CM :
~A
# ...
  184.0000   -12.5980     2.2900    60.8660    45.7160    45.8980    47.7380    24.6500 
  184.1250   -12.7320     2.3010    58.5370    46.0490    47.0750    58.3150    24.5570 
  184.2500   -12.8420     2.3110    56.8040    43.6150    44.7710    54.9740    24.4210 
  184.3750   -12.8920     2.3200    57.5450    38.5190    39.3360    42.5880    24.3320 
  184.5000   -12.8720     2.3230    59.4860    31.6230    32.0400    31.1640    24.2430 
  184.6250   -12.8750     2.3180    62.4910    29.4270    24.7700    24.1550    24.0810 
  184.7500   -12.8690     2.3090    68.5810    22.4040    18.8580    18.2290    23.9990 
  184.8750   -12.8310     2.3030    77.6130    17.4020    14.6480    13.1420    24.1110 
  185.0000   -12.8050     2.3020    86.2950    14.2260    11.9750    10.6080    24.1480 
  185.1250   -12.7320     2.3060    88.5090    12.6220    10.6250     9.5760    24.1320 
  185.2500   -12.6500     2.3100    86.5770    11.9020    10.0180     9.2120    24.0840 
  185.3750   -12.5990     2.3120    84.6360    11.7240     9.8680     9.0590    24.0720 
  185.5000   -12.5790     2.3110    84.1880    11.8020     9.9340     8.8750    24.0710 
  185.6250   -12.5460     2.3110    84.0960    11.9180    10.0320     8.7240    24.0730 
  185.7500   -12.5670     2.3120    83.3690    11.9620    10.0690     8.7740    24.0730 
  185.8750   -12.6710     2.3120    83.2010    11.9280    10.0400     8.9690    24.0590 
  186.0000   -12.8480     2.3050    84.3920    11.8420     9.9680     9.0810    24.0050 
  186.1250   -13.2110     2.2840    84.0710    11.7500     9.8910     9.1950    23.8990 
  186.2500   -13.6660     2.2480    82.8140    11.6990     9.8480     9.3290    23.7960 
  186.3750   -14.1390     2.2060    82.8400    11.7460     9.8870     9.3900    23.5460 
  186.5000   -14.6120     2.1760    83.7050    11.9850    10.0880     9.4010    23.3600 
  186.6250   -15.0800     2.1850    83.6670    12.6270    10.6290     9.7480    23.4390 
  186.7500   -15.4570     2.2400    84.5050    13.7200    11.5490    10.0080    23.6990 
  186.8750   -15.7470     2.3290    85.5370    15.2080    12.8010    10.7640    24.0570 
  187.0000   -16.0090     2.4200    84.2450    16.8120    14.1510    12.9150    24.3910 
  187.1250   -16.1350     2.4680    79.9620    17.8140    14.9950    17.8880    24.4810 
  187.2500   -16.1800     2.4680    77.4500    17.6990    14.8980    21.3690    24.4280 
  187.3750   -16.2170     2.4360    78.1500    16.4700    13.8640    16.9840    24.0620 
  187.5000   -16.1990     2.3970    79.3540    14.6520    12.3330    11.8400    23.8530 
  187.6250   -16.1770     2.3720    78.5260    12.9370    10.8900    10.4160    23.8820 
  187.7500   -16.1900     2.3620    76.7320    11.6720     9.8250    10.1020    23.8840 
  187.8750   -16.1880     2.3600    76.8880    10.9110     9.1840     9.9260    24.0140 
  188.0000   -16.1860     2.3580    78.1960    10.5790     8.9050     9.4920    24.3140 
  188.1250   -16.2250     2.3510    79.0980    10.5650     8.8930    10.0020    24.5790 
  188.2500   -16.2810     2.3420    80.4070    10.6560     8.9700    11.1550    24.6120 
  188.3750   -16.2920     2.3330    82.1560    10.7360     9.0370    11.7650    24.6180 
  188.5000   -16.2840     2.3280    82.5350    10.7400     9.0410    10.6210    24.6330 
  188.6250   -16.2960     2.3260    81.3230    10.6680     8.9790     9.0650    24.5850 
  188.7500   -16.3330     2.3240    80.9280    10.5810     8.9070     8.5220    24.5420 
  188.8750   -16.3650     2.3170    82.0940    10.5210     8.8560     8.4760    24.5020 
  189.0000   -16.3630     2.3050    83.7850    10.4950     8.8350     8.7140    24.4870 
  189.1250   -16.2610     2.2950    83.8420    10.4700     8.8130     9.1430    24.4060 
  189.2500   -16.0400     2.2960    81.8660    10.3990     8.7530     9.1910    24.1500 
  189.3750   -15.8190     2.3130    79.8680    10.2660     8.6410     8.6850    23.8810 
  189.5000   -15.6010     2.3430    79.2010    10.0880     8.4910     8.1240    23.9120 
  189.6250   -15.3400     2.3730    76.8260     9.9260     8.3550     7.7750    24.1180 
  189.7500   -15.1400     2.3890    72.3820     9.8400     8.2830     7.7190    24.4530 
  189.8750   -15.0040     2.3860    70.6190     9.8730     8.3100     7.8740    24.5240 
  190.0000   -14.8740     2.3680    73.5080    10.0290     8.4420     8.0350    24.3560 
  190.1250   -14.8320     2.3490    77.5750    10.2750     8.6490     8.1410    24.3040 
  190.2500   -14.8160     2.3350    79.2660    10.5010     8.8390     8.6310    24.2700 
  190.3750   -14.7460     2.3250    79.8020    10.6090     8.9300     9.5510    24.2310 
  190.5000   -14.6240     2.3120    80.2700    10.5330     8.8660    10.3700    24.3870 
  190.6250   -14.4420     2.2920    80.5410    10.2530     8.6300    10.5320    24.5390 
  190.7500   -14.2270     2.2730    78.8240     9.8860     8.3210    10.1040    24.5180 
  190.8750   -14.0210     2.2710    75.1440     9.5540     8.0420     9.0710    24.3510 
  191.0000   -13.8920     2.2960    71.0390     9.3780     7.8940     8.2950    24.0900 
  191.1250   -13.8310     2.3520    71.8970     9.4970     7.9940     8.3230    23.9760 
  191.2500   -13.8890     2.4120    76.4890     9.8900     8.3250     9.3660    23.8080 
  191.3750   -14.1070     2.4500    80.3650    10.4890     8.8290    12.3200    23.6900 
  191.5000   -14.4160     2.4520    79.7950    11.1480     9.3840    17.1290    23.6600 
  191.6250   -14.7630     2.4240    76.4240    11.6180     9.7800    17.6630    23.4870 
  191.7500   -15.0660     2.3950    76.2980    11.7740     9.9110    13.1700    23.3100 
  191.8750   -15.2690     2.3790    78.5480    11.6290     9.7890    10.5040    23.2670 
  192.0000   -15.3200     2.3790    80.5190    11.3080     9.5190     9.9460    23.2820 
  192.1250   -15.2240     2.3840    79.6510    10.9680     9.2330    10.0330    23.2600 
  192.2500   -14.9900     2.3790    77.0790    10.7050     9.0110     9.8200    23.2850 
  192.3750   -14.6100     2.3640    76.4080    10.5320     8.8660     9.6560    23.2200 
  192.5000   -14.1850     2.3430    78.3800    10.4140     8.7660     9.6750    23.1270 
  192.6250   -13.7190     2.3270    79.5890    10.2800     8.6530     9.2500    23.1100 
  192.7500   -13.2350     2.3220    80.4230    10.0850     8.4890     8.7570    23.1060 
  192.8750   -12.8250     2.3270    81.6590     9.8240     8.2700     8.4800    23.1100 
  193.0000   -12.5000     2.3370    82.1240     9.5370     8.0270     8.3790    23.0360 
  193.1250   -12.3320     2.3440    79.9950     9.3210     7.8460     8.4100    22.7650 
  193.2500   -12.3870     2.3410    79.7890     9.2710     7.8040     8.7640    22.6720 
  193.3750   -12.6390     2.3300    82.2710     9.4420     7.9480    10.0860    22.6190 
  193.5000   -13.0740     2.3170    83.1450     9.8390     8.2820    12.6910    22.6060 
  193.6250   -13.6840     2.3130    83.1120    10.4350     8.7840    14.4220    22.5650 
  193.7500   -14.3620     2.3210    84.7980    11.0880     9.3330    13.7930    22.3790 
  193.8750   -14.9890     2.3330    85.6250    11.6510     9.8070    12.2080    22.3060 
  194.0000   -15.5030     2.3400    83.7420    11.9780    10.0820    11.2150    22.5710 
  194.1250   -15.9270     2.3330    81.0600    11.9310    10.0430    10.1900    22.8650 
  194.2500   -16.2350     2.3160    81.0430    11.6030     9.7660     9.3820    23.0350 
  194.3750   -16.4060     2.2980    82.7220    11.1120     9.3540     8.7580    23.0850 
  194.5000   -16.4550     2.2870    83.7440    10.5990     8.9220     8.4790    23.2370 
  194.6250   -16.4280     2.2880    82.1330    10.1750     8.5640     8.8550    23.2090 
  194.7500   -16.3300     2.2950    79.8530     9.8510     8.2920     9.3880    23.0240 
  194.8750   -16.2230     2.3020    80.1560     9.6220     8.0990     9.3590    23.0460 
  195.0000   -16.1440     2.3060    83.3920     9.4850     7.9840     8.9900    22.9740 
  195.1250   -15.9450     2.3070    85.8170     9.4410     7.9470     8.6600    22.9280 
