~V
VERS. 2.00: Ver 2.00
~W
STRT.M 50.0000:
STOP.M 224.0000:
STEP.M 0.1250:
NULL. -999.2500:
UWI. F10690:
~C
DEPT.M :
SP.MV :
DEN.GM/CC :
GR.API :
RML.OHMM :
RI. :
RXO.OHMM :
CALI.CM :
~A
# ...
   72.5000   -23.3450     2.3480    50.0960    17.3620    14.8710    13.1380    24.8920 
   72.6250   -23.2820     2.2820    50.0730    20.0780    16.9830    12.0480    24.8980 
   72.7500   -23.2140     2.2620    51.0170    22.5040    18.9620    11.0720    24.9360 
   72.8750   -23.1430     2.2950    51.0330    24.0900    20.3660    10.4720    25.0280 
   73.0000   -23.0890     2.3660    49.3650    24.3020    20.7190    10.4330    25.1520 
   73.1250   -23.0600     2.4330    48.8300    22.6820    19.5820    13.3480    25.2020 
   73.2500   -23.0570     2.4460    50.9390    19.9720    17.5240    19.4540    25.1980 
   73.3750   -23.0900     2.3840    53.2990    17.0450    15.2270    19.8120    25.1500 
   73.5000   -23.1490     2.2900    53.8650    14.7780    13.3530    10.7420    25.0830 
   73.6250   -23.2350     2.2330    51.6160    13.8920    12.4540     7.8090    25.0040 
   73.7500   -23.3300     2.2170    48.5550    14.1920    12.4700     7.6920    24.9590 
   73.8750   -23.4080     2.2270    46.3700    15.3920    13.2940     8.5380    24.9450 
   74.0000   -23.4560     2.2490    45.3290    17.0270    14.6720     8.9330    24.9440 
   74.1250   -23.4590     2.2710    44.1330    18.3840    16.0890     8.9740    24.9430 
   74.2500   -23.4550     2.2770    44.0410    19.0260    17.0040     9.0560    24.9380 
   74.3750   -23.4720     2.2620    46.6180    19.0080    17.2950     9.3530    24.9250 
   74.5000   -23.5160     2.2390    50.3240    18.6830    17.1780     9.3820    24.9140 
   74.6250   -23.5830     2.2280    51.0180    18.3290    16.8990     9.2000    24.9060 
   74.7500   -23.6470     2.2300    49.7970    17.9370    16.5300     9.2030    24.9040 
   74.8750   -23.6880     2.2410    48.8190    17.3520    15.9630     9.5480    24.9030 
   75.0000   -23.7070     2.2530    48.3740    16.4600    15.0990     9.8920    24.9040 
   75.1250   -23.7050     2.2550    47.8420    15.2830    13.9580    10.1320    24.9050 
   75.2500   -23.7050     2.2420    47.5180    14.1110    12.8010     9.8390    24.9050 
   75.3750   -23.7220     2.2190    48.3010    13.2030    11.8500    10.2220    24.9030 
   75.5000   -23.7640     2.1960    50.2390    12.7420    11.2640    11.1610    24.8990 
   75.6250   -23.8430     2.1890    52.2430    12.8570    11.1700    11.2920    24.8980 
   75.7500   -23.9280     2.1970    53.2210    13.3590    11.4430    11.6870    24.8970 
   75.8750   -23.9920     2.2090    51.6640    14.0640    11.9530    12.1000    24.8970 
   76.0000   -24.0250     2.2170    49.0570    14.7610    12.5360    13.2140    24.8970 
   76.1250   -24.0220     2.2200    49.4500    15.2290    13.0060    13.6260    24.8990 
   76.2500   -24.0040     2.2220    53.3400    15.4470    13.2980    13.7310    24.9030 
   76.3750   -23.9740     2.2210    56.1150    15.5040    13.4490    13.8370    24.9090 
   76.5000   -23.9370     2.2180    55.1280    15.5560    13.5560    13.8370    24.9090 
   76.6250   -23.8990     2.2240    52.0410    15.7450    13.7330    13.8370    24.8980 
   76.7500   -23.8650     2.2420    49.2780    15.9790    13.9490    13.7310    24.8930 
   76.8750   -23.8410     2.2640    47.6610    15.9930    14.0260    13.6260    24.8920 
   77.0000   -23.8240     2.2870    47.6090    15.4500    13.6920    13.4180    24.8920 
   77.1250   -23.8170     2.3150    49.7210    14.0430    12.6570    13.0310    24.8920 
   77.2500   -23.8050     2.3470    52.6460    12.1190    11.1620    10.8690    24.8920 
   77.3750   -23.7670     2.3700    56.3210    10.1140     9.5430     9.6470    24.8920 
   77.5000   -23.7070     2.3710    61.4640     8.4290     8.1200     7.9620    24.8900 
   77.6250   -23.6290     2.3540    65.8480     7.3790     7.1540     7.0420    24.8750 
   77.7500   -23.5510     2.3390    67.8730     6.8870     6.6250     7.0420    24.8340 
   77.8750   -23.4800     2.3310    67.8450     6.8510     6.4890     7.0420    24.7750 
   78.0000   -23.4070     2.3270    68.8940     7.1170     6.6530     7.0420    24.7400 
   78.1250   -23.3310     2.3230    71.7000     7.4860     6.9830     7.0970    24.7300 
   78.2500   -23.2490     2.3200    72.4010     7.7340     7.2760     7.2610    24.7300 
   78.3750   -23.1610     2.3180    69.0480     7.7440     7.4040     7.1790    24.7300 
   78.5000   -23.0720     2.3190    63.3660     7.5040     7.3130     6.9350    24.7450 
   78.6250   -22.9630     2.3230    60.8420     7.0860     7.0200     6.6740    24.8340 
   78.7500   -22.8370     2.3290    63.8460     6.6490     6.6520     5.7240    25.0180 
   78.8750   -22.7080     2.3370    69.2720     6.2740     6.2850     4.7850    25.2100 
   79.0000   -22.5930     2.3410    71.3280     5.9840     5.9540     4.5820    25.3060 
   79.1250   -22.5190     2.3440    66.9970     5.7460     5.6540     4.7000    25.3110 
   79.2500   -22.4660     2.3490    62.8460     5.4950     5.3530     4.6080    25.2670 
   79.3750   -22.4300     2.3540    62.3240     5.2200     5.0500     4.3510    25.1790 
   79.5000   -22.3990     2.3530    63.8050     4.9760     4.7830     4.0640    25.0730 
   79.6250   -22.3510     2.3410    63.9340     4.9220     4.6620     4.0660    25.0150 
   79.7500   -22.2940     2.3190    64.1860     5.2040     4.7760     4.1950    24.9970 
   79.8750   -22.2350     2.2910    65.8180     5.9740     5.2330     4.5890    24.9910 
   80.0000   -22.1880     2.2620    66.5900     7.3470     6.1290     5.2700    24.9670 
   80.1250   -22.1470     2.2440    63.8380     9.4350     7.6030     6.5070    24.8980 
   80.2500   -22.0990     2.2350    58.6890    11.9230     9.4910     7.6790    24.8090 
   80.3750   -22.0540     2.2310    53.6740    14.3850    11.5210     8.7590    24.7200 
   80.5000   -22.0080     2.2290    50.9880    16.3040    13.2810     9.5380    24.6360 
   80.6250   -21.9660     2.2350    53.4170    17.2450    14.3330     9.3470    24.5880 
   80.7500   -21.9330     2.2520    57.9460    17.5840    14.8490     8.5680    24.5740 
   80.8750   -21.8960     2.2740    61.3560    17.7690    15.1370     8.5700    24.5850 
   81.0000   -21.8550     2.2840    62.6460    18.1410    15.4800     9.4970    24.6230 
   81.1250   -21.8200     2.2660    62.3100    18.8260    16.0410    10.0980    24.6830 
   81.2500   -21.7940     2.2360    60.7990    19.5760    16.7100     9.5240    24.7380 
   81.3750   -21.7660     2.2140    58.5360    20.0340    17.2450     8.9590    24.7720 
   81.5000   -21.7250     2.2120    57.1470    19.7870    17.3020     8.7460    24.7860 
   81.6250   -21.6700     2.2340    55.8340    18.4110    16.4590     8.7890    24.7910 
   81.7500   -21.6190     2.2720    53.4730    16.2360    14.8940     8.7130    24.7870 
   81.8750   -21.5790     2.3120    52.9720    13.7590    12.9740     8.0940    24.7610 
   82.0000   -21.5640     2.3350    56.2150    11.5540    11.1650     6.9220    24.7030 
   82.1250   -21.5660     2.3290    61.9230    10.1710     9.9220     6.1560    24.6440 
   82.2500   -21.5770     2.3120    64.3390     9.5820     9.2840     5.7890    24.6200 
   82.3750   -21.5940     2.3010    63.0590     9.6350     9.1820     5.8180    24.6190 
   82.5000   -21.6080     2.2980    62.4100    10.0490     9.4450     6.2000    24.6410 
   82.6250   -21.6130     2.2980    63.9530    10.3950     9.7680     6.5870    24.7110 
   82.7500   -21.6020     2.2990    64.4630    10.2950     9.7960     6.7240    24.8140 
   82.8750   -21.5700     2.3020    62.7650     9.6530     9.3830     6.5070    24.9230 
   83.0000   -21.5170     2.3080    61.3760     8.6810     8.6460     6.3200    25.0090 
   83.1250   -21.4540     2.3180    64.0490     7.8710     7.9430     6.1590    25.0530 
   83.2500   -21.4020     2.3400    67.7540     7.6310     7.6280     5.9020    25.0800 
   83.3750   -21.3570     2.3780    69.7810     8.1990     7.9210     5.7790    25.0880 
   83.5000   -21.3230     2.4310    67.5920     9.6690     8.9560     6.6830    25.0570 
   83.6250   -21.3010     2.4760    59.9150    12.0450    10.8940    10.8330    24.9660 
