~V
VERS. 2.00: Ver 2.00
~W
STRT.M 59.0000:
STOP.M 270.0000:
STEP.M 0.1250:
NULL. -999.2500:
UWI. F10667:
~C
DEPT.M :
GR.API :
RML.OHMM :
RI. :
RXO.OHMM :
CALI.CM :
DEN.GM/CC :
SP.MV :
~A
# ...
  216.5000    56.5510     6.6650     7.0290     6.9150    24.0320     2.4580   -14.3920 
  216.6250    57.3430     6.4620     6.6170     6.9890    24.0230     2.4320   -14.2150 
  216.7500    58.1570     6.3790     6.4980     6.6210    24.0020     2.4150   -14.0690 
  216.8750    59.0360     6.3700     6.4410     6.1280    23.9640     2.4070   -13.9590 
  217.0000    59.2450     6.2750     6.3130     5.8120    23.9300     2.4080   -13.9040 
  217.1250    58.7610     6.0120     6.0770     5.4470    23.9180     2.4150   -13.9110 
  217.2500    59.9880     5.7180     5.8040     5.2620    23.9370     2.4200   -13.9530 
  217.3750    62.8590     5.5490     5.5550     5.1520    23.9820     2.4160   -14.0120 
  217.5000    65.3820     5.5240     5.3860     5.2330    24.0250     2.4000   -14.1110 
  217.6250    70.2080     5.6000     5.3700     5.5540    24.0420     2.3750   -14.2440 
  217.7500    80.1190     5.7150     5.5220     5.6670    24.0460     2.3540   -14.3920 
  217.8750    92.3140     5.9070     5.8580     5.6670    24.0540     2.3470   -14.5350 
  218.0000   100.0800     6.3690     6.3590     6.3610    24.0680     2.3550   -14.6670 
  218.1250   100.5600     7.0500     6.9630     8.2880    24.0840     2.3760   -14.8300 
  218.2500    99.9690     7.6860     7.5230     9.3270    24.0910     2.3990   -14.9990 
  218.3750   101.8060     8.0820     7.9190     9.3470    24.0920     2.4180   -15.1640 
  218.5000   104.6680     8.2010     8.0850     8.8360    24.0920     2.4300   -15.3440 
  218.6250   105.3240     8.1340     8.0330     8.5310    24.0920     2.4330   -15.5120 
  218.7500   105.7000     8.0860     7.9170     8.3640    24.0920     2.4290   -15.6950 
  218.8750   107.6220     8.0900     7.8500     8.2500    24.0920     2.4190   -15.9060 
  219.0000   110.2090     8.1570     7.8880     8.1700    24.0920     2.4070   -16.1190 
  219.1250   110.6150     8.2450     8.0300     8.5810    24.0920     2.3960   -16.3190 
  219.2500   108.6660     8.3540     8.1850     9.3730    24.0920     2.3860   -16.4890 
  219.3750   105.4580     8.5060     8.2850     9.8410    24.0920     2.3740   -16.6310 
  219.5000   103.4890     8.7450     8.3230     9.9010    24.0920     2.3620   -16.7240 
  219.6250   105.1640     9.1470     8.4270     9.7730    24.0920     2.3570   -16.7540 
  219.7500   104.7410     9.8320     8.8260     9.6620    24.0920     2.3680   -16.7390 
  219.8750    98.5310    11.1030     9.7800    10.3010    24.0920     2.4050   -16.6870 
  220.0000    88.8910    13.1890    11.5170    12.8920    24.0920     2.4650   -16.6080 
  220.1250    80.3290    16.1120    14.1780    20.8960    24.0920     2.5300   -16.5040 
  220.2500    74.0320    19.0840    17.1350    32.2930    24.0920     2.5770   -16.4150 
  220.3750    71.2870    21.1750    19.5540    39.5940    24.0920     2.5920   -16.3410 
  220.5000    72.9010    21.7820    20.7390    36.6710    24.0920     2.5770   -16.2900 
  220.6250    76.5680    21.1860    20.6330    27.6630    24.0920     2.5420   -16.2690 
  220.7500    77.6590    20.8610    20.4460    22.1050    24.0920     2.5020   -16.2930 
  220.8750    76.2630    21.9400    21.2990    21.3370    24.0920     2.4600   -16.3270 
  221.0000    73.3730    25.1800    24.0940    33.0990    24.0920     2.4150   -16.3760 
  221.1250    68.7010    31.2640    29.7100    51.5190    24.0920     2.3770   -16.4490 
  221.2500    64.7920    39.1030    37.2480    71.4090    24.0920     2.3560   -16.5070 
  221.3750    63.9280    46.8720    45.1340    77.2500    24.0920     2.3550   -16.5600 
  221.5000    67.1890    52.1840    51.2260    72.3230    24.0870     2.3640   -16.6080 
  221.6250    71.6060    53.2790    53.4660    66.5250    24.2640     2.3630   -16.6370 
  221.7500    73.8230    51.9660    52.8620    56.5270    24.5350     2.3440   -16.6200 
  221.8750    73.8660    49.8080    50.8690    50.0390    24.5190     2.3110   -16.6170 
  222.0000    72.7330    47.4990    48.7600    48.2180    24.3430     2.2780   -16.6380 
  222.1250    72.1720    46.3280    47.3600    51.5330    24.2120     2.2600   -16.6150 
  222.2500    71.7110    46.0410    46.8920    52.2270    24.2130     2.2540   -16.6140 
  222.3750    70.8690    46.7850    47.6470    52.0160    24.2150     2.2550   -16.6490 
  222.5000    69.7610    50.1660    50.0750    52.1630    24.2190     2.2560   -16.6810 
  222.6250    68.7420    58.0660    55.3120    54.8920    24.2320     2.2530   -16.7560 
  222.7500    66.7800    69.9750    63.6290    67.5960    24.2530     2.2460   -16.8610 
  222.8750    64.0390    83.0340    74.9270    93.1600    24.2650     2.2370   -16.9800 
  223.0000    62.1490    96.2020    87.7620   115.3040    24.2660     2.2290   -17.1080 
  223.1250    61.2940   105.7990    98.1990   122.1050    24.2670     2.2250   -17.2640 
  223.2500    62.2030   107.9550   102.5170   129.2110    24.2690     2.2240   -17.4220 
  223.3750    66.2160   101.6570    99.1350   128.9960    24.2650     2.2270   -17.5720 
  223.5000    71.0140    89.6570    89.4620   107.2970    24.2500     2.2320   -17.7370 
  223.6250    72.0060    76.5860    76.9970    75.9200    24.2030     2.2380   -17.8630 
  223.7500    72.0540    65.8250    65.7000    54.2740    24.1300     2.2440   -17.9780 
  223.8750    74.5700    58.4310    57.2990    44.7200    24.0400     2.2480   -18.0790 
  224.0000    77.0300    54.7130    52.5500    45.1690    23.9850     2.2480   -18.1520 
  224.1250    75.3110    55.6180    52.6540    46.9160    23.9770     2.2510   -18.2310 
  224.2500    72.0500    61.2300    57.8220    45.4090    23.9920     2.2680   -18.3200 
  224.3750    69.5330    72.8990    69.5080    50.1320    24.0110     2.3070   -18.3990 
  224.5000    67.4010    92.6430    89.4310    75.7800    24.0250     2.3650   -18.4810 
  224.6250    64.1100   124.2770   119.8360   132.4110    24.0340     2.4340   -18.5930 
  224.7500    60.1030   164.7680   156.3760   219.6580    24.0560     2.4940   -18.7260 
  224.8750    55.9080   206.4100   192.1840   294.6050    24.0730     2.5310   -18.8630 
  225.0000    54.2340   236.9030   218.4830   347.7370    24.1020     2.5340   -18.9880 
  225.1250    56.6560   243.7340   226.6720   323.8840    24.1940     2.4900   -19.0990 
  225.2500    60.0540   233.1840   220.9960   266.6980    24.2710     2.4160   -19.1830 
  225.3750    62.4360   213.6050   207.0730   228.7560    24.3070     2.3300   -19.2310 
  225.5000    63.0250   191.9920   190.2520   212.0970    24.3360     2.2550   -19.2570 
  225.6250    63.1950   172.4730   174.2360   195.4800    24.4390     2.2110   -19.2570 
  225.7500    62.2470   154.9820   159.7980   163.0830    24.6080     2.1920   -19.2080 
  225.8750    60.8300   137.6150   145.6530   134.0990    24.6510     2.1880   -19.1180 
  226.0000    60.9540   118.3940   129.6930   108.5500    24.5310     2.1940   -19.0120 
  226.1250    63.9220    97.2580   110.3930   115.1860    24.3160     2.2100   -18.8840 
  226.2500    68.3260    77.1940    89.9040   107.3910    24.1350     2.2320   -18.7290 
  226.3750    72.8790    61.0340    71.1160    71.4540    24.0210     2.2570   -18.5730 
  226.5000    76.5080    50.5380    56.4180    37.4110    23.9580     2.2780   -18.4260 
  226.6250    76.9810    46.8910    47.7140    28.2170    23.9390     2.2890   -18.2950 
  226.7500    74.6700    45.9670    44.0000    30.4820    23.9350     2.2890   -18.2130 
  226.8750    72.5630    46.9050    45.0460    37.7760    23.9370     2.2800   -18.1850 
  227.0000    72.5250    50.7650    51.2030    41.3610    23.9410     2.2640   -18.1880 
  227.1250    71.5480    61.6820    64.7590    49.5790    23.9450     2.2420   -18.2630 
  227.2500    67.4620    80.6150    85.7480    92.2670    23.9510     2.2210   -18.4140 
  227.3750    63.2670   106.6520   113.2790   163.7370    23.9610     2.2060   -18.6110 
  227.5000    62.5250   135.5590   143.1910   195.3750    23.9740     2.1990   -18.8350 
  227.6250    64.4160   157.0660   165.9850   182.1840    23.9710     2.2000   -19.1240 
