~V
VERS. 2.00: Ver 2.00
~W
STRT.M 57.0000:
STOP.M 242.0000:
STEP.M 0.1250:
NULL. -999.2500:
UWI. F10636:
~C
DEPT.M :
GR.API :
RML.OHMM :
RI. :
RXO.OHMM :
CALI.CM :
DEN.GM/CC :
SP.MV :
~A
# ...
   90.7500    67.5270    11.1770     9.5960     9.5760    24.2550     2.1610   -19.4600 
   90.8750    70.5670    11.3770     9.6920     9.2250    24.3700     2.1600   -19.5270 
   91.0000    72.2330    11.4080     9.7040     9.1030    24.4680     2.1670   -19.5860 
   91.1250    71.5120    11.2740     9.6580     9.3060    24.4930     2.1780   -19.6250 
   91.2500    68.6290    11.0800     9.5630     9.3760    24.4570     2.1870   -19.6480 
   91.3750    66.3220    10.8780     9.4020     9.3120    24.4200     2.1860   -19.6720 
   91.5000    66.0260    10.6930     9.1780     9.3630    24.4310     2.1750   -19.7040 
   91.6250    65.5930    10.5630     8.9570     9.3700    24.4600     2.1580   -19.7400 
   91.7500    64.3110    10.5420     8.8490     9.2350    24.3830     2.1440   -19.7790 
   91.8750    63.5470    10.6890     8.9350     9.3520    24.1120     2.1340   -19.7990 
   92.0000    63.8000    11.0180     9.2440     9.5440    23.6730     2.1240   -19.8040 
   92.1250    64.7770    11.4750     9.7550    10.5010    23.2520     2.1140   -19.7850 
   92.2500    66.2640    11.9210    10.3190    11.0570    23.0710     2.1070   -19.7200 
   92.3750    66.9920    12.2480    10.8020    11.4070    23.2050     2.1070   -19.5950 
   92.5000    66.4450    12.3490    11.0740    12.4390    23.5540     2.1170   -19.3850 
   92.6250    67.5990    12.0880    11.0040    13.1780    23.8950     2.1330   -19.0780 
   92.7500    72.5200    11.5380    10.6550    12.7540    24.0890     2.1490   -18.6910 
   92.8750    77.7400    10.8420    10.1150    11.2580    24.1510     2.1620   -18.2350 
   93.0000    81.8100    10.1790     9.4830     9.3380    24.1420     2.1720   -17.7220 
   93.1250    85.3350     9.6750     8.8470     8.1840    24.0890     2.1820   -17.1800 
   93.2500    87.3040     9.2620     8.2610     8.0450    24.0040     2.1940   -16.6640 
   93.3750    86.8170     8.8430     7.7550     8.6070    23.9200     2.2100   -16.1610 
   93.5000    85.3630     8.3650     7.3450     8.7680    23.8870     2.2310   -15.6910 
   93.6250    86.3970     7.8890     7.0520     7.7630    23.9320     2.2580   -15.3060 
   93.7500    87.7410     7.5570     6.8630     7.0690    24.0010     2.2860   -15.0180 
   93.8750    86.3330     7.5020     6.8180     6.9320    24.0470     2.3050   -14.8400 
   94.0000    81.7550     7.8310     7.0030     7.1810    24.0430     2.3080   -14.7540 
   94.1250    77.0800     8.6780     7.5960     7.6840    23.9710     2.2980   -14.7390 
   94.2500    75.1530     9.8790     8.5610     8.3050    23.8530     2.2910   -14.7520 
   94.3750    75.5190    11.1100     9.6980     9.0220    23.7310     2.3000   -14.7970 
   94.5000    77.4730    11.8390    10.5840     9.9140    23.6700     2.3220   -14.8600 
   94.6250    81.2680    11.4680    10.6300    10.2260    23.7260     2.3430   -14.9000 
   94.7500    86.3370    10.3350     9.9070     9.8230    23.8440     2.3470   -14.8850 
   94.8750    90.9370     9.0290     8.7950     8.6670    23.9540     2.3340   -14.8250 
   95.0000    92.1830     8.0800     7.7730     7.0550    24.0220     2.3120   -14.7340 
   95.1250    88.5710     7.7970     7.2260     6.9080    24.0470     2.2910   -14.6320 
   95.2500    84.9910     7.9670     7.0970     8.4940    24.0310     2.2740   -14.5400 
   95.3750    84.8660     8.3180     7.1960    10.1770    23.9430     2.2580   -14.4520 
   95.5000    87.7330     8.5380     7.2780    10.1570    23.7630     2.2480   -14.3580 
   95.6250    88.7990     8.3760     7.1310     9.5860    23.5380     2.2520   -14.2700 
   95.7500    87.4420     8.0010     6.8240     9.3520    23.3830     2.2680   -14.2340 
   95.8750    84.2680     7.6930     6.5330     7.7080    23.3630     2.2880   -14.2530 
   96.0000    79.2630     7.6940     6.4330     6.6640    23.4610     2.3040   -14.3180 
   96.1250    73.9770     8.1460     6.6580     7.2610    23.5870     2.3040   -14.4230 
   96.2500    70.3260     8.8720     7.1140     8.7340    23.6610     2.2900   -14.5480 
   96.3750    68.8400     9.6840     7.6880     9.2380    23.6800     2.2660   -14.6860 
   96.5000    68.8510    10.3740     8.2560     9.0470    23.6770     2.2390   -14.8330 
   96.6250    69.1320    10.7340     8.7020     8.9830    23.7090     2.2160   -14.9860 
   96.7500    68.9520    10.8190     9.0180     9.2750    23.7860     2.2010   -15.1120 
   96.8750    68.4970    10.7790     9.2360     9.6900    23.8700     2.1940   -15.1960 
   97.0000    68.9880    10.8150     9.4220    10.0710    23.9010     2.1840   -15.2380 
   97.1250    70.7720    11.1380     9.6970    10.2680    23.8190     2.1620   -15.2370 
   97.2500    71.9390    11.7470    10.1560    10.1920    23.6640     2.1380   -15.2020 
   97.3750    71.9460    12.5410    10.8240    10.0950    23.5100     2.1350   -15.1310 
   97.5000    71.7230    13.2970    11.5920    10.8660    23.4500     2.1710   -15.0390 
   97.6250    73.8060    13.6010    12.1020    13.6500    23.5690     2.2480   -14.9160 
   97.7500    78.7220    13.2380    12.0360    16.3920    23.8060     2.3260   -14.7680 
   97.8750    84.9670    12.2130    11.2900    15.1450    24.0670     2.3730   -14.5980 
   98.0000    90.1000    10.8010    10.0460    11.4320    24.2570     2.3780   -14.4060 
   98.1250    91.5350     9.4440     8.6920     8.6430    24.3200     2.3530   -14.2050 
   98.2500    89.2910     8.4320     7.5740     6.8580    24.3140     2.3260   -14.0230 
   98.3750    85.7110     7.8270     6.8060     6.2880    24.2840     2.3100   -13.8820 
   98.5000    82.8120     7.5720     6.3840     6.7150    24.2410     2.3060   -13.7980 
   98.6250    80.8230     7.6120     6.2910     7.3300    24.1570     2.3090   -13.7990 
   98.7500    78.8540     7.8620     6.4320     7.1450    24.0360     2.3160   -13.8730 
   98.8750    76.8150     8.3190     6.7840     6.5200    23.9160     2.3170   -14.0150 
   99.0000    74.3920     8.9310     7.3010     6.9630    23.8380     2.3060   -14.2030 
   99.1250    72.0500     9.4710     7.8380     9.0260    23.8180     2.2740   -14.3930 
   99.2500    74.9060     9.6410     8.1580    11.1270    23.8340     2.2340   -14.5530 
   99.3750    83.7260     9.3220     8.1060    11.8150    23.8820     2.2010   -14.6710 
   99.5000    90.7180     8.6610     7.6950    10.3870    23.9590     2.1890   -14.7370 
   99.6250    87.5000     8.0240     7.1210     7.6970    24.0290     2.2040   -14.7500 
   99.7500    80.4200     7.6900     6.6800     6.2480    24.0680     2.2270   -14.7260 
   99.8750    77.0280     7.7350     6.5190     6.7270    24.0860     2.2420   -14.6650 
  100.0000    78.6530     8.0970     6.6580     8.8690    24.1130     2.2420   -14.5680 
  100.1250    80.6560     8.6050     7.0000    10.0460    24.1890     2.2320   -14.4320 
  100.2500    79.9110     8.9880     7.3110     9.4290    24.3210     2.2260   -14.2830 
  100.3750    77.7230     9.1020     7.4470     7.8580    24.4730     2.2340   -14.1340 
  100.5000    78.4480     8.9540     7.3660     6.8420    24.5700     2.2500   -13.9910 
  100.6250    83.9530     8.6640     7.1240     7.0010    24.5270     2.2670   -13.8560 
  100.7500    89.0860     8.3860     6.8640     7.1440    24.3860     2.2770   -13.7050 
  100.8750    91.8960     8.1520     6.6570     7.0090    24.2190     2.2820   -13.5270 
  101.0000    93.8760     7.9510     6.5220     6.7320    24.0830     2.2910   -13.3460 
  101.1250    94.8750     7.8010     6.4460     6.5310    24.0100     2.3100   -13.2290 
  101.2500    91.7390     7.7420     6.3910     6.6670    23.9880     2.3340   -13.1580 
  101.3750    85.6950     7.7950     6.3390     7.1290    24.0130     2.3550   -13.1190 
  101.5000    82.4750     7.9120     6.2850     6.7090    24.0700     2.3640   -13.1040 
  101.6250    84.1780     8.0000     6.2360     6.5960    24.1150     2.3600   -13.1050 
  101.7500    85.6650     8.0040     6.1930     6.8400    24.1080     2.3480   -13.1390 
  101.8750    86.2390     7.9210     6.1520     7.0450    24.0600     2.3340   -13.2190 
