~V
VERS. 2.00: Ver 2.00
~W
STRT.M 55.0000:
STOP.M 213.0000:
STEP.M 0.1250:
NULL. -999.2500:
UWI. F10686:
~C
DEPT.M :
SP.MV :
DEN.GM/CC :
GR.API :
RML.OHMM :
RI. :
RXO.OHMM :
CALI.CM :
~A
   55.0000   105.5180     2.6440    32.9380     0.2420     0.1320     1.1580    24.9120 
   55.1250   106.2510     2.6700    32.2150     0.2550     0.1440     1.0020    24.7480 
   55.2500   106.8920     2.6500    33.2220     0.2390     0.1580     0.8360    24.6360 
   55.3750   107.3000     2.6000    35.0040     0.2210     0.1710     0.7690    24.6750 
   55.5000   107.4670     2.5350    35.9220     0.2290     0.1800     0.7960    24.7650 
   55.6250   107.4030     2.4680    34.6600     0.2710     0.1850     0.7720    24.7670 
   55.7500   107.1410     2.4020    32.5370     0.3100     0.1850     0.7230    24.7520 
   55.8750   106.6460     2.3390    31.1350     0.3200     0.1820     0.7150    24.8480 
   56.0000   105.8150     2.2840    32.4610     0.3010     0.1780     0.7730    25.0340 
   56.1250   104.6910     2.2390    35.0690     0.2610     0.1760     0.8920    25.2410 
   56.2500   103.4870     2.2050    36.3660     0.2130     0.1790     0.9600    25.3200 
   56.3750   102.3250     2.1770    36.5250     0.1640     0.1840     0.9630    25.3330 
   56.5000   101.2880     2.1460    36.9970     0.1230     0.1910     0.9550    25.3350 
   56.6250   100.3670     2.1080    37.7490     0.1030     0.1970     0.9660    25.3350 
   56.7500    99.6130     2.0660    37.8670     0.1040     0.2000     0.9910    25.3350 
   56.8750    99.1300     2.0290    38.0120     0.1170     0.1990     1.0350    25.3350 
   57.0000    99.0310     2.0050    38.3720     0.1260     0.1960     1.0790    25.3350 
   57.1250    99.2760     2.0030    39.2880     0.1200     0.1920     1.1030    25.3350 
   57.2500    99.7520     2.0170    40.4300     0.1080     0.1890     1.0770    25.3350 
   57.3750   100.4710     2.0340    40.5440     0.1000     0.1870     1.0810    25.3350 
   57.5000   101.4930     2.0430    39.0230     0.0930     0.1840     1.1200    25.3350 
   57.6250   102.9350     2.0350    38.6300     0.0860     0.1790     1.1630    25.3350 
   57.7500   104.6740     2.0170    40.2970     0.0840     0.1730     1.1740    25.3330 
   57.8750   106.6000     1.9990    42.2250     0.0950     0.1700     1.1480    25.3270 
   58.0000   108.6420     1.9890    42.9560     0.1220     0.1720     1.0540    25.2670 
   58.1250   110.8970     1.9910    42.9760     0.1650     0.1810     0.9290    25.0990 
   58.2500   113.4370     2.0030    44.0660     0.1990     0.1930     0.9300    24.5910 
   58.3750   116.2880     2.0220    46.1330     0.2090     0.2050     1.1680    23.8550 
   58.5000   119.4040     2.0490    47.2910     0.1900     0.2120     1.6050    22.9680 
   58.6250   122.8970     2.0810    47.1180     0.1490     0.2140     1.9030    22.5830 
   58.7500   126.6890     2.1100    47.2170     0.1130     0.2120     2.0780    22.4450 
   58.8750   130.6690     2.1290    47.9690     0.1000     0.2070     2.2510    22.4260 
   59.0000   134.5610     2.1340    46.9550     0.1160     0.2030     2.3550    22.4310 
   59.1250   138.0540     2.1240    44.2210     0.1500     0.1960     2.3090    22.4640 
   59.2500   140.9060     2.1050    44.1700     0.1690     0.1830     2.1940    22.5030 
   59.3750   142.8660     2.0900    47.0110     0.1530     0.1600     2.0830    22.5080 
   59.5000   143.6870     2.0930    49.2470     0.1030     0.1270     1.9540    22.5260 
   59.6250   142.8390     2.1430    48.7070     0.0510     0.0930     1.8020    22.6510 
   59.7500   140.3100     2.2400    47.5820     0.0220     0.0660     1.5930    22.7590 
   59.8750   135.9450     2.3640    47.8920     0.0160     0.0520     1.3130    22.7610 
   60.0000   129.6880     2.4710    50.1380     0.0260     0.0530     1.0560    22.5180 
   60.1250   121.1300     2.5000    53.9450     0.0690     0.0970     1.2400    22.3560 
   60.2500   110.9230     2.4560    57.7680     0.1790     0.2330     2.3410    22.1610 
   60.3750    99.7700     2.3600    60.4110     0.4390     0.5690     4.9070    21.9290 
   60.5000    88.3570     2.2480    62.5860     1.0170     1.3020     7.0970    21.7570 
   60.6250    77.3010     2.1660    61.3970     2.3620     2.8900     8.0470    21.7280 
   60.7500    66.9500     2.1330    55.4940     4.6040     5.4410     8.8720    21.7230 
   60.8750    57.5830     2.1500    48.8970     7.3530     8.6780     9.6060    21.7200 
   61.0000    49.5710     2.1960    47.1100     9.7960    11.9120    10.0220    21.7060 
   61.1250    43.5260     2.2380    49.5030    11.4320    14.4090    10.0660    21.6650 
   61.2500    39.0920     2.2520    50.2970    12.4770    16.0930     9.9850    21.6560 
   61.3750    35.7660     2.2360    50.1590    13.0180    17.0120     9.8390    21.6410 
   61.5000    32.9950     2.2050    52.1130    13.1920    17.3410     9.7080    21.5810 
   61.6250    30.4090     2.1750    55.2710    13.2310    17.3330     9.4800    21.5540 
   61.7500    27.8390     2.1530    56.4850    13.3280    17.2660     9.2250    21.4930 
   61.8750    25.3370     2.1360    54.7940    13.5100    17.2090     8.9440    21.3840 
   62.0000    22.9570     2.1210    50.3130    13.7090    17.1410     8.6310    21.1990 
   62.1250    20.7430     2.1110    45.8060    13.8260    16.9810     8.3170    21.1010 
   62.2500    18.6550     2.1070    45.5560    13.8320    16.6920     8.0450    21.0430 
   62.3750    16.6900     2.1110    50.5350    13.7190    16.2670     7.7970    20.9520 
   62.5000    14.8590     2.1220    57.3500    13.4810    15.7280     7.6210    20.8450 
   62.6250    13.2070     2.1310    61.5920    13.1370    15.1450     7.5260    20.6100 
   62.7500    11.7020     2.1290    63.8900    12.8210    14.6420     7.4570    20.2520 
   62.8750    10.3430     2.1150    63.9090    12.7250    14.3740     7.3590    19.7510 
   63.0000     9.1180     2.1000    62.4220    13.0710    14.5520     7.2590    19.4550 
   63.1250     7.9720     2.1140    61.7420    14.1090    15.4810     7.2410    19.5100 
   63.2500     6.8540     2.1720    62.9820    15.6090    16.9670     7.3990    19.7710 
   63.3750     5.7450     2.2670    62.6890    17.0430    18.5010     7.9180    19.8720 
   63.5000     4.6400     2.3700    59.3710    17.5180    19.2010     9.4570    19.7620 
   63.6250     3.5160     2.4300    59.3380    16.0320    17.9870    12.2320    19.7020 
   63.7500     2.4460     2.4260    64.5340    13.3580    15.3990    12.8210    19.6900 
   63.8750     1.4500     2.3710    69.4000    10.6150    12.4510     9.9700    19.6850 
   64.0000     0.4730     2.2950    69.0290     8.5490     9.9840     7.9860    19.6760 
   64.1250    -0.4040     2.2450    65.7110     7.4420     8.4380     7.2540    19.6250 
   64.2500    -1.1470     2.2390    65.4440     6.9920     7.6150     6.8010    19.6300 
   64.3750    -1.7890     2.2710    66.6620     6.9920     7.3540     6.4980    19.6270 
   64.5000    -2.3390     2.3140    66.2410     7.2170     7.4550     6.3040    19.4180 
   64.6250    -2.7170     2.3340    64.7730     7.4400     7.6910     6.0890    19.3850 
   64.7500    -3.0130     2.3250    64.3290     7.5350     7.8600     5.9050    19.4280 
   64.8750    -3.2810     2.2970    65.3540     7.5070     7.9070     5.9560    19.7160 
   65.0000    -3.4970     2.2680    67.3760     7.4280     7.8660     6.1640    20.4200 
   65.1250    -3.6690     2.2510    68.6680     7.4110     7.8380     6.3200    21.0830 
   65.2500    -3.8680     2.2480    67.4850     7.5250     7.9130     6.3030    21.4330 
   65.3750    -4.0500     2.2600    64.8340     7.7820     8.1090     6.2700    21.6360 
   65.5000    -4.1790     2.2800    63.8900     8.1250     8.3800     6.5010    22.0510 
   65.6250    -4.3550     2.2970    63.2960     8.4090     8.5960     7.0810    22.1380 
   65.7500    -4.5590     2.3010    62.2120     8.4830     8.6250     7.3110    21.9750 
   65.8750    -4.7360     2.2910    61.4520     8.2800     8.4010     6.6560    21.9300 
   66.0000    -4.9280     2.2770    60.0680     7.8580     7.9620     6.1820    22.1070 
   66.1250    -5.1240     2.2700    59.4250     7.3850     7.4420     6.1440    22.5260 
