~V
VERS. 2.00: Ver 2.00
~W
STRT.M 59.0000:
STOP.M 270.0000:
STEP.M 0.1250:
NULL. -999.2500:
UWI. F10667:
~C
DEPT.M :
GR.API :
RML.OHMM :
RI. :
RXO.OHMM :
CALI.CM :
DEN.GM/CC :
SP.MV :
~A
# ...
   81.5000    78.3290     7.5070     6.2460    10.0190    24.1550     2.2840   -15.6070 
   81.6250    77.0980     7.8220     6.5520     8.1870    24.0880     2.2630   -15.9350 
   81.7500    76.7290     8.0240     6.7350     6.9900    24.0350     2.2420   -16.2540 
   81.8750    77.1540     8.1540     6.8190     6.6180    23.9840     2.2260   -16.5540 
   82.0000    77.3160     8.2680     6.8470     7.1110    23.9300     2.2160   -16.8400 
   82.1250    77.5200     8.3810     6.8590     7.5940    23.9140     2.2130   -17.0640 
   82.2500    77.7820     8.4370     6.8640     7.8920    23.9180     2.2140   -17.2210 
   82.3750    78.9090     8.3580     6.8330     7.7520    23.9390     2.2180   -17.3370 
   82.5000    81.7900     8.0900     6.7270     7.6600    23.9790     2.2250   -17.3890 
   82.6250    84.1380     7.6090     6.4980     7.3970    24.0540     2.2350   -17.3260 
   82.7500    84.2530     7.0330     6.1740     6.7870    24.0970     2.2450   -17.2360 
   82.8750    84.8120     6.4900     5.8120     6.2610    24.0910     2.2580   -17.1870 
   83.0000    88.8840     6.1230     5.5000     6.2180    24.0470     2.2760   -17.1810 
   83.1250    91.9980     6.1030     5.3570     5.8900    24.0370     2.3010   -17.2320 
   83.2500    90.0260     6.4290     5.4190     5.5020    24.0510     2.3240   -17.4320 
   83.3750    86.0180     7.0580     5.6890     6.0080    24.0570     2.3360   -17.8190 
   83.5000    83.8460     7.8600     6.1130     7.8790    24.0430     2.3300   -18.3470 
   83.6250    82.7760     8.5970     6.5830     8.3500    24.0330     2.3080   -19.0370 
   83.7500    78.9590     9.0630     6.9650     7.9610    24.1700     2.2790   -19.8120 
   83.8750    73.3150     9.1790     7.1970     7.6460    24.4530     2.2500   -20.6100 
   84.0000    69.0510     9.0030     7.2820     7.8320    24.7520     2.2230   -21.4050 
   84.1250    65.8390     8.6960     7.2690     8.2970    24.9130     2.1980   -22.1560 
   84.2500    61.9540     8.4360     7.2360     8.4380    24.8850     2.1750   -22.8120 
   84.3750    58.0540     8.2870     7.2030     8.3500    24.7350     2.1590   -23.3350 
   84.5000    56.0570     8.2560     7.1730     8.2410    24.5910     2.1520   -23.7490 
   84.6250    57.3300     8.3490     7.1530     8.0380    24.5390     2.1530   -24.0050 
   84.7500    60.1830     8.5390     7.1590     7.9160    24.5170     2.1610   -24.1270 
   84.8750    64.3520     8.7990     7.1960     7.9310    24.4780     2.1720   -24.1620 
   85.0000    68.0320     9.0660     7.2570     8.0000    24.4080     2.1830   -24.1150 
   85.1250    71.0660     9.2300     7.3180     8.0090    24.3310     2.1900   -24.0370 
   85.2500    73.3830     9.2400     7.3540     7.9310    24.2620     2.1890   -23.9440 
   85.3750    72.8090     9.1100     7.3610     7.8450    24.2170     2.1830   -23.8100 
   85.5000    69.9140     8.9210     7.3490     7.6900    24.1900     2.1780   -23.6270 
   85.6250    68.6470     8.7960     7.3510     7.7460    24.1740     2.1790   -23.4690 
   85.7500    69.3930     8.8030     7.3880     7.8580    24.1520     2.1870   -23.3580 
   85.8750    69.3540     8.9470     7.4630     8.1550    24.1260     2.1980   -23.2470 
   86.0000    67.6610     9.1810     7.5610     8.5410    24.0870     2.2050   -23.1380 
   86.1250    67.7700     9.4180     7.6490     8.7660    24.0590     2.2020   -23.0410 
   86.2500    71.1440     9.5770     7.6980     8.7620    24.0130     2.1920   -22.9400 
   86.3750    74.4120     9.6250     7.6970     8.5530    23.9340     2.1790   -22.8300 
   86.5000    74.2930     9.5690     7.6500     8.2350    23.8150     2.1690   -22.7720 
   86.6250    71.2880     9.4380     7.5710     7.7750    23.6530     2.1630   -22.7540 
   86.7500    69.6670     9.2830     7.4900     7.4220    23.4860     2.1600   -22.7140 
   86.8750    69.9800     9.1190     7.4190     7.2800    23.3440     2.1560   -22.6700 
   87.0000    70.5690     8.9450     7.3540     7.2830    23.2350     2.1510   -22.6680 
   87.1250    71.2290     8.7640     7.2800     7.4170    23.1640     2.1450   -22.6960 
   87.2500    70.6400     8.6020     7.1960     7.6070    23.1220     2.1430   -22.7200 
   87.3750    68.6830     8.5030     7.1200     7.7240    23.1090     2.1470   -22.7900 
   87.5000    68.2690     8.5080     7.0800     7.6520    23.1500     2.1560   -22.8820 
   87.6250    71.2540     8.6580     7.1060     7.6020    23.3300     2.1640   -22.9340 
   87.7500    73.1380     8.9010     7.1860     7.8070    23.6260     2.1660   -22.9890 
   87.8750    71.8190     9.1640     7.2970     8.1660    23.9420     2.1590   -23.0570 
   88.0000    69.7090     9.3610     7.4080     8.4600    24.1590     2.1460   -23.0770 
   88.1250    68.7750     9.4040     7.4770     8.5020    24.2330     2.1350   -22.9550 
   88.2500    68.0040     9.3140     7.4970     8.4150    24.1990     2.1330   -22.7600 
   88.3750    67.3570     9.1510     7.4730     8.2540    24.1220     2.1420   -22.4960 
   88.5000    66.4530     8.9800     7.4240     8.0220    24.0740     2.1590   -22.1010 
   88.6250    65.9670     8.8310     7.3500     7.9430    24.0990     2.1790   -21.5820 
   88.7500    65.8120     8.6590     7.2260     8.0100    24.0980     2.1940   -20.9470 
   88.8750    66.2790     8.4140     7.0260     8.1520    24.0440     2.1980   -20.1390 
   89.0000    68.2440     8.1130     6.7630     8.0440    23.9050     2.1900   -19.2260 
   89.1250    73.7710     7.9100     6.5430     7.5510    23.7760     2.1790   -18.3090 
   89.2500    80.9970     7.9970     6.5220     6.9230    23.6720     2.1910   -17.3770 
   89.3750    85.9700     8.5150     6.8190     6.4560    23.5430     2.2440   -16.4440 
   89.5000    85.9250     9.4690     7.4670     6.5950    23.3180     2.3350   -15.6070 
   89.6250    81.3390    10.6000     8.3360     7.9530    23.0950     2.4360   -14.9540 
   89.7500    79.1740    11.3130     9.0270    10.0950    23.0110     2.5020   -14.4680 
   89.8750    83.6960    11.1360     9.1890    11.2190    23.0140     2.5090   -14.1850 
   90.0000    92.6180    10.0150     8.6780     9.6200    23.0470     2.4620   -14.0870 
   90.1250    98.4810     8.4350     7.6440     7.0660    23.1040     2.3840   -14.2090 
   90.2500    99.9160     7.1320     6.5760     5.6650    23.1910     2.3120   -14.4870 
   90.3750    99.1810     6.4140     5.7560     5.4410    23.3060     2.2590   -14.8470 
   90.5000    95.6090     6.3120     5.3140     5.3770    23.4560     2.2250   -15.2710 
   90.6250    87.2310     6.7550     5.3210     5.8760    23.5860     2.1940   -15.7150 
   90.7500    77.9740     7.4550     5.6380     6.5840    23.6630     2.1580   -16.1100 
   90.8750    71.9530     8.2210     6.1560     7.1200    23.7380     2.1280   -16.4140 
   91.0000    71.3850     8.8870     6.7450     7.5180    23.8960     2.1250   -16.5950 
   91.1250    74.5650     9.2620     7.2410     8.0240    24.1050     2.1680   -16.5760 
   91.2500    78.0140     9.3000     7.5250     8.2210    24.1330     2.2340   -16.3820 
   91.3750    81.1770     9.0070     7.5350     7.8810    23.9690     2.2910   -16.1100 
   91.5000    84.7340     8.4910     7.2860     7.1070    23.7350     2.3120   -15.7530 
   91.6250    88.5450     7.9540     6.8690     6.4100    23.6030     2.2900   -15.2950 
   91.7500    89.5520     7.5710     6.4540     6.0330    23.5430     2.2530   -14.8190 
   91.8750    88.0710     7.3870     6.1310     6.0000    23.4970     2.2230   -14.4070 
   92.0000    87.8350     7.3570     5.9360     6.1720    23.4300     2.2100   -14.0750 
   92.1250    89.9950     7.3740     5.8590     6.2480    23.3550     2.2120   -13.8050 
   92.2500    91.2490     7.3270     5.8280     6.1430    23.3240     2.2190   -13.6050 
   92.3750    91.8750     7.1800     5.7940     5.8820    23.3240     2.2270   -13.4510 
   92.5000    93.7020     6.9520     5.7320     5.6560    23.3340     2.2350   -13.2930 
   92.6250    96.8090     6.7130     5.6370     5.4570    23.3650     2.2440   -13.1290 
