~V
VERS. 2.00: Ver 2.00
~W
STRT.M 55.0000:
STOP.M 253.0000:
STEP.M 0.1250:
NULL. -999.2500:
UWI. F10665:
~C
DEPT.M :
SP.MV :
DEN.GM/CC :
GR.API :
RML.OHMM :
RI. :
RXO.OHMM :
CALI.CM :
~A
# ...
   77.5000   -23.6960     2.5810    53.4850    31.4930    23.4580    77.0090    23.9330 
   77.6250   -23.5730     2.4370    61.9130    23.9010    18.7750    44.0320    23.9570 
   77.7500   -23.4460     2.2910    68.0710    16.7160    13.7550    21.9110    23.9850 
   77.8750   -23.2960     2.1670    67.2200    11.9770    10.0590    12.7510    24.0160 
   78.0000   -23.0740     2.0870    61.6760     9.6370     7.8930    10.2380    24.0620 
   78.1250   -22.7440     2.0760    57.4210     9.4600     7.2160    10.3290    24.1600 
   78.2500   -22.2800     2.1320    56.4430    11.0290     7.7590    11.9820    24.2100 
   78.3750   -21.7070     2.2520    57.0910    14.7040     9.8070    18.3820    24.0660 
   78.5000   -21.0290     2.4100    56.9010    21.0560    13.9440    38.1130    23.9390 
   78.6250   -20.3030     2.5480    53.3800    30.8120    21.2900    72.8640    23.9900 
   78.7500   -19.5730     2.6360    49.8240    41.8820    30.8070    87.7560    24.0420 
   78.8750   -18.8710     2.6930    49.0830    50.0740    39.4180    81.3200    24.0450 
   79.0000   -18.2210     2.7340    50.3930    50.5430    42.5130    75.6970    24.0360 
   79.1250   -17.6290     2.7140    51.8690    41.9210    37.2050    72.9600    24.0430 
   79.2500   -17.0890     2.6320    52.8550    30.8550    28.4510    62.5310    24.0480 
   79.3750   -16.5720     2.5100    55.1970    21.2740    20.0840    43.6400    24.0330 
   79.5000   -16.0790     2.3800    60.4790    14.4850    13.7810    25.1250    24.0050 
   79.6250   -15.6120     2.2740    69.6770    10.5890     9.8890    14.5150    23.9980 
   79.7500   -15.1850     2.2070    77.6230     8.4140     7.5030     9.3100    23.9870 
   79.8750   -14.7940     2.1860    80.6930     7.3560     6.1600     7.0510    23.9610 
   80.0000   -14.4310     2.2020    80.7730     6.9450     5.4960     6.5020    23.8970 
   80.1250   -14.1240     2.2410    84.6190     6.8370     5.2600     6.5380    23.8500 
   80.2500   -13.8760     2.2810    91.2380     6.7460     5.1650     6.2390    23.8550 
   80.3750   -13.7460     2.3090    96.6480     6.5800     5.0990     5.7870    23.8900 
   80.5000   -13.7050     2.3180   100.6440     6.3520     5.0210     5.2710    23.9400 
   80.6250   -13.7800     2.3150   100.2860     6.1490     4.9510     4.9480    23.9870 
   80.7500   -13.9150     2.3140    97.2180     6.0370     4.9210     4.9310    24.0180 
   80.8750   -14.1020     2.3180    95.1730     6.0290     4.9420     5.2570    24.0430 
   81.0000   -14.3270     2.3220    95.5010     6.1050     5.0030     5.6720    24.0800 
   81.1250   -14.5820     2.3180    93.3600     6.2490     5.0960     5.7490    24.0980 
   81.2500   -14.8310     2.3070    88.0860     6.4480     5.2150     5.8160    24.1100 
   81.3750   -15.0380     2.2910    84.5270     6.7000     5.3620     6.2170    24.1110 
   81.5000   -15.2180     2.2730    83.4350     6.9790     5.5300     6.4470    24.0750 
   81.6250   -15.3130     2.2580    82.1550     7.2090     5.6800     6.6040    24.0590 
   81.7500   -15.3530     2.2510    80.9350     7.3020     5.7530     6.9320    24.0450 
   81.8750   -15.3470     2.2570    80.7310     7.2060     5.7050     7.3010    24.0320 
   82.0000   -15.3040     2.2760    82.2840     6.9550     5.5380     6.9040    24.0240 
   82.1250   -15.2400     2.2950    85.3210     6.6730     5.3220     6.2600    24.0260 
   82.2500   -15.1760     2.2980    87.8900     6.5020     5.1610     5.9020    24.0410 
   82.3750   -15.1250     2.2820    86.5460     6.5140     5.1160     5.7940    24.0730 
   82.5000   -15.0660     2.2530    82.3890     6.7270     5.2170     6.0230    24.0920 
   82.6250   -15.0290     2.2250    79.1820     7.1050     5.4680     6.9380    24.0780 
   82.7500   -14.9990     2.2040    77.5860     7.5060     5.7800     7.5210    24.0630 
   82.8750   -14.9910     2.1940    75.2350     7.8190     6.0700     7.5410    24.0580 
   83.0000   -14.9870     2.1930    71.3090     7.9790     6.2730     7.4700    24.0620 
   83.1250   -14.9840     2.1980    70.4460     7.9680     6.3380     7.4700    24.0430 
   83.2500   -14.9930     2.2060    72.6790     7.8640     6.2970     7.4330    24.0240 
   83.3750   -15.0160     2.2140    76.3240     7.7100     6.1770     6.9540    24.0310 
   83.5000   -15.0660     2.2230    79.5960     7.5310     6.0070     6.6010    24.0850 
   83.6250   -15.1220     2.2380    83.5830     7.3480     5.8170     6.5520    24.1560 
   83.7500   -15.2220     2.2590    87.3330     7.2050     5.6470     6.4350    24.1430 
   83.8750   -15.3250     2.2830    88.2590     7.1520     5.5330     6.2150    24.0830 
   84.0000   -15.4810     2.3000    84.4420     7.2300     5.5060     6.3500    24.0610 
   84.1250   -15.6490     2.2960    77.0720     7.4640     5.5960     6.7780    24.0790 
   84.2500   -15.8560     2.2690    71.7080     7.7840     5.7690     7.1630    24.0750 
   84.3750   -16.0460     2.2250    69.9420     8.1330     5.9970     7.6360    24.0290 
   84.5000   -16.2260     2.1740    68.4670     8.5090     6.2790     8.3970    23.9730 
   84.6250   -16.3770     2.1380    65.5520     9.1070     6.7200     9.2600    23.9340 
   84.7500   -16.4910     2.1420    64.4570    10.2480     7.4920    10.1010    23.9140 
   84.8750   -16.5780     2.2090    65.9140    12.3060     8.8540    11.4470    23.9340 
   85.0000   -16.6220     2.3470    65.4720    15.5390    11.0740    14.9110    23.9610 
   85.1250   -16.6350     2.5190    60.2200    19.8970    14.3960    24.2240    23.9770 
   85.2500   -16.5980     2.6180    54.5190    24.0640    18.0520    37.8990    23.9960 
   85.3750   -16.5380     2.5910    52.0710    26.2660    20.6190    49.8830    24.0080 
   85.5000   -16.4270     2.4740    51.8010    25.2410    20.6900    47.8790    23.9880 
   85.6250   -16.3030     2.3320    52.0810    21.3940    18.1140    31.7880    23.9710 
   85.7500   -16.1250     2.2120    53.4580    17.1590    14.8410    18.7820    23.9720 
   85.8750   -15.9330     2.1450    57.1700    13.6500    11.8900    13.3070    23.9850 
   86.0000   -15.7310     2.1380    62.9570    11.0750     9.5680    11.5330    23.9800 
   86.1250   -15.5770     2.1830    69.5960     9.3290     7.9050     9.9150    23.9840 
   86.2500   -15.4810     2.2420    77.0890     8.1190     6.7130     7.8450    24.0020 
   86.3750   -15.4310     2.2940    84.3160     7.4310     5.9690     6.6820    24.0180 
   86.5000   -15.4990     2.3230    89.3630     7.3270     5.6870     6.4840    24.0240 
   86.6250   -15.6520     2.3170    89.8690     8.0200     5.9990     6.3590    24.0270 
   86.7500   -15.9080     2.2800    84.5540     9.4600     6.8720     7.2470    24.0110 
   86.8750   -16.2380     2.2250    74.8040    11.5480     8.2990    10.2280    23.9330 
   87.0000   -16.6040     2.1700    65.2660    13.9380    10.1260    13.5870    23.7790 
   87.1250   -16.9790     2.1360    60.9830    15.9130    11.9120    14.8180    23.5690 
   87.2500   -17.2970     2.1260    59.3270    17.0070    13.1640    14.5320    23.4080 
   87.3750   -17.5870     2.1340    57.4790    17.2300    13.7290    14.1370    23.3280 
   87.5000   -17.8000     2.1500    56.0220    16.9870    13.8020    14.0340    23.3220 
   87.6250   -17.9600     2.1640    57.5090    16.7940    13.7320    13.9870    23.3350 
   87.7500   -18.0720     2.1710    60.3260    16.8630    13.7550    13.7920    23.3480 
   87.8750   -18.1370     2.1690    61.3180    17.1420    13.8850    13.9380    23.3400 
   88.0000   -18.1790     2.1590    60.4240    17.5030    14.0600    14.2780    23.2660 
   88.1250   -18.1970     2.1450    59.2000    17.8060    14.2020    14.5440    23.2000 
   88.2500   -18.1910     2.1340    56.8420    17.9750    14.2680    14.6560    23.2800 
   88.3750   -18.1990     2.1280    53.8330    18.0030    14.2490    14.6870    23.5350 
   88.5000   -18.2090     2.1260    53.6220    17.9240    14.1610    14.6520    23.8460 
   88.6250   -18.2020     2.1260    57.9830    17.7740    14.0260    14.7200    23.9770 
