~V
VERS. 2.00: Ver 2.00
~W
STRT.M 50.0000:
STOP.M 209.0000:
STEP.M 0.1250:
NULL. -999.2500:
UWI. F10692:
~C
DEPT.M :
DEN.GM/CC :
GR.API :
RML.OHMM :
RI. :
RXO.OHMM :
CALI.CM :
SP.MV :
~A
# ...
  140.0000     2.5600    45.8640    29.0930    29.2500    27.3760    25.2060   -19.4910 
  140.1250     2.5860    46.9880    28.5200    28.6980    26.8660    25.2390   -19.5840 
  140.2500     2.6080    45.0340    27.8120    27.9570    26.8830    25.2530   -19.6660 
  140.3750     2.6150    41.7110    27.2250    27.2750    27.2990    25.2560   -19.7180 
  140.5000     2.6120    40.4510    27.0690    26.9600    26.0280    25.2560   -19.7320 
  140.6250     2.6150    41.6380    27.6290    27.3190    23.5880    25.2560   -19.7150 
  140.7500     2.6270    41.4150    28.6460    28.1750    24.8620    25.2560   -19.6820 
  140.8750     2.6360    41.6060    29.6580    29.1490    29.4320    25.2560   -19.6290 
  141.0000     2.6270    44.2470    30.0670    29.6760    33.4420    25.2560   -19.5360 
  141.1250     2.6060    47.7380    29.2940    29.1260    29.9500    25.2560   -19.3750 
  141.2500     2.5920    49.4000    27.6990    27.7270    25.3150    25.2560   -19.1530 
  141.3750     2.5840    49.4480    25.8920    25.9940    22.4260    25.2560   -18.8890 
  141.5000     2.5780    48.8920    24.5080    24.5140    21.1010    25.2550   -18.6050 
  141.6250     2.5700    47.6400    24.0660    23.8110    21.1670    25.2420   -18.3280 
  141.7500     2.5700    46.9150    24.3850    23.8220    22.3670    25.2140   -18.0780 
  141.8750     2.5810    47.0810    25.1590    24.3230    22.9860    25.1870   -17.8750 
  142.0000     2.5980    46.2580    25.9980    24.9700    24.0940    25.1750   -17.7350 
  142.1250     2.6100    43.5140    26.4690    25.3620    25.6840    25.1730   -17.6820 
  142.2500     2.6110    41.5700    26.4190    25.3260    25.4410    25.1520   -17.7000 
  142.3750     2.6040    41.1450    25.8460    24.8450    23.5770    25.0820   -17.7660 
  142.5000     2.5990    41.1590    24.8670    24.0140    21.7540    24.9520   -17.8510 
  142.6250     2.6030    40.6690    23.6720    22.9870    20.9110    24.7790   -17.9180 
  142.7500     2.6100    41.0550    22.5320    21.9940    20.1590    24.6890   -17.9430 
  142.8750     2.6110    43.2610    21.6230    21.1930    19.1570    24.7120   -17.9210 
  143.0000     2.6080    45.4920    21.0670    20.6880    17.7940    24.8400   -17.8550 
  143.1250     2.6040    45.6460    20.9270    20.5370    17.7910    25.0260   -17.7480 
  143.2500     2.6060    44.1930    20.9600    20.5210    18.9550    25.1980   -17.6090 
  143.3750     2.6090    43.7380    20.8620    20.3730    19.8300    25.2930   -17.4360 
  143.5000     2.6090    45.6240    20.3370    19.8240    19.4540    25.3230   -17.2330 
  143.6250     2.6030    45.4320    19.1680    18.6910    18.0170    25.3250   -17.0180 
  143.7500     2.5870    41.4460    17.6410    17.2570    15.5320    25.3270   -16.8220 
  143.8750     2.5570    38.0690    16.1020    15.8400    13.6360    25.3360   -16.6650 
  144.0000     2.5240    39.6360    14.8530    14.6940    13.3400    25.3580   -16.5520 
  144.1250     2.5100    42.8920    14.0850    13.9830    13.7750    25.3860   -16.4930 
  144.2500     2.5160    43.1430    13.6530    13.5820    14.2760    25.4230   -16.4750 
  144.3750     2.5260    42.4840    13.4510    13.4030    14.8250    25.4390   -16.4990 
  144.5000     2.5340    44.4470    13.4580    13.4180    14.6280    25.4150   -16.5640 
  144.6250     2.5410    46.7590    13.8160    13.7440    14.4950    25.3700   -16.6630 
  144.7500     2.5530    45.1990    14.5930    14.4460    14.7290    25.2960   -16.7790 
  144.8750     2.5660    41.6040    15.8020    15.5730    15.6150    25.2060   -16.9010 
  145.0000     2.5700    40.1680    17.2880    17.0460    18.5360    25.1390   -17.0160 
  145.1250     2.5520    42.8720    18.5680    18.4940    22.4250    25.1170   -17.1100 
  145.2500     2.5260    45.9510    19.0960    19.2980    22.6050    25.1080   -17.1780 
  145.3750     2.5070    45.8380    18.5820    19.0330    20.0280    25.1050   -17.2290 
  145.5000     2.4920    42.7330    17.1570    17.7290    17.7860    25.1020   -17.2840 
  145.6250     2.4660    40.1420    15.3310    15.8710    15.7620    25.1010   -17.3670 
  145.7500     2.4400    40.6600    13.7670    14.1650    13.4570    25.1000   -17.4810 
  145.8750     2.4300    42.8450    12.7530    12.9160    11.6670    25.0930   -17.6230 
  146.0000     2.4420    44.0900    12.3370    12.2000    11.1810    25.0740   -17.7860 
  146.1250     2.4650    43.8570    12.4800    12.0230    11.9140    25.0410   -17.9740 
  146.2500     2.4780    43.5470    12.9170    12.1810    12.8280    25.0030   -18.1830 
  146.3750     2.4750    44.0130    13.4730    12.5410    13.0990    24.9470   -18.4060 
  146.5000     2.4650    45.6920    14.0220    12.9850    13.3190    24.9350   -18.6280 
  146.6250     2.4540    48.1180    14.5400    13.4530    14.0360    25.1120   -18.8220 
  146.7500     2.4420    50.1180    15.1460    13.9910    14.9980    25.2990   -18.9750 
  146.8750     2.4320    51.5360    16.0050    14.7140    15.4440    25.3820   -19.0810 
  147.0000     2.4300    52.2110    17.2730    15.7570    15.3220    25.3940   -19.1420 
  147.1250     2.4470    52.7050    19.0420    17.2540    16.0590    25.3940   -19.1610 
  147.2500     2.4750    54.1950    20.9910    18.9860    18.4070    25.3940   -19.1580 
  147.3750     2.5030    56.7010    22.6360    20.5490    21.3720    25.3940   -19.1390 
  147.5000     2.5120    58.6520    23.3950    21.3820    23.2220    25.3930   -19.1080 
  147.6250     2.4980    57.8000    22.7160    20.8980    22.0700    25.3540   -19.0600 
  147.7500     2.4810    55.4720    21.1390    19.5260    18.7040    25.2550   -18.9930 
  147.8750     2.4740    53.3510    19.3940    17.8930    15.5490    25.1510   -18.9080 
  148.0000     2.4730    52.5160    18.1400    16.5790    13.5890    25.2100   -18.8090 
  148.1250     2.4730    52.8340    17.8260    16.0030    12.9850    25.3460   -18.6990 
  148.2500     2.4720    52.7600    18.2120    16.0520    13.6620    25.5080   -18.5820 
  148.3750     2.4700    52.1160    18.9730    16.5260    15.2610    25.5940   -18.4560 
  148.5000     2.4700    51.6050    19.7140    17.1350    17.5300    25.6140   -18.3220 
  148.6250     2.4760    50.7810    20.0690    17.5600    18.8900    25.5540   -18.1770 
  148.7500     2.4890    49.0030    20.1040    17.7420    18.3450    25.3700   -18.0170 
  148.8750     2.5040    46.6090    20.0310    17.7850    16.5770    25.1010   -17.8330 
  149.0000     2.5150    45.2310    20.0130    17.8050    16.2860    24.9820   -17.6190 
  149.1250     2.5180    46.3360    20.0150    17.7830    17.1980    25.0020   -17.3750 
  149.2500     2.5080    48.0510    19.8320    17.5950    17.9620    25.0140   -17.1140 
  149.3750     2.4830    48.9580    19.3020    17.1280    18.5270    25.0900   -16.8470 
  149.5000     2.4600    48.4950    18.4190    16.3740    18.0280    25.1540   -16.5780 
  149.6250     2.4520    47.6760    17.3860    15.4710    16.2360    25.1940   -16.3190 
  149.7500     2.4550    47.7890    16.5290    14.6780    14.9050    25.2160   -16.0890 
  149.8750     2.4600    47.8740    16.0050    14.1440    14.7770    25.2400   -15.9170 
  150.0000     2.4620    47.1540    15.8320    13.9210    15.5870    25.2500   -15.8360 
  150.1250     2.4610    45.7730    15.9710    14.0250    15.6120    25.2500   -15.8840 
  150.2500     2.4580    44.4980    16.2680    14.3270    15.7110    25.2500   -16.0300 
  150.3750     2.4530    43.1990    16.6130    14.7280    15.9570    25.2500   -16.2180 
  150.5000     2.4440    42.6560    16.8480    15.0850    15.9690    25.2500   -16.3540 
  150.6250     2.4320    42.8580    16.6330    15.1000    15.7630    25.2530   -16.2950 
  150.7500     2.4200    42.9050    15.7690    14.5600    15.1460    25.2760   -16.0280 
  150.8750     2.4070    43.3430    14.2130    13.3900    14.1440    25.3260   -15.6090 
  151.0000     2.3960    45.1080    12.1980    11.7710    12.9230    25.3620   -15.1520 
  151.1250     2.3900    46.7690    10.2000    10.0880    11.0350    25.2690   -14.7980 
