~V
VERS. 2.00: Ver 2.00
~W
STRT.M 56.0000:
STOP.M 256.0000:
STEP.M 0.1250:
NULL. -999.2500:
UWI. F10668:
~C
DEPT.M :
SP.MV :
GR.API :
RML.OHMM :
RI. :
RXO.OHMM :
CALI.CM :
DEN.GM/CC :
~A
# ...
  146.0000   -10.8300    57.8470    27.6050    22.0680    23.0310    25.9040     2.1720 
  146.1250   -10.7240    58.1390    27.4070    22.0210    23.6700    25.9660     2.1630 
  146.2500   -10.6170    58.0440    26.9290    21.7570    23.9000    25.8510     2.1560 
  146.3750   -10.5230    57.0980    26.1920    21.2690    22.9050    25.6740     2.1560 
  146.5000   -10.4260    57.3660    25.4030    20.7120    20.9590    25.5420     2.1600 
  146.6250   -10.3570    59.0180    24.7310    20.2230    18.9470    25.4830     2.1630 
  146.7500   -10.2960    61.5980    24.2980    19.9030    18.6600    25.4600     2.1660 
  146.8750   -10.3120    64.8070    24.1860    19.8190    18.9330    25.4360     2.1650 
  147.0000   -10.3280    66.6520    24.2910    19.9030    19.5570    25.3960     2.1590 
  147.1250   -10.3710    65.4670    24.5050    20.0840    20.3160    25.3800     2.1460 
  147.2500   -10.4020    62.5900    24.7160    20.2820    20.2370    25.4490     2.1280 
  147.3750   -10.4720    60.2170    24.8360    20.4270    20.2470    25.6050     2.1120 
  147.5000   -10.5590    57.7460    24.8760    20.5110    20.9020    25.7080     2.1050 
  147.6250   -10.6510    54.6110    24.8840    20.5570    21.0920    25.6550     2.1070 
  147.7500   -10.7530    52.5270    24.9340    20.6050    20.7890    25.5670     2.1170 
  147.8750   -10.8660    53.8610    25.1190    20.7200    21.6690    25.5290     2.1320 
  148.0000   -10.9980    57.0500    25.4610    20.9230    22.5650    25.5980     2.1410 
  148.1250   -11.1250    59.2070    25.9500    21.2190    23.0690    25.7420     2.1400 
  148.2500   -11.2430    58.5640    26.5330    21.5850    23.4640    25.9260     2.1280 
  148.3750   -11.3400    55.2980    27.0960    21.9620    24.2300    26.1210     2.1130 
  148.5000   -11.4130    54.2530    27.5320    22.2750    24.6350    26.1790     2.1060 
  148.6250   -11.4480    56.2630    27.8040    22.4980    24.0770    26.0340     2.1130 
  148.7500   -11.4290    57.5720    27.9440    22.6510    23.2360    25.6370     2.1360 
  148.8750   -11.3530    55.9000    28.0330    22.7860    23.5960    25.3990     2.1720 
  149.0000   -11.2290    55.7550    28.1160    22.9240    24.1080    25.4180     2.2100 
  149.1250   -11.0860    58.8410    28.1320    23.0100    24.2220    25.5790     2.2390 
  149.2500   -10.9310    60.6890    27.9720    22.9570    23.0730    25.7480     2.2440 
  149.3750   -10.7530    57.7140    27.5000    22.6620    20.3300    25.9610     2.2190 
  149.5000   -10.5900    54.2580    26.8100    22.1950    18.0370    26.2120     2.1820 
  149.6250   -10.4640    53.3440    26.0800    21.6860    17.4170    26.4340     2.1470 
  149.7500   -10.3900    54.6230    25.5460    21.3010    16.9730    26.5260     2.1120 
  149.8750   -10.3590    54.7490    25.4480    21.2140    18.5240    26.2970     2.0600 
  150.0000   -10.3880    52.7920    25.7420    21.4050    17.9870    25.7970     1.9990 
  150.1250   -10.4680    50.4170    26.3220    21.8170    17.0380    25.3220     1.9590 
  150.2500   -10.6180    48.5570    27.0090    22.3390    17.9750    25.3280     1.9840 
  150.3750   -10.8160    48.5260    27.5650    22.8160    19.7210    25.8300     2.1060 
  150.5000   -10.9450    50.8150    27.8900    23.1600    20.7730    25.9080     2.2550 
  150.6250   -11.0840    54.5110    28.0090    23.3770    20.7900    25.6940     2.3340 
  150.7500   -11.3210    57.5720    28.0260    23.5220    22.4240    25.6630     2.3080 
  150.8750   -11.5580    56.1980    28.1040    23.6830    23.9050    26.1430     2.2270 
  151.0000   -11.7800    51.1410    28.3610    23.9400    24.0080    26.9700     2.1590 
  151.1250   -11.9840    47.2710    28.8050    24.3100    24.0000    27.6220     2.1290 
  151.2500   -12.1410    49.5020    29.2940    24.7060    23.0130    27.7140     2.1270 
  151.3750   -12.2500    55.5530    29.5310    24.9030    20.9340    27.2720     2.1340 
  151.5000   -12.3230    57.0960    29.3520    24.7680    18.6870    26.8630     2.1310 
  151.6250   -12.3950    55.2050    28.7580    24.2910    17.3060    26.6960     2.1190 
  151.7500   -12.4550    53.2030    27.9080    23.6070    16.6170    26.7480     2.0960 
  151.8750   -12.5550    51.2690    27.0670    22.9570    15.3910    26.9610     2.0500 
  152.0000   -12.6610    48.2780    26.4880    22.5590    14.3320    27.2130     1.9760 
  152.1250   -12.8030    46.1550    26.4120    22.6030    14.6560    27.3360     1.8920 
  152.2500   -12.9700    47.4320    27.1880    23.3320    15.7840    27.2410     1.8260 
  152.3750   -13.2180    51.5120    29.6330    25.3360    16.0250    26.7830     1.8360 
  152.5000   -13.5210    55.7240    34.2320    29.0290    16.4290    25.9300     1.9510 
  152.6250   -13.8780    57.5440    41.4290    35.0210    19.0910    24.5430     2.1730 
  152.7500   -14.2790    55.1810    50.7590    43.4350    30.0540    23.4180     2.4370 
  152.8750   -14.7230    51.4110    58.8010    52.0390    56.2060    23.0360     2.6260 
  153.0000   -15.1980    51.5050    59.7250    55.1170    75.6320    22.9550     2.7000 
  153.1250   -15.6740    55.3350    50.4840    48.5570    75.9240    22.9620     2.6750 
  153.2500   -16.1490    59.5950    35.1690    35.1940    59.8970    23.1840     2.5910 
  153.3750   -16.5860    62.2060    21.9860    22.7370    31.8790    23.7410     2.4840 
  153.5000   -16.9740    65.9550    13.6780    14.4440    13.7680    24.4720     2.3930 
  153.6250   -17.2940    71.3370     9.2550     9.7110     7.0790    25.1880     2.3470 
  153.7500   -17.5550    75.8630     7.2010     7.2720     5.3930    25.5950     2.3480 
  153.8750   -17.7200    79.0530     6.6460     6.3650     5.2400    25.3740     2.3720 
  154.0000   -17.8220    79.7460     6.9850     6.3730     5.3510    24.9930     2.3840 
  154.1250   -17.8730    78.3780     8.2920     7.2770     5.7800    24.8440     2.3770 
  154.2500   -17.8750    74.4890    10.8920     9.2620     7.1920    24.9480     2.3640 
  154.3750   -17.8100    66.8420    15.5880    13.0000    12.4130    25.0190     2.3740 
  154.5000   -17.7390    58.1670    22.3050    18.6560    24.5220    24.8230     2.4140 
  154.6250   -17.6400    51.0480    30.4540    26.0470    38.6130    24.5930     2.4770 
  154.7500   -17.5290    47.7070    38.4250    33.8950    44.0040    24.4670     2.5480 
  154.8750   -17.4060    47.1620    43.4230    39.3500    46.3270    24.4550     2.6070 
  155.0000   -17.2930    46.5920    44.7560    41.1690    51.1120    24.4620     2.6400 
  155.1250   -17.1740    44.7620    43.2530    39.8970    51.6910    24.4680     2.6410 
  155.2500   -17.0800    42.7050    40.4430    36.9980    47.2350    24.4620     2.6190 
  155.3750   -17.0150    42.8600    37.6620    33.8710    41.2790    24.4120     2.5970 
  155.5000   -16.9750    43.0300    35.5790    31.3350    34.5340    24.2880     2.5960 
  155.6250   -16.9980    41.5190    34.4290    29.6790    28.5210    24.0790     2.6110 
  155.7500   -17.0640    39.3540    34.1670    28.9200    28.3790    23.8730     2.6280 
  155.8750   -17.2070    39.4060    34.4300    28.8520    32.2540    23.8720     2.6340 
  156.0000   -17.3740    41.2260    34.4830    28.8580    33.8040    24.0310     2.6320 
  156.1250   -17.5730    42.8030    33.8410    28.4890    34.5860    24.2570     2.6290 
  156.2500   -17.7810    43.3710    32.3590    27.5140    32.6190    24.3990     2.6240 
  156.3750   -18.0090    43.8930    30.3440    26.0400    28.7330    24.4440     2.6060 
  156.5000   -18.2180    44.5320    28.5400    24.6070    25.9410    24.4380     2.5740 
  156.6250   -18.3960    43.7080    27.4150    23.5960    25.5890    24.4240     2.5400 
  156.7500   -18.5460    42.2170    27.1680    23.2150    25.0310    24.4250     2.5210 
  156.8750   -18.6490    42.0830    27.7860    23.5440    26.3660    24.4420     2.5330 
  157.0000   -18.7210    42.8240    28.6860    24.1960    28.5020    24.4480     2.5640 
  157.1250   -18.7520    43.1930    29.3340    24.7680    28.6010    24.4550     2.5930 
