~V
VERS. 2.00: Ver 2.00
~W
STRT.M 55.0000:
STOP.M 253.0000:
STEP.M 0.1250:
NULL. -999.2500:
UWI. F10665:
~C
DEPT.M :
SP.MV :
DEN.GM/CC :
GR.API :
RML.OHMM :
RI. :
RXO.OHMM :
CALI.CM :
~A
# ...
  156.2500    -7.1440     2.5620    55.3380    23.7640    20.9760    20.4920    24.0520 
  156.3750    -7.0180     2.5650    54.5210    24.6480    21.4150    20.6140    24.0970 
  156.5000    -6.9060     2.5820    52.3050    26.3290    22.5070    24.1030    24.0960 
  156.6250    -6.8700     2.6080    51.3480    28.5000    24.0960    29.1520    24.0900 
  156.7500    -6.8840     2.6260    50.8370    30.4100    25.6350    30.1930    24.0880 
  156.8750    -6.9530     2.6320    51.0370    31.3370    26.5460    30.0000    24.0840 
  157.0000    -7.0760     2.6350    53.0710    30.7700    26.3380    30.2330    24.0820 
  157.1250    -7.2350     2.6470    54.7900    28.6300    24.8150    28.7110    24.0830 
  157.2500    -7.4490     2.6650    53.2110    25.9040    22.7100    24.2960    24.0840 
  157.3750    -7.6620     2.6730    50.2740    23.2570    20.5560    20.0670    24.0790 
  157.5000    -7.9190     2.6600    50.3120    21.0610    18.6790    16.8110    24.0720 
  157.6250    -8.1490     2.6190    53.1480    19.5530    17.3030    17.0080    24.0580 
  157.7500    -8.3580     2.5720    54.6040    18.6090    16.3780    17.8420    24.0640 
  157.8750    -8.5400     2.5370    54.2340    18.1220    15.8490    17.2670    24.0410 
  158.0000    -8.6820     2.5250    54.6660    17.9840    15.6450    15.5840    24.0060 
  158.1250    -8.7870     2.5330    55.1520    18.1560    15.7500    15.3950    23.9980 
  158.2500    -8.8460     2.5400    54.3760    18.4960    16.0500    16.3580    23.9990 
  158.3750    -8.8600     2.5330    53.2540    18.8770    16.4430    17.7820    23.9950 
  158.5000    -8.8220     2.5100    51.2920    19.1930    16.8210    17.6900    23.9870 
  158.6250    -8.7590     2.4790    49.2400    19.4200    17.1190    18.3540    23.9960 
  158.7500    -8.6570     2.4540    48.4210    19.6730    17.3940    18.7890    24.0250 
  158.8750    -8.5460     2.4430    49.8690    20.0560    17.7290    18.3330    24.0570 
  159.0000    -8.3950     2.4480    52.7500    20.5760    18.1440    17.6490    24.1080 
  159.1250    -8.2250     2.4590    53.9530    21.0040    18.4960    18.4650    24.0920 
  159.2500    -8.0160     2.4640    51.6350    21.0270    18.5510    19.4760    24.0350 
  159.3750    -7.8350     2.4620    47.2470    20.4810    18.1760    19.8170    23.9940 
  159.5000    -7.6560     2.4580    45.4260    19.4650    17.4130    18.2820    23.9690 
  159.6250    -7.5080     2.4590    47.0710    18.3030    16.4640    16.6060    23.9940 
  159.7500    -7.4030     2.4590    47.5140    17.3880    15.6240    16.5710    24.0510 
  159.8750    -7.3160     2.4520    45.4800    16.9150    15.0680    16.9760    24.1110 
  160.0000    -7.2900     2.4400    43.5190    16.9100    14.8770    16.9310    24.1460 
  160.1250    -7.2990     2.4360    43.2560    17.2910    15.0680    16.7100    24.1190 
  160.2500    -7.3850     2.4460    43.7340    17.8040    15.4540    16.7150    24.0470 
  160.3750    -7.4610     2.4650    45.4110    18.2870    15.8860    18.0570    23.9750 
  160.5000    -7.5520     2.4800    48.4200    18.6230    16.2340    19.6850    23.9370 
  160.6250    -7.6290     2.4810    50.6720    18.7140    16.3880    19.4870    23.9290 
  160.7500    -7.6780     2.4720    50.6300    18.5880    16.3540    17.6130    23.9310 
  160.8750    -7.7080     2.4630    49.8710    18.2740    16.1450    17.0040    23.9330 
  161.0000    -7.7170     2.4600    49.3900    17.8390    15.8040    17.4820    23.9350 
  161.1250    -7.7100     2.4650    47.5600    17.4040    15.4130    18.0900    23.9400 
  161.2500    -7.6650     2.4700    46.0530    17.1030    15.0890    17.2750    23.9520 
  161.3750    -7.6030     2.4750    46.0800    17.0150    14.9050    16.0150    23.9870 
  161.5000    -7.5220     2.4780    46.4160    17.1550    14.8980    15.4610    24.0630 
  161.6250    -7.4350     2.4790    47.2320    17.4970    15.0840    16.2020    24.1700 
  161.7500    -7.3360     2.4770    50.2650    17.8920    15.3700    17.8160    24.1810 
  161.8750    -7.2320     2.4750    53.7050    18.2250    15.6690    18.6810    24.1310 
  162.0000    -7.1010     2.4730    54.2080    18.4570    15.9200    18.4900    24.0750 
  162.1250    -6.9820     2.4770    52.6710    18.6470    16.1190    19.1410    24.0340 
  162.2500    -6.8410     2.4890    52.5440    18.9170    16.3320    20.0470    24.0200 
  162.3750    -6.7420     2.5060    53.1480    19.3380    16.6220    20.7390    24.0050 
  162.5000    -6.6740     2.5220    52.9200    19.9110    17.0230    21.8370    23.9820 
  162.6250    -6.6280     2.5250    50.7110    20.5310    17.5000    24.2110    24.0090 
  162.7500    -6.6430     2.5190    49.7500    21.0380    17.9250    24.2910    24.0590 
  162.8750    -6.6720     2.5060    51.9770    21.3630    18.2190    23.2300    24.1090 
  163.0000    -6.7470     2.4930    54.5910    21.5280    18.3760    22.8060    24.1150 
  163.1250    -6.8030     2.4820    52.0430    21.5900    18.4460    22.7700    24.1050 
  163.2500    -6.8750     2.4760    46.4420    21.6190    18.5040    21.6790    24.0830 
  163.3750    -6.9150     2.4740    42.8850    21.6190    18.5540    20.6460    24.0400 
  163.5000    -6.9420     2.4760    41.6380    21.5600    18.5620    21.0300    24.0050 
  163.6250    -6.9540     2.4790    41.1280    21.4000    18.4650    21.6530    24.0060 
  163.7500    -6.9270     2.4780    41.8850    21.1890    18.2970    20.7380    24.0440 
  163.8750    -6.8990     2.4700    43.8430    21.0220    18.1370    19.1470    24.0890 
  164.0000    -6.8630     2.4560    45.0820    21.0300    18.0990    18.7320    24.1320 
  164.1250    -6.8230     2.4410    45.4730    21.3960    18.3500    20.4720    24.1630 
  164.2500    -6.7770     2.4310    46.6010    22.1040    18.9110    21.5200    24.1630 
  164.3750    -6.7220     2.4270    47.6650    23.0260    19.7170    22.3320    24.1460 
  164.5000    -6.6370     2.4310    46.8870    23.8980    20.5770    23.6420    24.1200 
  164.6250    -6.5390     2.4400    45.2120    24.2980    21.1250    24.8420    24.1250 
  164.7500    -6.4140     2.4490    44.1140    24.0800    21.1570    24.7390    24.1400 
  164.8750    -6.2840     2.4540    43.2190    23.2990    20.6530    23.6510    24.1220 
  165.0000    -6.1240     2.4560    42.0700    22.2050    19.7800    21.2300    24.0520 
  165.1250    -5.9950     2.4570    42.7400    21.1590    18.8210    19.4750    24.0040 
  165.2500    -5.8650     2.4580    45.8530    20.4130    18.0480    18.3390    23.9730 
  165.3750    -5.7760     2.4600    49.1710    20.0330    17.5750    17.8900    23.9830 
  165.5000    -5.7150     2.4620    50.7420    19.9440    17.3990    18.5910    24.0530 
  165.6250    -5.6670     2.4630    50.0730    19.9920    17.4350    19.3050    24.1180 
  165.7500    -5.6670     2.4630    49.3430    20.0500    17.5340    20.0580    24.1230 
  165.8750    -5.6890     2.4650    47.5240    20.1770    17.6850    20.7420    24.1070 
  166.0000    -5.7760     2.4680    44.4700    20.5360    17.9760    20.3200    24.1050 
  166.1250    -5.8600     2.4730    43.9360    21.3310    18.5600    18.9230    24.0920 
  166.2500    -5.9840     2.4740    46.7090    22.4220    19.3910    19.2470    24.0800 
  166.3750    -6.0940     2.4720    49.7900    23.5060    20.2950    21.6570    24.0560 
  166.5000    -6.2160     2.4660    49.5860    24.1450    20.9580    25.1390    24.0140 
  166.6250    -6.3470     2.4620    46.0180    23.8550    20.9350    26.3070    24.0010 
  166.7500    -6.4540     2.4650    43.3820    22.8820    20.3020    23.3490    24.0320 
  166.8750    -6.5380     2.4760    43.1890    21.7390    19.4020    19.8710    24.0520 
  167.0000    -6.5940     2.4910    44.1720    21.0130    18.6940    18.3730    24.0320 
  167.1250    -6.6350     2.5030    44.7590    21.1950    18.6120    18.4030    24.0120 
  167.2500    -6.6550     2.5080    45.4210    22.0740    19.1110    19.3260    24.0030 
  167.3750    -6.6660     2.5060    45.7660    23.2570    19.9600    22.0260    23.9940 
