~V
VERS. 2.00: Ver 2.00
~W
STRT.M 50.0000:
STOP.M 209.0000:
STEP.M 0.1250:
NULL. -999.2500:
UWI. F10692:
~C
DEPT.M :
DEN.GM/CC :
GR.API :
RML.OHMM :
RI. :
RXO.OHMM :
CALI.CM :
SP.MV :
~A
# ...
   95.0000     2.1270    44.4280    30.3140    29.7030    25.7930    24.6870   -15.9530 
   95.1250     2.1400    44.6990    28.6730    28.1700    22.5500    24.4820   -15.9830 
   95.2500     2.1500    47.1680    26.8250    26.1500    20.1850    24.2520   -16.0470 
   95.3750     2.1550    49.4130    25.4250    24.3640    18.7620    24.1130   -16.1100 
   95.5000     2.1540    49.1920    24.8490    23.2560    17.7550    24.0670   -16.1530 
   95.6250     2.1510    46.0280    25.3910    23.1850    18.1560    24.1470   -16.1750 
   95.7500     2.1520    42.9810    26.7930    24.0040    18.9530    24.3010   -16.2000 
   95.8750     2.1590    42.7870    28.7590    25.5440    20.0600    24.4440   -16.2500 
   96.0000     2.1720    45.2130    30.7690    27.4150    21.8680    24.5340   -16.3480 
   96.1250     2.1970    47.5900    32.0450    28.9180    23.4930    24.5120   -16.5180 
   96.2500     2.2390    48.0600    32.4500    29.7090    23.6100    24.3850   -16.7580 
   96.3750     2.2910    46.9200    32.3170    29.9450    23.2650    24.2870   -17.0690 
   96.5000     2.3370    47.3370    32.0500    29.9410    23.1010    24.3680   -17.4420 
   96.6250     2.3790    48.4860    31.5690    29.6360    23.0930    24.5930   -17.8500 
   96.7500     2.4190    47.6470    30.3140    28.5670    24.0600    24.8180   -18.2400 
   96.8750     2.4390    46.7100    27.7440    26.2330    29.0990    24.9310   -18.5670 
   97.0000     2.4270    50.0480    23.8770    22.6560    31.5870    24.9590   -18.8020 
   97.1250     2.3970    56.8400    19.6040    18.6930    22.7460    24.9240   -18.9160 
   97.2500     2.3660    61.5770    16.1170    15.4060    14.0800    24.8570   -18.9340 
   97.3750     2.3270    65.1300    13.8900    13.1680    10.6230    24.7930   -18.8740 
   97.5000     2.2800    68.5130    12.9270    11.9750     9.9790    24.7610   -18.7540 
   97.6250     2.2410    67.1620    13.0330    11.7430    10.6150    24.7550   -18.5900 
   97.7500     2.2290    62.3410    13.5180    11.9820    11.5820    24.7550   -18.4040 
   97.8750     2.2510    58.9970    13.9200    12.3320    12.2580    24.7640   -18.2050 
   98.0000     2.3030    60.5760    14.0090    12.5510    12.0060    24.7950   -17.9950 
   98.1250     2.3760    64.7540    13.8830    12.6130    11.2310    24.8760   -17.7550 
   98.2500     2.4560    67.4020    13.8210    12.6640    10.4570    24.9820   -17.4800 
   98.3750     2.5310    67.6980    13.8780    12.7280    10.1500    25.0680   -17.1690 
   98.5000     2.5720    64.5650    13.9080    12.7060    10.7290    25.0980   -16.8340 
   98.6250     2.5400    59.6620    13.5680    12.3450    12.3730    25.0800   -16.5070 
   98.7500     2.4610    57.4530    12.7490    11.5940    13.1680    25.0610   -16.2210 
   98.8750     2.3780    58.9460    11.6110    10.5860    11.4760    25.0670   -16.0030 
   99.0000     2.3220    62.8830    10.4810     9.5680     9.6780    25.0970   -15.8640 
   99.1250     2.3010    66.1800     9.6750     8.7840     8.8800    25.1110   -15.8100 
   99.2500     2.3020    68.1140     9.2050     8.2750     8.5700    25.1000   -15.8110 
   99.3750     2.3120    69.8960     9.0020     8.0180     8.0740    25.0590   -15.8520 
   99.5000     2.3180    71.6280     8.9760     7.9520     7.9120    25.0070   -15.9250 
   99.6250     2.3110    72.6970     9.0880     8.0260     8.0140    24.9850   -16.0340 
   99.7500     2.3060    71.3850     9.3080     8.1830     8.2110    24.9790   -16.1730 
   99.8750     2.3100    68.9230     9.6170     8.4060     8.3410    24.9790   -16.3320 
  100.0000     2.3170    68.2310     9.9670     8.6670     8.4610    24.9770   -16.5070 
  100.1250     2.3100    67.3150    10.3030     8.9360     8.6180    24.9610   -16.6990 
  100.2500     2.2910    64.5350    10.6200     9.1960     8.7870    24.9310   -16.9010 
  100.3750     2.2670    62.8250    10.9260     9.4320     8.9550    24.9000   -17.0970 
  100.5000     2.2470    65.0120    11.2010     9.6150     9.2050    24.8720   -17.2600 
  100.6250     2.2380    66.4940    11.3550     9.6780     9.4450    24.8510   -17.3510 
  100.7500     2.2450    63.9730    11.3170     9.5870     9.5340    24.8750   -17.3810 
  100.8750     2.2600    63.7840    11.0530     9.3270     9.3500    24.9500   -17.3890 
  101.0000     2.2680    69.0360    10.6310     8.9470     9.0760    25.0380   -17.4340 
  101.1250     2.2620    73.0650    10.2660     8.5830     8.8110    25.0970   -17.5950 
  101.2500     2.2500    71.7330    10.1400     8.3620     8.6550    25.1140   -17.8960 
  101.3750     2.2350    68.2950    10.2840     8.3240     8.5290    25.0890   -18.3420 
  101.5000     2.2150    65.7020    10.6040     8.4280     8.7650    25.0120   -18.9080 
  101.6250     2.1900    61.8620    10.9360     8.5890     9.5880    24.9080   -19.5530 
  101.7500     2.1730    57.7210    11.1710     8.7260     9.9900    24.8480   -20.2000 
  101.8750     2.1730    57.8140    11.3540     8.8520     9.3840    24.8300   -20.7940 
  102.0000     2.1810    61.7640    11.6440     9.0380     8.9560    24.8280   -21.2930 
  102.1250     2.1870    61.0560    12.2640     9.4060     9.4350    24.8260   -21.6510 
  102.2500     2.1940    54.2870    13.2090     9.9790    10.3030    24.8260   -21.8820 
  102.3750     2.2040    48.4000    14.3910    10.7440    10.7960    24.8250   -21.9940 
  102.5000     2.2090    49.3980    15.6390    11.6280    10.9450    24.8240   -22.0060 
  102.6250     2.1990    52.1630    16.6890    12.4810    11.1610    24.8240   -21.9440 
  102.7500     2.1830    51.9660    17.4110    13.1560    11.4240    24.8250   -21.8630 
  102.8750     2.1680    52.5420    17.8120    13.5890    11.7300    24.8250   -21.8010 
  103.0000     2.1560    56.2480    17.9780    13.7920    11.9630    24.8240   -21.7810 
  103.1250     2.1460    57.9160    18.0010    13.8030    11.8750    24.8240   -21.8150 
  103.2500     2.1350    54.4020    18.0060    13.7400    11.6120    24.8290   -21.8790 
  103.3750     2.1270    49.0940    18.0710    13.6790    11.5770    24.8520   -21.9490 
  103.5000     2.1270    46.7450    18.2230    13.6660    12.1030    24.9010   -22.0050 
  103.6250     2.1460    47.9710    18.3930    13.7000    13.0290    24.9510   -22.0180 
  103.7500     2.1790    49.2250    18.4470    13.7160    13.4780    24.9760   -21.9770 
  103.8750     2.2230    48.4570    18.3750    13.7050    13.4110    24.9980   -21.8660 
  104.0000     2.2770    46.4970    18.3990    13.7780    13.4340    25.0290   -21.6790 
  104.1250     2.3550    45.7900    19.1770    14.3030    13.9010    25.0440   -21.4120 
  104.2500     2.4630    46.1120    21.2360    15.6460    14.5540    25.0530   -21.0910 
  104.3750     2.5870    46.0360    24.9370    18.1970    15.9950    25.0680   -20.7470 
  104.5000     2.6820    45.1740    30.1060    22.1020    19.7090    25.0980   -20.4190 
  104.6250     2.6950    44.5810    35.0230    26.5010    28.7980    25.1130   -20.1790 
  104.7500     2.6540    44.2830    36.4350    28.7580    37.1600    25.1180   -20.0620 
  104.8750     2.5880    45.0720    32.5720    26.8990    38.5330    25.1180   -20.0820 
  105.0000     2.5040    48.6900    25.2690    21.8170    30.1950    25.1180   -20.2210 
  105.1250     2.4080    56.6490    18.4790    16.5120    18.4430    25.1160   -20.4330 
  105.2500     2.3240    64.1620    13.9810    12.7010    11.1290    25.1040   -20.6420 
  105.3750     2.2710    67.8260    11.6580    10.4560     9.0750    25.0760   -20.7950 
  105.5000     2.2520    67.3060    10.9570     9.4500     9.1340    25.0490   -20.8450 
  105.6250     2.2630    64.9490    11.3940     9.4460     9.6160    25.0350   -20.7330 
  105.7500     2.2890    64.3370    12.1750     9.9210     9.9170    25.0450   -20.4690 
  105.8750     2.3170    66.8460    12.7510    10.4780     9.7310    25.0730   -20.0710 
  106.0000     2.3360    69.3810    12.7400    10.7480     9.5300    25.0930   -19.5790 
  106.1250     2.3350    68.4520    12.0380    10.4990     9.2490    25.1060   -19.0430 
