~V
VERS. 2.00: Ver 2.00
~W
STRT.M 50.0000:
STOP.M 216.0000:
STEP.M 0.1250:
NULL. -999.2500:
UWI. F10607:
~C
DEPT.M :
GR.API :
RML.OHMM :
RI. :
RXO.OHMM :
CALI.CM :
DEN.GM/CC :
SP.MV :
~A
# ...
   72.5000    57.7230    11.0050     8.3830     9.9920    24.9110     2.1520   -25.5310 
   72.6250    57.6780    10.9350     8.3400     9.9210    24.9240     2.1560   -25.4800 
   72.7500    56.6460    10.8370     8.2750    10.0490    24.9030     2.1610   -25.5060 
   72.8750    56.7850    10.7300     8.1950    10.0730    24.8960     2.1620   -25.5730 
   73.0000    57.7770    10.6410     8.1190     9.8740    24.8880     2.1580   -25.6460 
   73.1250    55.6340    10.6050     8.0780     9.7320    24.8240     2.1530   -25.7510 
   73.2500    51.3480    10.6440     8.0940     9.7410    24.6960     2.1520   -25.8260 
   73.3750    48.0520    10.7790     8.1860     9.8290    24.5900     2.1570   -25.9050 
   73.5000    49.3780    10.9990     8.3600    10.0590    24.5440     2.1640   -25.9510 
   73.6250    54.7480    11.2430     8.5890    10.4010    24.4590     2.1740   -25.9810 
   73.7500    58.0310    11.4170     8.7990    11.0740    24.3160     2.1850   -25.9620 
   73.8750    57.8340    11.4530     8.9300    12.1890    24.2610     2.1950   -25.9030 
   74.0000    56.6080    11.3350     8.9460    12.3550    24.3330     2.2010   -25.8280 
   74.1250    56.8120    11.0880     8.8420    12.0730    24.5000     2.1960   -25.7080 
   74.2500    56.0860    10.8090     8.6810    10.7520    24.6310     2.1840   -25.5590 
   74.3750    54.3200    10.5700     8.5160    10.1300    24.7490     2.1740   -25.3630 
   74.5000    52.8540    10.4320     8.3980    10.2660    24.8580     2.1740   -25.1250 
   74.6250    51.5010    10.4610     8.3860    10.5990    24.9160     2.1830   -24.8670 
   74.7500    51.3850    10.5950     8.4560    10.4550    24.8600     2.1890   -24.5780 
   74.8750    52.0990    10.6940     8.5230    10.1460    24.6710     2.1830   -24.2940 
   75.0000    52.0010    10.5520     8.4440    10.3490    24.6040     2.1700   -23.9770 
   75.1250    50.5710     9.9320     8.0310    10.5900    24.7390     2.1720   -23.6520 
   75.2500    51.3370     8.9820     7.3540    10.0880    24.8170     2.2040   -23.3290 
   75.3750    56.8210     7.9840     6.5900     8.5900    24.7350     2.2550   -23.0260 
   75.5000    64.1690     7.2470     5.9520     6.4330    24.6390     2.2980   -22.7610 
   75.6250    66.8350     7.0940     5.6750     5.6360    24.6040     2.3000   -22.5610 
   75.7500    65.6970     7.5270     5.7970     6.5200    24.5730     2.2770   -22.4590 
   75.8750    64.0900     8.4920     6.3230     8.7430    24.5260     2.2530   -22.4020 
   76.0000    62.7870     9.7940     7.1680    10.1080    24.4750     2.2450   -22.4190 
   76.1250    60.6770    10.9860     8.0870    10.1150    24.4360     2.2470   -22.4570 
   76.2500    58.5220    11.5960     8.7090    10.8840    24.3820     2.2450   -22.5350 
   76.3750    57.8680    11.4500     8.8260    12.0360    24.3860     2.2360   -22.6170 
   76.5000    59.1160    10.7550     8.4970    11.6300    24.4540     2.2280   -22.6930 
   76.6250    61.2630     9.9990     8.0020     9.9550    24.4640     2.2360   -22.7090 
   76.7500    62.0310     9.6080     7.6700     8.6390    24.3460     2.2570   -22.6590 
   76.8750    60.7700     9.7570     7.6610     8.5800    24.2070     2.2850   -22.5720 
   77.0000    60.9800    10.4670     8.0350     9.7080    24.1330     2.3050   -22.4360 
   77.1250    63.0070    11.6260     8.7950    11.1400    24.1430     2.3030   -22.2880 
   77.2500    62.0550    12.7780     9.6600    12.2600    24.2890     2.2760   -22.1120 
   77.3750    57.8640    13.4610    10.2900    12.7000    24.5160     2.2340   -21.9090 
   77.5000    53.7560    13.3420    10.3720    12.7640    24.6830     2.1970   -21.6960 
   77.6250    52.7330    12.3450     9.7450    11.7660    24.6220     2.1850   -21.4640 
   77.7500    54.1310    10.9810     8.7570     9.3620    24.3840     2.2000   -21.2540 
   77.8750    58.8230     9.6110     7.6920     7.1490    24.0470     2.2290   -21.0430 
   78.0000    66.2830     8.4730     6.7530     6.4660    23.7710     2.2580   -20.8960 
   78.1250    69.9850     7.7360     6.0940     6.7440    23.6210     2.2730   -20.8200 
   78.2500    68.8770     7.3780     5.7090     6.6810    23.5130     2.2810   -20.8260 
   78.3750    67.7690     7.4430     5.6210     6.1200    23.4580     2.2930   -20.9460 
   78.5000    70.0620     7.9980     5.8730     6.3490    23.4510     2.3160   -21.1580 
   78.6250    72.6540     9.1470     6.5610     7.1510    23.4350     2.3440   -21.5420 
   78.7500    70.2780    10.6790     7.5810     8.4550    23.3310     2.3510   -22.0120 
   78.8750    65.0700    12.2940     8.7680     9.7020    23.1530     2.3300   -22.6010 
   79.0000    60.6750    13.5390     9.8190    10.8890    23.0770     2.2810   -23.2380 
   79.1250    59.8880    13.8550    10.2760    11.0050    23.3030     2.2140   -23.9580 
   79.2500    61.6380    13.3780    10.1130    10.1070    23.7650     2.1600   -24.6750 
   79.3750    62.6070    12.4500     9.5250     9.5350    24.0720     2.1290   -25.3510 
   79.5000    61.8870    11.4190     8.7710     9.5510    24.1030     2.1210   -25.9410 
   79.6250    60.6720    10.5020     8.0480     9.9890    24.1830     2.1320   -26.3650 
   79.7500    60.2350     9.7710     7.4550     9.9670    24.3370     2.1590   -26.6280 
   79.8750    62.1830     9.3180     7.0640     9.3680    24.3920     2.1960   -26.7070 
   80.0000    65.9600     9.3010     6.9610     8.3970    24.3350     2.2280   -26.6120 
   80.1250    67.7690    10.0940     7.3510     8.4090    24.2160     2.2310   -26.3430 
   80.2500    65.2870    11.8210     8.3120     9.8840    24.1760     2.2060   -25.9400 
   80.3750    61.8820    14.5010     9.9240    13.3140    24.2650     2.1640   -25.4870 
   80.5000    60.9220    17.7340    12.0650    17.4790    24.4740     2.1220   -25.0730 
   80.6250    58.1220    20.0850    13.9600    21.4710    24.5480     2.0980   -24.7470 
   80.7500    53.1140    19.9790    14.3790    22.3850    24.4270     2.1010   -24.5390 
   80.8750    51.7610    17.0840    12.8340    19.9330    24.3890     2.1380   -24.4040 
   81.0000    56.9440    12.8310    10.1380    14.9310    24.4940     2.2140   -24.3770 
   81.1250    65.3140     9.3290     7.6520     8.9970    24.5550     2.3010   -24.4100 
   81.2500    72.5380     7.2890     5.9710     5.6360    24.5410     2.3500   -24.5530 
   81.3750    77.3270     6.6270     5.1410     4.9550    24.4840     2.3420   -24.7470 
   81.5000    77.9310     7.0940     5.0770     6.1760    24.4200     2.2970   -24.9620 
   81.6250    72.7430     8.5250     5.7700     8.7690    24.4690     2.2430   -25.1750 
   81.7500    65.4150    10.3270     6.9030    10.6490    24.5610     2.2030   -25.3310 
   81.8750    58.2570    11.8470     8.0970    11.5850    24.5520     2.1810   -25.4820 
   82.0000    52.9260    12.4000     8.8390    11.6850    24.4720     2.1720   -25.5650 
   82.1250    54.0440    11.6040     8.6670    10.4100    24.2810     2.1710   -25.5830 
   82.2500    60.3160    10.1910     7.9150     8.9400    24.1690     2.1810   -25.4860 
   82.3750    68.0500     8.7700     6.9790     7.3690    24.2530     2.2030   -25.2920 
   82.5000    73.9340     7.6860     6.1530     6.4400    24.3990     2.2350   -24.9660 
   82.6250    78.2570     7.0880     5.6080     6.0950    24.4630     2.2720   -24.5330 
   82.7500    81.6790     6.8420     5.3100     5.9660    24.4860     2.3090   -24.0570 
   82.8750    80.6340     6.8520     5.2090     6.0160    24.4720     2.3420   -23.5350 
   83.0000    75.4590     7.0090     5.2360     6.4440    24.3920     2.3580   -23.0060 
   83.1250    70.6850     7.2070     5.3170     6.5880    24.3810     2.3480   -22.5610 
   83.2500    70.9170     7.3690     5.3950     6.3650    24.4380     2.3250   -22.2280 
   83.3750    75.0480     7.4780     5.4560     6.3030    24.4750     2.3070   -21.9960 
   83.5000    78.3610     7.5330     5.4950     6.4800    24.4140     2.3010   -21.8400 
   83.6250    78.8470     7.5260     5.5000     6.4950    24.2710     2.3010   -21.7440 
