~V
VERS. 2.00: Ver 2.00
~W
STRT.M 49.0000:
STOP.M 221.0000:
STEP.M 0.1250:
NULL. -999.2500:
UWI. F10615:
~C
DEPT.M :
DEN.GM/CC :
GR.API :
RML.OHMM :
RI. :
RXO.OHMM :
CALI.CM :
SP.MV :
~A
# ...
   71.5000     2.1840    53.1920    14.7240    11.6290    11.2990    24.2860   -20.8740 
   71.6250     2.1910    55.8140    14.8390    11.6880    11.8400    24.2860   -20.9040 
   71.7500     2.1970    56.6020    14.9430    11.7490    11.4580    24.2860   -20.9030 
   71.8750     2.2020    54.6390    15.0140    11.8030    10.8160    24.2890   -20.8560 
   72.0000     2.2030    53.2890    15.0490    11.8410    10.6720    24.3180   -20.7690 
   72.1250     2.2010    54.8570    15.0680    11.8620    10.9290    24.3960   -20.6360 
   72.2500     2.1940    56.5390    15.0630    11.8590    11.2270    24.5110   -20.4890 
   72.3750     2.1860    57.0630    14.9810    11.8070    11.5080    24.6010   -20.3190 
   72.5000     2.1790    56.3840    14.7180    11.6400    11.5740    24.6700   -20.1770 
   72.6250     2.1710    55.7350    14.2740    11.3420    11.4110    24.7470   -20.0100 
   72.7500     2.1650    55.5370    13.7180    10.9380    11.0980    24.8420   -19.8620 
   72.8750     2.1650    56.0870    13.1750    10.5060    10.5900    24.8910   -19.7200 
   73.0000     2.1740    57.8310    12.8150    10.1820    10.0870    24.8170   -19.6230 
   73.1250     2.1910    58.6580    12.7010    10.0500    10.0160    24.7440   -19.5500 
   73.2500     2.2080    57.7120    12.8510    10.1400    10.5400    24.7540   -19.4850 
   73.3750     2.2110    56.6130    13.2200    10.4270    11.3160    24.9090   -19.4820 
   73.5000     2.2010    57.2280    13.6870    10.8280    11.9130    25.1590   -19.4720 
   73.6250     2.1840    58.9180    14.0520    11.1880    12.2800    25.3610   -19.5010 
   73.7500     2.1730    58.3840    14.1620    11.3780    12.4340    25.3820   -19.5530 
   73.8750     2.1710    55.3710    13.9240    11.3040    12.3410    25.2330   -19.5980 
   74.0000     2.1710    53.5400    13.2890    10.9010    11.5890    25.0980   -19.6700 
   74.1250     2.1700    55.2720    12.4210    10.2870    10.6950    24.9860   -19.7300 
   74.2500     2.1690    58.6510    11.4640     9.5710     9.4960    24.8210   -19.7890 
   74.3750     2.1740    60.4730    10.5730     8.8710     8.3230    24.5500   -19.8000 
   74.5000     2.1870    60.1120     9.9320     8.3250     7.6040    24.2240   -19.8010 
   74.6250     2.2040    59.7160     9.5940     7.9880     7.5250    24.1280   -19.7600 
   74.7500     2.2190    59.4280     9.5760     7.8920     7.7850    24.2650   -19.6820 
   74.8750     2.2300    59.2970     9.8450     8.0360     8.2170    24.4670   -19.5680 
   75.0000     2.2320    59.6530    10.3170     8.3870     8.8150    24.7300   -19.3940 
   75.1250     2.2210    60.0060    10.7410     8.7550     9.3400    25.0660   -19.1740 
   75.2500     2.1930    60.0670    10.8700     8.9520     9.6060    25.5440   -18.9180 
   75.3750     2.1650    61.7410    10.5370     8.8380     9.8880    25.9170   -18.6400 
   75.5000     2.1540    66.6450     9.7380     8.3600     9.5590    25.8030   -18.3040 
   75.6250     2.1710    72.5610     8.8230     7.7260     8.4480    25.3020   -17.9990 
   75.7500     2.2110    76.2590     8.0690     7.1160     7.0250    24.7650   -17.6800 
   75.8750     2.2450    77.3540     7.6370     6.6640     6.5900    24.5140   -17.4190 
   76.0000     2.2580    75.7610     7.5620     6.4590     6.9840    24.4890   -17.2330 
   76.1250     2.2550    71.1980     7.6630     6.4350     7.3150    24.5040   -17.1020 
   76.2500     2.2540    66.8620     7.8050     6.5170     7.3720    24.5280   -17.0620 
   76.3750     2.2660    67.2570     7.8920     6.6080     7.3350    24.5530   -17.0840 
   76.5000     2.2870    71.8390     7.9010     6.6320     7.4240    24.5420   -17.2320 
   76.6250     2.3070    75.2350     7.9170     6.6200     7.4540    24.5020   -17.4350 
   76.7500     2.3150    75.6760     8.0200     6.6360     7.2850    24.3880   -17.7110 
   76.8750     2.3100    74.8890     8.2300     6.7270     6.9500    24.1520   -18.0360 
   77.0000     2.2940    71.1320     8.4610     6.8720     6.9510    23.8160   -18.3520 
   77.1250     2.2740    67.5550     8.5520     6.9570     7.3350    23.5780   -18.7040 
   77.2500     2.2620    68.6440     8.3970     6.8830     7.7580    23.4920   -19.0200 
   77.3750     2.2670    73.6840     8.0240     6.6330     7.9330    23.6330   -19.3180 
   77.5000     2.2910    76.3260     7.6410     6.3090     7.3740    23.9490   -19.5050 
   77.6250     2.3230    75.2430     7.5190     6.1090     6.4870    24.0820   -19.6260 
   77.7500     2.3390    73.1970     7.8230     6.1770     6.0780    23.8940   -19.7330 
   77.8750     2.3290    70.1860     8.6060     6.5960     6.6210    23.6350   -19.8000 
   78.0000     2.2960    64.1960     9.8400     7.4180     8.0950    23.5760   -19.9000 
   78.1250     2.2540    58.4910    11.2250     8.4610     9.4050    23.7160   -19.9680 
   78.2500     2.2200    55.1430    12.4470     9.5060     9.8590    23.9740   -20.0390 
   78.3750     2.2000    54.2720    13.2110    10.3010     9.5980    24.0950   -20.1110 
   78.5000     2.1850    54.9830    13.3100    10.6090     9.4360    23.8980   -20.2150 
   78.6250     2.1710    56.3040    13.0160    10.5460     9.5870    23.4790   -20.3520 
   78.7500     2.1580    58.4240    12.5850    10.2700     9.7690    23.1290   -20.4530 
   78.8750     2.1580    62.0310    12.2050     9.9370     9.4950    23.0030   -20.5690 
   79.0000     2.1790    64.6780    12.0000     9.6890     8.8040    22.9760   -20.6420 
   79.1250     2.2110    63.5040    11.9670     9.5820     8.5650    22.9030   -20.7310 
   79.2500     2.2290    58.5610    12.0950     9.6240     9.0630    22.7900   -20.8690 
   79.3750     2.2200    53.7430    12.3430     9.7790     9.4230    22.7760   -21.0200 
   79.5000     2.1920    51.7190    12.6320     9.9850     9.5850    23.0930   -21.2310 
   79.6250     2.1620    50.6910    12.8470    10.1520     9.8510    23.6620   -21.4630 
   79.7500     2.1450    50.7630    12.9190    10.2310    10.4770    24.0670   -21.7130 
   79.8750     2.1510    51.6490    12.8470    10.2040    11.4040    24.1960   -21.9600 
   80.0000     2.1660    54.1240    12.6750    10.0770    10.8990    24.1910   -22.1660 
   80.1250     2.1770    56.6310    12.4840     9.8960    10.1700    24.1520   -22.3450 
   80.2500     2.1760    57.3690    12.3140     9.6950     9.9600    24.1320   -22.4360 
   80.3750     2.1750    57.3870    12.2820     9.6550     9.9450    24.1280   -22.4850 
   80.5000     2.1820    56.9440    12.1720     9.4830    10.0220    24.1200   -22.4320 
   80.6250     2.1980    57.8040    12.1160     9.3720     9.8290    24.0980   -22.3050 
   80.7500     2.2160    59.8330    12.1030     9.3350     9.6170    24.0750   -22.1150 
   80.8750     2.2270    61.0760    12.1170     9.3670     9.4980    24.0680   -21.8570 
   81.0000     2.2310    60.5720    12.1310     9.4380     9.7100    24.0800   -21.5850 
   81.1250     2.2290    58.3790    12.1090     9.4990     9.7930    24.0800   -21.2430 
   81.2500     2.2170    56.7580    12.0240     9.5190     9.7930    24.1010   -20.8830 
   81.3750     2.1980    57.8780    11.8780     9.4950     9.6750    24.1210   -20.5380 
   81.5000     2.1740    60.2440    11.7420     9.4490     9.5230    24.1270   -20.1840 
   81.6250     2.1530    60.5280    11.7100     9.4230     9.2990    24.1260   -19.8300 
   81.7500     2.1360    60.3800    11.7730     9.4180     9.2150    24.1030   -19.5270 
   81.8750     2.1250    61.4780    11.7710     9.3580     9.2840    24.0150   -19.2200 
   82.0000     2.1270    62.0790    11.3780     9.0450     9.4820    23.8850   -18.9300 
   82.1250     2.1530    61.7280    10.5300     8.4220     9.9600    23.9530   -18.7130 
   82.2500     2.2100    64.0580     9.4100     7.5840     9.7840    24.1590   -18.5150 
   82.3750     2.2620    71.0130     8.3590     6.7550     8.2100    24.2150   -18.3530 
   82.5000     2.2760    77.9040     7.7890     6.2120     6.2950    23.9960   -18.2920 
   82.6250     2.2460    80.1490     7.8050     6.0440     5.7740    23.6830   -18.3170 
