~V
VERS. 2.00: Ver 2.00
~W
STRT.M 57.0000:
STOP.M 248.0000:
STEP.M 0.1250:
NULL. -999.2500:
UWI. F10637:
~C
DEPT.M :
SP.MV :
GR.API :
RML.OHMM :
RI. :
RXO.OHMM :
CALI.CM :
DEN.GM/CC :
~A
# ...
  214.5000   -21.4150    47.7240   249.4380   213.9740   223.7660    25.3700     2.1690 
  214.6250   -21.2940    46.3980   261.3440   222.6590   230.7550    25.3930     2.1830 
  214.7500   -21.2210    46.5930   270.0580   228.4220   239.8180    25.4220     2.1990 
  214.8750   -21.1880    48.9540   276.4500   232.1780   246.0870    25.4740     2.2110 
  215.0000   -21.1960    50.6580   281.0080   234.4390   242.9040    25.4970     2.2130 
  215.1250   -21.2380    50.3980   284.7810   236.0350   231.5040    25.4140     2.1980 
  215.2500   -21.3000    49.8520   289.8300   238.6750   227.0450    25.3960     2.1620 
  215.3750   -21.3650    50.6340   296.2920   242.8420   232.3710    25.4210     2.1250 
  215.5000   -21.4300    50.9350   300.0820   245.8030   238.2240    25.4170     2.1190 
  215.6250   -21.4960    49.1760   293.6090   241.8740   247.1940    25.3620     2.1750 
  215.7500   -21.5510    48.8710   268.9730   224.1880   267.7010    25.2400     2.3210 
  215.8750   -21.5820    49.3840   233.2060   196.5450   265.6240    25.0900     2.4930 
  216.0000   -21.5750    49.6310   195.3760   165.4800   185.4350    24.9260     2.6050 
  216.1250   -21.5270    50.2240   162.3760   137.2560   104.4280    24.8060     2.6110 
  216.2500   -21.4350    53.4200   137.7070   115.9590    84.3840    24.7810     2.5450 
  216.3750   -21.3120    58.6860   119.1360   100.1940    91.0350    24.8540     2.4790 
  216.5000   -21.1610    63.4950   105.3240    88.6870    91.1840    24.9670     2.4440 
  216.6250   -20.9750    66.2430    95.5350    80.6000    77.7980    25.0160     2.4500 
  216.7500   -20.7480    65.5380    90.1210    76.0180    65.1400    25.0080     2.4840 
  216.8750   -20.4950    63.4110    88.0690    74.1250    61.2460    25.0660     2.5140 
  217.0000   -20.2170    62.0270    87.7610    73.9180    57.6150    25.1190     2.5290 
  217.1250   -19.9170    61.7890    85.2110    72.4850    51.9700    25.1130     2.5380 
  217.2500   -19.6040    62.2150    73.3750    63.7890    48.6040    24.9930     2.5640 
  217.3750   -19.2850    60.5230    53.7620    48.1100    50.6560    24.8830     2.5940 
  217.5000   -18.9630    55.5840    33.6240    31.1710   121.6290    24.8710     2.5930 
  217.6250   -18.6450    49.4830    18.9830    18.2650   118.7440    24.9980     2.5380 
  217.7500   -18.3460    44.9010    11.4310    11.1000   101.8650    25.1060     2.4420 
  217.8750   -18.0780    41.0940     7.2410     7.2440    32.3630    25.2010     2.3520 
  218.0000   -17.8610    37.4300     5.2230     5.3120     7.3370    25.3540     2.2940 
  218.1250   -17.7080    36.4610     4.7130     4.4470     4.6250    25.5570     2.2760 
  218.2500   -17.6260    39.8000     4.7030     4.2550     4.4320    25.5370     2.2870 
  218.3750   -17.5970    42.0720     4.8460     4.3420     4.6780    25.3730     2.2980 
  218.5000   -17.6140    41.5040     4.9790     4.5110     4.7190    25.2780     2.3040 
  218.6250   -17.6750    40.1360     5.0260     4.6400     4.5270    25.2700     2.3090 
  218.7500   -17.7750    40.6310     5.0010     4.6880     4.4330    25.2700     2.3220 
  218.8750   -17.8900    41.6580     4.9710     4.7020     4.4590    25.2720     2.3370 
  219.0000   -18.0060    41.7640     4.9720     4.7180     4.5020    25.2820     2.3480 
  219.1250   -18.1100    41.3310     5.0170     4.7570     4.5550    25.3000     2.3520 
  219.2500   -18.2030    41.3010     5.1060     4.8210     4.6110    25.3210     2.3500 
  219.3750   -18.2940    42.4770     5.2160     4.8900     4.6670    25.3360     2.3480 
  219.5000   -18.3860    44.6760     5.3280     4.9470     4.7420    25.3540     2.3540 
  219.6250   -18.4700    45.8570     5.4160     4.9710     4.8310    25.3550     2.3730 
  219.7500   -18.5470    44.2250     5.4360     4.9240     4.9030    25.3190     2.4090 
  219.8750   -18.6210    40.9700     5.3760     4.8040     4.9560    25.2910     2.4430 
  220.0000   -18.6890    37.1370     5.2480     4.6250     4.9710    25.2660     2.4570 
  220.1250   -18.7480    33.9890     5.0920     4.4240     4.9570    25.2540     2.4440 
  220.2500   -18.7890    33.1200     4.9750     4.2550     4.9550    25.2520     2.4090 
  220.3750   -18.8040    34.5880     4.9350     4.1500     4.9960    25.2740     2.3770 
  220.5000   -18.7920    36.9250     4.9690     4.1110     5.0910    25.3280     2.3610 
  220.6250   -18.7610    38.4110     5.0450     4.1200     5.1590    25.3700     2.3650 
  220.7500   -18.7230    38.6450     5.1240     4.1530     5.1040    25.3050     2.3820 
  220.8750   -18.6950    38.0990     5.1970     4.1990     5.0620    25.2640     2.3960 
  221.0000   -18.6870    37.4290     5.2860     4.2660     5.0450    25.2530     2.4040 
  221.1250   -18.7040    37.0710     5.4230     4.3740     5.0540    25.3050     2.4060 
  221.2500   -18.7540    38.9640     5.6280     4.5360     5.1110    25.3610     2.4020 
  221.3750   -18.8370    43.7230     5.8610     4.7260     5.1880    25.3970     2.3970 
  221.5000   -18.9590    48.5590     6.0630     4.9000     5.2680    25.4060     2.3910 
  221.6250   -19.1190    48.3350     6.1820     5.0150     5.3110    25.4030     2.3840 
  221.7500   -19.3070    42.9640     6.1880     5.0370     5.2160    25.3870     2.3780 
  221.8750   -19.5020    40.2160     6.1430     5.0010     5.1070    25.3610     2.3750 
  222.0000   -19.6960    43.6830     6.1150     4.9590     5.0070    25.3440     2.3740 
  222.1250   -19.8870    50.3480     6.1630     4.9620     4.9400    25.3380     2.3740 
  222.2500   -20.0720    56.3560     6.3170     5.0500     4.9290    25.3410     2.3720 
  222.3750   -20.2470    61.7080     6.5180     5.1940     4.9660    25.3470     2.3660 
  222.5000   -20.4060    64.5290     6.6940     5.3460     5.0500    25.3470     2.3540 
  222.6250   -20.5390    62.8180     6.7660     5.4380     5.1810    25.3320     2.3400 
  222.7500   -20.6360    59.8350     6.6590     5.3910     5.3550    25.3080     2.3270 
  222.8750   -20.6970    59.9010     6.4430     5.2330     5.5230    25.2960     2.3200 
  223.0000   -20.7160    61.0900     6.2250     5.0370     5.6360    25.2840     2.3160 
  223.1250   -20.6960    59.8110     6.1030     4.8880     5.6630    25.2700     2.3150 
  223.2500   -20.6370    58.0900     6.1370     4.8580     5.5950    25.2580     2.3190 
  223.3750   -20.5530    59.7230     6.2520     4.9130     5.4750    25.2690     2.3290 
  223.5000   -20.4660    62.8850     6.3500     4.9830     5.3370    25.2950     2.3440 
  223.6250   -20.3930    62.4380     6.3470     4.9920     5.2170    25.3080     2.3580 
  223.7500   -20.3510    57.3600     6.2340     4.9110     5.1540    25.3190     2.3630 
  223.8750   -20.3550    53.2000     6.1340     4.8210     5.1490    25.3430     2.3590 
  224.0000   -20.4170    50.6960     6.1470     4.8090     5.2040    25.3950     2.3460 
  224.1250   -20.5360    49.4060     6.3240     4.9300     5.3200    25.4770     2.3320 
  224.2500   -20.7220    53.4560     6.6640     5.2070     5.4960    25.5380     2.3200 
  224.3750   -20.9560    63.0660     7.0450     5.5520     5.6750    25.5610     2.3110 
  224.5000   -21.2130    71.2360     7.3520     5.8710     5.7960    25.5640     2.3060 
  224.6250   -21.4570    71.8260     7.5150     6.0800     5.8220    25.5580     2.3020 
  224.7500   -21.6550    68.3820     7.5140     6.1280     5.7610    25.5350     2.2970 
  224.8750   -21.7920    66.3660     7.4150     6.0630     5.6720    25.4920     2.2910 
  225.0000   -21.8620    63.8880     7.2390     5.9130     5.5800    25.4490     2.2880 
  225.1250   -21.8680    60.3860     6.9860     5.6990     5.4950    25.4210     2.2900 
  225.2500   -21.8070    59.2010     6.6640     5.4280     5.4270    25.4150     2.2910 
  225.3750   -21.6870    60.0780     6.3460     5.1500     5.3880    25.4290     2.2870 
  225.5000   -21.5210    60.1360     6.1140     4.9220     5.3880    25.4960     2.2790 
  225.6250   -21.3380    58.4380     6.0240     4.7980     5.4240    25.6400     2.2760 
