~V
VERS. 2.00: Ver 2.00
~W
STRT.M 55.0000:
STOP.M 213.0000:
STEP.M 0.1250:
NULL. -999.2500:
UWI. F10686:
~C
DEPT.M :
SP.MV :
DEN.GM/CC :
GR.API :
RML.OHMM :
RI. :
RXO.OHMM :
CALI.CM :
~A
# ...
  111.2500   -17.9820     2.0940    46.9570    49.1970    43.4580    40.1160    24.3440 
  111.3750   -17.9920     2.0770    43.3900    46.1640    41.2870    41.4850    24.0860 
  111.5000   -17.9960     2.0660    41.8480    42.4520    38.4210    33.3120    23.7920 
  111.6250   -18.0230     2.0620    44.9670    39.1230    35.6710    23.7850    23.6230 
  111.7500   -18.0290     2.0580    51.2720    36.9010    33.7340    20.6250    23.4440 
  111.8750   -18.0300     2.0550    56.8670    35.9240    32.8540    21.8960    23.3110 
  112.0000   -18.0610     2.0550    58.6330    35.8580    32.8850    24.5700    23.2880 
  112.1250   -18.0900     2.0630    56.5670    36.0410    33.3760    25.5290    23.3970 
  112.2500   -18.0790     2.0770    52.9280    35.8480    33.6790    24.6900    23.6240 
  112.3750   -18.1000     2.0910    50.6440    35.1850    33.5550    23.7120    23.8150 
  112.5000   -18.1630     2.1020    50.4780    34.3420    33.1390    21.8680    23.8190 
  112.6250   -18.1680     2.1060    52.9830    33.7480    32.7860    20.1390    23.8160 
  112.7500   -18.1780     2.1060    56.0080    33.4070    32.6140    19.7020    23.8140 
  112.8750   -18.2060     2.1060    56.9890    32.9860    32.3970    20.9240    23.8050 
  113.0000   -18.1860     2.1070    56.1300    32.0540    31.7270    23.2740    23.7620 
  113.1250   -18.1700     2.1100    56.5980    30.3000    30.2040    23.6830    23.5140 
  113.2500   -18.1880     2.1190    59.7620    28.1840    28.1800    21.8460    23.3230 
  113.3750   -18.2110     2.1410    61.6090    26.3010    26.1940    20.2700    23.3290 
  113.5000   -18.2450     2.1820    59.7440    25.2350    24.7890    18.3230    23.4010 
  113.6250   -18.3060     2.2350    56.5270    25.6310    24.5790    16.1130    23.3900 
  113.7500   -18.3660     2.2730    54.7440    27.4430    25.6240    16.5200    23.3240 
  113.8750   -18.4640     2.2760    55.6580    30.6350    27.9720    18.9630    23.4000 
  114.0000   -18.6400     2.2410    57.2930    35.1110    31.5970    22.0050    23.8730 
  114.1250   -18.7910     2.1840    55.9650    40.8780    36.5780    25.2940    24.1080 
  114.2500   -18.9170     2.1360    52.6990    47.4020    42.4190    31.4390    24.3200 
  114.3750   -19.0710     2.1080    51.2310    54.1320    48.5990    38.8420    24.5320 
  114.5000   -19.2120     2.1000    52.2810    60.3460    54.4450    44.6760    24.7940 
  114.6250   -19.3540     2.1020    52.2200    64.9970    59.0030    49.7900    25.0710 
  114.7500   -19.5260     2.1030    50.3010    67.8270    61.9390    54.1280    25.2520 
  114.8750   -19.7070     2.0960    47.8300    68.9990    63.2870    55.2150    25.3340 
  115.0000   -19.8330     2.0820    46.0210    69.0980    63.5090    54.2300    25.4050 
  115.1250   -19.9560     2.0630    45.3180    68.6920    63.1160    54.0690    25.4870 
  115.2500   -20.1070     2.0460    45.2520    68.2220    62.5790    52.8940    25.5390 
  115.3750   -20.1980     2.0340    45.9450    67.8410    62.0870    50.7090    25.5510 
  115.5000   -20.2160     2.0330    46.4830    67.5570    61.7110    49.3110    25.5450 
  115.6250   -20.2300     2.0420    45.3410    67.1420    61.3390    48.0720    25.5200 
  115.7500   -20.2180     2.0560    44.1520    66.2230    60.6550    44.7870    25.3520 
  115.8750   -20.1500     2.0680    45.2930    64.4410    59.3030    41.2650    24.9100 
  116.0000   -20.1220     2.0740    48.4630    61.6550    57.0570    39.7230    24.4590 
  116.1250   -20.1220     2.0710    49.7530    58.1040    53.9820    36.8660    24.0010 
  116.2500   -20.1000     2.0630    49.6750    54.6240    50.7860    31.8610    23.5270 
  116.3750   -20.1420     2.0520    50.0100    51.8740    48.0790    25.5700    22.9910 
  116.5000   -20.2420     2.0420    50.0590    50.3020    46.3130    21.1140    22.5580 
  116.6250   -20.3020     2.0360    47.8340    50.2520    45.8620    19.7280    22.2650 
  116.7500   -20.3270     2.0330    45.0570    51.2770    46.4080    19.3870    22.1210 
  116.8750   -20.3530     2.0320    43.8860    52.9550    47.6270    19.1130    22.0980 
  117.0000   -20.2960     2.0300    44.6640    54.7400    49.0730    19.0910    22.0960 
  117.1250   -20.1320     2.0270    46.5180    55.9090    50.1190    19.1160    22.0960 
  117.2500   -19.9380     2.0240    47.0790    56.1000    50.3840    19.5050    22.0960 
  117.3750   -19.6700     2.0200    45.9070    55.1880    49.7100    20.0030    22.0960 
  117.5000   -19.3360     2.0180    46.1380    53.3000    48.1530    20.2180    22.0940 
  117.6250   -18.9930     2.0180    49.3700    50.7260    45.9080    20.1790    22.0310 
  117.7500   -18.7030     2.0240    51.0290    48.0530    43.4890    19.5110    21.7230 
  117.8750   -18.4310     2.0380    49.8980    45.6210    41.2180    18.4380    21.4690 
  118.0000   -18.1800     2.0590    47.7390    43.6080    39.2920    17.6140    21.6650 
  118.1250   -17.9940     2.0840    45.9280    42.0990    37.8350    17.0470    21.9370 
  118.2500   -17.8220     2.1060    44.7420    40.9140    36.7110    16.8590    21.9480 
  118.3750   -17.6650     2.1250    46.4200    39.9210    35.8010    16.3450    21.9350 
  118.5000   -17.5860     2.1410    50.5450    38.9990    34.9890    15.7250    21.9310 
  118.6250   -17.5510     2.1530    51.7580    38.0290    34.1600    15.6620    21.9310 
  118.7500   -17.4970     2.1560    50.9800    36.9100    33.2000    16.0420    21.9310 
  118.8750   -17.4520     2.1450    50.6580    35.5890    32.0320    16.4120    21.9310 
  119.0000   -17.4140     2.1180    50.0790    34.1380    30.6830    16.3620    21.9310 
  119.1250   -17.3950     2.0760    49.7760    32.7920    29.3360    15.9570    21.9330 
  119.2500   -17.4070     2.0370    50.6240    31.7370    28.1810    15.3950    21.9560 
  119.3750   -17.4230     2.0180    52.2450    31.0370    27.3020    15.3010    22.0900 
  119.5000   -17.3940     2.0320    52.4540    30.6750    26.7220    16.0980    22.4980 
  119.6250   -17.3890     2.0820    51.5240    30.6020    26.4830    18.8680    22.8640 
  119.7500   -17.3800     2.1410    51.3880    30.7140    26.5230    21.5480    23.0780 
  119.8750   -17.3450     2.1830    52.0130    31.1150    26.8840    22.0230    23.1210 
  120.0000   -17.3250     2.1930    53.5880    32.1060    27.7070    22.0170    23.1880 
  120.1250   -17.3210     2.1800    54.0970    34.3530    29.4320    24.0870    23.2220 
  120.2500   -17.3360     2.1810    51.6670    38.0070    32.3250    23.7360    23.3440 
  120.3750   -17.3460     2.2230    47.4240    42.6200    36.3460    21.9210    23.6650 
  120.5000   -17.3840     2.3080    43.8830    46.4430    40.3540    22.3530    23.8060 
  120.6250   -17.4320     2.4080    44.1820    45.3930    40.7680    30.1980    23.8440 
  120.7500   -17.4590     2.4770    48.0140    38.4740    35.8260    44.3820    23.8500 
  120.8750   -17.4950     2.4910    54.6370    28.2690    27.3040    55.4250    23.8690 
  121.0000   -17.5650     2.4500    61.0430    18.8020    18.8330    39.7280    23.8860 
  121.1250   -17.5970     2.3810    64.7390    12.7440    13.0220    19.6020    23.8890 
  121.2500   -17.5730     2.3160    66.8930     9.2980     9.4540     9.2890    23.8780 
  121.3750   -17.5640     2.2660    67.9700     7.5240     7.4200     6.5120    23.8110 
  121.5000   -17.5270     2.2280    66.9450     6.6870     6.3350     6.1760    23.7500 
  121.6250   -17.4640     2.2020    65.2790     6.4280     5.9340     6.1280    23.7570 
  121.7500   -17.4310     2.1880    65.7090     6.5280     5.9630     5.8160    23.8380 
  121.8750   -17.3940     2.1950    66.8300     7.0010     6.3830     5.5980    24.0060 
  122.0000   -17.3230     2.2340    65.2260     7.8620     7.1750     5.5840    24.2000 
  122.1250   -17.2890     2.3080    62.0970     9.0010     8.2790     6.8800    24.2700 
  122.2500   -17.3010     2.3850    62.1510     9.9460     9.3060     9.9310    24.2830 
  122.3750   -17.2950     2.4370    64.2800    10.1520     9.7400    13.5420    24.2840 
