~V
VERS. 2.00: Ver 2.00
~W
STRT.M 51.0000:
STOP.M 206.0000:
STEP.M 0.1250:
NULL. -999.2500:
UWI. F10683:
~C
DEPT.M :
GR.API :
RML.OHMM :
RI. :
RXO.OHMM :
CALI.CM :
SP.MV :
DEN.GM/CC :
~A
# ...
   62.2500    58.3410    16.5520    21.4600    32.5940    24.4490    -0.5830     2.4940 
   62.3750    64.6080    11.7600    15.1060    15.6100    24.4440    -2.5700     2.4080 
   62.5000    68.8720     8.7930    10.9550     8.6030    24.4810    -4.2540     2.3520 
   62.6250    70.2180     7.4960     8.8690     7.0240    24.5460    -5.5920     2.3240 
   62.7500    69.3810     7.1230     7.9300     7.0050    24.6070    -6.6350     2.3030 
   62.8750    69.0300     7.2920     7.7240     7.2570    24.6580    -7.4340     2.2890 
   63.0000    69.8590     7.6480     7.9060     7.3550    24.6650    -8.0870     2.2900 
   63.1250    69.2750     7.9350     8.2070     7.3360    24.6190    -8.6640     2.3050 
   63.2500    66.4380     8.2130     8.5440     7.1660    24.5890    -9.2250     2.3280 
   63.3750    63.7350     8.6760     9.0200     7.0150    24.5900    -9.7960     2.3550 
   63.5000    62.0120     9.4360     9.7250     7.1510    24.5670   -10.3940     2.3850 
   63.6250    59.7860    10.4030    10.6180     8.4090    24.4780   -10.9120     2.4080 
   63.7500    58.7730    11.1630    11.3590    10.0450    24.3720   -11.2700     2.4090 
   63.8750    61.7720    11.3310    11.5760    10.5630    24.3510   -11.4410     2.3800 
   64.0000    66.8440    10.7910    11.0980     9.4700    24.4480   -11.4440     2.3370 
   64.1250    68.1270     9.8240    10.1160     7.9490    24.5920   -11.3220     2.3140 
   64.2500    66.8460     8.9700     9.1530     7.0220    24.6740   -11.1110     2.3220 
   64.3750    67.5870     8.4770     8.4740     6.8170    24.6990   -10.8280     2.3530 
   64.5000    70.5760     8.3940     8.1570     6.8170    24.7010   -10.4980     2.3900 
   64.6250    71.4980     8.6330     8.1680     7.1100    24.6910   -10.2340     2.4080 
   64.7500    70.7270     8.9240     8.2880     7.5610    24.6630   -10.1470     2.3950 
   64.8750    69.9210     9.0810     8.3590     7.9400    24.6220   -10.2710     2.3540 
   65.0000    66.8930     9.0160     8.2900     8.1670    24.5750   -10.5470     2.3060 
   65.1250    62.1660     8.7730     8.0890     7.9480    24.5570   -10.9420     2.2680 
   65.2500    59.9660     8.5800     7.9090     7.6100    24.5500   -11.4810     2.2410 
   65.3750    58.9700     8.6340     7.8980     7.5710    24.5280   -12.2020     2.2190 
   65.5000    57.6180     9.0590     8.1600     7.8120    24.4320   -13.1160     2.1970 
   65.6250    57.2130     9.8850     8.7540     8.4310    24.2290   -14.2060     2.1730 
   65.7500    58.6670    10.8440     9.5150     9.1600    24.0470   -15.3470     2.1550 
   65.8750    58.4780    11.6360    10.2360     9.7480    23.9750   -16.4610     2.1540 
   66.0000    55.6950    11.9920    10.6970    10.3400    23.9670   -17.5410     2.1770 
   66.1250    55.3090    11.8110    10.7520    10.0290    23.9670   -18.5470     2.2170 
   66.2500    57.4600    11.4820    10.6240     9.3560    23.9670   -19.3690     2.2490 
   66.3750    58.6160    11.3620    10.5670     9.1490    23.9670   -19.8940     2.2640 
   66.5000    56.9340    11.6400    10.7600     9.4460    23.9670   -20.0560     2.2660 
   66.6250    55.2850    12.2560    11.2300     9.5340    23.9670   -19.8100     2.2760 
   66.7500    55.4850    12.7480    11.6720     9.9210    23.9700   -19.3020     2.3020 
   66.8750    55.7170    12.6370    11.7020    10.6950    23.9940   -18.6020     2.3390 
   67.0000    54.5860    11.6550    11.0430    10.7830    24.0710   -17.7790     2.3630 
   67.1250    56.5830    10.0210     9.7820     9.2660    24.2040   -16.9280     2.3460 
   67.2500    61.2790     8.5200     8.5270     7.3420    24.3300   -16.1770     2.3000 
   67.3750    64.3800     7.6230     7.6600     6.7530    24.3930   -15.6280     2.2540 
   67.5000    63.0640     7.5210     7.3710     6.7780    24.3980   -15.3200     2.2270 
   67.6250    60.8790     8.3040     7.7980     7.3600    24.3120   -15.2820     2.2240 
   67.7500    60.0940     9.5910     8.7240     8.0960    24.1100   -15.4170     2.2390 
   67.8750    58.8310    10.9380     9.8510     9.2850    23.8640   -15.6770     2.2700 
   68.0000    57.6240    11.8140    10.7310    10.1690    23.6950   -15.9790     2.3020 
   68.1250    57.7270    11.8100    10.9110     9.7400    23.6210   -16.2640     2.3110 
   68.2500    57.2920    11.3340    10.6030     8.9140    23.5850   -16.5220     2.2880 
   68.3750    56.8850    10.8330    10.1410     8.4410    23.5430   -16.7800     2.2490 
   68.5000    58.4700    10.5920     9.7890     8.3760    23.5110   -17.0960     2.2270 
   68.6250    62.1760    10.6910     9.6750     9.0000    23.5660   -17.4510     2.2480 
   68.7500    62.1250    10.9400     9.7160     9.8430    23.6920   -17.7760     2.2880 
   68.8750    58.8880    11.2410     9.8570    10.4130    23.8460   -18.0560     2.3130 
   69.0000    55.9110    11.6600    10.1270    10.2850    23.9690   -18.3170     2.3100 
   69.1250    54.9300    12.5900    10.7660     9.8420    24.0630   -18.5820     2.2810 
   69.2500    53.6930    14.3810    12.0180    10.5420    24.1540   -18.8170     2.2410 
   69.3750    52.0550    17.3070    14.1430    13.0990    24.2330   -18.9510     2.1980 
   69.5000    52.0930    21.3690    17.2490    16.9150    24.2840   -18.9510     2.1600 
   69.6250    53.7060    25.9200    21.0070    19.9670    24.2770   -18.8810     2.1430 
   69.7500    54.3290    29.2970    24.1040    19.2440    24.2640   -18.8660     2.1470 
   69.8750    52.8630    30.1730    25.3400    15.4450    24.2440   -18.9610     2.1610 
   70.0000    50.0580    28.5940    24.5060    12.7800    24.1930   -19.1770     2.1670 
   70.1250    49.9350    25.9200    22.4830    12.6030    24.1310   -19.4610     2.1620 
   70.2500    52.4510    23.5970    20.5060    13.2960    24.0630   -19.7570     2.1680 
   70.3750    54.6310    21.9430    18.9380    13.8730    24.0090   -20.0620     2.1980 
   70.5000    53.9090    20.8730    17.8120    13.7360    23.9410   -20.3370     2.2410 
   70.6250    52.3690    20.2640    17.1160    13.4810    23.9080   -20.5380     2.2660 
   70.7500    52.5340    19.9440    16.7330    13.0170    23.8920   -20.6700     2.2650 
   70.8750    53.3340    19.8810    16.6280    12.4110    23.8690   -20.7320     2.2460 
   71.0000    52.7730    20.0190    16.7430    12.1790    23.8190   -20.7150     2.2190 
   71.1250    51.8480    20.1770    16.9440    13.2490    23.7770   -20.6130     2.1970 
   71.2500    51.8660    20.0690    16.9910    14.9600    23.7570   -20.4440     2.1960 
   71.3750    53.2350    19.5330    16.7200    15.2550    23.7410   -20.2150     2.2130 
   71.5000    55.5520    18.6540    16.1360    13.7610    23.7150   -19.9770     2.2340 
   71.6250    56.7100    17.7560    15.4300    12.1280    23.6770   -19.7690     2.2420 
   71.7500    56.2060    17.1670    14.8700    11.6220    23.6420   -19.5860     2.2420 
   71.8750    54.6400    17.0130    14.5920    11.6670    23.6260   -19.3980     2.2360 
   72.0000    54.3160    17.2490    14.6130    11.7880    23.6450   -19.2260     2.2270 
   72.1250    56.5630    17.6520    14.8250    12.2160    23.6670   -19.1130     2.2320 
   72.2500    59.0380    17.8520    14.9540    12.7950    23.6930   -19.0520     2.2520 
   72.3750    58.7370    17.5930    14.7860    13.4690    23.7500   -19.0280     2.2740 
   72.5000    55.3990    16.7970    14.2270    13.7740    23.8460   -18.9880     2.2870 
   72.6250    53.8170    15.6580    13.3870    12.6820    23.9510   -18.8580     2.3080 
   72.7500    54.5240    14.6890    12.6410    11.7460    24.0200   -18.6400     2.3560 
   72.8750    54.9080    14.2500    12.2700    11.2710    24.0850   -18.3440     2.4250 
   73.0000    53.9960    14.5070    12.4250    11.9310    24.2160   -17.9810     2.4940 
   73.1250    53.5420    15.4570    13.1630    15.6480    24.4130   -17.5810     2.5300 
   73.2500    54.1380    16.6240    14.1570    21.3100    24.5590   -17.2240     2.5200 
   73.3750    54.5300    17.5260    15.0210    23.6360    24.5260   -16.9310     2.4710 
