~V
VERS. 2.00: Ver 2.00
~W
STRT.M 50.0000:
STOP.M 263.0000:
STEP.M 0.1250:
NULL. -999.2500:
UWI. F10656:
~C
DEPT.M :
DEN.GM/CC :
GR.API :
RML.OHMM :
RI. :
RXO.OHMM :
CALI.CM :
SP.MV :
~A
# ...
   95.0000     2.2620    82.9110     5.1270     4.6390     5.2630    23.7120    -5.3530 
   95.1250     2.2720    80.4240     5.0720     4.5830     5.1930    23.7220    -5.2920 
   95.2500     2.2860    79.3660     5.0850     4.5850     5.1460    23.7200    -5.2520 
   95.3750     2.2990    79.9080     5.1580     4.6410     5.1450    23.7020    -5.2580 
   95.5000     2.3070    82.8800     5.2710     4.7330     5.1990    23.6670    -5.2800 
   95.6250     2.3070    86.0080     5.3860     4.8320     5.2990    23.6170    -5.3340 
   95.7500     2.3010    86.7370     5.4570     4.9010     5.4120    23.5600    -5.3920 
   95.8750     2.2940    85.3300     5.4550     4.9150     5.5020    23.5100    -5.4410 
   96.0000     2.2870    84.1040     5.3760     4.8690     5.5120    23.5010    -5.4630 
   96.1250     2.2800    85.0020     5.2440     4.7750     5.3890    23.5170    -5.4570 
   96.2500     2.2710    86.7980     5.1260     4.6840     5.2940    23.5000    -5.4470 
   96.3750     2.2600    87.6910     5.0900     4.6490     5.2440    23.4590    -5.3970 
   96.5000     2.2540    86.7840     5.1950     4.7160     5.2830    23.4170    -5.2860 
   96.6250     2.2670    84.2180     5.4820     4.9260     5.4990    23.4170    -5.1380 
   96.7500     2.3050    81.9510     5.8620     5.2250     5.9410    23.4900    -4.9710 
   96.8750     2.3610    81.3430     6.2290     5.5420     6.6190    23.6080    -4.8280 
   97.0000     2.4150    81.2350     6.4680     5.7880     7.3730    23.7190    -4.7670 
   97.1250     2.4350    78.6100     6.4820     5.8680     7.8820    23.6810    -4.7500 
   97.2500     2.4150    74.9950     6.3270     5.7990     7.4800    23.4960    -4.7180 
   97.3750     2.3690    73.6600     6.1060     5.6370     6.4170    23.2170    -4.7040 
   97.5000     2.3190    75.0660     5.9180     5.4570     5.7960    22.9860    -4.7790 
   97.6250     2.2870    76.0190     5.7760     5.3220     5.6570    22.8560    -4.8930 
   97.7500     2.2730    76.1240     5.6710     5.2300     5.6280    22.7990    -5.0410 
   97.8750     2.2700    77.2880     5.5690     5.1500     5.5590    22.7470    -5.1670 
   98.0000     2.2720    79.1130     5.4970     5.0530     5.4810    22.6770    -5.2610 
   98.1250     2.2750    82.4540     5.4560     4.9380     5.3620    22.6110    -5.3270 
   98.2500     2.2810    87.0450     5.4300     4.8510     5.2070    22.5500    -5.3950 
   98.3750     2.2950    90.3480     5.4680     4.8420     5.0140    22.4730    -5.4920 
   98.5000     2.3210    90.6040     5.6390     4.9370     4.9430    22.3410    -5.6030 
   98.6250     2.3580    87.9430     5.9480     5.1290     5.1380    22.0870    -5.7710 
   98.7500     2.3930    85.2460     6.2550     5.3280     5.4160    21.7920    -6.0030 
   98.8750     2.4130    82.8470     6.4170     5.4380     5.6760    21.6790    -6.3310 
   99.0000     2.4070    80.4030     6.3160     5.3710     5.8450    21.8330    -6.7020 
   99.1250     2.3740    79.4570     5.8950     5.0710     5.8780    22.1340    -7.0620 
   99.2500     2.3340    82.8000     5.3490     4.6560     5.9850    22.4240    -7.3730 
   99.3750     2.3030    91.3500     4.9300     4.2890     5.9600    22.7430    -7.6480 
   99.5000     2.2910    99.2110     4.9520     4.1910     5.6500    23.0680    -7.9530 
   99.6250     2.3100    97.9670     5.8610     4.7110     5.7740    23.4130    -8.3600 
   99.7500     2.3570    89.1520     7.6380     5.9190     7.5150    23.7500    -8.8650 
   99.8750     2.4250    77.2220    10.0510     7.7350    11.2630    24.0270    -9.4530 
  100.0000     2.4950    65.6750    12.5240     9.8100    16.2380    24.1380   -10.1560 
  100.1250     2.5310    59.0830    14.0050    11.3850    20.6150    24.1000   -11.0660 
  100.2500     2.5110    57.2390    13.9580    11.8730    21.6610    24.0380   -12.1460 
  100.3750     2.4390    56.5440    12.5210    11.1850    16.8050    23.9940   -13.2900 
  100.5000     2.3450    55.7930    10.5430     9.8390    11.0530    23.9920   -14.3980 
  100.6250     2.2650    56.3760     9.0580     8.6130     9.1650    24.0090   -15.3500 
  100.7500     2.2120    56.6420     8.3060     7.8430     8.5940    23.9700   -16.1770 
  100.8750     2.1850    55.0910     8.1260     7.5070     8.4400    23.8790   -16.8670 
  101.0000     2.1740    51.9330     8.2600     7.4670     8.3780    23.7460   -17.3400 
  101.1250     2.1710    50.5800     8.4730     7.5710     8.4370    23.6760   -17.5930 
  101.2500     2.1690    52.6670     8.6230     7.6780     8.5700    23.7440   -17.6940 
  101.3750     2.1690    55.8040     8.6910     7.7420     8.6910    23.8810   -17.7170 
  101.5000     2.1710    56.4420     8.7010     7.7600     8.7690    23.9600   -17.6880 
  101.6250     2.1760    54.3890     8.6890     7.7440     8.7750    23.9760   -17.6770 
  101.7500     2.1810    53.3580     8.6840     7.7170     8.7710    23.9750   -17.6150 
  101.8750     2.1840    54.8020     8.6960     7.6890     8.7990    23.9750   -17.4970 
  102.0000     2.1850    57.7060     8.7270     7.6680     8.7830    23.9750   -17.4190 
  102.1250     2.1850    60.7170     8.7720     7.6580     8.7950    23.9750   -17.3710 
  102.2500     2.1850    60.0340     8.8210     7.6610     8.8640    23.9750   -17.3340 
  102.3750     2.1870    55.0670     8.8630     7.6730     9.0000    23.9750   -17.2740 
  102.5000     2.1910    51.2670     8.8930     7.6860     9.1490    23.9750   -17.1870 
  102.6250     2.1930    53.7510     8.9060     7.6920     9.2600    23.9750   -17.0260 
  102.7500     2.1910    57.7990     8.9060     7.6870     9.3040    23.9750   -16.8210 
  102.8750     2.1850    59.3870     8.8960     7.6730     9.3330    23.9740   -16.6030 
  103.0000     2.1760    58.3550     8.8800     7.6570     9.4070    23.9730   -16.3880 
  103.1250     2.1690    58.1990     8.8600     7.6470     9.4770    23.9640   -16.1570 
  103.2500     2.1660    60.4490     8.8350     7.6450     9.5240    23.9380   -15.8870 
  103.3750     2.1690    62.3820     8.8040     7.6500     9.4910    23.8820   -15.6170 
  103.5000     2.1750    62.0890     8.7690     7.6540     9.3760    23.7760   -15.3690 
  103.6250     2.1810    60.1840     8.7360     7.6520     9.1820    23.6210   -15.1520 
  103.7500     2.1830    58.5770     8.7090     7.6420     9.0060    23.4860   -14.9660 
  103.8750     2.1800    57.5140     8.6870     7.6270     8.9170    23.4550   -14.7930 
  104.0000     2.1720    57.1950     8.6620     7.6090     8.9390    23.5100   -14.5930 
  104.1250     2.1610    58.3440     8.6180     7.5870     8.9830    23.5890   -14.3620 
  104.2500     2.1530    58.6640     8.5500     7.5630     8.9940    23.6170   -14.1110 
  104.3750     2.1470    56.8360     8.4780     7.5440     8.9760    23.5650   -13.8470 
  104.5000     2.1450    55.1790     8.4500     7.5580     8.9420    23.4640   -13.5500 
  104.6250     2.1430    55.2700     8.5680     7.6700     8.9450    23.3990   -13.1760 
  104.7500     2.1400    55.8680     8.8630     7.9080     9.0140    23.3770   -12.7070 
  104.8750     2.1400    56.1020     9.2900     8.2500     9.2460    23.3950   -12.1470 
  105.0000     2.1480    57.0790     9.6910     8.5910     9.8350    23.4590   -11.4870 
  105.1250     2.1770    59.8050     9.7610     8.7020    10.9180    23.5530   -10.6920 
  105.2500     2.2240    61.9990     9.3550     8.4450    11.9480    23.6480    -9.7990 
  105.3750     2.2810    65.3020     8.4820     7.7960    12.4690    23.7850    -8.8470 
  105.5000     2.3300    70.9110     7.3360     6.8780    11.5210    24.0170    -7.9100 
  105.6250     2.3530    76.5060     6.2540     5.9360     8.3770    24.2440    -7.0330 
  105.7500     2.3540    79.3460     5.4620     5.1800     6.0900    24.3500    -6.2530 
  105.8750     2.3440    80.0780     5.0150     4.6890     5.3870    24.3730    -5.5690 
  106.0000     2.3360    79.7810     4.8620     4.4580     5.2720    24.3690    -5.0050 
  106.1250     2.3350    79.1020     4.9260     4.4600     5.2620    24.3500    -4.6310 
