~V
VERS. 2.00: Ver 2.00
~W
STRT.M 52.0000:
STOP.M 238.0000:
STEP.M 0.1250:
NULL. -999.2500:
UWI. F10653:
~C
DEPT.M :
GR.API :
RML.OHMM :
RI. :
RXO.OHMM :
CALI.CM :
DEN.GM/CC :
SP.MV :
~A
# ...
  209.5000    49.5870   188.6430   182.7680   262.9060    24.1470     2.1760   -20.0040 
  209.6250    47.3240   182.8860   177.8030   254.5860    24.1320     2.1770   -19.7220 
  209.7500    45.9110   179.0160   174.3460   254.4960    24.1250     2.1790   -19.4160 
  209.8750    48.5750   177.0620   172.4620   241.0590    24.1300     2.1790   -19.1010 
  210.0000    53.1860   176.0290   171.1090   230.6400    24.1460     2.1760   -18.7740 
  210.1250    54.0230   174.0110   168.6630   263.1770    24.1530     2.1700   -18.4400 
  210.2500    51.2960   170.0900   164.5480   273.0580    24.1560     2.1660   -18.1250 
  210.3750    49.0570   164.6540   159.2810   249.4710    24.1560     2.1660   -17.7820 
  210.5000    49.7320   158.9500   153.9770   218.2580    24.1560     2.1730   -17.4030 
  210.6250    52.8050   154.6220   149.7400   206.7800    24.1560     2.1800   -17.0650 
  210.7500    54.5570   151.7960   146.7150   201.4110    24.1560     2.1780   -16.6660 
  210.8750    52.1220   149.6170   144.4410   194.5180    24.1240     2.1690   -16.2670 
  211.0000    49.7260   146.0820   141.4990   189.8410    24.0300     2.1650   -15.9590 
  211.1250    53.0330   137.6140   135.1620   174.0310    23.8770     2.1900   -15.6540 
  211.2500    58.0750   124.0340   124.5010   164.6020    23.8860     2.2510   -15.3440 
  211.3750    59.9000   107.4870   110.1550   149.1010    23.9460     2.3350   -15.1250 
  211.5000    59.0000    91.3420    94.3480   124.6720    23.9540     2.4120   -14.9910 
  211.6250    60.4680    78.7630    80.3650    89.7700    23.8900     2.4350   -14.8800 
  211.7500    62.2970    69.9330    69.7710    72.5550    23.9100     2.4130   -14.8520 
  211.8750    61.9530    64.4810    62.7750    64.4970    23.8350     2.3690   -14.8880 
  212.0000    60.9600    61.6550    58.8920    65.5840    23.7690     2.3280   -14.9140 
  212.1250    60.8210    60.7680    57.6620    54.8630    23.7310     2.3110   -14.9150 
  212.2500    61.9880    60.5930    57.6750    55.9380    23.7380     2.3250   -14.9150 
  212.3750    64.7100    60.2780    57.9560    60.8760    23.7170     2.3640   -14.8800 
  212.5000    69.2670    59.1960    57.6850    61.4160    23.7210     2.4190   -14.8190 
  212.6250    72.1500    56.9110    56.1550    59.1190    23.7440     2.4800   -14.7820 
  212.7500    69.5500    53.3940    53.3360    59.4330    23.6890     2.5380   -14.7320 
  212.8750    63.2310    48.2060    48.9150    56.1340    23.5840     2.5940   -14.6180 
  213.0000    57.7550    41.0860    42.5870    51.8840    23.5840     2.6360   -14.4550 
  213.1250    57.3420    32.7460    34.6350    39.2960    23.6000     2.6490   -14.3000 
  213.2500    60.0420    24.9710    26.6930    31.3060    23.5800     2.6160   -14.1850 
  213.3750    64.3190    18.7980    20.0140    22.7210    23.5110     2.5420   -14.0930 
  213.5000    71.2930    14.5700    13.5700    13.7620    23.4430     2.4450   -13.9760 
  213.6250    80.6880    12.2470    11.2470    11.3340    23.4750     2.3540   -13.8160 
  213.7500    86.7970    10.9990     9.9990    10.7790    23.5570     2.2940   -13.6380 
  213.8750    86.6390    10.3440     9.3440    10.5870    23.6270     2.2670   -13.4930 
  214.0000    83.0610     9.8620     8.8620    10.8480    23.6370     2.2680   -13.3990 
  214.1250    81.5750     9.2610     8.2610    11.2180    23.4990     2.2820   -13.3520 
  214.2500    83.0680     8.5490     7.5490     9.8680    23.3510     2.2950   -13.3050 
  214.3750    86.5540     7.9100     6.9100     7.7580    23.2610     2.3040   -13.2810 
  214.5000    89.2190     7.5090     6.5090     6.9220    23.2410     2.3160   -13.3220 
  214.6250    87.7470     7.4330     6.4330     7.3460    23.2550     2.3300   -13.4410 
  214.7500    85.6200     7.6020     6.6020     8.0260    23.2780     2.3380   -13.5820 
  214.8750    85.9840     7.9090     6.9090     8.7090    23.2800     2.3370   -13.7050 
  215.0000    88.9240     8.2180     7.2180     8.8970    23.2610     2.3350   -13.7820 
  215.1250    89.8370     8.3550     7.3550     9.0860    23.2600     2.3470   -13.8250 
  215.2500    86.2000     8.2310     7.2310    10.0000    23.2720     2.3700   -13.8570 
  215.3750    80.9170     7.8760     6.8760    10.2450    23.2980     2.3900   -13.8740 
  215.5000    77.3120     7.4090     6.4090     9.0710    23.3360     2.3880   -13.8880 
  215.6250    79.1740     7.0480     6.0480     7.5160    23.3820     2.3580   -13.9650 
  215.7500    85.8800     6.9500     5.9500     6.6330    23.3700     2.3190   -14.1430 
  215.8750    93.7240     7.1930     6.1930     6.6650    23.2790     2.2900   -14.4080 
  216.0000    98.5350     7.8010     6.8010     7.6480    23.1930     2.2800   -14.7030 
  216.1250    96.2440     8.6770     7.6770     8.9290    23.1050     2.2920   -14.9760 
  216.2500    90.7340     9.5230     8.5230     9.5640    23.0010     2.3130   -15.2440 
  216.3750    85.1970    10.0790     9.0790    10.0730    23.0660     2.3280   -15.4660 
  216.5000    80.0800    10.1920     9.1920    11.2160    23.3720     2.3260   -15.5900 
  216.6250    78.0280     9.9190     8.9190    11.5950    23.7440     2.3010   -15.5760 
  216.7500    79.4610     9.5400     8.5400    10.7480    23.9540     2.2690   -15.4360 
  216.8750    81.3220     9.2110     8.2110     9.9640    24.0250     2.2500   -15.2050 
  217.0000    80.7500     8.9620     7.9620     9.6300    24.0570     2.2550   -14.9760 
  217.1250    78.6950     8.7470     7.7470     9.7580    24.0620     2.2820   -14.7860 
  217.2500    76.9020     8.5430     7.5430     9.5850    24.0440     2.3090   -14.5870 
  217.3750    76.0340     8.3590     7.3590     8.9810    24.0020     2.3240   -14.4610 
  217.5000    76.6880     8.2550     7.2550     8.3620    23.9120     2.3280   -14.4360 
  217.6250    78.2520     8.2980     7.2980     8.5050    23.8030     2.3260   -14.5400 
  217.7500    76.9680     8.4510     7.4510     8.8160    23.7470     2.3230   -14.7300 
  217.8750    74.0180     8.6760     7.6760     9.0830    23.7540     2.3190   -14.9930 
  218.0000    73.7280     8.9100     7.9100     9.4520    23.8160     2.3130   -15.2680 
  218.1250    75.8080     9.1190     8.1190     9.9750    23.8000     2.3050   -15.5540 
  218.2500    76.3200     9.2840     8.2840    10.4030    23.7470     2.3000   -15.8490 
  218.3750    73.5600     9.3480     8.3480    10.4260    23.7530     2.3050   -16.0940 
  218.5000    70.3520     9.2740     8.2740     9.8810    23.8460     2.3240   -16.2720 
  218.6250    71.1130     9.0460     8.0460     9.6080    23.9390     2.3470   -16.3340 
  218.7500    76.1530     8.7910     7.7910     9.7730    24.0000     2.3550   -16.3340 
  218.8750    82.2250     8.6160     7.6160     9.6350    24.0360     2.3440   -16.3210 
  219.0000    82.8100     8.5830     7.5830     8.5700    24.0330     2.3270   -16.3170 
  219.1250    75.7450     8.7300     7.7300     8.6570    23.9950     2.3260   -16.3480 
  219.2500    69.9820     8.9340     7.9340    10.0240    23.9370     2.3470   -16.3700 
  219.3750    70.2460     9.0890     8.0890    11.2740    23.8790     2.3730   -16.3920 
  219.5000    73.8960     9.1110     8.1110    10.7630    23.8820     2.3820   -16.4660 
  219.6250    76.1740     8.9420     7.9420     9.7250    23.9180     2.3640   -16.5640 
  219.7500    76.7400     8.7180     7.7180     9.3570    23.9270     2.3380   -16.6990 
  219.8750    77.4340     8.5710     7.5710     9.4680    23.9010     2.3180   -16.8480 
  220.0000    79.2900     8.6240     7.6240     9.5460    23.8430     2.3060   -16.9940 
  220.1250    81.8340     8.9490     7.9490     9.4820    23.7920     2.2950   -17.1150 
  220.2500    83.2790     9.4100     8.4100    10.6390    23.8530     2.2830   -17.2970 
  220.3750    82.6630     9.8620     8.8620    12.7400    23.9590     2.2760   -17.5200 
  220.5000    82.4620    10.1240     9.1240    13.2490    24.0240     2.2800   -17.6980 
  220.6250    82.6910    10.0450     9.0450    12.0230    24.0460     2.2950   -17.8210 
