~V
VERS. 2.00: Ver 2.00
~W
STRT.M 55.0000:
STOP.M 253.0000:
STEP.M 0.1250:
NULL. -999.2500:
UWI. F10665:
~C
DEPT.M :
SP.MV :
DEN.GM/CC :
GR.API :
RML.OHMM :
RI. :
RXO.OHMM :
CALI.CM :
~A
# ...
   88.7500   -18.2150     2.1250    60.6580    17.5960    13.8790    14.7490    23.9940 
   88.8750   -18.2240     2.1220    59.5750    17.4180    13.7490    14.7060    23.9850 
   89.0000   -18.2520     2.1150    56.8900    17.2740    13.6620    14.6580    23.9890 
   89.1250   -18.2530     2.1080    53.4090    17.2190    13.6500    14.6120    23.9930 
   89.2500   -18.3100     2.1070    49.4890    17.2670    13.7120    14.7790    23.9890 
   89.3750   -18.3760     2.1110    49.0140    17.4090    13.8410    15.1620    23.9760 
   89.5000   -18.4470     2.1150    53.6470    17.6080    14.0170    15.6440    23.9670 
   89.6250   -18.5780     2.1130    57.3960    17.7950    14.2000    15.8980    23.9740 
   89.7500   -18.6910     2.1060    56.8590    17.9090    14.3450    16.1000    23.9990 
   89.8750   -18.8270     2.1020    54.1440    17.9180    14.4260    16.2160    24.0090 
   90.0000   -18.9420     2.1060    52.3650    17.8220    14.4380    16.0210    24.0000 
   90.1250   -19.0840     2.1220    52.9510    17.6720    14.4060    15.6880    23.9860 
   90.2500   -19.1920     2.1380    54.9310    17.5630    14.3890    15.5160    24.0220 
   90.3750   -19.2770     2.1480    56.8380    17.5450    14.4250    15.4790    24.0700 
   90.5000   -19.3440     2.1530    56.2820    17.5790    14.5040    15.6290    24.1250 
   90.6250   -19.3510     2.1540    52.4060    17.4710    14.5100    15.8790    24.1600 
   90.7500   -19.3350     2.1550    49.0820    17.0430    14.3050    16.0390    24.1990 
   90.8750   -19.2880     2.1590    48.0720    16.2360    13.8140    15.6700    24.1920 
   91.0000   -19.2280     2.1690    50.3130    15.1540    13.0700    14.2270    24.0950 
   91.1250   -19.1420     2.1830    56.4910    14.0280    12.1940    12.2200    23.9520 
   91.2500   -19.0700     2.1950    62.0070    13.0730    11.3660    10.8490    23.7960 
   91.3750   -18.9800     2.1990    63.1510    12.3570    10.6750    10.6730    23.5970 
   91.5000   -18.9050     2.1940    59.7620    11.8590    10.1490    10.8850    23.3990 
   91.6250   -18.8130     2.1810    56.7050    11.5430     9.7980    10.0260    23.2210 
   91.7500   -18.7400     2.1650    56.1860    11.3330     9.5630     9.1590    23.1350 
   91.8750   -18.6850     2.1450    56.9350    11.2140     9.4290     8.7710    23.1130 
   92.0000   -18.6610     2.1210    57.9580    11.2050     9.4010     8.8870    23.1320 
   92.1250   -18.6790     2.0980    56.9870    11.3830     9.5350     9.2010    23.1940 
   92.2500   -18.6970     2.0810    54.2420    11.7610     9.8380     9.5560    23.3030 
   92.3750   -18.7710     2.0740    52.2560    12.3400    10.3040    10.2550    23.4800 
   92.5000   -18.8500     2.0790    53.9460    13.0880    10.9000    11.3680    23.6620 
   92.6250   -18.9720     2.0980    56.8030    13.9410    11.5660    12.4450    23.8380 
   92.7500   -19.1160     2.1250    56.5580    14.7790    12.2110    13.1330    23.9430 
   92.8750   -19.2590     2.1540    53.9180    15.5190    12.7730    13.6360    23.9980 
   93.0000   -19.3870     2.1790    51.6640    16.1120    13.2150    14.1930    24.0510 
   93.1250   -19.4710     2.1920    52.0980    16.5300    13.5180    14.6510    24.1540 
   93.2500   -19.5340     2.1920    53.2380    16.8380    13.7260    14.9700    24.2860 
   93.3750   -19.5370     2.1820    53.7790    17.0720    13.8580    15.1000    24.3800 
   93.5000   -19.4970     2.1680    53.0910    17.2570    13.9280    14.9680    24.3770 
   93.6250   -19.4190     2.1630    52.3540    17.4010    13.9460    14.7320    24.2380 
   93.7500   -19.2930     2.1800    52.7780    17.5210    13.9470    14.5940    24.1030 
   93.8750   -19.1340     2.2200    53.6730    17.6320    13.9550    14.3550    24.0890 
   94.0000   -18.9360     2.2610    54.2210    17.7560    13.9910    14.2200    24.0670 
   94.1250   -18.7140     2.2710    54.9600    17.9270    14.0860    14.0820    23.9290 
   94.2500   -18.4870     2.2480    55.2470    18.1590    14.2510    14.1060    23.7760 
   94.3750   -18.2460     2.2050    54.8830    18.4540    14.4960    14.1770    23.6850 
   94.5000   -18.0510     2.1660    55.2590    18.7910    14.8130    14.5140    23.7380 
   94.6250   -17.8800     2.1480    56.3910    19.1140    15.1720    14.9990    23.9250 
   94.7500   -17.7540     2.1470    56.1930    19.3740    15.5140    15.3880    24.0820 
   94.8750   -17.6710     2.1580    54.5730    19.5720    15.8090    15.6530    24.1480 
   95.0000   -17.6350     2.1790    52.9560    19.7750    16.0700    16.1180    24.1260 
   95.1250   -17.6460     2.2000    52.8040    20.1260    16.3750    16.5980    24.0700 
   95.2500   -17.6630     2.2080    54.4020    20.6260    16.7570    16.8370    24.0410 
   95.3750   -17.7350     2.1960    57.0170    21.0620    17.1040    17.0960    24.0350 
   95.5000   -17.7820     2.1680    58.2960    20.9910    17.1160    17.5180    24.0570 
   95.6250   -17.8630     2.1440    58.1170    19.7240    16.2430    17.7500    24.1260 
   95.7500   -17.9530     2.1430    58.9020    17.3840    14.5120    17.0290    24.1490 
   95.8750   -18.0470     2.1710    61.9340    14.5170    12.2940    14.3790    24.1120 
   96.0000   -18.1420     2.2180    66.5010    11.8550    10.1340    10.7420    24.0430 
   96.1250   -18.2640     2.2620    70.8510    10.0450     8.5280     8.1640    24.0370 
   96.2500   -18.4110     2.2830    72.0120     9.0620     7.5240     7.6460    24.0340 
   96.3750   -18.5570     2.2800    69.2220     8.7910     7.0880     7.9870    24.0090 
   96.5000   -18.7160     2.2610    66.4000     9.0750     7.1510     8.2590    23.9990 
   96.6250   -18.8450     2.2320    66.6230     9.7820     7.6630     9.0260    23.9990 
   96.7500   -18.9260     2.2020    68.8200    10.6570     8.4210     9.8860    24.0080 
   96.8750   -18.9610     2.1770    70.7410    11.5500     9.2890    10.5060    24.0430 
   97.0000   -18.9420     2.1630    69.3930    12.3340    10.1350    10.8960    24.0760 
   97.1250   -18.8270     2.1600    64.1820    12.8130    10.7720    11.2680    24.0630 
   97.2500   -18.6520     2.1610    60.3190    12.8780    11.0640    11.5880    24.0180 
   97.3750   -18.3890     2.1620    60.3120    12.4500    10.9070    11.9510    23.9890 
   97.5000   -18.0990     2.1610    62.7160    11.5670    10.2960    11.8130    23.9940 
   97.6250   -17.7680     2.1620    64.7570    10.4020     9.3340    10.4320    24.0050 
   97.7500   -17.4770     2.1750    67.7590     9.2870     8.3130     8.4740    24.0050 
   97.8750   -17.2130     2.2000    71.6600     8.4170     7.4180     7.3090    24.0060 
   98.0000   -17.0190     2.2330    75.1520     7.8690     6.7500     7.2290    24.0200 
   98.1250   -16.9170     2.2640    76.7030     7.6320     6.3550     7.0390    24.0510 
   98.2500   -16.8760     2.2820    75.7470     7.5110     6.1180     6.9250    24.0760 
   98.3750   -16.9350     2.2840    73.7650     7.3620     5.9400     6.9380    24.0590 
   98.5000   -17.0250     2.2780    72.1790     7.1230     5.7510     7.1330    24.0240 
   98.6250   -17.1960     2.2760    72.3770     6.9020     5.5860     6.9980    24.0120 
   98.7500   -17.3730     2.2860    75.4400     6.9030     5.5600     6.3470    24.0230 
   98.8750   -17.5640     2.3070    79.7620     7.2560     5.7750     6.0110    24.0320 
   99.0000   -17.7450     2.3330    80.1190     8.0000     6.2800     6.6950    24.0160 
   99.1250   -17.9030     2.3490    74.1230     9.1280     7.1120     8.2430    23.9510 
   99.2500   -18.0260     2.3500    68.8120    10.4540     8.1540     9.9680    23.8550 
   99.3750   -18.0900     2.3280    66.1880    11.8610     9.3130    10.7430    23.7790 
   99.5000   -18.1300     2.2800    64.1530    13.2910    10.5110    10.2790    23.7800 
   99.6250   -18.1540     2.2110    62.0860    14.6600    11.6590    10.3850    23.8900 
   99.7500   -18.1600     2.1430    60.8970    15.7030    12.5740    12.2040    24.0670 
   99.8750   -18.1760     2.0990    60.1200    15.9920    12.9450    14.3530    24.2520 
