~V
VERS. 2.00: Ver 2.00
~W
STRT.M 61.0000:
STOP.M 247.0000:
STEP.M 0.1250:
NULL. -999.2500:
UWI. F10600:
~C
DEPT.M :
GR.API :
RML.OHMM :
RI. :
RXO.OHMM :
CALI.CM :
DEN.GM/CC :
SP.MV :
~A
# ...
  218.5000    66.2290     8.8050     7.4100     6.9410    25.4720     2.4240   -30.1350 
  218.6250    65.7210     8.2810     7.0310     6.9750    25.4630     2.4200   -29.9670 
  218.7500    63.6730     7.7650     6.6990     6.5460    25.4490     2.4130   -29.6360 
  218.8750    62.5710     7.4280     6.4660     6.2460    25.4350     2.4130   -29.2090 
  219.0000    61.6720     7.3400     6.3480     6.2510    25.4030     2.4240   -28.6750 
  219.1250    59.2760     7.4680     6.3390     6.4650    25.3370     2.4420   -28.0290 
  219.2500    57.5220     7.6230     6.3850     6.6070    25.3060     2.4550   -27.3900 
  219.3750    58.8590     7.6810     6.4610     6.4900    25.2990     2.4560   -26.7930 
  219.5000    61.2400     7.6120     6.5530     6.1990    25.2980     2.4480   -26.2400 
  219.6250    61.6260     7.4920     6.6490     6.0500    25.2970     2.4380   -25.7890 
  219.7500    60.4690     7.4570     6.7160     6.2650    25.2970     2.4320   -25.4380 
  219.8750    60.8460     7.5530     6.7070     6.7400    25.2970     2.4290   -25.1760 
  220.0000    64.2100     7.7050     6.5770     7.1580    25.2960     2.4270   -24.9940 
  220.1250    67.6870     7.7060     6.2980     7.1460    25.2910     2.4210   -24.8690 
  220.2500    70.3710     7.4340     5.9390     6.6180    25.2710     2.4130   -24.7680 
  220.3750    74.2340     6.9440     5.5750     6.1630    25.2280     2.4040   -24.6780 
  220.5000    79.8370     6.5280     5.2810     5.9910    25.1930     2.3970   -24.5810 
  220.6250    84.3690     6.3640     5.1330     6.3320    25.1690     2.3960   -24.5060 
  220.7500    86.4020     6.3600     5.1260     6.7440    25.1450     2.3990   -24.4230 
  220.8750    84.9110     6.4360     5.2360     6.5390    25.1210     2.4020   -24.2860 
  221.0000    79.5150     6.5590     5.4160     6.0720    25.1130     2.4040   -24.1770 
  221.1250    75.8250     6.7400     5.6050     5.8320    25.1070     2.4050   -24.1310 
  221.2500    76.2630     6.8520     5.7560     5.7710    25.1060     2.4030   -24.1130 
  221.3750    78.2460     6.8700     5.8560     5.8070    25.1050     2.4000   -24.1490 
  221.5000    77.7910     6.8230     5.9050     5.9050    25.1050     2.3940   -24.2400 
  221.6250    74.2550     6.7340     5.9000     5.8320    25.1050     2.3890   -24.3430 
  221.7500    69.9760     6.6180     5.8490     5.7200    25.1070     2.3910   -24.5020 
  221.8750    64.7200     6.5000     5.7540     5.7320    25.1100     2.4000   -24.7680 
  222.0000    59.9450     6.4060     5.6280     5.8000    25.1220     2.4130   -25.0730 
  222.1250    58.2660     6.2810     5.4930     5.9010    25.1710     2.4250   -25.3980 
  222.2500    57.6680     6.1690     5.3770     6.1850    25.2580     2.4330   -25.7670 
  222.3750    56.3890     6.0870     5.2870     6.5760    25.3410     2.4400   -26.1190 
  222.5000    54.8010     6.0290     5.2230     6.9820    25.3820     2.4490   -26.4220 
  222.6250    55.6970     5.9720     5.1800     7.2110    25.3890     2.4610   -26.6960 
  222.7500    57.5890     5.9400     5.1570     6.9080    25.3910     2.4710   -26.9220 
  222.8750    58.5130     5.9940     5.1670     6.6320    25.3920     2.4750   -27.0590 
  223.0000    59.3960     6.1270     5.2200     6.3610    25.3920     2.4720   -27.1680 
  223.1250    60.7400     6.3010     5.3320     6.0960    25.3920     2.4680   -27.2210 
  223.2500    61.2800     6.4680     5.4820     6.3450    25.3940     2.4670   -27.2350 
  223.3750    60.3630     6.6030     5.6490     6.8370    25.3990     2.4700   -27.2310 
  223.5000    57.8560     6.6910     5.8060     7.0930    25.4120     2.4750   -27.2160 
  223.6250    54.5420     6.7160     5.9170     6.9780    25.4180     2.4750   -27.1700 
  223.7500    53.8740     6.7250     5.9710     6.8950    25.4200     2.4670   -27.1360 
  223.8750    57.1920     6.7270     5.9660     6.7700    25.4200     2.4490   -27.0790 
  224.0000    61.3070     6.7390     5.9160     6.5240    25.4200     2.4240   -26.9700 
  224.1250    60.0060     6.7630     5.8430     6.1060    25.4220     2.4000   -26.8350 
  224.2500    53.9660     6.7780     5.7730     5.6050    25.4250     2.3880   -26.6680 
  224.3750    48.0090     6.7480     5.7190     5.3720    25.4220     2.3930   -26.5130 
  224.5000    47.0020     6.6770     5.6710     5.5730    25.4010     2.4100   -26.3900 
  224.6250    51.4090     6.5680     5.6010     5.7780    25.3900     2.4290   -26.2850 
  224.7500    57.2620     6.4470     5.4860     5.8780    25.3860     2.4370   -26.1440 
  224.8750    60.9810     6.3010     5.3180     5.9050    25.3860     2.4290   -26.0040 
  225.0000    61.9590     6.0540     5.1100     5.9670    25.3740     2.4120   -25.8590 
  225.1250    61.4360     5.8150     4.9000     6.0010    25.3250     2.3960   -25.6840 
  225.2500    61.3010     5.5970     4.7250     5.9210    25.2440     2.3900   -25.4740 
  225.3750    61.3590     5.4750     4.6080     5.6930    25.1900     2.3940   -25.2040 
  225.5000    59.7130     5.4310     4.5580     5.3910    25.1690     2.4040   -24.8590 
  225.6250    54.7920     5.4270     4.5760     5.1860    25.1620     2.4140   -24.5020 
  225.7500    49.1390     5.4410     4.6350     5.0950    25.1630     2.4210   -24.1810 
  225.8750    44.2830     5.4960     4.7170     5.1510    25.1670     2.4260   -23.9430 
  226.0000    41.5610     5.6250     4.8200     5.2530    25.1740     2.4320   -23.7720 
  226.1250    41.3380     5.8110     4.9610     5.2900    25.1840     2.4410   -23.7040 
  226.2500    42.7850     5.9920     5.1440     5.3590    25.1990     2.4510   -23.7200 
  226.3750    45.2130     6.1350     5.3550     5.5110    25.2150     2.4590   -23.8310 
  226.5000    48.7480     6.2480     5.5590     5.7350    25.2420     2.4590   -24.0500 
  226.6250    57.4620     6.3220     5.7070     5.7890    25.2680     2.4490   -24.3550 
  226.7500    70.5470     6.3330     5.7810     5.7670    25.2800     2.4330   -24.6290 
  226.8750    81.6030     6.3150     5.7800     5.8960    25.2850     2.4160   -24.8430 
  227.0000    83.5130     6.2670     5.7100     6.1270    25.2880     2.4050   -24.9940 
  227.1250    75.7480     6.1500     5.5720     6.2880    25.2890     2.4050   -25.0770 
  227.2500    68.2220     5.9710     5.3980     6.3850    25.2900     2.4140   -25.0930 
  227.3750    65.1680     5.7650     5.2180     6.4880    25.2900     2.4250   -25.0140 
  227.5000    65.1620     5.6160     5.0650     6.5620    25.2900     2.4300   -24.8510 
  227.6250    64.2270     5.5410     4.9610     6.0560    25.2890     2.4250   -24.6010 
  227.7500    60.2250     5.5250     4.8940     5.4110    25.2830     2.4110   -24.3910 
  227.8750    54.7230     5.5550     4.8620     5.0580    25.2690     2.3940   -24.2220 
  228.0000    50.0080     5.6540     4.8800     5.0370    25.2590     2.3780   -24.1290 
  228.1250    49.9640     5.8310     4.9870     5.2300    25.2530     2.3690   -24.1190 
  228.2500    52.0400     6.1300     5.1840     5.4870    25.2460     2.3680   -24.2240 
  228.3750    53.3050     6.5240     5.4590     5.8330    25.2410     2.3760   -24.3830 
  228.5000    52.8450     6.9300     5.7730     6.1590    25.2370     2.3920   -24.5890 
  228.6250    52.3910     7.3100     6.0770     6.5300    25.2360     2.4120   -24.8450 
  228.7500    53.9000     7.5270     6.3320     6.9240    25.2350     2.4320   -25.0970 
  228.8750    56.2900     7.6000     6.5200     7.2670    25.2350     2.4480   -25.3190 
  229.0000    58.1460     7.5450     6.6360     7.4600    25.2350     2.4590   -25.5180 
  229.1250    59.3560     7.4490     6.6660     7.4600    25.2350     2.4650   -25.6880 
  229.2500    58.7950     7.3060     6.6190     7.4860    25.2350     2.4680   -25.7710 
  229.3750    56.7260     7.1140     6.4950     7.5020    25.2350     2.4680   -25.8490 
  229.5000    55.3920     6.9340     6.2990     7.3970    25.2350     2.4660   -25.9300 
  229.6250    56.7160     6.8350     6.0480     7.1050    25.2350     2.4630   -25.9840 
