~V
VERS. 2.00: Ver 2.00
~W
STRT.M 59.0000:
STOP.M 270.0000:
STEP.M 0.1250:
NULL. -999.2500:
UWI. F10667:
~C
DEPT.M :
GR.API :
RML.OHMM :
RI. :
RXO.OHMM :
CALI.CM :
DEN.GM/CC :
SP.MV :
~A
# ...
  126.5000    69.7700     9.1630     8.3610     9.0960    23.9320     2.1340   -20.0620 
  126.6250    73.9240     8.7340     8.0950     8.5850    23.9340     2.1530   -19.3050 
  126.7500    83.2050     8.0010     7.6570     8.0540    23.9390     2.1870   -18.5210 
  126.8750    93.7980     7.1140     7.0880     7.2870    23.9740     2.2340   -17.7960 
  127.0000   100.9350     6.2600     6.4720     5.9150    24.0660     2.2870   -17.1510 
  127.1250   102.3980     5.6160     5.9050     5.1810    24.1960     2.3340   -16.6340 
  127.2500   100.5510     5.1810     5.4220     4.9300    24.2520     2.3680   -16.3120 
  127.3750    98.9230     4.9110     5.0220     4.9450    24.2650     2.3870   -16.1640 
  127.5000    98.7950     4.7540     4.7000     4.9200    24.2680     2.3950   -16.1620 
  127.6250    99.4040     4.7240     4.4980     4.8330    24.2710     2.3990   -16.3770 
  127.7500    98.6670     4.8610     4.4650     4.7270    24.2740     2.4000   -16.8240 
  127.8750    95.7490     5.2390     4.6770     4.7980    24.2750     2.3960   -17.4450 
  128.0000    89.8610     5.9160     5.1900     5.7270    24.2750     2.3790   -18.1700 
  128.1250    80.4660     6.9130     6.0370     8.2450    24.2970     2.3430   -18.9830 
  128.2500    72.4340     8.0150     7.0310    11.1530    24.3620     2.2950   -19.8090 
  128.3750    67.6170     8.9700     7.9510    11.4560    24.4700     2.2450   -20.5980 
  128.5000    65.6910     9.5370     8.5760    10.6250    24.5960     2.2020   -21.3130 
  128.6250    65.6940     9.5650     8.7340    10.2140    24.6630     2.1750   -21.9410 
  128.7500    66.3000     9.2880     8.5880    10.0340    24.6910     2.1620   -22.4730 
  128.8750    67.2900     8.9240     8.3170     9.7490    24.7050     2.1590   -22.8680 
  129.0000    69.7740     8.6470     8.0740     9.4070    24.7250     2.1650   -23.1320 
  129.1250    74.0750     8.5780     7.9630     9.1170    24.7450     2.1740   -23.3310 
  129.2500    75.7440     8.6980     7.9780     9.1270    24.7450     2.1810   -23.4680 
  129.3750    73.5750     8.9750     8.0960     9.7210    24.7180     2.1840   -23.5600 
  129.5000    69.5060     9.3580     8.2820    10.3370    24.6620     2.1830   -23.6820 
  129.6250    65.7070     9.7820     8.4900    10.5780    24.5820     2.1820   -23.7520 
  129.7500    61.7370    10.1730     8.6780    10.6590    24.5340     2.1850   -23.7550 
  129.8750    58.5390    10.4770     8.8270    10.7710    24.5190     2.1900   -23.7440 
  130.0000    58.7270    10.6460     8.9340    10.9120    24.5200     2.1920   -23.7430 
  130.1250    61.6890    10.6180     8.9900    10.8560    24.5430     2.1840   -23.6590 
  130.2500    63.7970    10.4220     8.9940    10.8160    24.6220     2.1680   -23.4650 
  130.3750    64.4170    10.1080     8.9380    10.8480    24.7560     2.1530   -23.2300 
  130.5000    65.4210     9.7600     8.8220    10.6890    24.8470     2.1460   -22.9250 
  130.6250    67.8570     9.5030     8.6720    10.0480    24.8740     2.1540   -22.5770 
  130.7500    68.7150     9.4140     8.5500     9.3970    24.8640     2.1680   -22.2260 
  130.8750    67.7560     9.5170     8.5070     9.2240    24.8120     2.1810   -21.8060 
  131.0000    65.9400     9.7690     8.5660     9.4160    24.6810     2.1860   -21.2950 
  131.1250    64.9940    10.0350     8.7020     9.7590    24.5540     2.1780   -20.7400 
  131.2500    64.7830    10.1200     8.8010    10.1770    24.4790     2.1630   -20.1720 
  131.3750    64.8340     9.8840     8.7430    10.1830    24.4560     2.1520   -19.5130 
  131.5000    66.7460     9.2970     8.4520     9.9110    24.4440     2.1520   -18.7500 
  131.6250    75.1030     8.4830     7.9290     9.0570    24.4150     2.1740   -17.9440 
  131.7500    86.6930     7.7300     7.3510     7.9370    24.3690     2.2120   -17.1170 
  131.8750    95.6660     7.2230     6.8640     6.7650    24.3140     2.2630   -16.3130 
  132.0000    98.4190     7.0420     6.5670     6.2340    24.2820     2.3210   -15.5940 
  132.1250    95.7210     7.1800     6.5070     6.7190    24.2630     2.3760   -14.9900 
  132.2500    90.6320     7.4370     6.5870     7.7200    24.2320     2.4160   -14.4780 
  132.3750    85.6570     7.6510     6.7140     8.5220    24.1940     2.4310   -14.0980 
  132.5000    84.9540     7.7070     6.8090     7.9960    24.1720     2.4150   -13.8920 
  132.6250    88.4400     7.5590     6.8190     7.0050    24.1680     2.3750   -13.8370 
  132.7500    88.4810     7.3180     6.7660     6.5330    24.1680     2.3310   -13.8120 
  132.8750    85.1380     7.0680     6.6800     6.6900    24.1720     2.2980   -13.8150 
  133.0000    85.3580     6.8530     6.5830     7.1570    24.2000     2.2850   -13.8120 
  133.1250    92.0280     6.6830     6.4830     7.0000    24.2710     2.2950   -13.7120 
  133.2500    98.3930     6.5480     6.3850     6.3360    24.3430     2.3180   -13.5770 
  133.3750   101.7470     6.4590     6.3030     5.7990    24.3720     2.3450   -13.4570 
  133.5000   104.3200     6.4250     6.2520     5.8590    24.3670     2.3640   -13.3360 
  133.6250   105.6070     6.4400     6.2420     6.4670    24.3460     2.3570   -13.1740 
  133.7500   103.6690     6.4510     6.2510     6.7200    24.3370     2.3230   -13.0280 
  133.8750    99.8240     6.4180     6.2460     6.4860    24.3370     2.2690   -12.9360 
  134.0000    95.9430     6.3240     6.2000     6.3180    24.3390     2.2150   -12.8660 
  134.1250    94.7430     6.1910     6.0940     6.2950    24.3390     2.1880   -12.8570 
  134.2500    96.2450     6.0750     5.9570     6.2310    24.3350     2.1920   -12.9090 
  134.3750    98.8350     6.0120     5.8250     6.0670    24.3210     2.2160   -12.9470 
  134.5000   100.2980     6.0070     5.7310     5.7920    24.2940     2.2370   -12.9390 
  134.6250   100.3830     6.0630     5.7140     5.6790    24.2790     2.2380   -12.9120 
  134.7500   100.2120     6.1610     5.7810     5.9700    24.2720     2.2250   -12.9000 
  134.8750    98.9130     6.2960     5.9360     6.4170    24.2710     2.2130   -12.8600 
  135.0000    96.0630     6.4570     6.1650     6.8470    24.2670     2.2100   -12.7810 
  135.1250    92.1950     6.6250     6.4340     7.5040    24.2530     2.2160   -12.7400 
  135.2500    89.7790     6.7950     6.6850     8.6500    24.2290     2.2220   -12.6680 
  135.3750    89.3650     6.9820     6.8900     8.5360    24.2100     2.2250   -12.5820 
  135.5000    89.3920     7.2170     7.0470     7.6410    24.1940     2.2270   -12.5430 
  135.6250    88.3870     7.5260     7.1740     7.0070    24.1580     2.2280   -12.5210 
  135.7500    85.8100     7.8570     7.2890     7.4770    24.1110     2.2270   -12.4480 
  135.8750    82.5740     8.1250     7.3800     8.1910    24.0600     2.2200   -12.3290 
  136.0000    81.3430     8.2500     7.4270     8.5900    24.0350     2.2090   -12.2250 
  136.1250    85.3190     8.2180     7.4520     8.2760    24.0320     2.2020   -12.0590 
  136.2500    90.4800     8.2100     7.5720     7.7680    24.0390     2.2100   -11.8320 
  136.3750    90.8240     8.4700     7.9510     7.5710    24.0520     2.2360   -11.5860 
  136.5000    84.9090     9.3250     8.7790     7.9670    24.0720     2.2760   -11.2790 
  136.6250    76.7110    11.2070    10.3400     9.9240    24.0790     2.3160   -10.9160 
  136.7500    69.8660    13.9540    12.5500    14.6820    24.0780     2.3390   -10.5770 
  136.8750    66.1120    17.0080    15.1550    22.3290    24.0440     2.3370   -10.2520 
  137.0000    66.1270    19.6900    17.6310    29.8410    23.9630     2.3120    -9.8940 
  137.1250    68.5150    21.0920    19.2090    27.1030    23.9670     2.2770    -9.5120 
  137.2500    70.3120    21.2640    19.7990    21.1080    24.0870     2.2450    -9.1860 
  137.3750    70.4330    20.7410    19.7150    17.9800    24.3080     2.2210    -8.8870 
  137.5000    68.9050    20.2280    19.4730    17.0810    24.5380     2.2060    -8.5940 
  137.6250    65.1290    20.3140    19.5410    18.2520    24.5260     2.1990    -8.3760 
