~V
VERS. 2.00: Ver 2.00
~W
STRT.M 50.0000:
STOP.M 219.0000:
STEP.M 0.1250:
NULL. -999.2500:
UWI. F10688:
~C
DEPT.M :
SP.MV :
DEN.GM/CC :
GR.API :
RML.OHMM :
RI. :
RXO.OHMM :
CALI.CM :
~A
# ...
   61.2500   -18.6550     2.3560    81.0410     7.0040     7.8270     8.3960    23.7410 
   61.3750   -18.8540     2.4100    85.0200     7.9580     8.5480    10.8390    23.6660 
   61.5000   -18.9880     2.4330    83.3030     9.0800     9.3840    14.9530    23.6120 
   61.6250   -18.9820     2.4000    78.4370    10.0310    10.0410    15.2560    23.5770 
   61.7500   -18.8660     2.3340    76.6050    10.5160    10.2890    11.6380    23.5650 
   61.8750   -18.7130     2.2650    78.0680    10.4480    10.0630     9.7570    23.5760 
   62.0000   -18.5730     2.2190    79.1740     9.9420     9.4750     9.4080    23.6050 
   62.1250   -18.4460     2.2110    78.4390     9.2390     8.7590     9.1300    23.6340 
   62.2500   -18.3350     2.2240    79.4280     8.6490     8.1650     8.5840    23.6590 
   62.3750   -18.2330     2.2350    83.5590     8.3520     7.8220     7.7360    23.6770 
   62.5000   -18.1700     2.2290    86.3340     8.4600     7.8200     7.2570    23.6860 
   62.6250   -18.1660     2.2140    82.3380     9.0910     8.2680     7.5020    23.6960 
   62.7500   -18.1790     2.2190    75.1230    10.0210     8.9980     8.5210    23.7300 
   62.8750   -18.2200     2.2520    68.2130    10.8400     9.7270     9.6660    23.7880 
   63.0000   -18.3230     2.3030    63.6450    11.0150    10.0800    11.4650    23.8590 
   63.1250   -18.4100     2.3420    66.3290    10.2030     9.7130    12.9650    23.9330 
   63.2500   -18.3780     2.3530    74.4010     8.9880     8.8940    12.0670    23.9960 
   63.3750   -18.2450     2.3430    82.4630     7.9080     7.9970     9.0840    24.0360 
   63.5000   -18.0480     2.3240    86.3370     7.2920     7.3420     8.4530    24.0390 
   63.6250   -17.8270     2.2970    85.5760     7.3420     7.1750     9.8960    23.9870 
   63.7500   -17.5840     2.2530    82.3300     7.9390     7.4790    10.3270    23.8800 
   63.8750   -17.2320     2.2000    77.5600     9.0230     8.2380     9.2810    23.7380 
   64.0000   -16.7480     2.1640    71.6940    10.4580     9.3480     9.2370    23.5970 
   64.1250   -16.2750     2.1730    66.4310    11.9170    10.5460     9.3200    23.4900 
   64.2500   -15.8420     2.2110    62.4990    12.9830    11.4700     9.5420    23.4240 
   64.3750   -15.4450     2.2450    59.4950    13.4500    11.9260     9.6760    23.4020 
   64.5000   -15.0940     2.2410    58.4630    13.4250    11.9490     9.4560    23.4260 
   64.6250   -14.7930     2.1910    60.7870    13.3080    11.8180     8.9280    23.4840 
   64.7500   -14.5230     2.1350    64.5070    13.5490    11.9170     8.7320    23.5580 
   64.8750   -14.3080     2.1040    66.9490    14.3640    12.4530     9.8030    23.6290 
   65.0000   -14.1540     2.1080    64.9000    15.7690    13.4550    11.2940    23.6800 
   65.1250   -14.0440     2.1390    58.3340    17.5290    14.7570    13.3150    23.7020 
   65.2500   -14.0140     2.1660    53.2330    19.0340    15.8950    14.6520    23.7070 
   65.3750   -14.0700     2.1790    53.6110    19.7710    16.4780    14.1610    23.7080 
   65.5000   -14.2090     2.1810    57.4210    19.5490    16.3330    12.9710    23.7090 
   65.6250   -14.4560     2.1760    58.3440    18.5200    15.5560    12.0490    23.7100 
   65.7500   -14.8130     2.1640    57.1230    17.3030    14.6060    11.2060    23.7160 
   65.8750   -15.2760     2.1550    56.5940    16.4180    13.8340    10.5020    23.7290 
   66.0000   -15.8080     2.1680    56.4630    16.4410    13.6190    10.0540    23.7590 
   66.1250   -16.3940     2.2360    56.8260    18.2170    14.5590    10.1500    23.8170 
   66.2500   -17.0710     2.3570    57.3050    21.8340    16.8050    11.8460    23.8920 
   66.3750   -17.8450     2.5110    56.6080    27.0180    20.3170    18.6680    23.9780 
   66.5000   -18.6770     2.6470    54.4000    32.2240    24.3060    40.2720    24.0710 
   66.6250   -19.4980     2.6960    54.1500    33.2600    26.1510    88.6920    24.1640 
   66.7500   -20.2610     2.6720    58.8570    28.7800    24.1270    90.4940    24.2460 
   66.8750   -21.0100     2.6050    66.7590    21.4140    19.2000    54.5520    24.3130 
   67.0000   -21.7770     2.5250    75.1190    14.6750    13.8530    26.5010    24.3620 
   67.1250   -22.4430     2.4520    82.8980    10.3980     9.9520    18.4920    24.3890 
   67.2500   -22.9430     2.3930    88.1170     7.9830     7.4910     9.5830    24.4070 
   67.3750   -23.3200     2.3470    89.5190     6.8740     6.1610     6.9710    24.4190 
   67.5000   -23.6020     2.3090    88.0540     6.6140     5.6300     6.6740    24.4210 
   67.6250   -23.7880     2.2790    85.0900     6.9550     5.7210     7.2770    24.3920 
   67.7500   -23.8920     2.2630    83.2540     7.5870     6.1630     8.0400    24.3100 
   67.8750   -23.9040     2.2580    81.5860     8.3650     6.8300     8.4080    24.1570 
   68.0000   -23.8770     2.2560    77.9190     9.1910     7.6170     8.3730    23.9520 
   68.1250   -23.8070     2.2370    73.3210    10.0200     8.4440     8.6160    23.7210 
   68.2500   -23.6880     2.2020    70.6500    10.8160     9.2380     9.2730    23.4980 
   68.3750   -23.5370     2.1660    70.1940    11.4850     9.9150     9.6230    23.3160 
   68.5000   -23.3520     2.1500    69.3600    11.8770    10.3510     9.5240    23.2150 
   68.6250   -23.1730     2.1680    65.2030    11.7740    10.3520     9.5280    23.2450 
   68.7500   -23.0710     2.2080    60.7960    11.2310     9.9430     9.7470    23.3780 
   68.8750   -23.0290     2.2520    59.7860    10.3880     9.2240     9.6920    23.5790 
   69.0000   -22.9920     2.2910    64.7560     9.4750     8.3790     8.8860    23.7890 
   69.1250   -23.0240     2.3190    71.6170     8.7500     7.6280     8.0770    23.9710 
   69.2500   -23.1350     2.3390    74.3090     8.2820     7.0690     7.6880    24.1140 
   69.3750   -23.2740     2.3540    73.1970     8.0280     6.7040     7.5280    24.2050 
   69.5000   -23.4440     2.3590    72.1880     7.8720     6.4670     7.6220    24.2410 
   69.6250   -23.6110     2.3480    74.3720     7.6460     6.2490     8.0940    24.2260 
   69.7500   -23.7520     2.3360    77.3170     7.3090     5.9860     7.9180    24.1930 
   69.8750   -23.9100     2.3410    79.4080     6.9620     5.7240     7.1240    24.1540 
   70.0000   -24.0660     2.3730    79.7930     6.7750     5.5680     6.3360    24.1130 
   70.1250   -24.1500     2.4160    77.1390     6.9460     5.6630     6.4210    24.0670 
   70.2500   -24.2100     2.4350    71.7280     7.4440     6.0050     7.8820    24.0160 
   70.3750   -24.2780     2.4180    65.8050     8.1520     6.5380    10.7900    23.9530 
   70.5000   -24.3410     2.3750    61.0200     8.8570     7.1220    11.9820    23.8680 
   70.6250   -24.3970     2.3340    58.5940     9.2560     7.5320    10.6790    23.7520 
   70.7500   -24.4170     2.3140    59.7280     9.2760     7.6670     9.3950    23.6180 
   70.8750   -24.3960     2.3220    64.3170     9.0110     7.5550     8.6990    23.4730 
   71.0000   -24.3770     2.3540    68.7440     8.6580     7.3220     8.2210    23.3290 
   71.1250   -24.3710     2.4010    68.8790     8.4250     7.1290     7.9550    23.2030 
   71.2500   -24.3250     2.4380    67.8500     8.3640     7.0450     7.6350    23.1060 
   71.3750   -24.2520     2.4410    67.4490     8.4460     7.0670     7.6050    23.0410 
   71.5000   -24.1700     2.4120    67.0340     8.5960     7.1480     7.7400    23.0060 
   71.6250   -24.0770     2.3620    65.6490     8.6780     7.1970     8.2080    22.9940 
   71.7500   -23.9560     2.3170    64.3310     8.5800     7.1270     8.3210    22.9950 
   71.8750   -23.7620     2.2930    65.1420     8.2650     6.9060     8.1540    23.0020 
   72.0000   -23.5230     2.2930    67.5230     7.8080     6.5770     7.8540    23.0120 
   72.1250   -23.2790     2.3050    70.6170     7.4070     6.2690     7.6830    23.0230 
   72.2500   -23.0290     2.3100    72.5510     7.2430     6.1170     7.4000    23.0390 
   72.3750   -22.7600     2.3040    71.9900     7.4090     6.1950     6.9980    23.0600 
