~V
VERS. 2.00: Ver 2.00
~W
STRT.M 55.0000:
STOP.M 228.0000:
STEP.M 0.1250:
NULL. -999.2500:
UWI. F10621:
~C
DEPT.M :
GR.API :
RML.OHMM :
RI. :
RXO.OHMM :
CALI.CM :
DEN.GM/CC :
SP.MV :
~A
   55.0000    46.8900     4.8120     0.5980     1.3240    25.3680     0.0000   164.7410 
   55.1250    44.3980     4.6800     0.5980     1.3040    25.3680     0.0000   165.0370 
   55.2500    40.6140     4.6160     0.5990     1.2690    25.3680     0.0000   165.4800 
   55.3750    39.5400     4.5940     0.5990     1.2370    25.3680     1.6050   165.9930 
   55.5000    40.1060     4.5900     0.5990     1.2130    25.3680     2.1240   166.4390 
   55.6250    39.9420     4.5860     0.5990     1.1980    25.3680     2.0850   166.6870 
   55.7500    40.0170     4.5720     0.5980     1.1970    25.3680     2.0480   166.7220 
   55.8750    41.0420     4.5420     0.5970     1.2080    25.3680     2.0280   166.5100 
   56.0000    42.0790     4.4930     0.5950     1.2220    25.3680     2.0280   166.0440 
   56.1250    43.1510     4.4070     0.5940     1.2290    25.3680     2.0390   165.3650 
   56.2500    45.8720     4.2760     0.5960     1.2310    25.3680     2.0450   164.5450 
   56.3750    49.0410     4.0900     0.6030     1.2320    25.3680     2.0420   163.6480 
   56.5000    50.1470     3.8560     0.6130     1.2270    25.3680     2.0320   162.7440 
   56.6250    48.4570     3.6010     0.6240     1.2180    25.3680     2.0180   161.7690 
   56.7500    47.7470     3.3620     0.6340     1.1980    25.3680     2.0050   160.6440 
   56.8750    48.5570     3.1660     0.6390     1.1610    25.3680     1.9940   159.3750 
   57.0000    48.0840     3.0410     0.6420     1.1310    25.3680     1.9830   157.9430 
   57.1250    45.9480     3.0540     0.6430     1.0880    25.3680     1.9690   156.2530 
   57.2500    45.0570     3.2300     0.6420     1.0280    25.3680     1.9510   154.3530 
   57.3750    46.1350     3.5440     0.6350     0.9540    25.3680     1.9350   152.2270 
   57.5000    46.7260     3.8720     0.6110     0.6610    25.3680     1.9360   149.8540 
   57.6250    47.0550     3.9300     0.5560     0.5730    25.3680     1.9880   147.1840 
   57.7500    50.8060     3.5310     0.4700     0.4930    25.3680     2.1040   144.1450 
   57.8750    54.2180     2.6990     0.3620     0.3950    25.3680     2.2720   140.4920 
   58.0000    52.7660     1.7530     0.2550     0.2730    25.3680     2.4510   135.9060 
   58.1250    49.6240     1.1300     0.1720     0.5760    25.3590     2.5500   129.7100 
   58.2500    50.5980     0.9150     0.1410     1.4750    25.3140     2.5440   121.7670 
   58.3750    54.2750     1.1610     0.2320     1.9510    25.1530     2.4580   111.8290 
   58.5000    56.0730     1.9640     0.5630     2.9140    24.7900     2.3420    99.8730 
   58.6250    55.1080     3.4680     1.3440     4.9890    24.3290     2.2400    86.2730 
   58.7500    55.8190     5.3680     2.5590     7.3940    24.0810     2.1740    72.0660 
   58.8750    59.4520     7.2170     4.0780     9.5290    24.1140     2.1490    57.9140 
   59.0000    64.4770     8.4310     5.5960    10.6510    24.2710     2.1520    44.4680 
   59.1250    68.1070     8.5460     6.6750    10.4310    24.4110     2.1640    32.5410 
   59.2500    70.6360     8.1680     7.3090     9.7500    24.5450     2.1680    22.2500 
   59.3750    71.3350     7.8710     7.7060     9.0370    24.7980     2.1610    13.8990 
   59.5000    68.7120     7.8740     8.0590     8.8130    25.1260     2.1500     7.6270 
   59.6250    64.6080     8.1370     8.4340     9.1320    25.2700     2.1440     3.3740 
   59.7500    62.9760     8.4700     8.7950     9.2640    25.3070     2.1450     0.3220 
   59.8750    63.1690     8.7600     9.0910     9.1980    25.2900     2.1500    -1.9540 
   60.0000    65.0560     8.9500     9.2950     9.1310    25.2150     2.1560    -3.8270 
   60.1250    69.6310     9.0410     9.4100     9.0840    25.0140     2.1600    -5.4340 
   60.2500    73.3900     9.1260     9.5020     8.9740    24.8040     2.1620    -6.7670 
   60.3750    72.9210     9.2640     9.6120     8.8210    24.6420     2.1650    -7.8410 
   60.5000    69.6370     9.4610     9.7440     8.6130    24.4250     2.1720    -8.7470 
   60.6250    69.2330     9.6530     9.8480     8.2490    23.9650     2.1840    -9.6240 
   60.7500    71.7370     9.7350     9.8420     7.9190    23.4110     2.2020   -10.5560 
   60.8750    75.0200     9.6100     9.6440     7.7440    23.0090     2.2230   -11.4600 
   61.0000    77.9880     9.2240     9.2060     7.6220    22.7940     2.2460   -12.2450 
   61.1250    80.6110     8.5730     8.5210     7.2900    22.6510     2.2670   -12.7900 
   61.2500    85.4790     7.8290     7.7410     6.8020    22.5050     2.2830   -13.1160 
   61.3750    92.5240     7.1660     7.0180     6.2130    22.4060     2.2910   -13.3020 
   61.5000    99.8820     6.7720     6.5220     5.7460    22.4040     2.2920   -13.4270 
   61.6250   103.0010     6.8950     6.4880     5.6270    22.5190     2.2870   -13.4800 
   61.7500   101.8900     7.5390     6.9390     5.7400    22.5530     2.2760   -13.4190 
   61.8750    97.4440     8.6400     7.8430     6.0710    22.2090     2.2580   -13.3040 
   62.0000    90.1490     9.9900     9.0390     6.5930    21.3890     2.2350   -13.2370 
   62.1250    81.5400    11.1900    10.1880     7.1470    20.0780     2.2130   -13.2840 
   62.2500    75.7510    11.8900    10.9420     7.4300    18.7130     2.1940   -13.4620 
   62.3750    73.5820    11.9570    11.1330     7.3020    17.3150     2.1780   -13.7510 
   62.5000    74.8020    11.5290    10.8280     6.7840    16.2740     2.1620   -14.0200 
   62.6250    76.8480    10.9490    10.2870     6.3120    15.7940     2.1470   -14.2500 
   62.7500    76.0840    10.5470     9.8360     5.9820    15.4080     2.1390   -14.5060 
   62.8750    74.2660    10.4110     9.5920     6.0010    14.9660     2.1420   -14.7630 
   63.0000    74.9950    10.5030     9.5600     6.1670    14.6920     2.1550   -14.9910 
   63.1250    77.8370    10.7740     9.7230     6.3880    14.6270     2.1640   -15.2460 
   63.2500    78.2300    11.1780    10.0340     6.7160    14.6380     2.1550   -15.5030 
   63.3750    75.8090    11.7330    10.5020     7.2390    14.7120     2.1230   -15.7230 
   63.5000    73.3000    12.4440    11.1240     8.1310    14.9490     2.0770   -15.9380 
   63.6250    70.8380    13.2420    11.8490     9.2850    15.4640     2.0340   -16.1690 
   63.7500    68.6420    13.9310    12.5140    10.6560    16.3960     2.0080   -16.3800 
   63.8750    66.7720    14.3180    12.9560    11.7360    17.7790     2.0050   -16.5830 
   64.0000    64.4140    14.2920    13.0590    11.5860    19.4920     2.0190   -16.7790 
   64.1250    62.9340    13.8450    12.7800    11.2320    21.2170     2.0380   -16.9400 
   64.2500    62.5110    13.2400    12.3160    10.9120    22.5930     2.0550   -17.0800 
   64.3750    61.8320    12.6800    11.8380    10.5210    23.4850     2.0680   -17.2200 
   64.5000    60.0900    12.3020    11.4830    10.1870    24.0330     2.0840   -17.3520 
   64.6250    59.1630    12.1720    11.3360    10.2780    24.4510     2.1050   -17.4620 
   64.7500    59.9230    12.1890    11.3370    10.4580    24.6490     2.1280   -17.5790 
   64.8750    61.2520    12.2690    11.4200    10.6030    24.7260     2.1440   -17.6970 
   65.0000    61.8710    12.3400    11.5160    10.6730    24.9000     2.1440   -17.8140 
   65.1250    62.3120    12.3330    11.5570    10.5380    25.3870     2.1190   -17.9400 
   65.2500    63.3740    12.2130    11.4990    10.3120    25.9090     2.0810   -18.0470 
   65.3750    63.3920    11.9360    11.2970     9.9660    26.3300     2.0470   -18.0920 
   65.5000    60.7580    11.4540    10.9070     9.3860    26.7540     2.0360   -18.1100 
   65.6250    58.8280    10.7230    10.2810     8.7270    26.7880     2.0640   -18.0890 
   65.7500    62.7120     9.8460     9.5050     8.1320    26.0270     2.1210   -18.0210 
   65.8750    72.7220     8.9450     8.6810     7.7060    24.8270     2.1920   -17.9200 
   66.0000    84.6400     8.1490     7.9290     7.2120    24.0040     2.2550   -17.7970 
   66.1250    92.4350     7.5950     7.3770     6.6370    23.7350     2.2930   -17.6530 
