~V
VERS. 2.00: Ver 2.00
~W
STRT.M 51.0000:
STOP.M 206.0000:
STEP.M 0.1250:
NULL. -999.2500:
UWI. F10683:
~C
DEPT.M :
GR.API :
RML.OHMM :
RI. :
RXO.OHMM :
CALI.CM :
SP.MV :
DEN.GM/CC :
~A
# ...
   84.7500    69.7290    10.7400     8.5330     8.7690    24.3230    -7.6570     2.3720 
   84.8750    66.8750    10.4480     8.2890     7.8260    24.5320    -7.5680     2.3640 
   85.0000    63.8660     9.9560     7.9550     6.9050    24.7080    -7.5070     2.3370 
   85.1250    65.9610     9.4310     7.5960     6.3440    24.7620    -7.5210     2.2950 
   85.2500    71.2060     9.1710     7.3950     6.4030    24.7500    -7.6110     2.2520 
   85.3750    74.2510     9.2500     7.7240     6.6920    24.6880    -7.7740     2.2130 
   85.5000    72.0050     9.2830     8.0850     7.1870    24.5880    -8.0570     2.1880 
   85.6250    65.8170     9.7210     8.3370     8.0540    24.4860    -8.4910     2.1900 
   85.7500    60.6650     9.9500     8.4020     9.9430    24.3250    -8.9780     2.2190 
   85.8750    58.5880    10.1790     8.4660    12.8780    24.1320    -9.3600     2.2660 
   86.0000    59.8970    10.1790     8.4660    14.0970    24.0140    -9.5090     2.3130 
   86.1250    62.9990    10.1790     8.7300    12.0520    24.0440    -9.3510     2.3440 
   86.2500    65.3530    10.1790     8.7300     9.2120    24.0900    -8.9390     2.3660 
   86.3750    68.1620     9.9480     8.7300     7.4800    24.1080    -8.3160     2.3810 
   86.5000    70.0820     9.5730     8.5970     6.1080    24.1100    -7.5380     2.3910 
   86.6250    64.3970     9.2830     7.9650     5.5260    24.1280    -6.7340     2.3940 
   86.7500    69.0280     9.2120     7.3770     5.3390    24.1990    -6.0210     2.3850 
   86.8750    74.4190     8.9340     6.9090     5.8000    24.3430    -5.4640     2.3580 
   87.0000    75.8330     8.8650     6.8290     6.9110    24.5010    -5.0780     2.3200 
   87.1250    71.0570     9.4460     7.0440     7.1740    24.5690    -4.8450     2.2880 
   87.2500    65.8450    10.1460     7.6230     7.3950    24.5560    -4.7210     2.2750 
   87.3750    68.1460    10.7850     8.2040     7.7000    24.5390    -4.7030     2.2790 
   87.5000    67.9640    11.2640     8.6750     8.1790    24.5380    -4.7550     2.2900 
   87.6250    66.8870    11.4100     8.9110     8.7330    24.5460    -4.7960     2.3090 
   87.7500    65.0260    11.2400     8.9130     9.2100    24.5600    -4.7610     2.3350 
   87.8750    64.3040    10.8530     8.7370     9.0580    24.5950    -4.6660     2.3660 
   88.0000    66.3370    10.4170     8.4870     8.4740    24.6360    -4.5840     2.3990 
   88.1250    67.5780    10.1380     8.2870     7.9500    24.6870    -4.5840     2.4250 
   88.2500    67.1720    10.0520     8.1900     9.5710    24.7190    -4.6720     2.4320 
   88.3750    69.2390    10.0810     8.1730    12.1680    24.6760    -4.8290     2.4000 
   88.5000    73.0590    10.1260     8.1870    10.2630    24.5460    -5.0410     2.3400 
   88.6250    72.5450    10.2060     8.2440     8.5820    24.2810    -5.2890     2.2860 
   88.7500    67.8760    10.4480     8.4140     8.2290    23.9890    -5.5510     2.2540 
   88.8750    63.8400    10.9550     8.7750     8.8360    23.8660    -5.7950     2.2400 
   89.0000    64.1370    11.7230     9.3480     9.6050    23.9780    -5.9750     2.2380 
   89.1250    67.8610    12.5350    10.0370    10.3170    24.2480    -6.0680     2.2440 
   89.2500    70.7070    12.9980    10.5580    11.8710    24.4700    -6.0730     2.2550 
   89.3750    70.1770    12.8770    10.6970    12.0260    24.5570    -5.9860     2.2750 
   89.5000    66.7120    12.2420    10.4390    10.4950    24.5440    -5.8230     2.2990 
   89.6250    63.7400    11.4100     9.9580     8.9280    24.5540    -5.5820     2.3050 
   89.7500    61.9520    10.7800     9.5500     8.8670    24.5680    -5.3310     2.2940 
   89.8750    60.4340    10.5890     9.4100     9.4710    24.6070    -5.1220     2.2780 
   90.0000    63.2260    10.9120     9.6470    10.3600    24.6940    -4.9440     2.2670 
   90.1250    69.8500    11.6390    10.2600    10.5590    24.7800    -4.7290     2.2610 
   90.2500    72.5520    12.3720    10.9810    10.2280    24.8290    -4.4710     2.2510 
   90.3750    68.2410    12.8170    11.5620    10.7580    24.8430    -4.2130     2.2390 
   90.5000    61.6870    12.7850    11.7870    12.5130    24.8440    -3.9860     2.2330 
   90.6250    60.4250    12.2160    11.5020    11.8930    24.8150    -3.8250     2.2400 
   90.7500    62.3710    11.4200    10.9180     9.9390    24.7390    -3.6960     2.2520 
   90.8750    63.7220    10.6290    10.2340     9.6730    24.6440    -3.5610     2.2650 
   91.0000    61.9670     9.9870     9.6050     9.6600    24.6230    -3.4420     2.2790 
   91.1250    61.5230     9.5560     9.1320     9.2130    24.7390    -3.4030     2.2950 
   91.2500    65.6440     9.2260     8.7720     7.8290    25.2240    -3.4300     2.3000 
   91.3750    69.2560     8.9180     8.4770     6.8750    25.9430    -3.4670     2.2910 
   91.5000    68.0890     8.6880     8.2730     7.6520    25.3190    -3.4730     2.2800 
   91.6250    65.4560     8.8350     8.3640     9.1650    24.7700    -3.4520     2.2810 
   91.7500    65.7990     9.6080     8.9220    10.3520    24.3680    -3.4520     2.2860 
   91.8750    65.7230    12.3880    10.7060    11.4730    24.2970    -3.4970     2.2790 
   92.0000    63.5530    15.8870    13.4000    15.4460    24.4000    -3.5890     2.2590 
   92.1250    61.4820    20.7490    17.5970    24.8570    24.6920    -3.7030     2.2320 
   92.2500    59.1290    26.9000    23.2290    32.8340    24.9030    -3.8300     2.2050 
   92.3750    55.9360    33.5950    29.7270    42.4860    24.9770    -3.9980     2.1750 
   92.5000    53.0580    39.5340    35.8970    52.0640    24.9820    -4.1930     2.1460 
   92.6250    53.3940    43.1800    40.1810    55.7130    24.9750    -4.4130     2.1230 
   92.7500    54.2530    44.8830    42.5890    55.9350    24.9590    -4.6660     2.1100 
   92.8750    52.5670    45.2970    43.5530    54.5020    24.9400    -4.9380     2.1060 
   93.0000    49.9100    44.8490    43.4450    49.9280    24.9480    -5.2120     2.1090 
   93.1250    49.8870    43.4340    42.2460    53.2590    24.9880    -5.4840     2.1120 
   93.2500    51.5150    40.9230    39.9910    53.4190    25.0020    -5.7280     2.1150 
   93.3750    51.6710    37.1560    36.5500    51.0170    24.9820    -5.9360     2.1200 
   93.5000    50.0570    32.4770    32.1840    43.4390    24.9730    -6.1460     2.1300 
   93.6250    51.0760    27.9420    27.7980    33.4680    24.8970    -6.3890     2.1450 
   93.7500    54.7910    24.5500    24.3570    24.6970    24.7040    -6.6040     2.1640 
   93.8750    57.4720    22.7730    22.3360    19.2590    24.4620    -6.7600     2.1790 
   94.0000    57.1800    22.7250    21.8850    16.6850    24.3560    -6.8730     2.1820 
   94.1250    55.4860    24.3930    23.1260    18.6060    24.4840    -6.9890     2.1710 
   94.2500    55.7430    26.7880    25.3040    25.6550    24.7490    -7.1560     2.1640 
   94.3750    55.8030    28.8100    27.4990    32.0120    25.0180    -7.3560     2.1740 
   94.5000    53.0640    29.4730    28.7020    30.5460    25.1580    -7.5680     2.2060 
   94.6250    49.5770    28.6110    28.4300    25.5360    25.1050    -7.7360     2.2570 
   94.7500    48.7880    27.5670    27.6990    22.2930    25.0120    -7.8770     2.3040 
   94.8750    50.0290    27.3350    27.4370    21.4610    24.9240    -8.0310     2.3140 
   95.0000    51.0310    28.4000    28.2230    23.7400    24.8350    -8.2090     2.2740 
   95.1250    52.1720    30.8390    30.3010    26.9410    24.7380    -8.4050     2.2130 
   95.2500    53.3440    33.7850    32.9760    29.7090    24.6270    -8.5820     2.1730 
   95.3750    53.2620    36.3300    35.4160    31.1530    24.4870    -8.7540     2.1600 
   95.5000    52.8600    37.6240    36.7700    30.6930    24.3380    -8.9290     2.1610 
   95.6250    53.8970    37.1140    36.4030    30.4080    24.2180    -9.1140     2.1720 
   95.7500    53.9570    35.6720    35.0710    31.5880    24.1020    -9.2960     2.1920 
   95.8750    51.7320    34.2170    33.6630    31.1490    24.0100    -9.4590     2.2060 
