~V
VERS. 2.00: Ver 2.00
~W
STRT.M 52.0000:
STOP.M 240.0000:
STEP.M 0.1250:
NULL. -999.2500:
UWI. F10646:
~C
DEPT.M :
GR.API :
RML.OHMM :
RI. :
RXO.OHMM :
CALI.CM :
DEN.GM/CC :
SP.MV :
~A
# ...
  220.7500    79.0930     8.8250     7.3250     9.2440    24.2740     2.2030   -14.6890 
  220.8750    76.6140     9.1070     7.5390    10.6340    24.2290     2.2290   -14.8630 
  221.0000    73.8210     9.2740     7.7420    11.8800    24.1480     2.2470   -15.0720 
  221.1250    73.3610     9.3440     7.8900    11.9060    23.9560     2.2590   -15.2510 
  221.2500    75.2660     9.4120     7.9840    10.2390    23.7730     2.2640   -15.3930 
  221.3750    77.4390     9.5940     8.0710     9.2480    23.5980     2.2620   -15.5100 
  221.5000    80.1250     9.9230     8.2210     9.6950    23.7250     2.2490   -15.5830 
  221.6250    81.8310    10.2400     8.4200    10.5980    24.0820     2.2320   -15.6080 
  221.7500    82.5230    10.3640     8.5810    11.8160    24.3110     2.2210   -15.6230 
  221.8750    81.3430    10.1470     8.5730    13.1210    24.3750     2.2230   -15.6140 
  222.0000    77.3660     9.5280     8.2880    11.4680    24.3550     2.2350   -15.5410 
  222.1250    73.4810     8.7940     7.8650     9.6710    24.3580     2.2490   -15.4550 
  222.2500    71.2070     8.2210     7.4700     8.4900    24.5070     2.2610   -15.3930 
  222.3750    71.0250     7.9670     7.2220     8.1150    24.7600     2.2730   -15.3390 
  222.5000    73.3800     8.0120     7.1480     8.3530    24.8300     2.2910   -15.2660 
  222.6250    76.6700     8.0840     7.1110     8.5480    24.6520     2.3160   -15.1620 
  222.7500    78.4020     7.9690     6.9840     8.1600    24.5730     2.3370   -15.0260 
  222.8750    75.9160     7.5920     6.7140     7.2860    24.7490     2.3330   -14.8690 
  223.0000    71.8600     7.0830     6.3590     6.1010    25.3160     2.2910   -14.6890 
  223.1250    68.9300     6.7040     6.0690     5.4520    26.0840     2.2300   -14.5460 
  223.2500    67.9150     6.5890     5.9390     5.6550    26.4530     2.1720   -14.5030 
  223.3750    69.3290     6.7470     6.0050     6.5790    25.9130     2.1370   -14.6010 
  223.5000    72.4880     7.0910     6.2540     7.8890    25.0310     2.1390   -14.8190 
  223.6250    74.1660     7.4490     6.5620     8.6050    24.5610     2.1580   -15.1010 
  223.7500    74.2860     7.7690     6.8630     8.9250    24.4230     2.1710   -15.4200 
  223.8750    76.4390     8.1570     7.1740     9.0060    24.3300     2.1700   -15.7730 
  224.0000    78.9100     9.0000     7.6950     9.4150    24.2430     2.1730   -16.1820 
  224.1250    76.8090    10.6500     8.6930    10.6380    24.1890     2.2000   -16.5360 
  224.2500    71.8490    13.4140    10.4720    14.8130    24.1600     2.2600   -16.7290 
  224.3750    69.6450    17.3430    13.2580    27.1280    24.1570     2.3510   -16.7250 
  224.5000    72.0540    21.8560    16.9750    44.4290    24.1610     2.4440   -16.5770 
  224.6250    73.1110    25.2030    20.3230    48.4880    24.1460     2.5010   -16.3710 
  224.7500    71.2790    25.7400    21.7100    41.0090    24.1300     2.5080   -16.1280 
  224.8750    68.2720    23.2330    20.4520    32.1900    24.1320     2.4740   -15.8580 
  225.0000    68.4020    19.2410    17.4790    23.8590    24.1490     2.4210   -15.5390 
  225.1250    71.9650    15.7280    14.5480    17.1090    24.1490     2.3790   -15.1990 
  225.2500    74.7770    13.1770    12.2240    12.7910    24.1380     2.3540   -14.8820 
  225.3750    73.7650    11.4680    10.5340    10.6030    24.1630     2.3380   -14.6010 
  225.5000    71.5270    10.3550     9.3730    10.9920    24.1520     2.3160   -14.3350 
  225.6250    72.3500     9.4710     8.4900    11.1570    24.0670     2.2870   -14.0700 
  225.7500    75.5550     8.6880     7.7910     9.8600    23.8520     2.2610   -13.7680 
  225.8750    77.6700     7.9780     7.2310     8.4750    23.5040     2.2480   -13.4350 
  226.0000    76.6010     7.4130     6.8250     7.6670    23.3710     2.2480   -13.0980 
  226.1250    74.2840     7.0380     6.5680     7.1080    23.4480     2.2480   -12.7610 
  226.2500    74.1410     6.8730     6.4740     6.9030    23.7580     2.2370   -12.4650 
  226.3750    77.0230     6.8860     6.5260     7.2490    24.1190     2.2170   -12.2200 
  226.5000    80.5800     7.0080     6.6640     8.0480    24.2780     2.2040   -12.0540 
  226.6250    82.4860     7.1330     6.7720     8.3100    24.3350     2.2070   -11.9340 
  226.7500    82.5680     7.2070     6.7870     8.0130    24.3670     2.2230   -11.8720 
  226.8750    81.5240     7.2030     6.6950     7.4760    24.3820     2.2370   -11.8660 
  227.0000    79.8750     7.1320     6.5240     6.8310    24.3860     2.2340   -11.9010 
  227.1250    78.2880     7.0610     6.3470     6.7650    24.4090     2.2180   -12.0370 
  227.2500    77.2350     7.0250     6.2040     7.0010    24.4360     2.1980   -12.1870 
  227.3750    76.8680     7.0420     6.1220     7.3090    24.4400     2.1860   -12.3300 
  227.5000    78.5830     7.1160     6.1410     7.5200    24.4040     2.1880   -12.4660 
  227.6250    80.1280     7.2510     6.2560     7.8040    24.3020     2.1970   -12.6140 
  227.7500    79.7400     7.4690     6.4500     8.5180    24.2030     2.2060   -12.8030 
  227.8750    78.2320     7.7590     6.6870     9.1540    24.1600     2.2100   -13.0500 
  228.0000    78.1240     8.0760     6.9370     9.4070    24.1300     2.2120   -13.3430 
  228.1250    79.8140     8.3760     7.1850     9.3220    24.1260     2.2180   -13.5630 
  228.2500    82.6030     8.6530     7.4350    10.1640    24.1840     2.2320   -13.7230 
  228.3750    84.6970     8.9180     7.6880    10.8760    24.3170     2.2560   -13.8320 
  228.5000    84.0800     9.1620     7.9170    10.7140    24.3670     2.2870   -13.8350 
  228.6250    84.0280     9.3390     8.0720    10.7300    24.3640     2.3110   -13.7310 
  228.7500    86.0700     9.3770     8.0890    10.0780    24.3580     2.3210   -13.5540 
  228.8750    87.4820     9.2050     7.9170     8.5180    24.3850     2.3120   -13.2580 
  229.0000    84.8100     8.7720     7.5200     7.4200    24.4110     2.2920   -12.8200 
  229.1250    81.7260     8.1890     7.0070     7.3190    24.4290     2.2770   -12.3210 
  229.2500    81.0510     7.5770     6.5010     7.3720    24.4450     2.2740   -11.8180 
  229.3750    81.6270     7.0740     6.1140     7.4150    24.4470     2.2800   -11.3900 
  229.5000    82.4470     6.8300     5.9410     7.3020    24.4110     2.2880   -11.0650 
  229.6250    83.9990     6.8100     5.9380     7.3100    24.3660     2.2890   -10.8530 
  229.7500    85.2260     6.9250     6.0330     7.5630    24.3580     2.2840   -10.7600 
  229.8750    84.9230     7.0500     6.1370     7.9490    24.3670     2.2740   -10.7740 
  230.0000    84.9230     7.0570     6.1610     8.0600    24.3400     2.2640   -10.8620 
  230.1250    84.9230     6.9340     6.0880     7.9090    24.3170     2.2580   -11.0240 
  230.2500    84.9230     6.7510     5.9460     7.5780    24.3120     2.2560   -11.2410 
  230.3750    84.9230     6.6360     5.8100     7.2360    24.3230     2.2590   -11.4570 
  230.5000    84.9230     6.7410     5.8230     7.2230    24.3070     2.2650   -11.6740 
  230.6250    84.9230     7.0750     6.0650     7.5950    24.2690     2.2770   -11.8820 
  230.7500    84.9230     7.5860     6.5520     8.3100    24.2350     2.2940   -11.9980 
  230.8750    84.9230     8.1370     7.1840     9.6510    24.2900     2.3130   -12.0250 
  231.0000    84.9230     8.4640     7.6770    11.8080    24.3670     2.3200   -12.0160 
  231.1250    84.9230     8.4130     7.7740    11.8500    24.4100     2.3070   -11.9430 
  231.2500    84.9230     7.9760     7.4200     9.8220    24.4290     2.2780   -11.7730 
  231.3750    84.9230     7.2930     6.7710     7.7740    24.4750     2.2470   -11.4880 
  231.5000    84.9230     6.5850     6.0850     6.5880    24.4980     2.2360   -11.0940 
  231.6250    84.9230     6.0180     5.5460     6.4090    24.4910     2.2480   -10.6790 
  231.7500    84.9230     5.6510     5.2060     6.5220    24.4370     2.2740   -10.2500 
  231.8750    84.9230     5.4800     5.0480     6.4420    24.4200     2.2990    -9.8400 
