~V
VERS. 2.00: Ver 2.00
~W
STRT.M 55.0000:
STOP.M 197.0000:
STEP.M 0.1250:
NULL. -999.2500:
UWI. F10681:
~C
DEPT.M :
DEN.GM/CC :
GR.API :
RML.OHMM :
RI. :
RXO.OHMM :
CALI.CM :
SP.MV :
~A
# ...
  178.7500     2.4610    66.6810    13.9180    10.6510    15.4880    24.3400   -14.1250 
  178.8750     2.4680    63.8530    15.1770    11.6300    15.6320    24.3410   -13.7420 
  179.0000     2.4790    65.1250    16.3760    12.6100    16.4880    24.3680   -13.3830 
  179.1250     2.5020    69.7590    17.3870    13.5000    18.4860    24.4080   -13.1330 
  179.2500     2.5300    72.4710    18.1980    14.2550    20.2190    24.3540   -12.9710 
  179.3750     2.5540    69.4830    18.8490    14.8730    22.7110    24.3640   -12.8600 
  179.5000     2.5680    62.8010    19.3950    15.3900    24.9240    24.4500   -12.7790 
  179.6250     2.5680    59.8180    19.8070    15.8130    25.7360    24.5490   -12.7320 
  179.7500     2.5570    62.0110    19.9870    16.1070    26.0640    24.5940   -12.7240 
  179.8750     2.5390    66.2530    19.8090    16.1790    23.7060    24.6290   -12.7580 
  180.0000     2.5190    66.9060    19.2300    15.9640    20.7340    24.6420   -12.8100 
  180.1250     2.5010    63.1000    18.3150    15.4420    18.1540    24.5440   -12.8710 
  180.2500     2.4870    59.4790    17.3160    14.7810    16.9850    24.3780   -12.9320 
  180.3750     2.4770    58.2250    16.3790    14.1050    16.4360    24.3060   -12.9930 
  180.5000     2.4660    59.9460    15.5580    13.4910    15.8330    24.2810   -13.0410 
  180.6250     2.4540    64.8300    14.8200    12.9430    15.1110    24.2850   -13.0930 
  180.7500     2.4430    68.6000    14.0400    12.3700    13.9870    24.2930   -13.1670 
  180.8750     2.4340    67.6910    13.1130    11.6700    12.7530    24.2570   -13.2350 
  181.0000     2.4240    63.7650    12.0000    10.7780    11.3420    24.1320   -13.3100 
  181.1250     2.4100    63.9380    10.7640     9.7150     9.7650    24.0000   -13.3700 
  181.2500     2.3910    68.6030     9.5920     8.6490     8.7610    23.9920   -13.4260 
  181.3750     2.3740    72.5330     8.6340     7.7220     8.0580    23.8670   -13.5010 
  181.5000     2.3640    72.7580     7.9970     7.0340     7.5080    23.6860   -13.6150 
  181.6250     2.3690    71.9120     7.7910     6.6920     6.8380    23.5940   -13.7450 
  181.7500     2.3810    72.0080     7.9350     6.6470     6.6410    23.3590   -13.8320 
  181.8750     2.3920    72.8290     8.3660     6.8640     6.6800    23.2240   -13.8870 
  182.0000     2.3960    71.7090     8.9870     7.2820     7.1200    23.4190   -13.9080 
  182.1250     2.3950    67.4810     9.6840     7.8240     7.8270    23.6240   -13.9130 
  182.2500     2.3940    64.8140    10.3440     8.3820     8.6760    23.6830   -13.9360 
  182.3750     2.4020    66.5400    10.9370     8.9100     9.1400    23.6570   -13.9400 
  182.5000     2.4190    70.4660    11.4820     9.4040     9.1290    23.7050   -13.8960 
  182.6250     2.4420    71.4020    12.0120     9.8810     9.6920    23.9360   -13.8180 
  182.7500     2.4600    70.3980    12.5160    10.3390    10.4890    23.9570   -13.7800 
  182.8750     2.4650    69.5860    12.9160    10.7300    10.8450    23.8340   -13.7740 
  183.0000     2.4540    68.9600    13.0900    10.9550    10.9860    23.7970   -13.7800 
  183.1250     2.4300    68.4340    12.8470    10.8380    10.9950    23.9450   -13.7920 
  183.2500     2.4050    69.1090    12.2280    10.3820    10.4500    24.0010   -13.7920 
  183.3750     2.3910    69.5980    11.3750     9.6810     9.2680    23.9850   -13.8110 
  183.5000     2.3950    69.2110    10.5330     8.9200     8.1220    23.9200   -13.8720 
  183.6250     2.4190    69.9090     9.9890     8.3310     8.1020    23.8690   -13.9520 
  183.7500     2.4480    70.8620     9.8000     8.0030     9.6990    23.8310   -14.0150 
  183.8750     2.4690    69.7610     9.8980     7.9310    11.1490    24.0160   -14.0640 
  184.0000     2.4730    68.3310    10.1080     8.0220    10.6130    24.1530   -14.0970 
  184.1250     2.4540    67.1470    10.1840     8.1210     8.3070    23.9700   -14.1310 
  184.2500     2.4180    63.2450    10.0390     8.1080     6.9950    23.7910   -14.1770 
  184.3750     2.3760    58.5210     9.7530     7.9850     6.4040    23.7790   -14.2130 
  184.5000     2.3370    57.6570     9.4880     7.8310     6.3270    23.7850   -14.2260 
  184.6250     2.3140    62.2740     9.4080     7.7590     6.9480    23.7930   -14.2300 
  184.7500     2.3100    66.3940     9.4930     7.7920     7.8170    23.8010   -14.2560 
  184.8750     2.3220    67.7020     9.6520     7.8930     8.3840    23.8540   -14.2730 
  185.0000     2.3410    66.8810     9.7680     7.9960     8.7630    23.8830   -14.2740 
  185.1250     2.3500    65.2200     9.7550     8.0330     8.6000    23.9150   -14.2470 
  185.2500     2.3450    62.8530     9.6560     8.0010     7.6900    23.9790   -14.2010 
  185.3750     2.3300    60.0620     9.5470     7.9310     7.2750    23.9810   -14.1650 
  185.5000     2.3150    58.5600     9.4900     7.8610     7.6180    24.0150   -14.1400 
  185.6250     2.3070    60.2340     9.5040     7.8220     8.1890    24.0070   -14.1050 
  185.7500     2.3050    63.8140     9.5310     7.8050     8.3920    23.9660   -14.0490 
  185.8750     2.3070    66.4820     9.5180     7.7950     8.1320    23.9790   -14.0100 
  186.0000     2.3090    67.7050     9.4440     7.7760     7.8820    24.0200   -14.0240 
  186.1250     2.3080    67.8880     9.3140     7.7320     7.9540    23.9970   -14.0870 
  186.2500     2.3070    67.4100     9.1460     7.6500     8.3380    23.9060   -14.2040 
  186.3750     2.3060    67.4100     8.9290     7.5180     8.5870    23.8670   -14.3540 
  186.5000     2.3040    67.4100     8.6540     7.3310     8.6940    23.7710   -14.5250 
  186.6250     2.3010    67.4100     8.3330     7.0950     8.5210    23.6940   -14.7350 
  186.7500     2.2980    67.4100     8.0190     6.8480     8.0430    23.5850   -14.9640 
  186.8750     2.2980    67.4100     7.7730     6.6330     7.2750    23.4130   -15.1700 
  187.0000     2.3040    67.4100     7.6430     6.4940     7.0380    23.3350   -15.3430 
  187.1250     2.3200    67.4100     7.6640     6.4730     6.5760    23.3180   -15.5210 
  187.2500     2.3380    67.4100     7.7950     6.5500     6.2030    23.1600   -15.7090 
  187.3750     2.3500    67.4100     7.9920     6.6910     6.1960    22.9090   -15.8870 
  187.5000     2.3460    67.4100     8.1770     6.8310     7.0510    22.7710   -16.0810 
  187.6250     2.3230    67.4100     8.2150     6.8620     8.4160    22.7850   -16.3110 
  187.7500     2.2880    67.4100     8.0550     6.7320     8.6860    22.8510   -16.5630 
  187.8750     2.2530    67.4100     7.7060     6.4460     7.4840    22.8550   -16.8930 
  188.0000     2.2250    67.4100     7.2600     6.0800     6.1520    22.7570   -17.3140 
  188.1250     2.2110    67.4100     6.8980     5.7680     5.3350    22.6810   -17.7850 
  188.2500     2.2090    67.4100     6.7550     5.6030     4.9860    22.6440   -18.2540 
  188.3750     2.2170    67.4100     6.8730     5.6170     5.3800    22.7210   -18.7500 
  188.5000     2.2340    67.4100     7.2130     5.7920     6.6360    22.7950   -19.2670 
  188.6250     2.2580    67.4100     7.6770     6.0830     8.1960    22.8770   -19.7550 
  188.7500     2.2850    67.4100     8.1070     6.4030     8.4190    22.9730   -20.1920 
  188.8750     2.3080    67.4100     8.4240     6.7010     7.7430    23.0640   -20.5320 
  189.0000     2.3210    67.4100     8.6230     6.9470     7.4640    23.1060   -20.7500 
  189.1250     2.3170    67.4100     8.7330     7.1110     7.6500    23.1630   -20.9170 
  189.2500     2.3030    67.4100     8.7730     7.1910     7.8470    23.1960   -21.0160 
  189.3750     2.2870    67.4100     8.6990     7.1700     8.0520    23.1250   -21.0140 
  189.5000     2.2750    67.4100     8.4660     7.0420     8.1270    23.2480   -20.8910 
  189.6250     2.2710    67.4100     8.0950     6.8010     7.5880    23.4450   -20.6820 
  189.7500     2.2710    67.4100     7.7250     6.5120     7.2040    23.5020   -20.4540 
  189.8750     2.2740    67.4100     7.4530     6.2420     7.1670    23.4770   -20.2410 
