~V
VERS. 2.00: Ver 2.00
~W
STRT.M 55.0000:
STOP.M 192.0000:
STEP.M 0.1250:
NULL. -999.2500:
UWI. F10682:
~C
DEPT.M :
DEN.GM/CC :
GR.API :
RML.OHMM :
RI. :
RXO.OHMM :
CALI.CM :
SP.MV :
~A
   55.0000     2.1510    44.3360     0.5120     0.2560     1.0300    25.3080   110.2780 
   55.1250     2.1470    39.3010     0.5730     0.2620     0.9150    25.5530   110.3920 
   55.2500     2.1550    33.7090     0.6220     0.2690     0.8480    25.7090   110.6500 
   55.3750     2.1700    31.8420     0.6430     0.2740     0.8870    25.7170   111.0640 
   55.5000     2.1890    33.1390     0.6250     0.2760     0.9620    25.6680   111.6210 
   55.6250     2.2120    34.6080     0.5560     0.2750     1.1300    25.5630   112.2820 
   55.7500     2.2390    34.9450     0.4620     0.2710     1.4810    25.1620   112.9570 
   55.8750     2.2700    35.2240     0.3750     0.2670     2.0240    24.4750   113.5830 
   56.0000     2.3020    35.4190     0.3320     0.2660     2.5070    23.9520   114.0810 
   56.1250     2.3350    34.4500     0.3530     0.2670     2.6510    23.8940   114.4640 
   56.2500     2.3770    33.3420     0.3970     0.2680     2.6150    23.9280   114.8070 
   56.3750     2.4350    32.9650     0.4250     0.2650     2.5720    23.9360   115.1090 
   56.5000     2.5110    33.5420     0.4230     0.2590     2.5490    23.9330   115.3740 
   56.6250     2.5940    34.2540     0.4170     0.2570     2.6670    23.9200   115.6110 
   56.7500     2.6620    34.3490     0.4410     0.2640     2.7850    23.9150   115.7650 
   56.8750     2.7020    33.5590     0.4960     0.2800     2.8110    23.9550   115.7590 
   57.0000     2.7080    32.9000     0.5530     0.2980     2.6950    24.0780   115.5940 
   57.1250     2.6770    33.6360     0.5570     0.3060     2.5500    24.1560   115.2430 
   57.2500     2.6260    34.1830     0.5150     0.3010     2.4710    24.2060   114.7310 
   57.3750     2.5610    33.0830     0.4670     0.2890     2.4080    24.2800   114.1400 
   57.5000     2.4910    31.9130     0.4440     0.2780     2.1380    24.3630   113.5620 
   57.6250     2.4230    31.2690     0.4510     0.2740     1.8100    24.3200   113.1360 
   57.7500     2.3630    30.4330     0.4540     0.2790     1.5650    24.0240   112.9270 
   57.8750     2.3200    30.5840     0.4310     0.2900     1.4090    23.9000   113.0020 
   58.0000     2.3030    32.4780     0.3800     0.3010     1.3150    23.9290   113.3970 
   58.1250     2.3270    34.1980     0.3310     0.3050     1.2600    23.9630   114.1250 
   58.2500     2.3840    34.2590     0.3040     0.2990     1.2500    24.0390   115.0630 
   58.3750     2.4560    33.0750     0.2990     0.2860     1.3230    24.0790   116.0790 
   58.5000     2.5190    32.0730     0.3160     0.2760     1.5000    24.0720   117.0590 
   58.6250     2.5400    33.4230     0.3450     0.2740     1.6810    23.9830   117.7460 
   58.7500     2.5190    35.5100     0.3680     0.2780     1.8150    23.9290   118.1180 
   58.8750     2.4680    36.2140     0.3720     0.2780     1.9180    23.8920   118.1840 
   59.0000     2.4060    35.5050     0.3560     0.2670     1.9460    24.1600   117.9320 
   59.1250     2.3530    35.0840     0.3180     0.2380     1.9310    24.4920   117.2240 
   59.2500     2.3170    35.9530     0.2570     0.1980     1.9130    24.5570   115.9630 
   59.3750     2.3000    36.6300     0.1800     0.1540     1.8940    24.5930   113.9110 
   59.5000     2.3020    37.4470     0.1050     0.1120     1.8240    24.7370   110.8090 
   59.6250     2.3270    39.5300     0.0580     0.0790     1.6810    24.6680   106.1640 
   59.7500     2.3570    40.2260     0.0440     0.0600     1.5340    24.5830    99.8380 
   59.8750     2.3730    38.3020     0.0660     0.0660     1.4440    24.5450    91.7130 
   60.0000     2.3540    38.4150     0.1430     0.1260     1.8140    24.7780    81.9030 
   60.1250     2.2970    45.9870     0.3620     0.3530     3.7320    25.3340    70.7820 
   60.2500     2.2240    53.3380     0.8610     0.9110     8.3830    24.5860    59.1430 
   60.3750     2.1540    52.9700     1.9180     2.1050    13.4820    23.8510    47.4900 
   60.5000     2.1020    48.8430     3.8640     4.2890    15.2970    23.8710    36.2670 
   60.6250     2.0790    49.3500     6.5050     7.4390    15.2480    23.9760    26.2020 
   60.7500     2.0790    52.6140     8.5630    10.3880    15.0300    24.0000    17.6640 
   60.8750     2.0960    53.9190     9.6770    12.4880    15.0340    24.0140    10.8730 
   61.0000     2.1200    52.0060    10.3390    13.8700    15.1300    24.0610     5.7740 
   61.1250     2.1410    50.8480    10.9320    14.8120    15.2350    24.2470     2.1450 
   61.2500     2.1520    51.3140    11.5040    15.5160    15.3480    24.2980    -0.6840 
   61.3750     2.1530    51.7970    12.0180    16.0350    15.4160    24.3080    -2.9270 
   61.5000     2.1480    50.6460    12.4750    16.4600    15.3270    24.3130    -4.7060 
   61.6250     2.1410    49.8330    12.9560    16.9440    14.9760    24.3410    -6.1080 
   61.7500     2.1320    51.0630    13.5690    17.6020    15.2120    24.4220    -7.2850 
   61.8750     2.1210    51.3860    14.3730    18.4670    16.5420    24.4450    -8.2820 
   62.0000     2.1090    48.5080    15.3540    19.4850    18.3060    24.3700    -9.1190 
   62.1250     2.0960    44.4200    16.4100    20.4990    19.6320    24.2720    -9.8460 
   62.2500     2.0860    42.2670    17.3610    21.3330    20.2910    24.2370   -10.4980 
   62.3750     2.0810    42.0140    18.0770    21.8860    20.5610    24.2240   -11.1080 
   62.5000     2.0820    42.5750    18.5180    22.1500    20.6030    24.1770   -11.6880 
   62.6250     2.0900    43.7090    18.7300    22.1890    20.6310    24.1690   -12.2180 
   62.7500     2.1000    43.5730    18.8820    22.1880    20.6390    24.1660   -12.7170 
   62.8750     2.1070    42.2160    19.1160    22.2930    20.6990    24.1650   -13.1880 
   63.0000     2.1100    42.4580    19.5690    22.6460    20.8440    24.1520   -13.6780 
   63.1250     2.1110    44.9900    20.4400    23.4660    21.4160    24.0680   -14.1630 
   63.2500     2.1200    44.6910    21.7550    24.8000    22.2780    23.9160   -14.6480 
   63.3750     2.1490    41.9420    23.4380    26.6090    23.0470    23.8040   -15.1430 
   63.5000     2.2060    41.5270    25.1050    28.5330    23.3560    23.5990   -15.6490 
   63.6250     2.2870    46.1890    25.5540    29.4000    23.6390    23.6650   -16.1930 
   63.7500     2.3680    50.7570    23.8130    28.0840    24.3820    23.7700   -16.7170 
   63.8750     2.4220    54.0980    19.9570    24.3170    25.9630    23.8750   -17.2700 
   64.0000     2.4370    58.6310    15.3110    19.1820    26.6330    23.9000   -17.7860 
   64.1250     2.4090    64.1710    11.5700    14.5340    17.3320    23.8580   -18.2560 
   64.2500     2.3600    68.2380     9.1830    11.2620    10.9210    23.8460   -18.6800 
   64.3750     2.3000    70.0950     8.0310     9.4020     7.8750    23.8240   -19.0080 
   64.5000     2.2390    70.6000     7.8680     8.7200     7.1270    23.7530   -19.2750 
   64.6250     2.1870    68.6450     8.5810     9.1200     7.7680    23.7250   -19.4530 
   64.7500     2.1540    64.7900     9.8570    10.2720     9.7830    23.6450   -19.5650 
   64.8750     2.1460    62.3800    11.4860    11.9970    12.8480    23.6200   -19.6070 
   65.0000     2.1610    61.5360    13.1430    13.9810    14.0140    23.6330   -19.6040 
   65.1250     2.1980    59.5700    14.2980    15.6270    13.2310    23.8340   -19.6040 
   65.2500     2.2480    56.0420    14.5910    16.3670    14.6600    23.9620   -19.6200 
   65.3750     2.3020    53.1220    13.8320    15.8680    18.2560    24.1130   -19.6990 
   65.5000     2.3480    54.4030    12.1680    14.2430    18.2730    24.2130   -19.8240 
   65.6250     2.3670    61.4730    10.1110    12.0420    12.6620    24.2250   -19.9610 
   65.7500     2.3610    69.1910     8.3450    10.0250     8.6800    24.1990   -20.1350 
   65.8750     2.3430    70.9730     7.2110     8.5560     7.3130    24.1770   -20.3050 
   66.0000     2.3340    66.1170     6.7950     7.7620     6.9210    24.1880   -20.4590 
   66.1250     2.3560    61.1480     7.0490     7.6790     6.7240    24.2810   -20.6160 
