~V
VERS. 2.00: Ver 2.00
~W
STRT.M 57.0000:
STOP.M 204.0000:
STEP.M 0.1250:
NULL. -999.2500:
UWI. F10604:
~C
DEPT.M :
SP.MV :
GR.API :
RML.OHMM :
RI. :
RXO.OHMM :
CALI.CM :
DEN.GM/CC :
~A
# ...
  102.0000    -5.0740    76.6160    24.2000    17.8760    29.7200    24.8490     2.1820 
  102.1250    -5.0090    71.2860    31.1300    23.8710    37.7710    24.7740     2.1520 
  102.2500    -5.0100    69.7060    37.3450    30.2020    41.6760    24.6320     2.1290 
  102.3750    -4.9990    71.5590    41.1820    34.7600    42.4180    24.5410     2.1190 
  102.5000    -4.9290    73.7520    42.0280    36.2910    42.0960    24.5630     2.1210 
  102.6250    -4.7780    75.0120    40.5920    35.3010    40.8580    24.6690     2.1260 
  102.7500    -4.5670    75.4690    39.0130    33.9370    38.3660    24.7900     2.1240 
  102.8750    -4.3720    74.6650    38.4980    33.2730    36.0780    24.8520     2.1110 
  103.0000    -4.2680    72.5340    39.6050    33.8420    36.5110    24.8770     2.0920 
  103.1250    -4.2040    68.7270    42.6660    36.1130    40.5030    24.8970     2.0760 
  103.2500    -4.1690    65.8790    47.0790    39.7830    44.3430    24.8680     2.0740 
  103.3750    -4.1870    65.5560    52.2900    44.5070    45.4180    24.7250     2.0830 
  103.5000    -4.2160    66.5310    57.5950    49.6800    44.2570    24.4320     2.0990 
  103.6250    -4.2480    66.2040    62.0870    54.4260    43.9900    24.1700     2.1120 
  103.7500    -4.3000    64.1730    65.2770    58.1440    46.3920    24.0370     2.1210 
  103.8750    -4.3830    63.0720    66.8000    60.4470    51.0590    23.9180     2.1230 
  104.0000    -4.5290    64.2390    66.4030    61.0140    56.1370    23.7090     2.1190 
  104.1250    -4.6740    66.7260    63.7090    59.2780    58.7240    23.5830     2.1060 
  104.2500    -4.6970    69.6240    59.4310    55.7620    58.0710    23.6870     2.0880 
  104.3750    -4.6590    72.6660    54.2920    51.1380    55.0070    24.0640     2.0700 
  104.5000    -4.6160    75.9440    49.1310    46.2960    50.9380    24.5360     2.0570 
  104.6250    -4.5930    76.3690    44.8000    42.1450    47.1250    24.8710     2.0540 
  104.7500    -4.5960    73.8120    41.5300    38.9920    44.2740    24.9620     2.0590 
  104.8750    -4.5940    70.9880    39.3560    36.9050    42.2560    24.9720     2.0670 
  105.0000    -4.5460    71.4100    38.2040    35.8370    40.4880    24.9790     2.0780 
  105.1250    -4.4580    74.6650    38.0930    35.8360    39.1410    24.9310     2.0910 
  105.2500    -4.3960    74.4630    38.7130    36.6000    39.1090    24.8190     2.1020 
  105.3750    -4.3250    70.4910    39.8820    37.9400    41.1690    24.6590     2.1100 
  105.5000    -4.2450    67.2350    41.3730    39.6140    45.0710    24.4750     2.1120 
  105.6250    -4.1390    68.6450    42.9030    41.3270    48.3620    24.3470     2.1110 
  105.7500    -3.9690    71.0310    44.1590    42.7810    48.7080    24.2800     2.1100 
  105.8750    -3.7560    72.1760    44.8530    43.6980    46.8920    24.2370     2.1110 
  106.0000    -3.5370    73.3800    44.6820    43.7700    45.7450    24.2150     2.1120 
  106.1250    -3.4130    74.1300    43.2240    42.4790    46.9630    24.2080     2.1100 
  106.2500    -3.3520    72.9910    40.7750    40.0380    47.4780    24.2070     2.1050 
  106.3750    -3.3260    71.9270    37.8680    36.9940    44.4940    24.1990     2.1000 
  106.5000    -3.3340    73.9610    35.3120    34.2030    38.3120    24.1740     2.0960 
  106.6250    -3.3760    77.2390    34.2260    32.7250    32.8450    24.1870     2.0970 
  106.7500    -3.4560    77.4370    34.9510    32.9050    32.5650    24.1800     2.1020 
  106.8750    -3.5580    75.2340    37.4820    34.8860    38.8900    24.1830     2.1090 
  107.0000    -3.6070    73.7650    41.3000    38.4210    48.3790    24.3570     2.1190 
  107.1250    -3.5360    73.1310    45.3020    42.6580    53.9010    24.6810     2.1290 
  107.2500    -3.3920    71.7540    48.2650    46.1500    53.8080    24.9550     2.1390 
  107.3750    -3.1970    70.9690    49.6470    48.0570    51.3400    25.0610     2.1430 
  107.5000    -2.9580    72.1800    49.5990    48.3600    49.5980    25.0610     2.1420 
  107.6250    -2.6760    72.8840    48.7400    47.6770    49.0290    25.0430     2.1350 
  107.7500    -2.3570    71.3480    47.8650    46.9170    48.9970    25.0400     2.1270 
  107.8750    -2.0340    68.7690    47.2000    46.3390    49.2680    25.0460     2.1180 
  108.0000    -1.7810    66.5930    46.7000    45.8830    49.2890    25.0450     2.1100 
  108.1250    -1.6140    66.7270    46.2410    45.4230    48.5730    25.0380     2.1040 
  108.2500    -1.4820    68.6220    45.7770    44.9320    47.6920    25.0640     2.1020 
  108.3750    -1.3670    70.9660    45.3450    44.4640    47.2160    25.1030     2.1010 
  108.5000    -1.2880    70.8880    44.9930    44.0900    47.2160    25.1310     2.1010 
  108.6250    -1.2670    67.6660    44.7370    43.8580    47.5110    25.0970     2.1000 
  108.7500    -1.2930    65.4000    44.5100    43.6950    48.1330    25.0460     2.0990 
  108.8750    -1.3330    65.0590    44.2650    43.5270    48.9930    24.9950     2.1000 
  109.0000    -1.3690    65.7820    44.0030    43.3180    49.3610    24.9570     2.1050 
  109.1250    -1.4090    66.8820    43.8110    43.1220    48.4930    24.9410     2.1130 
  109.2500    -1.4330    66.7670    43.7760    43.0470    47.2940    24.9220     2.1210 
  109.3750    -1.4510    65.3200    43.9220    43.1440    47.0110    24.8800     2.1260 
  109.5000    -1.4670    64.3240    44.1820    43.3570    48.1430    24.8330     2.1280 
  109.6250    -1.4600    65.7700    44.3880    43.5180    49.9300    24.7920     2.1270 
  109.7500    -1.4670    66.6520    44.3960    43.4760    50.9180    24.7580     2.1260 
  109.8750    -1.4880    65.7010    44.1630    43.1650    50.4680    24.7370     2.1260 
  110.0000    -1.3630    65.5770    43.7750    42.6390    48.9940    24.7310     2.1290 
  110.1250    -0.9440    67.0250    43.4740    42.1300    47.7670    24.7320     2.1340 
  110.2500    -0.4440    67.8790    43.4770    41.9060    47.3950    24.7340     2.1400 
  110.3750     0.0600    67.9150    43.8290    42.0680    47.7050    24.7480     2.1430 
  110.5000     0.5910    67.5400    44.3440    42.4860    48.7010    24.7910     2.1400 
  110.6250     1.2200    66.5480    44.5190    42.6960    50.5560    24.8590     2.1300 
  110.7500     1.9770    65.1930    43.9390    42.2140    51.8580    24.9060     2.1160 
  110.8750     2.8380    63.5860    42.4410    40.8170    50.6270    24.9330     2.1060 
  111.0000     3.6700    60.9780    40.2040    38.6470    46.2980    24.9890     2.1040 
  111.1250     4.2990    58.4480    37.7130    36.1750    40.9280    25.1130     2.1100 
  111.2500     4.8320    58.8600    35.5630    33.9870    37.3850    25.2500     2.1200 
  111.3750     5.4010    62.0620    34.0740    32.3860    36.2970    25.3130     2.1260 
  111.5000     6.0590    66.3880    33.3480    31.4830    36.7710    25.3410     2.1280 
  111.6250     6.7620    69.1190    33.3750    31.3100    37.5990    25.3580     2.1260 
  111.7500     7.5170    69.1940    33.8010    31.5530    38.2220    25.3490     2.1250 
  111.8750     8.3110    66.3250    34.3950    31.9830    38.6250    25.3410     2.1270 
  112.0000     9.0510    61.8650    34.9760    32.4110    38.9020    25.3640     2.1300 
  112.1250     9.6800    59.6330    35.3930    32.6910    39.0830    25.4130     2.1310 
  112.2500    10.2600    60.6880    35.5680    32.7610    39.0700    25.3960     2.1300 
  112.3750    10.7610    62.9460    35.4040    32.5300    38.8220    25.3620     2.1280 
  112.5000    11.1150    64.7700    34.8370    31.9020    38.4280    25.3290     2.1260 
  112.6250    11.2690    65.4880    33.9050    30.8630    37.5620    25.3180     2.1270 
  112.7500    11.1960    65.1490    32.9900    29.7600    35.5500    25.3350     2.1320 
  112.8750    10.8800    64.7140    32.5450    28.9820    32.2900    25.4210     2.1510 
  113.0000    10.3960    63.8150    33.0340    28.9220    28.9220    25.5680     2.1940 
  113.1250     9.7810    60.3530    34.9700    30.0690    28.0970    25.5070     2.2670 
