~V
VERS. 2.00: Ver 2.00
~W
STRT.M 61.0000:
STOP.M 247.0000:
STEP.M 0.1250:
NULL. -999.2500:
UWI. F10600:
~C
DEPT.M :
GR.API :
RML.OHMM :
RI. :
RXO.OHMM :
CALI.CM :
DEN.GM/CC :
SP.MV :
~A
# ...
  241.0000    53.3720     7.3520     6.1990     5.6370    24.7350     2.3910   -22.9940 
  241.1250    53.3720     7.3520     6.1990     5.6970    24.6900     2.3950   -22.9210 
  241.2500    53.3720     7.3520     6.1990     5.6900    24.6610     2.3960   -22.8750 
  241.3750    53.3720     7.3520     6.1990     5.6970    24.6400     2.3950   -22.8590 
  241.5000    53.3720     7.3520     6.1990     5.6250    24.6290     2.3960   -22.8990 
  241.6250    53.3720     7.3520     6.1990     5.4800    24.6260     2.3980   -22.9310 
  241.7500    53.3720     7.3520     6.1990     5.3790    24.6230     2.4010   -22.9190 
  241.8750    53.3720     7.3520     6.1990     5.3270    24.6130     2.4020   -22.8890 
  242.0000    53.3720     7.3520     6.1990     5.2980    24.6030     2.4030   -22.8990 
  242.1250    53.3720     7.3520     6.1990     5.3480    24.5900     2.4080   -22.9570 
  242.2500    53.3720     7.3520     6.1990     5.5580    24.5800     2.4220   -23.0460 
  242.3750    53.3720     7.3520     6.1990     5.7440    24.5570     2.4450   -23.1170 
  242.5000    53.3720     7.3520     6.1990     5.7220    24.4700     2.4670   -23.1530 
  242.6250    53.3720     7.3520     6.1990     5.5650    24.2770     2.4800   -23.1550 
  242.7500    53.3720     7.3520     6.1990     5.5520    24.1690     2.4780   -23.1650 
  242.8750    53.3720     7.3520     6.1990     5.7340    24.4260     2.4600   -23.1870 
  243.0000    53.3720     7.3520     6.1990     6.1750    24.9150     2.4290   -23.2160 
  243.1250    53.3720     7.3520     6.1990     6.7070    25.1900     2.3800   -23.1790 
  243.2500    53.3720     7.3520     6.1990     6.7310    25.2080     2.3090   -23.1090 
  243.3750    53.3720     7.3520     6.1990     6.2100    24.8050     2.2110   -23.0160 
  243.5000    53.3720     7.3520     6.1990     5.5850    23.7690     2.1020   -22.8910 
  243.6250    53.3720     7.3520     6.1990     5.2290    22.3260     2.0000   -22.8300 
  243.7500    53.3720     7.3520     6.1990     5.1080    21.6910     1.9200   -22.8120 
  243.8750    53.3720     7.3520     6.1990     5.0880    21.5410     1.8730   -22.8120 
  244.0000    53.3720     7.3520     6.1990     5.0890    21.5370     1.8480   -22.8120 
  244.1250    53.3720     7.3520     6.1990     5.0890    21.5370     1.8380  -999.2500 
  244.2500    53.3720     7.3520     6.1990     5.0880    21.5370     1.8330  -999.2500 
  244.3750    53.3720     7.3520     6.1990     5.0880    21.5370     1.8320  -999.2500 
  244.5000    53.3720     7.3520     6.1990     5.0880    21.5370     1.8320  -999.2500 
  244.6250    53.3720     7.3520     6.1990     5.0880    21.5370     1.8340  -999.2500 
  244.7500    53.3720     7.3520     6.1990     5.0880    21.5370     1.8360  -999.2500 
  244.8750    53.3720     7.3520     6.1990     5.0870    21.5370     1.8360  -999.2500 
  245.0000    53.3720     7.3520     6.1990     5.0870    21.5370     1.8340  -999.2500 
  245.1250    53.3720     7.3520     6.1990     5.0870    21.5370     1.8280  -999.2500 
  245.2500    53.3720     7.3520     6.1990     5.0870    21.5370     1.8220  -999.2500 
  245.3750    53.3720     7.3520     6.1990     5.0870    21.5370     1.8170  -999.2500 
  245.5000    53.3720     7.3520     6.1990     5.0880    21.5370     1.8150  -999.2500 
  245.6250    53.3720     7.3520     6.1990     5.0880    21.5370     1.8150  -999.2500 
  245.7500  -999.2500  -999.2500  -999.2500  -999.2500  -999.2500     1.8180  -999.2500 
  245.8750  -999.2500  -999.2500  -999.2500  -999.2500  -999.2500     1.8210  -999.2500 
  246.0000  -999.2500  -999.2500  -999.2500  -999.2500  -999.2500     1.8240  -999.2500 
  246.1250  -999.2500  -999.2500  -999.2500  -999.2500  -999.2500     1.8260  -999.2500 
  246.2500  -999.2500  -999.2500  -999.2500  -999.2500  -999.2500     1.8250  -999.2500 
  246.3750  -999.2500  -999.2500  -999.2500  -999.2500  -999.2500     1.8230  -999.2500 
  246.5000  -999.2500  -999.2500  -999.2500  -999.2500  -999.2500     1.8220  -999.2500 
  246.6250  -999.2500  -999.2500  -999.2500  -999.2500  -999.2500     1.8220  -999.2500 
  246.7500  -999.2500  -999.2500  -999.2500  -999.2500  -999.2500     1.8240  -999.2500 
  246.8750  -999.2500  -999.2500  -999.2500  -999.2500  -999.2500     1.8280  -999.2500 
  247.0000  -999.2500  -999.2500  -999.2500  -999.2500  -999.2500  -999.2500  -999.2500 
