~V
VERS. 2.00: Ver 2.00
~W
STRT.M 55.0000:
STOP.M 253.0000:
STEP.M 0.1250:
NULL. -999.2500:
UWI. F10665:
~C
DEPT.M :
SP.MV :
DEN.GM/CC :
GR.API :
RML.OHMM :
RI. :
RXO.OHMM :
CALI.CM :
~A
# ...
  145.0000     1.5170     2.1070    57.3900    33.5770    28.5860    32.7410    24.5730 
  145.1250     1.6070     2.0960    61.7860    33.3220    28.2400    31.3630    24.4640 
  145.2500     1.6330     2.0970    63.3360    33.3070    28.0640    31.3630    24.3620 
  145.3750     1.6090     2.1100    60.9870    33.4820    28.0620    31.7810    24.3230 
  145.5000     1.5230     2.1300    57.7620    33.7300    28.1640    33.1580    24.3740 
  145.6250     1.3570     2.1440    55.4240    33.9430    28.2950    34.2840    24.4270 
  145.7500     1.1480     2.1470    53.9060    34.0640    28.3920    34.1590    24.4710 
  145.8750     0.8980     2.1380    53.4200    34.0750    28.4190    32.7520    24.4870 
  146.0000     0.6200     2.1230    55.0490    33.9830    28.3670    32.8960    24.4110 
  146.1250     0.3060     2.1110    56.6750    33.7980    28.2550    38.5500    24.3400 
  146.2500    -0.0150     2.1100    56.3010    33.5470    28.1190    40.7230    24.3620 
  146.3750    -0.3350     2.1250    54.1440    33.2640    27.9890    33.9850    24.4760 
  146.5000    -0.6250     2.1510    52.2810    33.0230    27.9140    29.5760    24.4990 
  146.6250    -0.8830     2.1700    52.7000    32.9450    27.9740    28.8680    24.4790 
  146.7500    -1.1160     2.1660    53.9600    33.0830    28.1990    29.3280    24.5600 
  146.8750    -1.3180     2.1360    53.2200    33.4390    28.6010    30.2330    24.6960 
  147.0000    -1.4980     2.0880    49.6390    33.8970    29.1120    31.0960    24.7260 
  147.1250    -1.6490     2.0440    46.9360    34.0520    29.4360    31.5090    24.6100 
  147.2500    -1.7880     2.0220    47.0110    33.4830    29.1880    31.7140    24.4600 
  147.3750    -1.9220     2.0310    48.7580    31.9950    28.1400    31.3780    24.3770 
  147.5000    -2.0590     2.0650    51.3280    29.8000    26.4070    30.0370    24.3380 
  147.6250    -2.1690     2.1110    54.0100    27.4750    24.4370    27.6910    24.3170 
  147.7500    -2.2580     2.1450    57.1190    25.6160    22.7610    24.4700    24.2700 
  147.8750    -2.3320     2.1600    60.7010    24.5170    21.6610    21.3970    24.1940 
  148.0000    -2.4260     2.1620    63.8700    24.2780    21.2680    21.9700    24.1660 
  148.1250    -2.5510     2.1640    64.2190    25.0290    21.7470    25.3350    24.2180 
  148.2500    -2.7030     2.1690    63.1880    26.6410    23.0100    26.2630    24.2350 
  148.3750    -2.8790     2.1710    61.9480    29.1450    25.1000    25.1170    24.2230 
  148.5000    -3.0910     2.1670    59.5080    32.4670    28.0000    25.0480    24.2530 
  148.6250    -3.3850     2.1610    55.1000    36.2480    31.5500    27.0210    24.3580 
  148.7500    -3.7230     2.1650    52.2160    39.5160    34.9890    28.4990    24.4000 
  148.8750    -4.1150     2.1780    52.5710    41.1300    37.3160    28.2670    24.3060 
  149.0000    -4.5130     2.1900    54.8850    40.0620    37.4030    27.5280    24.0940 
  149.1250    -4.9160     2.1830    56.2080    35.8010    34.3520    26.1620    23.9830 
  149.2500    -5.3030     2.1630    56.3630    30.1550    29.6110    23.7050    24.0000 
  149.3750    -5.6730     2.1440    57.5470    24.6880    24.6500    20.2870    24.0540 
  149.5000    -5.9960     2.1400    62.1250    20.4520    20.5590    16.5460    24.0560 
  149.6250    -6.2430     2.1550    67.4870    18.0280    17.9770    14.2140    23.9780 
  149.7500    -6.4390     2.1740    69.9500    16.8910    16.5570    12.8370    23.9410 
  149.8750    -6.5560     2.1850    68.1450    16.6010    15.9810    12.7800    23.9430 
  150.0000    -6.6430     2.1850    64.2850    16.7040    15.8860    14.1500    23.9650 
  150.1250    -6.6810     2.1790    64.1090    16.8100    15.9370    15.5720    24.0040 
  150.2500    -6.6890     2.1760    67.2610    16.7850    15.9320    15.1200    24.0320 
  150.3750    -6.6740     2.1750    69.5670    16.7590    15.9200    13.3370    24.0200 
  150.5000    -6.6190     2.1770    67.2820    16.9820    16.0740    12.3390    23.9810 
  150.6250    -6.6140     2.1860    62.6190    17.7500    16.6340    14.3260    23.9860 
  150.7500    -6.6400     2.2090    59.4440    19.0530    17.6190    17.7040    23.9860 
  150.8750    -6.7300     2.2480    57.7040    20.8700    19.0270    20.3070    23.8510 
  151.0000    -6.8260     2.3050    57.2390    23.1610    20.8330    21.7280    23.5370 
  151.1250    -6.9590     2.3810    56.3200    25.9590    23.0680    24.6060    23.4920 
  151.2500    -7.1280     2.4690    53.4310    29.1110    25.6220    26.9920    23.6250 
  151.3750    -7.3160     2.5500    49.9040    32.4070    28.3630    29.8360    23.7860 
  151.5000    -7.5650     2.5900    48.0450    35.4230    30.9700    36.1810    23.8050 
  151.6250    -7.7840     2.5670    49.4550    37.4090    32.8140    37.2430    23.7030 
  151.7500    -7.9950     2.5130    51.2190    38.2560    33.7060    33.4830    23.6020 
  151.8750    -8.1690     2.4680    51.3930    38.3100    33.8470    29.9960    23.5580 
  152.0000    -8.3280     2.4650    49.6330    38.1910    33.7100    31.2050    23.5560 
  152.1250    -8.4410     2.5190    48.0010    38.4530    33.7930    36.0420    23.6290 
  152.2500    -8.5110     2.5920    46.7550    39.0850    34.2070    40.0750    23.7280 
  152.3750    -8.5400     2.6450    44.2010    39.8010    34.7990    41.8540    23.7690 
  152.5000    -8.5230     2.6580    42.8870    40.3070    35.3200    43.1080    23.7740 
  152.6250    -8.4440     2.6370    45.1090    40.6140    35.6760    41.4360    23.7870 
  152.7500    -8.3150     2.6050    45.7770    41.1110    36.1150    37.5190    23.8100 
  152.8750    -8.1550     2.5830    43.1980    41.9770    36.8240    36.0360    23.7700 
  153.0000    -7.9550     2.5830    40.5670    42.9560    37.6850    35.3590    23.6340 
  153.1250    -7.7490     2.6080    39.8800    43.2380    38.1220    38.9600    23.5930 
  153.2500    -7.5220     2.6360    39.2510    42.2720    37.6230    43.4400    23.6310 
  153.3750    -7.3220     2.6530    39.3990    40.0010    36.0330    42.2820    23.6510 
  153.5000    -7.1070     2.6520    41.8270    36.9690    33.6790    33.0180    23.6060 
  153.6250    -6.9730     2.6340    44.2220    34.1640    31.2930    28.4260    23.6630 
  153.7500    -6.8930     2.6160    46.0490    32.2340    29.4890    28.3070    23.7850 
  153.8750    -6.8870     2.6030    47.3900    31.3580    28.4920    29.8270    23.8080 
  154.0000    -6.9300     2.5980    47.3470    31.4540    28.3110    29.4940    23.7360 
  154.1250    -7.0230     2.5960    47.0630    32.3300    28.8830    28.2450    23.4350 
  154.2500    -7.1800     2.5940    47.0280    33.3850    29.7560    28.0210    23.0590 
  154.3750    -7.3510     2.5920    46.1160    34.0840    30.4910    29.2080    22.7390 
  154.5000    -7.5770     2.5890    44.2320    33.9390    30.6340    31.1640    22.5960 
  154.6250    -7.7660     2.5870    42.7870    32.5390    29.7250    32.8260    22.6690 
  154.7500    -7.9430     2.5830    42.2300    30.3590    28.0480    29.6890    22.9720 
  154.8750    -8.0790     2.5730    44.0330    28.0630    26.1000    22.5680    23.3880 
  155.0000    -8.1990     2.5580    49.0480    26.3360    24.4630    17.9010    23.7500 
  155.1250    -8.2730     2.5490    54.1160    25.7050    23.6260    17.0360    23.8420 
  155.2500    -8.2910     2.5470    55.3270    25.9150    23.4800    19.2180    23.6270 
  155.3750    -8.2590     2.5430    53.6920    26.6110    23.8070    23.1420    23.2470 
  155.5000    -8.1750     2.5310    51.4840    27.3190    24.2720    25.6730    22.9840 
  155.6250    -8.0480     2.5160    49.5910    27.4280    24.3870    23.8900    23.0890 
  155.7500    -7.8970     2.5140    48.9790    26.7980    23.9320    20.9740    23.2890 
  155.8750    -7.7190     2.5280    48.9040    25.6530    23.0090    19.9320    23.5700 
  156.0000    -7.5220     2.5490    50.0990    24.4490    21.9500    21.4860    23.8030 
  156.1250    -7.3280     2.5610    53.1760    23.7380    21.1950    22.2870    23.9560 
