~V
VERS. 2.00: Ver 2.00
~W
STRT.M 58.0000:
STOP.M 240.0000:
STEP.M 0.1250:
NULL. -999.2500:
UWI. F10642:
~C
DEPT.M :
SP.MV :
GR.API :
RML.OHMM :
RI. :
RXO.OHMM :
CALI.CM :
DEN.GM/CC :
~A
# ...
   91.7500   -23.1080    74.2210    13.9190    10.6520    11.5240    22.1950     2.4880 
   91.8750   -22.6870    72.3750    18.5810    14.3440    18.3130    22.3670     2.6220 
   92.0000   -22.1980    75.2650    23.3790    18.4640    25.7990    22.4840     2.6830 
   92.1250   -21.6290    77.6690    26.5150    21.5530    31.2670    22.4660     2.6270 
   92.2500   -21.0020    74.9040    27.2540    22.7300    26.8660    22.4530     2.5200 
   92.3750   -20.3520    68.6850    26.1350    22.2340    19.4950    22.6060     2.4080 
   92.5000   -19.7080    65.4590    24.4130    21.0020    14.0210    23.0730     2.3140 
   92.6250   -19.1510    66.1930    23.1990    19.9590    12.9770    23.8280     2.2500 
   92.7500   -18.7040    65.6610    22.6810    19.4180    13.4320    24.3340     2.2130 
   92.8750   -18.4080    63.6160    22.6330    19.3030    14.5440    24.5210     2.2010 
   93.0000   -18.2800    62.1250    22.6260    19.3370    14.6610    24.4900     2.1990 
   93.1250   -18.3670    62.6790    22.0790    19.0590    13.3570    24.3950     2.1870 
   93.2500   -18.6160    61.6820    20.8870    18.2690    12.5210    24.2300     2.1580 
   93.3750   -19.0250    58.7250    19.3080    17.0740    12.2470    23.9780     2.1250 
   93.5000   -19.5370    56.9000    17.8080    15.7920    11.0620    23.6730     2.1090 
   93.6250   -20.1320    59.9400    16.8320    14.7800     9.3970    23.5010     2.1300 
   93.7500   -20.7150    65.1840    16.2360    14.0400     8.5200    23.4210     2.1750 
   93.8750   -21.2710    67.8720    15.5980    13.3300     8.4300    23.3080     2.2160 
   94.0000   -21.7710    68.1310    14.4000    12.3070     8.5640    23.0230     2.2350 
   94.1250   -22.1920    69.6530    12.3720    10.7480     7.3490    22.2930     2.2310 
   94.2500   -22.5460    72.2670    10.1500     9.0260     6.0600    21.2180     2.2190 
   94.3750   -22.7770    74.8880     8.3950     7.5720     5.2210    20.5550     2.2010 
   94.5000   -22.8940    78.3810     7.5610     6.7160     4.6910    20.4890     2.1770 
   94.6250   -22.8500    80.8420     8.0670     6.8020     4.9500    20.6740     2.1490 
   94.7500   -22.7230    79.3710     9.7520     7.8050     6.3780    20.7690     2.1210 
   94.8750   -22.5370    73.7500    12.4520     9.7170     8.8260    20.8310     2.1040 
   95.0000   -22.3390    67.1590    15.6470    12.2820    10.8400    20.8580     2.1030 
   95.1250   -22.1770    63.2440    18.0520    14.6000    10.8560    20.8160     2.1150 
   95.2500   -22.1010    62.3700    18.6180    15.5960     9.7140    20.6430     2.1250 
   95.3750   -22.1300    63.6460    17.2640    14.9320     8.2240    20.3330     2.1270 
   95.5000   -22.2900    66.0340    14.7930    13.1230     7.3480    20.0070     2.1270 
   95.6250   -22.5910    70.6680    12.1770    10.9610     7.4010    19.5310     2.1380 
   95.7500   -23.0040    76.4510     9.9680     9.0140     7.3090    18.7570     2.1740 
   95.8750   -23.5000    81.0710     8.3560     7.4860     6.4460    17.8710     2.2290 
   96.0000   -24.0290    84.5130     7.4020     6.4620     5.5840    17.2400     2.2750 
   96.1250   -24.5280    87.3520     7.1700     6.0220     5.2810    16.8730     2.2820 
   96.2500   -24.9630    86.7900     7.4660     6.0300     5.2480    16.4610     2.2570 
   96.3750   -25.3480    81.8250     8.1630     6.4090     5.5390    15.9640     2.2230 
   96.5000   -25.6840    75.1470     9.0170     7.0050     6.0800    15.5750     2.1970 
   96.6250   -25.9870    69.9450     9.5600     7.5020     6.3510    15.6850     2.1870 
   96.7500   -26.2730    68.5470     9.4960     7.6100     6.2600    16.2400     2.1820 
   96.8750   -26.5260    71.4500     8.8510     7.2650     5.9170    17.1430     2.1780 
   97.0000   -26.7390    76.9090     7.9330     6.6350     5.7190    18.4020     2.1730 
   97.1250   -26.9190    80.3920     7.1730     6.0170     5.4870    19.9830     2.1870 
   97.2500   -27.0720    81.7570     6.7780     5.6200     5.1620    21.1510     2.2130 
   97.3750   -27.1830    82.3590     6.7590     5.4960     4.9790    21.7420     2.2330 
   97.5000   -27.2400    81.8960     7.0040     5.5930     5.1080    21.9500     2.2300 
   97.6250   -27.2700    78.8910     7.3230     5.7920     5.5470    22.0120     2.2080 
   97.7500   -27.2520    75.7220     7.4940     5.9250     6.0110    22.0380     2.1910 
   97.8750   -27.2160    74.6010     7.4090     5.9060     6.0790    22.0250     2.1930 
   98.0000   -27.1730    74.9010     7.0910     5.7300     5.2600    21.9270     2.2140 
   98.1250   -27.1330    74.0540     6.6740     5.4590     4.7300    21.8090     2.2450 
   98.2500   -27.1240    72.3350     6.3270     5.2030     4.7790    21.8600     2.2780 
   98.3750   -27.1290    73.1450     6.1330     5.0260     4.8490    22.1160     2.3100 
   98.5000   -27.1730    77.1110     6.1320     4.9720     4.9640    22.4570     2.3390 
   98.6250   -27.2480    80.7140     6.3570     5.0880     5.0390    22.6990     2.3500 
   98.7500   -27.3620    82.2340     6.7260     5.3280     5.3020    22.9260     2.3370 
   98.8750   -27.5040    82.0490     7.1490     5.6370     5.6860    23.1240     2.3050 
   99.0000   -27.6790    81.1560     7.4960     5.9260     6.2280    23.2590     2.2720 
   99.1250   -27.8960    79.3220     7.5610     6.0490     6.6270    23.3440     2.2590 
   99.2500   -28.1250    77.0610     7.2940     5.9380     6.5520    23.4110     2.2710 
   99.3750   -28.3490    77.3870     6.7800     5.6150     6.1810    23.4350     2.3060 
   99.5000   -28.5700    81.2280     6.2280     5.1970     5.5740    23.4460     2.3530 
   99.6250   -28.7520    84.7540     5.9210     4.8780     5.0340    23.4760     2.3900 
   99.7500   -28.8880    86.6480     5.9620     4.7740     4.7650    23.4960     2.3970 
   99.8750   -28.9870    88.3210     6.3540     4.9230     4.9440    23.4920     2.3700 
  100.0000   -29.0470    87.4270     6.9870     5.2850     5.6060    23.4470     2.3230 
  100.1250   -29.0420    81.9170     7.6240     5.7350     6.7200    23.4410     2.2650 
  100.2500   -28.9860    76.3230     8.0490     6.1020     7.0810    23.5180     2.2150 
  100.3750   -28.9060    73.6440     8.2320     6.3340     6.8970    23.6820     2.1860 
  100.5000   -28.7840    72.8510     8.2850     6.4710     6.7630    23.8980     2.1990 
  100.6250   -28.6610    72.0200     8.3780     6.6040     6.6550    24.0000     2.2710 
  100.7500   -28.4970    71.7080     8.5900     6.7980     6.9400    23.8840     2.3640 
  100.8750   -28.3340    70.6560     8.8800     7.0380     8.3220    23.5030     2.4240 
  101.0000   -28.1370    69.4530     9.1160     7.2440    10.3900    23.0420     2.4130 
  101.1250   -27.9340    69.8390     9.1280     7.2830     8.6110    22.9590     2.3480 
  101.2500   -27.7070    71.4840     8.9020     7.1300     7.1670    23.2740     2.2800 
  101.3750   -27.4890    74.4500     8.4640     6.8120     7.1530    23.5010     2.2430 
  101.5000   -27.2890    76.8870     7.8850     6.3920     7.4050    23.5820     2.2490 
  101.6250   -27.1390    76.7930     7.2890     5.9710     6.8350    23.6160     2.2870 
  101.7500   -27.0480    76.4920     6.8000     5.6300     5.9230    23.6350     2.3270 
  101.8750   -27.0020    79.6480     6.5060     5.4100     5.3040    23.6110     2.3510 
  102.0000   -27.0140    84.0490     6.4860     5.3520     4.9760    23.4920     2.3490 
  102.1250   -27.0950    84.2640     6.8020     5.5090     5.2190    23.3150     2.3210 
  102.2500   -27.2400    82.0400     7.2790     5.7920     5.7740    23.2650     2.2820 
  102.3750   -27.4120    80.5570     7.7090     6.0790     6.2180    23.3290     2.2460 
  102.5000   -27.6060    78.8060     7.9020     6.2380     6.5790    23.3740     2.2300 
  102.6250   -27.7630    75.9780     7.7320     6.1580     6.6870    23.3400     2.2500 
  102.7500   -27.8960    76.2350     7.3350     5.9050     6.1090    23.3760     2.2920 
  102.8750   -27.9650    80.5240     6.8540     5.5630     5.3750    23.4610     2.3360 
