~V
VERS. 2.00: Ver 2.00
~W
STRT.M 52.0000:
STOP.M 238.0000:
STEP.M 0.1250:
NULL. -999.2500:
UWI. F10653:
~C
DEPT.M :
GR.API :
RML.OHMM :
RI. :
RXO.OHMM :
CALI.CM :
DEN.GM/CC :
SP.MV :
~A
# ...
   97.0000    59.6480    11.8500    10.8500    13.5730    24.3870     2.1490   -12.9890 
   97.1250    61.5240    10.1980     9.0190    11.5030    24.3950     2.1850   -12.3490 
   97.2500    67.4100     9.1100     7.8310     8.7150    24.3130     2.2320   -11.9900 
   97.3750    73.7460     8.6740     7.1480     7.1190    24.2180     2.2670   -12.0240 
   97.5000    75.5040     8.7570     6.8990     7.4440    24.1400     2.2710   -12.0950 
   97.6250    73.3500     9.0600     6.9200     9.1510    24.0690     2.2510   -12.1490 
   97.7500    71.0880     9.1430     6.9030    10.4230    24.0490     2.2370   -12.1660 
   97.8750    70.6230     8.8030     6.6990     9.7530    24.0620     2.2490   -12.1700 
   98.0000    73.5340     8.1780     6.3530     7.7830    24.0730     2.2870   -12.1580 
   98.1250    78.2880     7.7310     6.1160     6.9040    24.0620     2.3230   -12.1600 
   98.2500    80.0350     7.7840     6.1670     6.9590    24.0820     2.3300   -12.1560 
   98.3750    75.4380     8.4190     6.5790     8.0800    24.1750     2.3050   -12.1300 
   98.5000    65.6310     9.5210     7.3250    10.1810    24.3180     2.2630   -12.0940 
   98.6250    57.3690    10.7530     8.2570    11.9020    24.4140     2.2200   -11.9840 
   98.7500    55.2850    11.5880     9.0270    12.6880    24.4420     2.1900   -11.8660 
   98.8750    58.1750    11.7120     9.3450    12.6210    24.3610     2.1810   -11.7250 
   99.0000    60.6520    11.1540     9.1160    12.0510    24.1990     2.1950   -11.5650 
   99.1250    60.4230    10.1990     8.4650    10.9160    24.0490     2.2320   -11.3860 
   99.2500    61.7700     9.2370     7.7060    10.0110    24.0000     2.2690   -11.2000 
   99.3750    65.6100     8.4040     6.9900     9.3200    24.0360     2.2920   -11.0420 
   99.5000    69.7660     7.7380     6.3790     8.1840    24.0860     2.2960   -10.9270 
   99.6250    72.9320     7.2640     5.8880     7.4650    24.0820     2.2960   -10.8940 
   99.7500    76.2610     6.9320     5.4830     6.8120    24.0910     2.3110   -10.9370 
   99.8750    80.3590     6.7140     5.1670     6.4590    24.1480     2.3400   -11.0360 
  100.0000    84.1450     6.5800     4.9570     6.5820    24.2500     2.3700   -11.1740 
  100.1250    88.4570     6.5390     4.8960     6.6080    24.3260     2.3750   -11.3270 
  100.2500    91.9440     6.6350     5.0040     6.1170    24.4140     2.3590   -11.4250 
  100.3750    90.1600     6.9280     5.2970     6.1820    24.4390     2.3410   -11.4040 
  100.5000    82.4100     7.4070     5.7300     6.6130    24.4470     2.3430   -11.2070 
  100.6250    75.5590     7.9400     6.1690     7.6320    24.4050     2.3790   -10.8990 
  100.7500    74.4740     8.2770     6.4510     9.1810    24.3150     2.4260   -10.7560 
  100.8750    77.4460     8.2440     6.4640    10.2940    24.2260     2.4530   -10.6730 
  101.0000    80.3850     7.8540     6.2200     8.9290    24.2280     2.4420   -10.5870 
  101.1250    82.2250     7.3300     5.8490     7.0430    24.3390     2.3990   -10.4530 
  101.2500    83.5420     6.9190     5.4720     6.2370    24.4160     2.3560   -10.3280 
  101.3750    85.2390     6.6970     5.1350     6.1940    24.4340     2.3340   -10.2910 
  101.5000    86.4670     6.6360     4.8850     6.9480    24.3990     2.3350   -10.3880 
  101.6250    83.1300     6.6360     4.7600     7.8510    24.3490     2.3450   -10.5500 
  101.7500    78.8510     6.5790     4.7260     7.9320    24.3620     2.3450   -10.5140 
  101.8750    77.9700     6.4410     4.7660     6.7750    24.4320     2.3330   -10.3960 
  102.0000    81.5740     6.2640     4.8350     6.3650    24.4560     2.3210   -10.2500 
  102.1250    84.5820     6.1080     4.8850     6.4200    24.4320     2.3300   -10.1670 
  102.2500    84.0580     6.0190     4.9120     5.9140    24.4310     2.3550   -10.1600 
  102.3750    82.5680     6.0190     4.9490     5.7690    24.4380     2.3820   -10.1890 
  102.5000    82.1950     6.1090     5.0070     5.9310    24.4470     2.3940   -10.2830 
  102.6250    82.4550     6.3140     5.0900     5.9810    24.4660     2.3800   -10.4320 
  102.7500    81.8380     6.5940     5.1930     6.1050    24.4990     2.3520   -10.6080 
  102.8750    80.2250     6.8760     5.2660     6.2230    24.5300     2.3170   -10.8020 
  103.0000    78.4920     7.0240     5.2170     6.3940    24.4980     2.2840   -11.0180 
  103.1250    78.2680     6.8670     5.0110     6.7850    24.3670     2.2670   -11.2140 
  103.2500    79.9130     6.4540     4.7140     6.8250    24.3000     2.2720   -11.3790 
  103.3750    83.6200     5.9470     4.4300     6.2940    24.3190     2.2950   -11.5310 
  103.5000    88.8220     5.6020     4.2700     5.6180    24.3620     2.3230   -11.6430 
  103.6250    94.0470     5.6850     4.3250     5.2580    24.3730     2.3460   -11.7630 
  103.7500    94.8390     6.1840     4.5680     5.3680    24.3640     2.3710   -11.8240 
  103.8750    87.2670     7.0000     4.9860     6.7130    24.3340     2.4030   -11.8590 
  104.0000    74.6930     7.8910     5.5370     9.8150    24.2570     2.4330   -11.8650 
  104.1250    66.6160     8.3990     6.0350    13.5740    24.1600     2.4320   -11.8370 
  104.2500    67.7600     8.3210     6.2530    12.2270    24.1110     2.3930   -11.8030 
  104.3750    74.4900     7.7940     6.1410     9.1030    24.1190     2.3390   -11.7360 
  104.5000    80.9910     7.1620     5.8120     7.3900    24.1380     2.2960   -11.6730 
  104.6250    83.1760     6.7870     5.4770     6.8980    24.1430     2.2800   -11.5680 
  104.7500    80.9010     6.7570     5.3030     6.6680    24.1210     2.2770   -11.4910 
  104.8750    78.3370     7.0210     5.3400     6.4600    24.0160     2.2840   -11.4360 
  105.0000    78.1790     7.4390     5.5620     6.7480    23.7860     2.3040   -11.4190 
  105.1250    80.7370     7.8050     5.9180     8.0120    23.6340     2.3490   -11.4670 
  105.2500    82.7560     7.9470     6.2370     9.7060    23.6170     2.4000   -11.5450 
  105.3750    84.1730     7.7960     6.3260    10.3540    23.6510     2.4290   -11.6880 
  105.5000    86.4030     7.4510     6.1190     8.1560    23.6790     2.4150   -11.8670 
  105.6250    87.4360     7.1610     5.7920     6.8400    23.7270     2.3640   -12.1010 
  105.7500    86.9330     7.1140     5.5920     6.3940    23.7470     2.3170   -12.3990 
  105.8750    85.9630     7.3430     5.6080     6.5600    23.7370     2.2960   -12.7290 
  106.0000    84.5140     7.7870     5.8530     7.0680    23.7580     2.3060   -13.1150 
  106.1250    82.6730     8.2790     6.2450     9.0720    23.9270     2.3370   -13.5130 
  106.2500    81.6770     8.5710     6.5540    10.9760    24.0660     2.3590   -13.9370 
  106.3750    82.7470     8.5300     6.6570     9.8390    24.1090     2.3560   -14.3460 
  106.5000    82.4220     8.1650     6.5150     8.2000    24.0970     2.3310   -14.7410 
  106.6250    78.9220     7.6410     6.1520     7.8700    24.0570     2.3010   -15.1470 
  106.7500    76.9510     7.2560     5.7700     7.7470    24.0520     2.2800   -15.5050 
  106.8750    78.8120     7.2210     5.5650     7.4210    24.0750     2.2740   -15.8850 
  107.0000    81.4680     7.6570     5.6600     7.5690    24.0680     2.2870   -16.2690 
  107.1250    80.2110     8.6410     6.1210     8.1430    24.0440     2.3190   -16.6890 
  107.2500    75.1520     9.9430     6.8580    10.7640    24.0710     2.3520   -17.1430 
  107.3750    68.5020    11.2540     7.7700    15.8250    24.0960     2.3680   -17.6290 
  107.5000    64.0080    12.1430     8.6270    17.3310    24.1570     2.3510   -18.1640 
  107.6250    62.1210    12.2140     9.0730    13.9480    24.2450     2.3020   -18.6710 
  107.7500    60.5360    11.7690     9.0890    11.9250    24.3110     2.2440   -19.2000 
  107.8750    58.5190    11.1860     8.8130    11.3090    24.3140     2.1960   -19.7010 
  108.0000    57.1010    10.7480     8.4380    11.2070    24.3540     2.1660   -20.1560 
  108.1250    57.2900    10.5630     8.1200    10.9750    24.3870     2.1530   -20.5520 
