~V
VERS. 2.00: Ver 2.00
~W
STRT.M 58.0000:
STOP.M 272.0000:
STEP.M 0.1250:
NULL. -999.2500:
UWI. F10670:
~C
DEPT.M :
DEN.GM/CC :
GR.API :
RML.OHMM :
RI. :
RXO.OHMM :
CALI.CM :
SP.MV :
~A
# ...
  148.0000     2.1860    58.2900    20.3240    19.4390    16.0360    22.3610   -14.9020 
  148.1250     2.1970    57.4300    20.9030    20.0370    13.7000    22.3770   -14.8500 
  148.2500     2.2090    61.7020    20.9630    20.1300    13.6250    22.4360   -14.7980 
  148.3750     2.2170    67.8170    20.4750    19.6640    14.2450    22.5640   -14.7640 
  148.5000     2.2170    71.6050    19.4370    18.6100    16.2760    22.7630   -14.7340 
  148.6250     2.2080    75.0180    18.0910    17.2130    15.4820    22.8900   -14.6820 
  148.7500     2.1930    78.4060    16.6500    15.6860    12.5170    22.8790   -14.5890 
  148.8750     2.1800    79.5990    15.3500    14.2630    10.1930    22.7350   -14.5260 
  149.0000     2.1790    77.6520    14.4720    13.2130     9.2230    22.5980   -14.5510 
  149.1250     2.1900    76.0980    14.0690    12.6040     9.0440    22.5380   -14.6580 
  149.2500     2.2100    75.4190    14.1340    12.4520     9.2580    22.5260   -14.8010 
  149.3750     2.2270    74.3120    14.5800    12.7000     9.7220    22.5250   -14.9720 
  149.5000     2.2330    72.0860    15.2470    13.2450    10.3310    22.5260   -15.1150 
  149.6250     2.2270    70.3290    15.8720    13.8530    11.0340    22.5410   -15.2250 
  149.7500     2.2160    69.1330    16.2880    14.3750    11.7280    22.6000   -15.3400 
  149.8750     2.2070    69.1800    16.4460    14.7290    12.2580    22.7290   -15.4540 
  150.0000     2.2060    71.0390    16.4840    14.9470    12.1200    22.7940   -15.5790 
  150.1250     2.2070    72.0230    16.7480    15.2650    12.1170    22.8140   -15.6430 
  150.2500     2.2060    69.8870    17.5630    15.9630    12.3370    22.8190   -15.6710 
  150.3750     2.2070    65.3690    19.1220    17.2760    12.7430    22.8340   -15.6310 
  150.5000     2.2300    63.1740    21.2220    19.1850    13.4290    22.8830   -15.5620 
  150.6250     2.2870    63.3610    22.7830    20.8560    15.1540    22.9270   -15.4910 
  150.7500     2.3720    65.5600    22.6280    21.2320    19.0120    22.8960   -15.4190 
  150.8750     2.4600    71.4940    20.2230    19.6040    22.6370    22.7420   -15.3630 
  151.0000     2.5100    83.3280    16.2330    16.1660    18.5180    22.5950   -15.2790 
  151.1250     2.5110    96.8080    12.4170    12.4740    11.3370    22.4900   -15.2100 
  151.2500     2.4750   104.5620     9.5950     9.4470     7.0700    22.3810   -15.1780 
  151.3750     2.4250   105.2950     7.8980     7.4130     5.7850    22.2420   -15.1790 
  151.5000     2.3830   102.7810     7.0490     6.3870     5.7520    22.3060   -15.2050 
  151.6250     2.3570   103.6720     6.5170     5.9470     5.9420    22.4720   -15.2400 
  151.7500     2.3440   106.5290     6.2400     5.8610     6.0480    22.5770   -15.2570 
  151.8750     2.3400   105.5970     6.2210     5.9320     5.8670    22.5020   -15.2400 
  152.0000     2.3440   100.7730     6.2960     6.0170     5.6640    22.1330   -15.2080 
  152.1250     2.3500    97.3580     6.3080     6.0550     5.6120    21.6350   -15.1670 
  152.2500     2.3560    97.6510     6.2830     6.0460     5.8000    21.3050   -15.1310 
  152.3750     2.3620    98.7780     6.2490     6.0130     5.9970    21.1940   -15.1060 
  152.5000     2.3630    98.0730     6.2420     5.9910     6.1010    21.1880   -15.1240 
  152.6250     2.3610    96.6890     6.2940     6.0120     5.8930    21.1880   -15.1890 
  152.7500     2.3560    94.3740     6.4320     6.1020     5.8430    21.1880   -15.2760 
  152.8750     2.3510    92.4060     6.6790     6.2770     6.2350    21.1880   -15.3810 
  153.0000     2.3450    91.5590     7.0450     6.5500     6.9170    21.2090   -15.4920 
  153.1250     2.3360    90.0250     7.4700     6.8890     7.4690    21.2790   -15.6100 
  153.2500     2.3220    87.4860     7.8940     7.2610     7.6140    21.4130   -15.6950 
  153.3750     2.3010    84.7130     8.2540     7.6240     7.6200    21.5760   -15.7650 
  153.5000     2.2780    83.5370     8.4870     7.9170     7.7480    21.6770   -15.8130 
  153.6250     2.2610    82.5860     8.6050     8.1130     7.9620    21.7240   -15.8420 
  153.7500     2.2560    81.9670     8.6240     8.2100     8.0950    21.7680   -15.8710 
  153.8750     2.2600    83.0050     8.5740     8.2280     8.0260    21.8290   -15.9000 
  154.0000     2.2650    84.1890     8.4980     8.2090     7.8490    21.9580   -15.9330 
  154.1250     2.2630    84.7060     8.4520     8.1990     7.6540    22.2060   -15.9510 
  154.2500     2.2550    84.8730     8.4580     8.2140     7.5770    22.5150   -15.9700 
  154.3750     2.2450    86.4380     8.4940     8.2400     7.6110    22.6700   -15.9730 
  154.5000     2.2430    91.2140     8.4960     8.2330     7.6290    22.6390   -15.8830 
  154.6250     2.2530    97.6840     8.4240     8.1580     7.4470    22.5930   -15.7260 
  154.7500     2.2730   103.6490     8.2760     8.0040     7.1180    22.5550   -15.5410 
  154.8750     2.2990   106.2630     8.0840     7.7860     6.9320    22.5370   -15.3440 
  155.0000     2.3250   105.4540     7.8830     7.5390     6.8640    22.5440   -15.1400 
  155.1250     2.3470   103.2260     7.6850     7.2920     6.8390    22.5620   -14.9410 
  155.2500     2.3650   100.9790     7.4800     7.0480     6.8550    22.5550   -14.7480 
  155.3750     2.3720    99.3170     7.2810     6.8220     6.9150    22.5170   -14.5690 
  155.5000     2.3630    96.6870     7.2110     6.7090     7.0050    22.4810   -14.4590 
  155.6250     2.3420    93.8060     7.4580     6.8640     7.0650    22.4680   -14.4260 
  155.7500     2.3230    91.5170     8.2740     7.5080     7.2620    22.4650   -14.4700 
  155.8750     2.3260    87.1880    10.2340     8.9210     8.1440    22.4580   -14.5510 
  156.0000     2.3690    79.7680    14.1700    11.6120    12.6370    22.4090   -14.6350 
  156.1250     2.4360    72.5030    19.7020    15.5040    21.6040    22.2510   -14.7190 
  156.2500     2.5040    67.6280    25.2990    20.1580    31.9470    21.9240   -14.7890 
  156.3750     2.5530    64.3480    29.7840    24.5240    36.6990    21.4690   -14.8380 
  156.5000     2.5640    64.0800    31.6000    26.9630    35.8260    21.1000   -14.8790 
  156.6250     2.5430    67.0490    31.0010    27.2570    34.0060    20.9970   -14.8770 
  156.7500     2.4950    68.2800    29.0580    26.0280    33.9230    21.1970   -14.8120 
  156.8750     2.4260    66.7190    27.0270    24.2870    25.5700    21.5180   -14.7280 
  157.0000     2.3460    65.3400    25.8800    22.9850    25.4460    21.7440   -14.6610 
  157.1250     2.2710    63.8940    25.7440    22.4790    23.4000    21.8510   -14.6000 
  157.2500     2.2130    62.7030    26.5700    22.8540    24.0710    21.9440   -14.5480 
  157.3750     2.1790    62.9030    28.1570    24.0170    27.0780    21.9710   -14.5200 
  157.5000     2.1720    64.2500    30.1110    25.7150    28.5730    21.7890   -14.5080 
  157.6250     2.1790    64.5630    31.7830    27.3710    32.4920    21.3710   -14.5170 
  157.7500     2.1900    63.8460    32.7240    28.5550    34.3370    20.9030   -14.5490 
  157.8750     2.1950    64.5210    32.7560    29.0080    32.5800    20.7250   -14.5930 
  158.0000     2.1940    65.5890    31.9330    28.6130    31.4840    20.8500   -14.5980 
  158.1250     2.1930    66.5550    30.7440    27.7160    29.4590    20.9590   -14.5420 
  158.2500     2.1960    67.7710    29.5070    26.6020    27.9140    20.9730   -14.4350 
  158.3750     2.1990    69.5700    28.4820    25.5590    25.1210    20.9760   -14.2940 
  158.5000     2.1950    70.2470    27.9340    24.8990    24.7810    21.2380   -14.1510 
  158.6250     2.1870    68.4450    27.8840    24.7050    24.8370    21.6800   -14.0140 
  158.7500     2.1810    65.9950    28.3230    24.9900    25.1240    22.1140   -13.8760 
  158.8750     2.1880    64.4180    29.1670    25.6930    25.5600    22.3370   -13.7390 
  159.0000     2.2110    63.1290    30.2560    26.6880    28.1530    22.3510   -13.6340 
  159.1250     2.2390    61.2770    31.2830    27.6930    29.4020    22.2010   -13.5830 
