~V
VERS. 2.00: Ver 2.00
~W
STRT.M 58.0000:
STOP.M 244.0000:
STEP.M 0.1250:
NULL. -999.2500:
UWI. F10638:
~C
DEPT.M :
SP.MV :
GR.API :
RML.OHMM :
RI. :
RXO.OHMM :
CALI.CM :
DEN.GM/CC :
~A
# ...
   69.2500   -23.7770    72.1490     7.4610     6.0070     7.6730    24.3180     2.2480 
   69.3750   -22.6840    72.2740     6.6080     5.3250     6.2380    24.5950     2.2540 
   69.5000   -21.7410    72.5430     6.0490     4.8270     5.7500    24.7310     2.2610 
   69.6250   -20.9670    73.2580     5.7480     4.5300     5.5530    24.7740     2.2700 
   69.7500   -20.3950    73.2140     5.6380     4.4110     5.4600    24.7830     2.2790 
   69.8750   -20.0740    72.6270     5.6690     4.4400     5.5030    24.7780     2.2850 
   70.0000   -19.9030    74.6490     5.7700     4.5370     5.6430    24.7680     2.2890 
   70.1250   -19.8830    78.8570     5.9050     4.6580     5.8170    24.7430     2.2910 
   70.2500   -19.9850    81.7070     6.0390     4.7680     6.0600    24.6960     2.2910 
   70.3750   -20.1020    81.6340     6.1180     4.8250     6.3600    24.7100     2.2910 
   70.5000   -20.2310    82.2430     6.1300     4.8160     6.2910    24.7340     2.2950 
   70.6250   -20.4160    82.0260     6.0840     4.7450     6.2690    24.7330     2.3030 
   70.7500   -20.6430    78.2800     5.9930     4.6280     6.1160    24.6890     2.3120 
   70.8750   -20.8670    75.1330     5.8650     4.4810     6.1770    24.6410     2.3170 
   71.0000   -21.1000    75.0910     5.7570     4.3510     6.0630    24.5770     2.3130 
   71.1250   -21.3750    75.7900     5.7900     4.3110     6.3970    24.4100     2.3020 
   71.2500   -21.6680    75.5370     6.1330     4.4710     7.0850    24.1690     2.2980 
   71.3750   -21.9910    75.1280     7.0950     5.0200     7.7360    24.0550     2.3250 
   71.5000   -22.3420    73.4370     8.8130     6.0500     9.1530    24.1430     2.3850 
   71.6250   -22.7150    68.0380    11.4640     7.7050    13.9330    24.3380     2.4630 
   71.7500   -23.1500    59.9030    15.0920    10.1040    24.5070    24.5090     2.5280 
   71.8750   -23.7310    55.1680    19.4220    13.2750    28.9830    24.6330     2.5570 
   72.0000   -24.4560    55.1880    23.3720    16.5480    25.5130    24.6670     2.5670 
   72.1250   -25.2670    57.8220    25.7130    18.9640    24.2960    24.6100     2.5860 
   72.2500   -26.1880    60.1410    25.5030    19.5710    30.9600    24.5660     2.6220 
   72.3750   -27.2810    61.1340    22.5100    17.8730    43.1500    24.5610     2.6330 
   72.5000   -28.4680    62.3100    18.4570    15.0850    38.5260    24.4660     2.5840 
   72.6250   -29.6640    63.1260    14.6260    12.1990    22.4100    24.2600     2.4880 
   72.7500   -30.8140    63.6850    11.7480     9.8300    14.1380    24.0540     2.3730 
   72.8750   -31.8290    63.2600    10.1300     8.2930    12.1890    23.9430     2.2760 
   73.0000   -32.7090    61.5740     9.3610     7.4000    11.8610    23.9040     2.2100 
   73.1250   -33.5250    59.4840     9.1560     7.0130    11.6970    23.9220     2.1730 
   73.2500   -34.2190    59.6080     9.2450     6.9670    11.4450    23.9740     2.1550 
   73.3750   -34.7440    63.0140     9.4150     7.1090    11.4370    24.0280     2.1470 
   73.5000   -35.2040    65.3110     9.5530     7.2830    11.7620    24.0800     2.1440 
   73.6250   -35.6460    64.3040     9.6470     7.4330    12.0790    24.1210     2.1440 
   73.7500   -36.0550    61.8330     9.7040     7.5320    12.2540    24.1250     2.1460 
   73.8750   -36.4700    62.2990     9.7130     7.5550    12.5020    24.0710     2.1510 
   74.0000   -36.9490    63.8470     9.6700     7.5110    12.5280    23.9950     2.1570 
   74.1250   -37.4230    63.2170     9.5710     7.4140    12.2550    23.9500     2.1630 
   74.2500   -37.8850    62.5470     9.4210     7.2800    12.0210    23.9280     2.1680 
   74.3750   -38.3690    65.0070     9.2290     7.1160    11.9760    23.9170     2.1760 
   74.5000   -38.8370    66.2950     9.0720     6.9560    11.9440    23.9170     2.1930 
   74.6250   -39.2730    63.4240     9.1070     6.8860    12.2090    23.9310     2.2190 
   74.7500   -39.6540    59.8650     9.5050     7.0240    12.5530    23.9530     2.2410 
   74.8750   -39.9530    59.1100    10.4290     7.5100    13.1250    23.9670     2.2380 
   75.0000   -40.1910    58.8450    11.6960     8.2750    15.5290    23.9480     2.2120 
   75.1250   -40.3830    58.0350    12.9850     9.1570    23.6430    23.9660     2.1730 
   75.2500   -40.5450    57.8160    13.8060     9.8480    44.4400    24.1500     2.1330 
   75.3750   -40.6790    58.2810    13.5910     9.9170    42.4680    24.2080     2.1050 
   75.5000   -40.8070    58.5150    12.6380     9.4440    24.1770    24.1080     2.0950 
   75.6250   -40.9070    58.6710    11.4830     8.7240    15.0750    24.0150     2.0980 
   75.7500   -41.0140    58.0950    10.5890     8.0630    13.1120    23.9880     2.1080 
   75.8750   -41.1570    57.2410    10.2430     7.6880    13.3980    23.9860     2.1230 
   76.0000   -41.2510    57.3910    10.2990     7.5870    13.5530    23.9800     2.1390 
   76.1250   -41.2950    58.2840    10.5500     7.6780    13.5900    23.9710     2.1510 
   76.2500   -41.3240    59.8580    10.7780     7.8340    13.6520    23.9620     2.1600 
   76.3750   -41.2610    61.8480    10.8160     7.9220    13.6350    23.9320     2.1690 
   76.5000   -41.0950    62.4650    10.6880     7.9100    13.5900    23.9010     2.1780 
   76.6250   -40.9050    62.2110    10.4520     7.8120    13.5200    23.8960     2.1810 
   76.7500   -40.6880    62.1760    10.1790     7.6620    13.2380    23.9040     2.1800 
   76.8750   -40.3620    61.5170     9.9370     7.4920    12.6330    23.9150     2.1770 
   77.0000   -40.0010    59.7430     9.7460     7.3310    12.2600    23.9280     2.1780 
   77.1250   -39.6680    59.4050     9.6060     7.1880    12.1150    23.9380     2.1830 
   77.2500   -39.3330    61.1630     9.5140     7.0740    11.6710    23.9300     2.1870 
   77.3750   -39.0060    60.7930     9.4870     7.0110    10.9690    23.8640     2.1800 
   77.5000   -38.7030    59.5480     9.5240     7.0050    10.5490    23.7630     2.1630 
   77.6250   -38.4150    61.2710     9.6160     7.0530    10.6020    23.6660     2.1430 
   77.7500   -38.1410    64.7020     9.7410     7.1370    10.8750    23.6050     2.1290 
   77.8750   -37.9110    66.9800     9.8520     7.2210    11.1670    23.5770     2.1320 
   78.0000   -37.7380    68.0640     9.9130     7.2720    11.3980    23.5870     2.1480 
   78.1250   -37.6340    67.9740     9.9140     7.2780    11.3920    23.6060     2.1680 
   78.2500   -37.6100    64.6490     9.8680     7.2480    11.2530    23.6260     2.1770 
   78.3750   -37.6400    59.6350     9.8090     7.2060    11.2830    23.6850     2.1670 
   78.5000   -37.6950    57.3910     9.7840     7.1790    11.4930    23.8270     2.1460 
   78.6250   -37.7900    57.4230     9.8180     7.1810    11.7810    24.0470     2.1250 
   78.7500   -37.9020    57.8130     9.9120     7.2110    12.0110    24.3250     2.1160 
   78.8750   -38.0220    57.8530    10.0300     7.2550    12.2210    24.5750     2.1260 
   79.0000   -38.1180    58.3920    10.1120     7.2840    12.3770    24.7470     2.1450 
   79.1250   -38.0860    59.0880    10.1230     7.2810    12.4040    24.8100     2.1640 
   79.2500   -37.9070    59.9020    10.0650     7.2430    12.3480    24.8050     2.1750 
   79.3750   -37.6590    61.1080    10.0090     7.2040    12.2980    24.8500     2.1700 
   79.5000   -37.3390    61.5300    10.0600     7.2200    12.2300    25.0340     2.1540 
   79.6250   -36.8990    59.6280    10.2750     7.3350    12.1700    25.3000     2.1390 
   79.7500   -36.4170    56.9110    10.6300     7.5560    12.2020    25.5170     2.1400 
   79.8750   -35.8990    57.0990    11.0070     7.8320    12.8910    25.1730     2.1760 
   80.0000   -35.3390    59.5940    11.2330     8.0460    14.1220    24.7140     2.2290 
   80.1250   -34.8110    61.8020    11.2050     8.1040    14.2840    24.3370     2.2710 
   80.2500   -34.3530    62.3250    10.9270     7.9710    12.3170    24.1120     2.2760 
   80.3750   -33.9440    62.8790    10.5040     7.6820    10.6930    23.9550     2.2390 
