~V
VERS. 2.00: Ver 2.00
~W
STRT.M 49.0000:
STOP.M 217.0000:
STEP.M 0.1250:
NULL. -999.2500:
UWI. F10685:
~C
DEPT.M :
SP.MV :
DEN.GM/CC :
GR.API :
RML.OHMM :
RI. :
RXO.OHMM :
CALI.CM :
~A
# ...
  206.5000    -8.5940     2.4230    52.9000     7.5410     6.3470     6.2090    23.1010 
  206.6250    -8.7040     2.4180    52.9000     7.6410     6.4320     6.1660    23.0370 
  206.7500    -8.8200     2.4360    52.9000     7.5050     6.3170     6.1570    22.9300 
  206.8750    -8.9310     2.4790    52.9000     7.1110     5.9860     6.1900    22.8810 
  207.0000    -9.0760     2.5350    52.9000     6.6070     5.5610     6.2680    22.8920 
  207.1250    -9.3020     2.5700    52.9000     6.3620     5.3550     6.3870    22.8730 
  207.2500    -9.5150     2.5680    52.9000     6.5390     5.5040     6.5350    22.8380 
  207.3750    -9.6740     2.5350    52.9000     6.9450     5.8460     6.6590    22.7120 
  207.5000    -9.8940     2.4910    52.9000     7.1830     6.0460     6.7590    22.6010 
  207.6250   -10.1990     2.4590    52.9000     7.0530     5.9370     6.8610    22.5650 
  207.7500   -10.5710     2.4410    52.9000     6.9500     5.8500     6.9840    22.5840 
  207.8750   -11.0580     2.4320    52.9000     7.2340     6.0890     7.0850    22.4780 
  208.0000   -11.6330     2.4240    52.9000     7.8510     6.6090     7.1330    22.3730 
  208.1250   -12.1980     2.4130    52.9000     8.2530     6.9470     7.0840    22.3340 
  208.2500   -12.6560     2.4010    52.9000     8.0680     6.7910     7.0190    22.2660 
  208.3750   -12.9810     2.3910    52.9000     7.4660     6.2850     6.9350    22.1960 
  208.5000   -13.2020     2.3830    52.9000     7.0160     5.9060     6.8250    22.1370 
  208.6250   -13.3160     2.3790    52.9000     7.2440     6.0970     6.7450    22.1300 
  208.7500   -13.3360     2.3760    52.9000     7.7010     6.4820     6.7180    22.1400 
  208.8750   -13.2280     2.3750    52.9000     7.7800     6.5480     6.7710    22.1270 
  209.0000   -12.9940     2.3730    52.9000     7.2950     6.1410     6.8190    22.1630 
  209.1250   -12.8010     2.3670    52.9000     6.6390     5.5890     6.8160    22.3460 
  209.2500   -12.7380     2.3600    52.9000     6.2770     5.2840     6.7530    22.4260 
  209.3750   -12.7900     2.3540    52.9000     6.2190     5.2350     6.6930    22.4410 
  209.5000   -12.8420     2.3560    52.9000     6.2380     5.2510     6.6850    22.4420 
  209.6250   -12.9490     2.3680    52.9000     6.1610     5.1860     6.7830    22.4420 
  209.7500   -13.1320     2.3790    52.9000     6.0800     5.1180     6.8580    22.4420 
  209.8750   -13.3880     2.3820    52.9000     6.1360     5.1650     6.8310    22.4420 
  210.0000   -13.7150     2.3710    52.9000     6.3890     5.3780     6.6950    22.4350 
  210.1250   -14.0490     2.3490    52.9000     6.7630     5.6930     6.6570    22.3860 
  210.2500   -14.4870     2.3310    52.9000     7.0310     5.9190     6.8780    22.2560 
  210.3750   -15.0570     2.3250    52.9000     7.0930     5.9700     7.2690    22.2050 
  210.5000   -15.7410     2.3320    52.9000     7.0090     5.8990     7.6360    22.2010 
  210.6250   -16.4860     2.3410    52.9000     6.9120     5.8180     8.0190    22.2900 
  210.7500   -17.1900     2.3400    52.9000     7.0200     5.9090     8.4920    22.3680 
  210.8750   -17.8040     2.3280    52.9000     7.4910     6.3050     8.9370    22.1860 
  211.0000   -18.3290     2.3110    52.9000     8.2280     6.9260     9.7380    22.0380 
  211.1250   -18.6540     2.3020    52.9000     8.8080     7.4140    10.5320    21.9730 
  211.2500   -18.6890     2.3030    52.9000     9.0150     7.5880    10.8060    21.8630 
  211.3750   -18.5130     2.3120    52.9000     8.9670     7.5480    10.3470    21.8000 
  211.5000   -18.2430     2.3220    52.9000     8.8640     7.4610     9.3040    21.7110 
  211.6250   -17.8540     2.3270    52.9000     8.8560     7.4540     8.8800    21.4620 
  211.7500   -17.4620     2.3260    52.9000     8.9980     7.5740     9.2900    21.2670 
  211.8750   -17.1200     2.3190    52.9000     9.2440     7.7810    10.0770    21.1910 
  212.0000   -16.8090     2.3080    52.9000     9.5050     8.0010    10.6480    21.1580 
  212.1250   -16.6290     2.2930    52.9000     9.7230     8.1840    10.6680    21.1520 
  212.2500   -16.5950     2.2820    52.9000     9.8560     8.2960    10.5360    21.1460 
  212.3750   -16.6260     2.2800    52.9000     9.8860     8.3220    10.3580    21.1080 
  212.5000   -16.6320     2.2900    52.9000     9.8860     8.3220    10.1080    21.1230 
  212.6250   -16.6440     2.3130    52.9000     9.8860     8.3220     9.6130    21.1440 
  212.7500   -16.6290     2.3390    52.9000     9.8860     8.3220     8.9160    21.1110 
  212.8750   -16.6170     2.3590    52.9000     9.8860     8.3220     8.5320    20.8790 
  213.0000   -16.6000     2.3650    52.9000     9.8860     8.3220     8.4910    20.6040 
  213.1250   -16.5710     2.3530    52.9000     9.8860     8.3220     8.7510    20.2860 
  213.2500   -16.5510     2.3280    52.9000     9.8860     8.3220     9.0410    20.1500 
  213.3750   -16.5470     2.3000    52.9000     9.8860     8.3220     9.4600    20.1150 
  213.5000   -16.5190     2.2810    52.9000     9.8860     8.3220    10.1160    20.0540 
  213.6250   -16.4730     2.2810    52.9000     9.8860     8.3220    10.6650    19.9230 
  213.7500   -16.4600     2.2930    52.9000     9.8860     8.3220    10.7110    19.8430 
  213.8750   -16.4520     2.3110    52.9000     9.8860     8.3220    10.2000    19.8390 
  214.0000   -16.4400     2.3240    52.9000     9.8860     8.3220     9.9550    19.8300 
  214.1250   -16.4310     2.3290    52.9000     9.8860     8.3220     9.7060    19.6990 
  214.2500   -16.4210     2.3310    52.9000     9.8860     8.3220     8.9850    19.6250 
  214.3750   -16.4120     2.3330    52.9000     9.8860     8.3220     7.9240    19.5260 
  214.5000   -16.4350     2.3400    52.9000     9.8860     8.3220     7.3130    19.3290 
  214.6250   -16.4790     2.3510    52.9000     9.8860     8.3220     7.1890    19.0370 
  214.7500   -16.5020     2.3600    52.9000     9.8860     8.3220     7.2580    18.7400 
  214.8750   -16.4980     2.3630    52.9000     9.8860     8.3220     7.4650    18.6010 
  215.0000   -16.4980     2.3590    52.9000     9.8860     8.3220     7.8070    18.4180 
  215.1250   -16.4980     2.3510    52.9000     9.8860     8.3220     8.1810    18.2610 
  215.2500  -999.2500     2.3390    52.9000     9.8860     8.3220     8.4940    18.1310 
  215.3750  -999.2500     2.3220    52.9000     9.8860     8.3220     8.6890    17.8930 
  215.5000  -999.2500     2.3030    52.9000     9.8860     8.3220     8.8370    17.7010 
  215.6250  -999.2500     2.2810    52.9000     9.8860     8.3220     8.9670    17.4500 
  215.7500  -999.2500     2.2550    52.9000     9.8860     8.3220     9.0380    17.3370 
  215.8750  -999.2500     2.2280    52.9000     9.8860     8.3220     9.0420    17.2150 
  216.0000  -999.2500     2.2040    52.9000     9.8860     8.3220     9.0650    16.8790 
  216.1250  -999.2500     2.1870    52.9000     9.8860     8.3220     9.1620    15.6220 
  216.2500  -999.2500     2.1800    52.9000     9.8860     8.3220     9.1120    13.3940 
  216.3750  -999.2500     2.1810    52.9000     9.8860     8.3220     9.0310    12.0440 
  216.5000  -999.2500     2.1840    52.9000     9.8860     8.3220     8.9920    11.7600 
  216.6250  -999.2500     2.1840    52.9000     9.8860     8.3220     8.9900    11.7510 
  216.7500  -999.2500     2.1810    52.9000     9.8860     8.3220     8.9890    11.7460 
  216.8750  -999.2500     2.1770    52.9000     9.8860     8.3220     8.9890    11.7450 
  217.0000  -999.2500     2.1740    52.9000     9.8860     8.3220     8.9870    11.7450 
