~V
VERS. 2.00: Ver 2.00
~W
STRT.M 50.0000:
STOP.M 265.0000:
STEP.M 0.1250:
NULL. -999.2500:
UWI. F10671:
~C
DEPT.M :
GR.API :
RML.OHMM :
RI. :
RXO.OHMM :
CALI.CM :
DEN.GM/CC :
SP.MV :
~A
# ...
   61.2500    61.8120     8.9060    10.3410    20.6510    23.7790     2.3930   -14.2960 
   61.3750    62.4080     7.9280     9.3530    13.5190    23.5890     2.3350   -15.4070 
   61.5000    63.1370     6.7980     8.0890     7.9380    23.3920     2.2780   -16.5780 
   61.6250    61.9670     5.9680     7.0240     6.3920    23.3570     2.2380   -17.7670 
   61.7500    61.2250     5.5120     6.3240     5.9750    23.4570     2.2090   -18.8880 
   61.8750    60.9720     5.3650     5.9720     5.9280    23.7330     2.1830   -19.9910 
   62.0000    60.1260     5.4170     5.8760     5.9820    24.1250     2.1560   -20.9960 
   62.1250    59.5400     5.5600     5.9360     6.0860    24.4680     2.1320   -21.8790 
   62.2500    61.7490     5.6910     6.0280     6.2000    24.6040     2.1130   -22.6550 
   62.3750    63.8580     5.7760     6.1010     6.2850    24.6030     2.1010   -23.2580 
   62.5000    62.3250     5.8110     6.1380     6.3290    24.5800     2.0940   -23.6980 
   62.6250    60.2840     5.8070     6.1370     6.3290    24.5700     2.0950   -24.0640 
   62.7500    61.4760     5.7900     6.1180     6.3050    24.5600     2.1030   -24.3410 
   62.8750    64.0130     5.7760     6.0940     6.2970    24.5540     2.1180   -24.5410 
   63.0000    64.9730     5.7780     6.0760     6.3280    24.5780     2.1380   -24.7710 
   63.1250    63.3800     5.8090     6.0740     6.3300    24.6230     2.1540   -24.9780 
   63.2500    61.8390     5.8630     6.0900     6.2480    24.6810     2.1630   -25.1460 
   63.3750    60.7880     5.9360     6.1230     6.2150    24.7600     2.1660   -25.3130 
   63.5000    59.4730     6.0180     6.1690     6.3070    24.8460     2.1660   -25.4650 
   63.6250    58.0350     6.0980     6.2190     6.4440    24.8620     2.1640   -25.5610 
   63.7500    58.3620     6.1690     6.2630     6.4910    24.8430     2.1600   -25.6140 
   63.8750    60.8710     6.2280     6.2940     6.4600    24.8230     2.1580   -25.5940 
   64.0000    62.5960     6.2730     6.3060     6.4090    24.7990     2.1570   -25.4880 
   64.1250    61.6710     6.3000     6.2950     6.3910    24.7270     2.1590   -25.3580 
   64.2500    61.1130     6.3080     6.2650     6.3900    24.5760     2.1630   -25.1490 
   64.3750    62.0840     6.3000     6.2210     6.3800    24.2950     2.1670   -24.9070 
   64.5000    62.4990     6.2850     6.1690     6.3490    23.8400     2.1690   -24.6690 
   64.6250    61.0770     6.2770     6.1200     6.2840    23.3190     2.1670   -24.4580 
   64.7500    60.2390     6.2820     6.0770     6.2750    22.9490     2.1610   -24.3050 
   64.8750    60.6280     6.2970     6.0350     6.3700    22.7510     2.1540   -24.1980 
   65.0000    61.5430     6.3110     5.9890     6.5480    22.7800     2.1500   -24.1610 
   65.1250    62.9770     6.3090     5.9330     6.7230    23.1330     2.1520   -24.1160 
   65.2500    64.9110     6.2990     5.8760     6.7720    23.7450     2.1580   -24.1140 
   65.3750    65.8710     6.2990     5.8310     6.7650    24.5660     2.1610   -24.1580 
   65.5000    64.8360     6.3290     5.8110     6.8210    25.3750     2.1550   -24.2080 
   65.6250    61.7670     6.3990     5.8250     6.9930    26.0310     2.1410   -24.1960 
   65.7500    57.7040     6.4840     5.8530     7.0870    26.6750     2.1260   -24.1460 
   65.8750    55.9480     6.5590     5.8760     7.1250    27.0920     2.1190   -24.0510 
   66.0000    58.8280     6.6030     5.8760     7.0940    27.0120     2.1230   -23.8650 
   66.1250    63.7650     6.6120     5.8460     6.8300    25.9850     2.1390   -23.7040 
   66.2500    66.0210     6.6210     5.8090     6.3560    24.9420     2.1570   -23.5680 
   66.3750    65.6360     6.6580     5.7870     5.9830    24.2050     2.1700   -23.3720 
   66.5000    64.6710     6.7330     5.7940     5.9330    23.7500     2.1730   -23.1680 
   66.6250    63.8630     6.8320     5.8270     6.2750    23.4290     2.1630   -22.9870 
   66.7500    62.8830     6.9110     5.8620     6.6350    23.3070     2.1490   -22.8100 
   66.8750    63.1470     6.9440     5.8770     6.9720    23.5530     2.1360   -22.6650 
   67.0000    66.0020     6.9210     5.8630     7.1490    24.0890     2.1300   -22.5500 
   67.1250    68.0350     6.8550     5.8260     7.0540    24.3740     2.1340   -22.4290 
   67.2500    66.8060     6.7880     5.7940     6.9870    24.4210     2.1460   -22.2560 
   67.3750    64.9950     6.7440     5.7850     6.9690    24.4100     2.1610   -22.0510 
   67.5000    64.7350     6.7370     5.8130     6.9170    24.3510     2.1740   -21.7430 
   67.6250    65.1400     6.7830     5.8870     6.9130    24.3180     2.1840   -21.2460 
   67.7500    64.5090     6.8690     5.9930     6.9900    24.3510     2.1900   -20.6310 
   67.8750    64.3650     6.9750     6.1120     7.0710    24.4280     2.1940   -19.8690 
   68.0000    65.1970     7.0540     6.2090     7.1120    24.5150     2.1950   -18.9030 
   68.1250    66.0440     7.0120     6.2090     7.0420    24.5790     2.1940   -17.6480 
   68.2500    67.3030     6.7960     6.0710     6.9240    24.5900     2.1930   -16.1800 
   68.3750    71.6880     6.3920     5.7740     6.7090    24.5500     2.1940   -14.5610 
   68.5000    82.1400     5.8500     5.3470     6.3240    24.4570     2.2040   -12.9020 
   68.6250    95.5270     5.2720     4.8570     5.5820    24.3420     2.2250   -11.3890 
   68.7500   105.1090     4.7780     4.4060     4.6200    24.2610     2.2520   -10.0570 
   68.8750   108.8700     4.4280     4.0490     3.9810    24.2180     2.2760    -8.8980 
   69.0000   107.9180     4.2400     3.8120     3.7490    24.1650     2.2910    -7.9750 
   69.1250   105.3600     4.2140     3.7090     3.7710    24.0790     2.2940    -7.3690 
   69.2500   104.0460     4.2700     3.6900     3.8310    24.0000     2.2930    -7.0860 
   69.3750   103.0260     4.3520     3.7210     3.9760    23.9670     2.2960    -7.0690 
   69.5000   100.1310     4.4210     3.7740     4.2230    23.9420     2.3020    -7.2040 
   69.6250    96.0920     4.5080     3.8660     4.6330    23.8790     2.3120    -7.4800 
   69.7500    93.2660     4.7480     4.0700     5.0820    23.7830     2.3280    -7.7680 
   69.8750    91.7940     5.3440     4.5180     5.6360    23.6830     2.3590    -8.0650 
   70.0000    92.2980     6.4940     5.3610     6.5620    23.6030     2.4120    -8.4110 
   70.1250    95.1790     8.3390     6.7470     8.4220    23.5710     2.4850    -8.8180 
   70.2500    96.8680    10.4780     8.4420    11.4810    23.5910     2.5500    -9.2620 
   70.3750    93.4760    12.3460    10.0590    15.0640    23.6420     2.5830    -9.7700 
   70.5000    84.5160    13.3010    11.0940    17.7280    23.6510     2.5700   -10.3570 
   70.6250    75.7290    12.7260    10.9690    18.3490    23.6110     2.5070   -10.9670 
   70.7500    71.2110    11.1270     9.9400    17.0850    23.5750     2.4240   -11.6440 
   70.8750    70.9080     9.2150     8.5080    14.0010    23.5370     2.3450   -12.3440 
   71.0000    72.6420     7.6360     7.1860     9.5830    23.4530     2.2820   -13.0350 
   71.1250    74.0150     6.7780     6.3240     7.4170    23.3200     2.2480   -13.7760 
   71.2500    74.5350     6.4700     5.8750     6.7420    23.1720     2.2350   -14.5420 
   71.3750    74.3120     6.5400     5.7590     6.7280    23.0470     2.2340   -15.3350 
   71.5000    73.6220     6.8200     5.8730     6.8800    22.9770     2.2360   -16.1770 
   71.6250    71.4080     7.1650     6.1210     7.0300    22.9830     2.2330   -17.0510 
   71.7500    69.5650     7.4620     6.3820     7.2590    23.0610     2.2200   -17.9180 
   71.8750    70.8640     7.6590     6.5950     7.5930    23.2870     2.1990   -18.7730 
   72.0000    71.9850     7.7330     6.7220     7.9480    23.7040     2.1710   -19.5990 
   72.1250    69.1070     7.6690     6.7310     8.0720    24.2210     2.1370   -20.3330 
   72.2500    64.8080     7.5260     6.6570     7.8490    24.6320     2.1030   -20.9080 
   72.3750    61.4740     7.3680     6.5410     7.4800    24.8410     2.0790   -21.3410 
