~V
VERS. 2.00: Ver 2.00
~W
STRT.M 50.0000:
STOP.M 209.0000:
STEP.M 0.1250:
NULL. -999.2500:
UWI. F10692:
~C
DEPT.M :
DEN.GM/CC :
GR.API :
RML.OHMM :
RI. :
RXO.OHMM :
CALI.CM :
SP.MV :
~A
# ...
  128.7500     2.1640    44.7720    41.5790    36.9990    29.9000    25.7470   -24.8110 
  128.8750     2.2110    41.4700    42.3990    38.0860    28.8120    25.7880   -24.5710 
  129.0000     2.2700    41.3200    42.4770    38.6810    24.3340    25.7710   -24.3340 
  129.1250     2.2820    43.7170    41.8170    38.6800    23.8230    25.6990   -24.1040 
  129.2500     2.2390    45.7140    41.1790    38.6010    25.4880    25.5880   -23.8920 
  129.3750     2.1840    46.7230    41.2260    38.9860    28.4280    25.5210   -23.7080 
  129.5000     2.1570    47.7550    42.3610    40.2360    31.2660    25.5070   -23.5530 
  129.6250     2.1700    48.8550    44.7880    42.6670    34.8970    25.5240   -23.4290 
  129.7500     2.2050    49.2860    47.9710    45.9580    39.5750    25.5340   -23.3280 
  129.8750     2.2400    50.0880    51.2220    49.6160    43.6170    25.5280   -23.2490 
  130.0000     2.2630    50.9060    53.3320    52.5710    44.4410    25.4880   -23.1910 
  130.1250     2.2840    49.7260    51.9080    52.3680    38.5710    25.4450   -23.1580 
  130.2500     2.3220    48.0270    46.3950    47.8760    38.1310    25.4090   -23.1420 
  130.3750     2.3680    47.6760    37.9850    39.8620    44.1500    25.4000   -23.1320 
  130.5000     2.3920    48.7280    29.2590    30.9790    38.6130    25.4010   -23.1060 
  130.6250     2.3770    50.8190    22.8660    24.1780    25.0340    25.4000   -23.0340 
  130.7500     2.3540    54.3750    19.2140    20.0020    15.8120    25.4030   -22.9120 
  130.8750     2.3410    57.5110    18.1300    18.2300    13.5580    25.4090   -22.7560 
  131.0000     2.3280    57.6640    19.3000    18.5740    15.3580    25.4130   -22.5930 
  131.1250     2.2870    56.9110    22.6760    21.2200    20.5900    25.3840   -22.4640 
  131.2500     2.2270    55.3510    27.4070    25.6430    27.7420    25.4150   -22.3730 
  131.3750     2.1760    51.6840    32.6680    31.2270    32.4900    25.5540   -22.3160 
  131.5000     2.1600    47.6570    37.4110    36.8410    33.9480    25.6900   -22.2820 
  131.6250     2.1770    48.0000    40.6540    41.1000    32.7340    25.6340   -22.2620 
  131.7500     2.1970    50.7350    42.7000    43.9180    31.9670    25.4270   -22.2440 
  131.8750     2.2030    51.6210    44.0200    45.6750    32.2400    25.3510   -22.2230 
  132.0000     2.1940    50.2640    44.9170    46.7150    34.8920    25.5210   -22.1940 
  132.1250     2.1750    49.2050    45.2520    46.9320    38.2640    25.7320   -22.1590 
  132.2500     2.1600    48.8990    44.8850    46.2580    40.8250    25.8240   -22.1270 
  132.3750     2.1510    49.7590    43.7580    44.6630    40.1950    25.8060   -22.1060 
  132.5000     2.1480    50.6750    42.0120    42.3520    37.1250    25.7150   -22.0950 
  132.6250     2.1480    49.6030    39.9520    39.7540    32.5970    25.5890   -22.0870 
  132.7500     2.1470    46.2420    38.0530    37.4120    29.5660    25.4430   -22.0800 
  132.8750     2.1450    43.4460    36.6370    35.6470    29.0790    25.3920   -22.0790 
  133.0000     2.1430    44.9430    35.8950    34.6300    29.3620    25.4400   -22.0910 
  133.1250     2.1500    49.4990    35.9380    34.4860    29.9640    25.5470   -22.1220 
  133.2500     2.1730    51.9780    36.4590    34.9290    30.6300    25.6350   -22.1630 
  133.3750     2.2180    51.6750    37.2120    35.7430    32.4030    25.6620   -22.2060 
  133.5000     2.2930    50.2600    38.0100    36.7420    34.4710    25.6210   -22.2440 
  133.6250     2.4010    50.0230    38.8250    37.8530    36.5460    25.5230   -22.2720 
  133.7500     2.5110    49.3610    39.7860    39.0950    40.4290    25.3810   -22.2890 
  133.8750     2.5900    47.7620    40.9780    40.5000    43.3880    25.2790   -22.2800 
  134.0000     2.6250    45.3650    42.2750    41.9260    45.2370    25.2260   -22.2300 
  134.1250     2.6330    41.5110    43.1010    42.8120    45.3610    25.1990   -22.1170 
  134.2500     2.6360    38.4860    42.8690    42.6190    44.0030    25.1870   -21.9540 
  134.3750     2.6380    37.5630    41.2670    41.0720    43.1130    25.1890   -21.7580 
  134.5000     2.6400    38.6380    38.5060    38.3760    39.6920    25.2060   -21.5470 
  134.6250     2.6360    41.1470    35.2670    35.1660    34.6970    25.2380   -21.3410 
  134.7500     2.6270    42.5530    32.3750    32.2290    28.5350    25.2530   -21.1480 
  134.8750     2.6090    41.9990    30.1900    29.9200    26.4050    25.2570   -20.9770 
  135.0000     2.5830    40.9650    28.8160    28.3680    24.3610    25.2580   -20.8300 
  135.1250     2.5430    41.6910    28.3370    27.7210    22.0690    25.2570   -20.7170 
  135.2500     2.4990    42.7380    28.4830    27.7790    21.8820    25.2610   -20.6420 
  135.3750     2.4700    42.5310    29.0620    28.3860    22.7350    25.2750   -20.6180 
  135.5000     2.4750    41.1420    29.8190    29.3080    24.1760    25.3060   -20.6550 
  135.6250     2.5140    38.2390    30.3860    30.1710    27.4860    25.3200   -20.7620 
  135.7500     2.5590    35.0000    30.5240    30.6320    29.9860    25.3250   -20.9090 
  135.8750     2.5900    33.9070    30.2070    30.5620    29.3620    25.3250   -21.0690 
  136.0000     2.6130    36.5670    29.6410    30.0800    24.6490    25.3250   -21.2220 
  136.1250     2.6460    41.2230    29.1390    29.4590    21.4780    25.3250   -21.3590 
  136.2500     2.6850    43.5480    28.7410    28.8460    18.7870    25.3230   -21.4840 
  136.3750     2.7180    42.4430    28.1860    28.0700    18.1990    25.3100   -21.6010 
  136.5000     2.7370    40.0820    27.1430    26.8590    18.8360    25.2740   -21.7050 
  136.6250     2.7340    38.7480    25.4640    25.0720    18.4690    25.2260   -21.7800 
  136.7500     2.7000    38.5680    23.6570    23.1530    18.0760    25.1830   -21.8130 
  136.8750     2.6440    40.6090    22.2680    21.5780    16.5550    25.1520   -21.7840 
  137.0000     2.5980    44.2070    21.7150    20.7080    14.8060    25.1260   -21.6780 
  137.1250     2.5920    45.2910    22.3320    20.8870    16.0190    25.1160   -21.4840 
  137.2500     2.6100    42.7770    23.8150    21.9740    18.9710    25.1120   -21.2330 
  137.3750     2.6230    40.0910    25.8310    23.8050    22.1470    25.1090   -20.9540 
  137.5000     2.6150    39.2610    27.9630    26.0600    23.8570    25.1140   -20.6730 
  137.6250     2.6040    39.3630    29.7770    28.2830    27.0180    25.1310   -20.4160 
  137.7500     2.6060    39.6330    31.1930    30.1480    32.8170    25.1480   -20.1960 
  137.8750     2.6140    39.8970    32.3570    31.6340    35.4200    25.1400   -20.0170 
  138.0000     2.6180    41.8180    33.4760    32.9070    32.3210    25.1290   -19.8840 
  138.1250     2.6150    44.4880    34.4840    33.9830    31.5040    25.1150   -19.7990 
  138.2500     2.6080    45.4730    34.9530    34.5490    32.7750    25.1090   -19.7470 
  138.3750     2.5920    43.7250    34.4260    34.1640    34.4510    25.1060   -19.7180 
  138.5000     2.5610    40.3200    32.7760    32.6690    34.9330    25.1060   -19.7040 
  138.6250     2.5170    38.5720    30.3180    30.3070    32.8740    25.1050   -19.6930 
  138.7500     2.4770    38.6890    27.9650    27.9340    26.6240    25.1080   -19.6720 
  138.8750     2.4580    40.5300    26.3560    26.1630    22.3320    25.1220   -19.6340 
  139.0000     2.4630    42.8670    25.7690    25.3140    21.9500    25.1460   -19.5810 
  139.1250     2.4830    43.6840    26.2210    25.5220    23.6660    25.1360   -19.5230 
  139.2500     2.4980    43.3700    27.1930    26.3850    25.0210    25.1060   -19.4680 
  139.3750     2.5050    42.3640    28.2870    27.5510    26.7540    25.1000   -19.4230 
  139.5000     2.5130    41.2940    29.1420    28.6240    29.1520    25.1410   -19.3880 
  139.6250     2.5290    40.8610    29.5070    29.2500    28.5730    25.1660   -19.3710 
  139.7500     2.5410    41.5530    29.5510    29.5000    28.1650    25.1760   -19.3780 
  139.8750     2.5480    43.4150    29.4080    29.4890    29.1040    25.1840   -19.4180 
