~V
VERS. 2.00: Ver 2.00
~W
STRT.M 57.0000:
STOP.M 242.0000:
STEP.M 0.1250:
NULL. -999.2500:
UWI. F10636:
~C
DEPT.M :
GR.API :
RML.OHMM :
RI. :
RXO.OHMM :
CALI.CM :
DEN.GM/CC :
SP.MV :
~A
# ...
  158.2500    54.4590    20.2820    19.1370    17.4540    23.8840     2.4550   -12.2220 
  158.3750    57.6040    20.1720    19.0820    17.6510    23.7970     2.4560   -12.2560 
  158.5000    61.5950    20.2920    19.1460    17.5160    23.7100     2.4550   -12.2250 
  158.6250    64.8150    20.5620    19.2390    17.8130    23.6370     2.4580   -12.1660 
  158.7500    65.2590    20.7770    19.2730    18.2160    23.6130     2.4640   -12.0640 
  158.8750    62.9470    20.7900    19.2070    18.6310    23.6470     2.4700   -11.9200 
  159.0000    58.9990    20.5570    19.0230    18.7750    23.6990     2.4710   -11.7550 
  159.1250    55.4560    20.1440    18.7110    18.3580    23.7150     2.4620   -11.6040 
  159.2500    53.9010    19.7330    18.3380    17.5520    23.7200     2.4500   -11.5140 
  159.3750    54.6830    19.4440    17.9950    17.0650    23.7750     2.4410   -11.4790 
  159.5000    56.7510    19.3470    17.7920    16.7180    23.8940     2.4400   -11.4560 
  159.6250    57.2920    19.4960    17.8490    16.5640    24.0100     2.4450   -11.4350 
  159.7500    56.2580    19.8160    18.1130    17.1200    24.0700     2.4500   -11.4260 
  159.8750    54.8550    20.2340    18.4870    17.7760    24.0980     2.4520   -11.4120 
  160.0000    53.8270    20.6510    18.8640    18.4030    24.1390     2.4530   -11.3650 
  160.1250    54.5230    20.9410    19.1650    19.5570    24.2030     2.4570   -11.2810 
  160.2500    55.8410    21.0840    19.4010    19.9650    24.2580     2.4630   -11.1510 
  160.3750    56.6820    21.1300    19.5880    18.5890    24.2860     2.4680   -10.9890 
  160.5000    56.9210    21.1570    19.7230    16.9200    24.2790     2.4700   -10.8220 
  160.6250    57.7260    21.2090    19.7840    17.0200    24.2220     2.4710   -10.6730 
  160.7500    58.2500    21.2380    19.7930    17.5490    24.1360     2.4710   -10.5440 
  160.8750    55.7840    21.1850    19.7820    17.3130    24.0720     2.4690   -10.4190 
  161.0000    51.5520    21.0140    19.7650    16.9260    24.0780     2.4630   -10.2970 
  161.1250    49.8690    20.7300    19.6990    16.9700    24.1380     2.4510   -10.1520 
  161.2500    50.8560    20.4250    19.5460    16.7250    24.1760     2.4410   -10.0100 
  161.3750    52.1220    20.1900    19.3240    16.4060    24.1720     2.4360    -9.8720 
  161.5000    52.7410    20.0970    19.1200    16.4010    24.1580     2.4390    -9.7350 
  161.6250    52.9880    20.1710    19.0520    16.8740    24.1610     2.4500    -9.6040 
  161.7500    53.3770    20.3070    19.1070    17.6440    24.1620     2.4630    -9.4760 
  161.8750    54.3510    20.3960    19.1880    19.1400    24.1430     2.4740    -9.3840 
  162.0000    55.9990    20.3400    19.1640    20.8150    24.1130     2.4800    -9.3320 
  162.1250    55.6430    20.0650    18.9190    21.2910    24.1080     2.4780    -9.3280 
  162.2500    52.7690    19.6360    18.5170    19.4370    24.1310     2.4730    -9.3410 
  162.3750    50.6980    19.1390    18.0490    18.3080    24.1600     2.4680    -9.3690 
  162.5000    51.0670    18.6900    17.6050    18.0260    24.1840     2.4670    -9.3930 
  162.6250    51.4980    18.4200    17.2700    17.9480    24.2170     2.4730    -9.4090 
  162.7500    51.1250    18.3270    17.0720    17.9490    24.2560     2.4810    -9.4180 
  162.8750    51.9550    18.3540    17.0230    18.2470    24.2680     2.4870    -9.4090 
  163.0000    53.1970    18.4330    17.0990    18.5990    24.2140     2.4880    -9.3870 
  163.1250    50.2560    18.5310    17.2410    18.3050    24.0810     2.4850    -9.3670 
  163.2500    47.0250    18.6420    17.3660    18.1220    23.9550     2.4810    -9.3690 
  163.3750    49.4030    18.7450    17.4350    18.0130    23.9180     2.4800    -9.3980 
  163.5000    55.5110    18.7930    17.4420    18.1920    23.9830     2.4840    -9.4480 
  163.6250    56.3680    18.7070    17.3770    18.2540    24.0700     2.4900    -9.5020 
  163.7500    52.7580    18.4870    17.2420    18.3320    24.0930     2.4960    -9.5550 
  163.8750    51.1970    18.1670    17.0210    18.6830    24.0510     2.4990    -9.6080 
  164.0000    53.0580    17.8210    16.7260    18.9860    23.9810     2.4990    -9.6680 
  164.1250    53.5070    17.5370    16.4090    18.4530    23.9390     2.4970    -9.7110 
  164.2500    50.8500    17.3270    16.1350    17.3330    23.9590     2.4930    -9.7320 
  164.3750    47.4780    17.1510    15.9150    16.4890    24.0380     2.4890    -9.7210 
  164.5000    46.5970    16.9520    15.7230    16.1710    24.1350     2.4850    -9.6980 
  164.6250    49.0950    16.7180    15.5260    16.4410    24.1910     2.4800    -9.6760 
  164.7500    51.9720    16.5250    15.3420    16.1870    24.2100     2.4770    -9.6560 
  164.8750    53.1110    16.4490    15.2340    15.7250    24.2180     2.4770    -9.6400 
  165.0000    52.1560    16.5120    15.2560    15.7410    24.2250     2.4800    -9.6250 
  165.1250    51.1130    16.6650    15.4080    16.3560    24.1880     2.4800    -9.6250 
  165.2500    50.8750    16.8040    15.5780    16.8170    24.0490     2.4710    -9.6340 
  165.3750    50.4660    16.8860    15.6820    16.7620    23.7910     2.4530    -9.6850 
  165.5000    49.1280    16.9160    15.7030    15.9190    23.4830     2.4310    -9.7470 
  165.6250    47.9690    16.9370    15.6930    15.4760    23.2820     2.4110    -9.7880 
  165.7500    48.3220    16.9920    15.7220    15.5180    23.2150     2.3990    -9.8020 
  165.8750    49.1140    17.0750    15.7860    16.1240    23.2010     2.3940    -9.7980 
  166.0000    49.3020    17.1400    15.8290    16.6080    23.1590     2.3980    -9.7780 
  166.1250    49.6520    17.0850    15.7700    16.7800    23.1160     2.4100    -9.7210 
  166.2500    50.3610    16.8940    15.6210    16.3830    23.1280     2.4300    -9.6470 
  166.3750    50.9480    16.6280    15.4220    15.9820    23.1750     2.4530    -9.5540 
  166.5000    50.7450    16.3970    15.2240    15.1420    23.1980     2.4740    -9.4670 
  166.6250    50.1910    16.3220    15.0710    15.1780    23.1500     2.4880    -9.4100 
  166.7500    51.5610    16.3850    14.9730    15.4080    22.9960     2.4930    -9.3780 
  166.8750    54.8570    16.5250    14.9450    15.2130    22.6820     2.4890    -9.3600 
  167.0000    57.7670    16.6580    14.9850    15.3730    22.1870     2.4810    -9.3440 
  167.1250    58.3300    16.6720    15.0500    15.6360    21.7410     2.4760    -9.3480 
  167.2500    56.7790    16.5370    15.0590    15.1740    21.3430     2.4790    -9.3510 
  167.3750    53.9650    16.2950    14.9790    14.5650    21.0830     2.4880    -9.3120 
  167.5000    51.0030    16.0660    14.8620    14.3450    20.8990     2.4990    -9.2590 
  167.6250    50.7870    16.0470    14.8710    13.5810    20.7510     2.5030    -9.1960 
  167.7500    53.2200    16.3260    15.1240    13.1360    20.6590     2.5000    -9.1280 
  167.8750    55.0470    16.9070    15.6460    14.0900    20.5920     2.4920    -9.0590 
  168.0000    53.9300    17.6880    16.3430    16.6570    20.5530     2.4840    -9.0090 
  168.1250    50.3490    18.4290    16.9930    17.9460    20.6180     2.4790    -8.9870 
  168.2500    47.6330    18.8690    17.3880    17.4710    20.9260     2.4770    -8.9840 
  168.3750    46.9450    18.8620    17.4340    17.1960    21.5670     2.4760    -9.0180 
  168.5000    48.2920    18.4180    17.1350    17.4640    22.3680     2.4750    -9.0580 
  168.6250    50.5640    17.6880    16.5500    16.8290    23.0260     2.4740    -9.0970 
  168.7500    50.5710    16.9390    15.8670    15.8680    23.4140     2.4740    -9.1430 
  168.8750    48.5350    16.2960    15.2170    15.1470    23.5610     2.4750    -9.1840 
  169.0000    47.7240    15.8040    14.6980    14.5150    23.5120     2.4760    -9.2040 
  169.1250    49.7900    15.5110    14.3900    14.1360    23.3120     2.4760    -9.1770 
  169.2500    50.5920    15.3930    14.2480    14.1800    23.0590     2.4720    -9.1310 
  169.3750    48.4310    15.4340    14.2290    14.5840    22.8890     2.4610    -9.0900 
