~V
VERS. 2.00: Ver 2.00
~W
STRT.M 56.0000:
STOP.M 256.0000:
STEP.M 0.1250:
NULL. -999.2500:
UWI. F10668:
~C
DEPT.M :
SP.MV :
GR.API :
RML.OHMM :
RI. :
RXO.OHMM :
CALI.CM :
DEN.GM/CC :
~A
# ...
  168.5000   -17.7670    45.9150    19.0390    15.8540    16.9980    24.4930     2.4490 
  168.6250   -17.9460    43.8020    18.5540    15.4640    16.6440    24.6220     2.4600 
  168.7500   -18.0790    42.0290    18.2450    15.1720    15.8180    24.6120     2.4690 
  168.8750   -18.1650    42.2960    18.2490    15.0960    15.1310    24.5630     2.4660 
  169.0000   -18.1930    43.6640    18.5070    15.2280    15.7590    24.6330     2.4510 
  169.1250   -18.1760    45.3870    18.8990    15.5070    17.1800    24.7840     2.4320 
  169.2500   -18.1370    46.9370    19.2580    15.8150    18.1540    24.8220     2.4190 
  169.3750   -18.0580    46.6080    19.3960    15.9940    17.9360    24.6800     2.4190 
  169.5000   -17.9460    44.5720    19.2980    15.9910    17.3710    24.5430     2.4270 
  169.6250   -17.8150    43.8230    19.0250    15.8270    17.1360    24.5830     2.4400 
  169.7500   -17.6750    44.6600    18.6880    15.5790    17.5090    24.7210     2.4580 
  169.8750   -17.5370    44.4970    18.4310    15.3510    18.4230    24.7910     2.4760 
  170.0000   -17.4230    44.2720    18.3530    15.2360    18.5220    24.8210     2.4870 
  170.1250   -17.3140    45.4200    18.5250    15.3010    17.9180    24.8380     2.4830 
  170.2500   -17.2260    46.5560    18.9890    15.5920    16.8970    24.8350     2.4650 
  170.3750   -17.1810    46.1140    19.7570    16.1360    17.2130    24.8260     2.4390 
  170.5000   -17.1750    46.1240    20.6370    16.8000    19.0130    24.8100     2.4190 
  170.6250   -17.1970    46.5040    21.4220    17.4360    21.3140    24.7640     2.4130 
  170.7500   -17.2710    44.8000    21.9120    17.8900    21.4310    24.7300     2.4200 
  170.8750   -17.3790    42.9720    21.9200    17.9970    20.8720    24.7200     2.4350 
  171.0000   -17.5040    42.5190    21.5760    17.8100    19.9250    24.7240     2.4490 
  171.1250   -17.6800    43.6110    21.0570    17.4330    18.6370    24.6800     2.4570 
  171.2500   -17.8470    45.8620    20.5510    17.0130    18.3680    24.5360     2.4570 
  171.3750   -17.9970    48.4000    20.2130    16.6880    18.6250    24.1480     2.4520 
  171.5000   -18.1170    49.2130    20.0700    16.5110    18.3270    23.6550     2.4480 
  171.6250   -18.2000    47.4690    20.1300    16.4940    18.1530    23.4060     2.4470 
  171.7500   -18.2340    45.1350    20.3630    16.6210    18.8220    23.6090     2.4500 
  171.8750   -18.2440    44.2410    20.7270    16.8700    19.9660    24.1620     2.4560 
  172.0000   -18.2230    44.5190    21.1580    17.2000    20.9620    24.7510     2.4600 
  172.1250   -18.1380    45.6720    21.6220    17.5930    21.1770    25.0690     2.4610 
  172.2500   -18.0230    47.7740    22.0590    18.0010    21.5270    25.2040     2.4620 
  172.3750   -17.8730    49.9020    22.3550    18.3250    21.4600    25.2820     2.4670 
  172.5000   -17.7160    50.6330    22.4360    18.4870    21.2360    25.2910     2.4760 
  172.6250   -17.5500    49.9410    22.2430    18.4350    21.0990    25.2070     2.4840 
  172.7500   -17.3850    49.3720    21.7880    18.1690    21.1020    25.0490     2.4810 
  172.8750   -17.1990    48.3690    21.1840    17.7600    19.1500    24.8170     2.4660 
  173.0000   -17.0040    45.3870    20.6020    17.3430    18.0310    24.4740     2.4450 
  173.1250   -16.8230    42.5150    20.0870    16.9510    17.8920    23.9940     2.4300 
  173.2500   -16.6490    43.2800    19.5950    16.5590    18.3660    23.6990     2.4270 
  173.3750   -16.4900    46.2720    19.0240    16.1050    18.4770    23.7760     2.4390 
  173.5000   -16.3380    47.1650    18.3280    15.5600    18.6180    24.1370     2.4550 
  173.6250   -16.2050    45.4370    17.5510    14.9470    17.8660    24.5110     2.4690 
  173.7500   -16.1020    43.8880    16.8200    14.3490    16.7210    24.6280     2.4730 
  173.8750   -16.0320    44.9960    16.3180    13.9020    15.7870    24.5450     2.4720 
  174.0000   -15.9900    46.7120    16.0820    13.6560    15.2870    24.4150     2.4700 
  174.1250   -15.9750    47.0980    16.0990    13.6160    15.0580    24.2540     2.4650 
  174.2500   -15.9880    45.8700    16.3250    13.7610    15.1990    23.9900     2.4540 
  174.3750   -16.0240    45.1030    16.7270    14.0710    15.4100    23.8610     2.4380 
  174.5000   -16.0780    45.2840    17.2190    14.4680    15.6490    23.9570     2.4230 
  174.6250   -16.1500    45.6400    17.7310    14.8920    15.5180    24.1780     2.4140 
  174.7500   -16.2160    46.0920    18.1800    15.2750    15.7880    24.3080     2.4100 
  174.8750   -16.2720    46.6930    18.4420    15.5100    17.0940    24.4360     2.4120 
  175.0000   -16.3120    46.3890    18.4810    15.5670    17.6130    24.5400     2.4120 
  175.1250   -16.3250    45.4390    18.3160    15.4530    16.8270    24.6640     2.4110 
  175.2500   -16.3100    44.2690    18.0410    15.2370    16.0070    24.7770     2.4070 
  175.3750   -16.2710    42.7040    17.8140    15.0310    15.9800    24.8200     2.4020 
  175.5000   -16.2140    42.2350    17.7450    14.9310    16.0080    24.8340     2.4010 
  175.6250   -16.1570    43.2500    17.8620    14.9700    15.8710    24.8180     2.4100 
  175.7500   -16.0870    43.9090    18.1300    15.1390    15.3720    24.7400     2.4270 
  175.8750   -16.0080    43.4210    18.4650    15.3920    15.6340    24.6730     2.4450 
  176.0000   -15.9510    45.1900    18.7630    15.6500    16.6880    24.7030     2.4530 
  176.1250   -15.9160    49.1100    18.9780    15.8640    17.2950    24.7980     2.4520 
  176.2500   -15.9310    50.6780    19.1030    16.0130    17.0900    24.8300     2.4500 
  176.3750   -15.9860    47.9280    19.1350    16.0770    17.2720    24.7100     2.4580 
  176.5000   -16.0870    45.2730    19.0960    16.0710    17.3530    24.5600     2.4670 
  176.6250   -16.1980    44.1240    18.9950    16.0060    17.0240    24.4890     2.4560 
  176.7500   -16.3480    43.6020    18.8360    15.8940    16.7100    24.4680     2.4200 
  176.8750   -16.5640    43.7960    18.6150    15.7350    16.6410    24.4320     2.3720 
  177.0000   -16.7580    43.8350    18.3600    15.5490    16.4850    24.2550     2.3400 
  177.1250   -16.9710    42.5250    18.1010    15.3610    15.9320    23.8760     2.3340 
  177.2500   -17.1560    41.5310    17.8740    15.1970    15.4340    23.5330     2.3410 
  177.3750   -17.3280    43.0010    17.7190    15.0850    15.4130    23.4580     2.3430 
  177.5000   -17.4660    44.6640    17.6360    15.0130    15.7050    23.5520     2.3340 
  177.6250   -17.5810    43.7490    17.6240    14.9720    15.7720    23.6320     2.3260 
  177.7500   -17.6590    40.4430    17.6740    14.9610    15.3110    23.5570     2.3360 
  177.8750   -17.6670    38.8060    17.7630    14.9890    15.3510    23.3580     2.3660 
  178.0000   -17.6540    39.8350    17.8620    15.0430    15.2290    23.3390     2.4000 
  178.1250   -17.5770    42.8730    17.9810    15.1250    15.0570    23.5610     2.4260 
  178.2500   -17.4540    45.7160    18.1550    15.2460    15.4160    23.9340     2.4350 
  178.3750   -17.2900    45.8840    18.4240    15.4290    16.2780    24.2540     2.4200 
  178.5000   -17.1040    44.8470    18.7750    15.6770    16.4310    24.3940     2.3930 
  178.6250   -16.9140    44.8250    19.1730    15.9820    16.2080    24.4240     2.3640 
  178.7500   -16.7000    46.1470    19.5520    16.3100    16.6020    24.3730     2.3540 
  178.8750   -16.5310    46.4550    19.8400    16.5970    18.4760    24.1400     2.3670 
  179.0000   -16.3470    45.3530    20.0540    16.8310    19.6320    23.8500     2.3810 
  179.1250   -16.2040    44.6040    20.2250    17.0280    19.1850    23.8660     2.3810 
  179.2500   -16.1100    44.9260    20.3680    17.2060    17.9170    24.2340     2.3700 
  179.3750   -16.0740    45.2970    20.4590    17.3490    17.6190    24.5900     2.3660 
  179.5000   -16.0810    45.0100    20.4480    17.4140    17.8670    24.6550     2.3730 
  179.6250   -16.1470    45.2650    20.2600    17.3340    18.1990    24.2890     2.3820 
