~V
VERS. 2.00: Ver 2.00
~W
STRT.M 50.0000:
STOP.M 216.0000:
STEP.M 0.1250:
NULL. -999.2500:
UWI. F10607:
~C
DEPT.M :
GR.API :
RML.OHMM :
RI. :
RXO.OHMM :
CALI.CM :
DEN.GM/CC :
SP.MV :
~A
# ...
  185.0000    59.4150   132.1550   126.0890   130.7080    24.1510     2.2070   -14.4600 
  185.1250    54.4090   118.1920   112.7040   126.6360    24.2200     2.1780   -14.3640 
  185.2500    52.0380   108.4410   102.6590   126.9790    24.2210     2.1610   -14.2160 
  185.3750    51.4420   103.7560    97.3140   114.6850    24.2080     2.1640   -13.9990 
  185.5000    51.5030   103.2320    96.2370    90.5870    24.1720     2.1980   -13.7580 
  185.6250    51.1860   103.8130    97.1610    82.6440    24.0970     2.2670   -13.4840 
  185.7500    50.2790   100.7260    95.6670   114.7640    24.0270     2.3360   -13.1620 
  185.8750    48.9100    91.6300    88.9990   175.1630    24.0230     2.3740   -12.7800 
  186.0000    48.0660    78.2490    77.6390   200.5580    24.0320     2.3750   -12.3650 
  186.1250    50.0830    65.0690    65.0200   160.6570    24.0480     2.3640   -11.9070 
  186.2500    53.9400    54.3170    54.0030    97.1180    24.0620     2.3730   -11.4460 
  186.3750    58.4440    45.2100    44.4700    62.4510    24.0600     2.4090   -10.9530 
  186.5000    62.7830    36.1740    35.2340    59.2810    24.0350     2.4530   -10.4910 
  186.6250    64.3670    26.7800    26.0580    54.1900    23.9490     2.4670   -10.0860 
  186.7500    60.5950    18.4390    18.1560    44.7750    23.8240     2.4510    -9.6630 
  186.8750    52.5140    12.2790    12.3560    25.1490    23.7620     2.4240    -9.3140 
  187.0000    45.7800     8.4750     8.6340     9.9670    23.7700     2.4060    -9.0370 
  187.1250    43.1210     6.7250     6.6900     6.5640    23.8110     2.4080    -8.8080 
  187.2500    40.3080     6.0200     5.7030     7.0810    23.8670     2.4160    -8.6950 
  187.3750    37.5370     5.8950     5.3210     9.0140    23.9000     2.4150    -8.7190 
  187.5000    37.6320     6.0390     5.2960     7.7700    23.8950     2.3980    -8.7800 
  187.6250    40.9220     6.2320     5.4440     6.6280    23.8100     2.3760    -8.9270 
  187.7500    43.1230     6.3880     5.6220     6.1650    23.6330     2.3640    -9.1890 
  187.8750    43.4470     6.5860     5.8350     6.1800    23.3870     2.3650    -9.4600 
  188.0000    43.9400     6.9600     6.1600     6.1790    23.1490     2.3770    -9.7190 
  188.1250    44.4190     7.6140     6.6850     6.4890    23.1100     2.3990    -9.9970 
  188.2500    44.3660     8.4070     7.3250     7.3270    23.3040     2.4270   -10.1830 
  188.3750    45.3380     9.1080     7.9080     8.8400    23.5650     2.4540   -10.2820 
  188.5000    47.2780     9.4300     8.1990    10.8930    23.7210     2.4680   -10.3230 
  188.6250    47.4740     9.0650     7.9240    12.0130    23.7440     2.4560   -10.2370 
  188.7500    44.6970     8.2010     7.2140    10.2080    23.6980     2.4270   -10.0540 
  188.8750    41.1020     7.1360     6.2980     7.7830    23.5710     2.3910    -9.7880 
  189.0000    37.6990     6.1690     5.4160     6.2160    23.4050     2.3570    -9.4680 
  189.1250    34.5060     5.0230     4.7570     5.1950    23.3020     2.3250    -9.0970 
  189.2500    33.0090     4.7120     4.3370     4.6430    23.2680     2.2960    -8.7070 
  189.3750    33.3620     4.6130     4.1360     4.4450    23.2650     2.2780    -8.3230 
  189.5000    33.4410     4.6330     4.0980     4.4050    23.2670     2.2770    -7.9650 
  189.6250    32.4570     4.6700     4.1500     4.5180    23.2660     2.2940    -7.6200 
  189.7500    31.9340     4.6540     4.1950     4.8620    23.2570     2.3160    -7.2970 
  189.8750    32.2240     4.5680     4.1840     5.2390    23.2360     2.3330    -7.0650 
  190.0000    32.4190     4.4350     4.1000     5.0150    23.2020     2.3430    -6.8780 
  190.1250    31.1780     4.3040     3.9630     4.4930    23.1620     2.3500    -6.7470 
  190.2500    30.5060     4.2160     3.8270     4.2170    23.1150     2.3570    -6.7310 
  190.3750    31.2500     4.1760     3.7220     4.1470    23.0700     2.3570    -6.7570 
  190.5000    31.6220     4.1700     3.6550     4.0970    23.0530     2.3480    -6.8100 
  190.6250    31.0940     4.1720     3.6110     4.0130    22.9810     2.3340    -6.9780 
  190.7500    31.1020     4.1650     3.5670     3.9490    22.8830     2.3270    -7.1670 
  190.8750    31.5660     4.1510     3.5190     3.9280    22.7990     2.3290    -7.3560 
  191.0000    31.8500     4.1450     3.4810     3.9290    22.7480     2.3350    -7.5850 
  191.1250    33.0000     4.1720     3.4830     3.9490    22.6690     2.3340    -7.7940 
  191.2500    35.2250     4.2460     3.5410     3.9970    22.5540     2.3260    -7.9750 
  191.3750    36.6110     4.3790     3.6570     4.0980    22.5150     2.3150    -8.1290 
  191.5000    37.1620     4.5740     3.8210     4.2910    22.5590     2.3080    -8.2740 
  191.6250    36.6680     4.8150     4.0100     4.6540    22.5760     2.3080    -8.3620 
  191.7500    34.6980     5.0540     4.1930     5.2070    22.5920     2.3150    -8.4050 
  191.8750    32.9750     5.2480     4.3470     5.5340    22.5970     2.3340    -8.4200 
  192.0000    32.3820     5.3620     4.4490     5.4120    22.5970     2.3700    -8.3580 
  192.1250    30.9570     5.3610     4.4640     5.2260    22.5990     2.4160    -8.2030 
  192.2500    27.7300     5.2670     4.3980     5.3700    22.5780     2.4510    -8.0010 
  192.3750    24.9060     5.1020     4.2670     5.6500    22.5050     2.4630    -7.7950 
  192.5000    23.6910     4.9090     4.1030     5.2250    22.4830     2.4520    -7.5400 
  192.6250    22.7050     4.7470     3.9490     4.6360    22.6600     2.4270    -7.2740 
  192.7500    21.5250     4.6440     3.8290     4.2590    22.8300     2.4020    -7.0420 
  192.8750    21.2140     4.6000     3.7490     4.2120    22.9490     2.3780    -6.8100 
  193.0000    23.4880     4.5970     3.7060     4.2780    23.0650     2.3570    -6.6540 
  193.1250    25.7570     4.6090     3.6900     4.3010    23.0690     2.3450    -6.6280 
  193.2500    25.4180     4.6140     3.6860     4.3400    22.9830     2.3480    -6.6260 
  193.3750    24.5700     4.6080     3.6860     4.3800    22.8740     2.3660    -6.6750 
  193.5000    26.2830     4.5890     3.6840     4.2550    22.8160     2.3920    -6.7810 
  193.6250    28.8890     4.5560     3.6740     4.1130    22.8060     2.4070    -6.8940 
  193.7500    28.8870     4.5220     3.6600     4.0610    22.7900     2.4060    -7.0530 
  193.8750    27.9970     4.5160     3.6580     4.1330    22.7880     2.3940    -7.2340 
  194.0000    29.1760     4.5790     3.6930     4.2700    22.8520     2.3810    -7.3730 
  194.1250    32.0770     4.7590     3.8000     4.2810    22.9600     2.3760    -7.5020 
  194.2500    34.6940     5.0360     3.9740     4.2340    22.9730     2.3690    -7.6230 
  194.3750    36.4400     5.3650     4.1980     4.2810    22.9640     2.3470    -7.7150 
  194.5000    37.8000     5.6750     4.4350     4.3820    22.9510     2.3040    -7.7750 
  194.6250    40.4360     5.8710     4.6300     4.6730    22.9400     2.2550    -7.8080 
  194.7500    45.2690     5.9270     4.7450     4.8110    22.9520     2.2220    -7.8020 
  194.8750    51.2820     5.8550     4.7640     4.8480    22.9860     2.2160    -7.7410 
  195.0000    55.5130     5.6970     4.6940     5.0410    22.9340     2.2370    -7.6640 
  195.1250    56.1770     5.4950     4.5600     5.4360    22.8030     2.2740    -7.5510 
  195.2500    55.0350     5.2910     4.4050     5.3400    22.6980     2.3060    -7.4170 
  195.3750    50.5870     5.1030     4.2470     4.9830    22.6790     2.3290    -7.2910 
  195.5000    43.2090     4.9360     4.0960     4.6170    22.7460     2.3450    -7.1870 
  195.6250    36.6860     4.7970     3.9610     4.4600    22.7920     2.3570    -7.0990 
  195.7500    33.3910     4.6950     3.8550     4.4110    22.8060     2.3640    -7.0470 
  195.8750    32.1290     4.6530     3.8020     4.3780    22.8010     2.3690    -7.0630 
  196.0000    32.3450     4.7050     3.8240     4.3510    22.7920     2.3750    -7.1190 
  196.1250    34.4840     4.9090     3.9600     4.4510    22.7850     2.3860    -7.2550 
