~V
VERS. 2.00: Ver 2.00
~W
STRT.M 58.0000:
STOP.M 244.0000:
STEP.M 0.1250:
NULL. -999.2500:
UWI. F10638:
~C
DEPT.M :
SP.MV :
GR.API :
RML.OHMM :
RI. :
RXO.OHMM :
CALI.CM :
DEN.GM/CC :
~A
# ...
   91.7500   -41.2960    53.4380    12.8700     9.2000    12.9390    24.7880     2.1080 
   91.8750   -40.9270    54.8070    13.0570     9.3910    12.8310    24.6310     2.1270 
   92.0000   -40.5600    55.3440    12.7620     9.2780    12.6910    24.3770     2.1560 
   92.1250   -40.1990    56.5060    12.1460     8.9190    12.5670    24.2480     2.1790 
   92.2500   -39.8610    57.9350    11.4830     8.4690    12.7810    24.2230     2.1820 
   92.3750   -39.5680    58.1880    11.0220     8.0960    13.0250    24.1960     2.1640 
   92.5000   -39.2690    57.9540    10.7910     7.8660    13.2130    24.1270     2.1440 
   92.6250   -38.9600    56.2250    10.7310     7.7770    13.2550    24.0560     2.1310 
   92.7500   -38.6820    52.5770    10.7420     7.7890    13.0120    24.0530     2.1230 
   92.8750   -38.4240    50.8550    10.7460     7.8430    12.7110    24.0330     2.1200 
   93.0000   -38.0900    52.5690    10.7480     7.8990    12.7060    24.0140     2.1220 
   93.1250   -37.6680    55.3450    10.7690     7.9540    13.0080    24.0360     2.1300 
   93.2500   -37.2040    56.2700    10.8040     8.0020    13.3840    24.0730     2.1390 
   93.3750   -36.7140    56.7640    10.8230     8.0270    13.7110    24.0540     2.1430 
   93.5000   -36.1820    57.3110    10.7980     8.0210    14.0080    24.0750     2.1400 
   93.6250   -35.5940    55.3810    10.7100     7.9780    14.0900    24.2170     2.1340 
   93.7500   -34.9760    51.9500    10.5410     7.8970    13.7620    24.4180     2.1310 
   93.8750   -34.3330    50.7170    10.2740     7.7710    13.0340    24.4420     2.1420 
   94.0000   -33.6420    51.1190     9.9990     7.6340    12.3730    24.3140     2.1620 
   94.1250   -32.8680    50.9650     9.9260     7.5850    12.0800    24.2370     2.1770 
   94.2500   -32.0020    50.2590    10.3660     7.7920    12.1880    24.2640     2.1700 
   94.3750   -30.9870    51.5230    11.7190     8.5330    12.2310    24.3050     2.1390 
   94.5000   -29.8110    54.1620    13.7870     9.8070    12.1050    24.2420     2.1120 
   94.6250   -28.5010    55.8400    16.0280    11.4030    13.4250    24.0320     2.1260 
   94.7500   -27.1130    55.5800    17.3710    12.6660    18.4270    23.8650     2.2060 
   94.8750   -25.7050    55.8530    16.2800    12.3820    26.7630    24.0050     2.3360 
   95.0000   -24.3620    59.4720    13.3700    10.6690    23.9870    24.2370     2.4330 
   95.1250   -23.1380    65.4580    10.1050     8.4330    13.1090    24.3810     2.4580 
   95.2500   -22.0820    71.3300     7.6090     6.5000     7.7640    24.4240     2.4240 
   95.3750   -21.2690    75.6850     6.2840     5.2740     6.1370    24.4730     2.3780 
   95.5000   -20.6840    78.3980     5.7100     4.5960     5.9730    24.5100     2.3490 
   95.6250   -20.3560    79.7480     5.6180     4.3400     6.0040    24.5100     2.3380 
   95.7500   -20.2500    79.5970     5.7990     4.3810     5.8250    24.4880     2.3350 
   95.8750   -20.3200    78.0940     6.1430     4.6430     5.7920    24.4770     2.3340 
   96.0000   -20.5030    74.7430     6.5720     5.0270     6.2980    24.4580     2.3310 
   96.1250   -20.7780    73.0840     7.0520     5.4920     6.9440    24.3770     2.3210 
   96.2500   -21.0800    74.5720     7.5090     5.9780     7.8790    24.2210     2.2960 
   96.3750   -21.3240    75.2730     7.7790     6.3450     8.9750    24.0990     2.2610 
   96.5000   -21.4850    73.0490     7.7580     6.4690     9.6800    24.0850     2.2350 
   96.6250   -21.5370    71.6440     7.4220     6.2930     9.5490    24.1460     2.2270 
   96.7500   -21.4750    73.6730     6.8780     5.8730     8.2170    24.2430     2.2390 
   96.8750   -21.3090    76.7490     6.3270     5.3590     7.0400    24.3540     2.2670 
   97.0000   -21.1000    79.0140     5.9270     4.9190     6.0980    24.4270     2.2970 
   97.1250   -20.8950    80.2240     5.7290     4.6180     5.6570    24.4520     2.3180 
   97.2500   -20.6810    79.9290     5.7150     4.4680     5.4780    24.4370     2.3270 
   97.3750   -20.5370    78.3880     5.8370     4.4510     5.9860    24.3880     2.3270 
   97.5000   -20.5530    77.3370     5.9810     4.4870     6.6450    24.3350     2.3270 
   97.6250   -20.6820    77.7040     6.1070     4.5420     6.9880    24.3090     2.3290 
   97.7500   -20.8820    79.5430     6.2560     4.6310     7.1530    24.3100     2.3300 
   97.8750   -21.1840    78.8660     6.6440     4.8670     7.5020    24.3150     2.3140 
   98.0000   -21.5400    73.6920     7.5120     5.3700     8.4920    24.3020     2.2870 
   98.1250   -21.8420    67.4420     9.1090     6.2950     9.5880    24.3220     2.2680 
   98.2500   -22.0770    63.9700    11.5330     7.7700    12.1130    24.3600     2.2880 
   98.3750   -22.2870    63.1600    14.4950     9.8040    17.3040    24.3870     2.3810 
   98.5000   -22.5100    61.6160    16.8630    11.7490    24.0800    24.4000     2.5150 
   98.6250   -22.7740    59.6370    17.5190    12.7550    27.9700    24.3790     2.6160 
   98.7500   -23.0770    58.0950    16.1850    12.3740    27.7720    24.3050     2.6150 
   98.8750   -23.4160    59.1770    13.8260    11.0140    20.2200    24.1650     2.5220 
   99.0000   -23.7940    62.6370    11.8740     9.6750    14.5380    24.0390     2.4050 
   99.1250   -24.2090    65.1460    10.7400     8.7400    12.7180    23.9880     2.2990 
   99.2500   -24.6330    64.9520    10.3340     8.2720    13.4990    23.9890     2.2250 
   99.3750   -25.0120    64.3040    10.4410     8.2320    13.9440    23.9940     2.1980 
   99.5000   -25.2970    64.7620    10.7250     8.4060    13.4890    23.9780     2.1980 
   99.6250   -25.4640    64.8880    11.0400     8.6650    12.8200    23.9580     2.2080 
   99.7500   -25.5170    63.4890    11.3130     8.9150    12.2700    23.9380     2.2140 
   99.8750   -25.4280    62.1030    11.4490     9.0560    12.3550    23.9040     2.2070 
  100.0000   -25.1900    63.9950    11.3090     8.9790    12.3730    23.8360     2.1930 
  100.1250   -24.8190    67.7520    10.7200     8.5570    12.0950    23.7970     2.1830 
  100.2500   -24.4050    71.4800     9.6250     7.7380    11.3550    23.8220     2.1860 
  100.3750   -23.9820    74.2250     8.1790     6.6200     9.3780    23.9660     2.2110 
  100.5000   -23.5380    76.3100     6.7800     5.5020     7.2360    24.1900     2.2480 
  100.6250   -23.1710    77.6620     5.6920     4.5760     5.9740    24.3740     2.2850 
  100.7500   -22.9510    79.4060     5.1130     3.9770     5.3680    24.4480     2.3100 
  100.8750   -22.9070    80.8020     5.3360     3.8880     5.2290    24.4600     2.3160 
  101.0000   -23.0400    80.9440     6.4080     4.3320     5.9620    24.4820     2.3270 
  101.1250   -23.3920    79.7310     8.4550     5.4150     8.3180    24.5110     2.3730 
  101.2500   -23.9700    76.6850    11.4530     7.2080    14.6310    24.5140     2.4670 
  101.3750   -24.7600    69.0060    14.7240     9.5190    34.0320    24.4480     2.5570 
  101.5000   -25.6630    60.8480    16.6260    11.3010    47.9940    24.3340     2.5620 
  101.6250   -26.5980    58.5720    16.1660    11.6520    35.3620    24.2200     2.4760 
  101.7500   -27.5030    60.5070    13.9790    10.6830    18.1080    24.1160     2.3450 
  101.8750   -28.2890    59.9270    11.6470     9.2730    13.2710    24.0590     2.2230 
  102.0000   -28.9090    59.4210    10.0780     8.1310    12.0810    24.0940     2.1520 
  102.1250   -29.3700    61.4350     9.3300     7.4080    12.2680    24.1800     2.1390 
  102.2500   -29.6570    64.4280     9.1780     7.0660    11.8380    24.2360     2.1630 
  102.3750   -29.7480    64.0720     9.3800     7.0330    10.7280    24.1890     2.1920 
  102.5000   -29.7260    60.6490     9.7270     7.1760    10.5420    24.0390     2.2040 
  102.6250   -29.5990    57.5590    10.1830     7.4570    11.6700    23.8960     2.1990 
  102.7500   -29.3500    56.4550    10.7230     7.8430    12.6380    23.9210     2.1850 
  102.8750   -28.9550    59.0380    11.2360     8.2570    12.5140    24.0670     2.1690 
