~V
VERS. 2.00: Ver 2.00
~W
STRT.M 50.0000:
STOP.M 219.0000:
STEP.M 0.1250:
NULL. -999.2500:
UWI. F10688:
~C
DEPT.M :
SP.MV :
DEN.GM/CC :
GR.API :
RML.OHMM :
RI. :
RXO.OHMM :
CALI.CM :
~A
# ...
  173.7500   -13.8550     2.1750    67.7320    28.9930    24.9760    26.0880    25.6770 
  173.8750   -14.0660     2.1850    66.3550    29.7300    25.7210    28.4330    25.6770 
  174.0000   -14.2520     2.2060    66.8420    29.6980    25.8280    28.4040    25.6780 
  174.1250   -14.3800     2.2290    65.4310    29.0330    25.3380    25.9840    25.6900 
  174.2500   -14.4650     2.2360    61.8630    28.2300    24.6530    23.7780    25.7230 
  174.3750   -14.5140     2.2250    60.9940    27.5360    24.0250    23.1190    25.7720 
  174.5000   -14.5200     2.2030    62.7970    27.0000    23.5620    23.0820    25.8340 
  174.6250   -14.5130     2.1850    63.1750    26.5270    23.2350    23.1030    25.9030 
  174.7500   -14.4560     2.1790    64.6050    26.0040    22.9160    23.5040    25.9700 
  174.8750   -14.3580     2.1810    66.7940    25.4190    22.5470    23.7180    26.0300 
  175.0000   -14.2390     2.1840    67.0900    24.8200    22.1350    22.5190    26.0760 
  175.1250   -14.0910     2.1810    64.0960    24.2730    21.7300    20.8580    26.1010 
  175.2500   -13.9250     2.1760    62.9260    23.7920    21.3570    20.4470    26.1090 
  175.3750   -13.7540     2.1740    64.6870    23.3360    20.9980    21.1270    26.1130 
  175.5000   -13.5860     2.1780    65.3010    22.8480    20.6070    21.7580    26.1170 
  175.6250   -13.4020     2.1890    63.1420    22.2480    20.1220    21.2700    26.1210 
  175.7500   -13.2570     2.2020    62.5420    21.5360    19.5520    19.9990    26.1260 
  175.8750   -13.1300     2.2110    66.2260    20.7820    18.9600    19.3690    26.1290 
  176.0000   -13.0130     2.2130    71.5970    20.1260    18.4560    18.9300    26.1340 
  176.1250   -12.9500     2.2050    73.1250    19.7810    18.2000    17.9590    26.1360 
  176.2500   -12.9060     2.1930    70.4130    19.7960    18.2270    17.1880    26.1310 
  176.3750   -12.8480     2.1820    66.6160    20.1530    18.5410    17.6560    26.1210 
  176.5000   -12.8480     2.1760    65.1330    20.7590    19.0820    19.2790    26.1060 
  176.6250   -12.8890     2.1790    65.1440    21.3970    19.6910    20.1960    26.0890 
  176.7500   -12.9360     2.1840    64.6990    21.7860    20.1110    20.4640    26.0720 
  176.8750   -13.0480     2.1880    65.2270    21.7470    20.1570    20.4600    26.0570 
  177.0000   -13.1530     2.1900    67.1540    21.2580    19.7790    20.3480    26.0350 
  177.1250   -13.2870     2.1950    69.2570    20.4610    19.0970    19.5810    26.0030 
  177.2500   -13.5220     2.2030    70.7470    19.6900    18.4190    18.0830    25.9610 
  177.3750   -13.7800     2.2140    72.4870    19.1770    17.9420    16.9510    25.9050 
  177.5000   -14.0200     2.2230    73.2460    19.0720    17.7760    16.8430    25.8340 
  177.6250   -14.2520     2.2300    73.0080    19.5060    18.0070    17.8010    25.7550 
  177.7500   -14.4960     2.2390    72.6750    20.3500    18.5380    18.4350    25.6760 
  177.8750   -14.7220     2.2490    69.9480    21.4890    19.2980    19.1650    25.6080 
  178.0000   -14.9540     2.2560    63.9890    22.7690    20.1910    19.7540    25.5590 
  178.1250   -15.1870     2.2540    60.7750    23.9800    21.0760    20.2260    25.5360 
  178.2500   -15.3140     2.2410    62.6270    24.9400    21.8010    21.5260    25.5280 
  178.3750   -15.3760     2.2240    65.9960    25.5240    22.2540    22.5020    25.5430 
  178.5000   -15.4050     2.2080    68.7200    25.6720    22.3750    22.8560    25.5810 
  178.6250   -15.4240     2.2000    70.9790    25.3700    22.1220    22.0590    25.6360 
  178.7500   -15.4600     2.2020    70.7950    24.8770    21.6750    20.6850    25.6970 
  178.8750   -15.5290     2.2090    67.1110    24.4430    21.2340    19.4980    25.7670 
  179.0000   -15.6070     2.2180    62.3310    24.2870    20.9920    18.9450    25.8360 
  179.1250   -15.6740     2.2250    60.2890    24.6200    21.1460    19.5970    25.8930 
  179.2500   -15.8320     2.2270    60.2540    25.4140    21.6960    20.9260    25.9320 
  179.3750   -16.0600     2.2250    60.3940    26.6230    22.6140    22.5480    25.9510 
  179.5000   -16.3330     2.2190    59.5650    28.1060    23.7960    24.3800    25.9520 
  179.6250   -16.6760     2.2100    59.8620    29.6240    25.0560    26.7100    25.9460 
  179.7500   -16.9710     2.1990    61.0610    30.9190    26.1660    28.0940    25.9340 
  179.8750   -17.2610     2.1890    62.1380    31.8400    26.9790    28.8860    25.9200 
  180.0000   -17.5900     2.1840    62.2190    32.3750    27.4420    29.3630    25.9040 
  180.1250   -17.9140     2.1860    60.1860    32.6790    27.6220    29.3210    25.9060 
  180.2500   -18.2310     2.1940    56.6260    33.0580    27.7580    28.5700    25.9090 
  180.3750   -18.6030     2.2030    55.1200    33.6820    27.9910    28.0300    25.9210 
  180.5000   -18.9570     2.2110    59.5630    34.6110    28.3940    28.2200    25.9470 
  180.6250   -19.2580     2.2180    65.3740    35.8810    29.0350    29.0940    25.9850 
  180.7500   -19.6010     2.2270    65.6620    37.4170    29.9040    30.3470    26.0290 
  180.8750   -19.9130     2.2360    62.2900    39.2320    31.0240    32.4890    26.0740 
  181.0000   -20.2150     2.2350    59.5760    41.3910    32.4350    33.7330    26.1170 
  181.1250   -20.5370     2.1980    60.7550    44.0710    34.2270    32.9110    26.1500 
  181.2500   -20.8220     2.1310    63.8440    47.1920    36.3120    34.8680    26.1740 
  181.3750   -21.0940     2.0600    65.8330    50.5340    38.5390    38.8020    26.1860 
  181.5000   -21.3680     2.0110    62.9550    53.6660    40.6470    44.5540    26.1880 
  181.6250   -21.6310     2.0240    55.6590    55.8960    42.2250    46.9500    26.1880 
  181.7500   -21.8600     2.0910    51.8870    57.0550    43.1670    46.7410    26.1890 
  181.8750   -22.0610     2.1690    53.7860    57.3290    43.5680    45.8770    26.1900 
  182.0000   -22.2660     2.2030    57.0980    57.2540    43.7400    46.7420    26.1900 
  182.1250   -22.5010     2.1600    59.3940    57.7200    44.2670    46.9540    26.1830 
  182.2500   -22.7450     2.0810    61.6580    59.5030    45.7440    45.4890    26.1400 
  182.3750   -22.9200     2.0040    62.9490    63.2500    48.7140    45.1340    26.0340 
  182.5000   -23.1080     1.9520    60.7800    69.2760    53.4700    46.6630    25.8750 
  182.6250   -23.3150     1.9800    56.8490    77.3320    59.8870    49.7850    25.6770 
  182.7500   -23.4740     2.1060    54.1060    84.3450    65.8100    59.5530    25.4680 
  182.8750   -23.6510     2.3120    52.7730    84.4910    67.0340    78.4980    25.2710 
  183.0000   -23.7910     2.4690    53.4760    72.0320    58.8690   100.2840    25.1150 
  183.1250   -23.8300     2.3770    56.3770    49.4170    42.0310    85.4070    25.1810 
  183.2500   -23.7940     2.1240    59.7420    29.1180    25.9970    54.9550    25.7130 
  183.3750   -23.7590     1.8360    61.4300    15.6790    14.8160    30.4380    26.7810 
  183.5000   -23.6940     1.5890    60.1860     8.3840     8.3530    15.3680    28.2480 
  183.6250   -23.5790     1.4340    54.4450     5.3740     5.4080     4.5300    29.9660 
  183.7500   -23.5350     1.3640    48.4790     4.1160     4.0500     1.9800    31.6590 
  183.8750   -23.4820     1.3570    46.5510     3.7080     3.5520     1.3780    33.0630 
  184.0000   -23.4310     1.3760    49.6090     3.7390     3.5580     1.4200    33.8370 
  184.1250   -23.4860     1.3890    53.6380     4.0360     3.9090     1.5280    33.7130 
  184.2500   -23.6300     1.3970    56.5980     4.4410     4.4220     1.7160    32.9290 
  184.3750   -23.8280     1.4160    59.6120     4.8980     5.0200     2.0570    31.7780 
  184.5000   -24.1030     1.4740    63.8880     5.4000     5.6720     2.4710    30.4200 
  184.6250   -24.4350     1.5920    68.5000     5.9570     6.3660     2.6940    29.0810 
  184.7500   -24.7590     1.7390    71.5210     6.5210     7.0420     2.5460    28.1270 
  184.8750   -25.0730     1.8570    73.7070     7.0180     7.6070     2.7920    27.6770 
