~V
VERS. 2.00: Ver 2.00
~W
STRT.M 49.0000:
STOP.M 221.0000:
STEP.M 0.1250:
NULL. -999.2500:
UWI. F10615:
~C
DEPT.M :
DEN.GM/CC :
GR.API :
RML.OHMM :
RI. :
RXO.OHMM :
CALI.CM :
SP.MV :
~A
# ...
  127.7500     2.6070    46.5580    37.8620    36.3390    38.5830    23.7440   -12.9180 
  127.8750     2.5990    47.3850    36.2920    34.9450    35.8720    23.6470   -13.0000 
  128.0000     2.5570    48.6910    34.8160    33.5470    34.9780    23.6180   -13.0250 
  128.1250     2.4930    48.8550    33.5680    32.3060    32.2860    23.8600   -13.0000 
  128.2500     2.4280    47.6260    32.6200    31.3240    30.1290    24.4100   -12.9030 
  128.3750     2.3790    46.0680    31.9420    30.6120    28.3560    24.8270   -12.7750 
  128.5000     2.3780    44.9380    31.4290    30.0990    27.9300    24.9370   -12.6880 
  128.6250     2.4150    44.3970    30.9440    29.6490    27.6010    24.8480   -12.6280 
  128.7500     2.4620    43.6470    30.4430    29.2180    28.8950    24.7020   -12.6100 
  128.8750     2.4920    42.9300    29.9390    28.7980    30.1480    24.6500   -12.6650 
  129.0000     2.5010    44.5000    29.5710    28.4610    28.5350    24.6990   -12.8160 
  129.1250     2.5050    46.9750    29.4950    28.3170    27.7880    24.7030   -13.0430 
  129.2500     2.5080    49.2480    29.7940    28.4510    28.4720    24.6250   -13.3350 
  129.3750     2.5070    49.9050    30.4060    28.8640    29.3910    24.5200   -13.6900 
  129.5000     2.4980    47.5390    31.1280    29.4520    29.3910    24.6330   -14.1020 
  129.6250     2.4870    44.2000    31.6970    29.9910    30.3230    24.7120   -14.5540 
  129.7500     2.4840    43.1280    31.9380    30.2970    31.5210    24.7070   -15.0280 
  129.8750     2.4980    44.6970    31.7540    30.2340    30.5030    24.6670   -15.5210 
  130.0000     2.5210    45.1260    31.6280    30.1360    29.9800    24.6530   -16.0080 
  130.1250     2.5330    47.0410    30.8630    29.5070    28.0800    24.6350   -16.4370 
  130.2500     2.5280    48.3920    29.7420    28.5090    26.8290    24.6770   -16.8330 
  130.3750     2.5160    48.7670    28.4290    27.2830    25.9290    24.7010   -17.2240 
  130.5000     2.5040    47.5700    27.1970    26.0670    24.7620    24.7450   -17.5220 
  130.6250     2.4930    46.9120    26.3070    25.1030    23.8180    24.7410   -17.7490 
  130.7500     2.4800    47.2450    25.9030    24.5440    23.8020    24.5840   -17.9530 
  130.8750     2.4650    47.1520    25.9890    24.4450    24.6900    24.2780   -18.0970 
  131.0000     2.4590    47.2690    26.4970    24.8050    26.6320    24.2200   -18.1490 
  131.1250     2.4700    47.3920    27.1480    25.3840    26.6520    24.4120   -18.2010 
  131.2500     2.5030    46.5600    27.7260    25.9760    26.6010    24.4790   -18.2300 
  131.3750     2.5490    44.4520    28.0780    26.3960    27.5410    24.3620   -18.1820 
  131.5000     2.5950    41.5720    28.1520    26.5300    27.1240    24.2370   -18.1430 
  131.6250     2.6270    39.9960    28.1130    26.4960    25.9290    24.1920   -18.1210 
  131.7500     2.6410    40.7170    28.0590    26.3810    26.2410    24.2170   -18.0820 
  131.8750     2.6390    44.4290    27.9880    26.2080    28.1470    24.2970   -18.0540 
  132.0000     2.6290    47.8380    27.7610    25.8990    30.3780    24.3960   -18.0830 
  132.1250     2.6180    47.1730    27.2650    25.3860    29.5720    24.4760   -18.1400 
  132.2500     2.6060    44.2880    26.5200    24.6740    27.3070    24.4970   -18.2140 
  132.3750     2.5880    43.6560    25.7730    23.9270    25.4520    24.4870   -18.3470 
  132.5000     2.5650    47.2300    25.5510    23.5400    25.1860    24.4590   -18.5450 
  132.6250     2.5510    51.2020    26.1160    23.7670    24.3570    24.4330   -18.7350 
  132.7500     2.5600    51.6510    27.4680    24.6790    23.6600    24.4380   -18.9280 
  132.8750     2.6010    49.5050    29.2620    26.0810    24.7890    24.4430   -19.1830 
  133.0000     2.6610    48.8640    30.6680    27.3480    29.6630    24.4190   -19.4200 
  133.1250     2.7030    49.6730    30.9190    27.7430    34.0430    24.4080   -19.5890 
  133.2500     2.7110    49.6090    29.7830    26.9670    32.9220    24.3810   -19.7630 
  133.3750     2.6890    48.8180    27.7460    25.3460    27.3210    24.3520   -19.9100 
  133.5000     2.6560    49.3360    25.8830    23.7260    22.2280    24.3410   -19.9490 
  133.6250     2.6360    49.4670    25.0480    22.8210    21.6600    24.3510   -19.9740 
  133.7500     2.6360    47.4950    25.5530    22.9310    21.0960    24.3520   -19.9890 
  133.8750     2.6530    45.3820    27.2030    24.0310    20.8690    24.2910   -19.9220 
  134.0000     2.6760    45.4290    29.0730    25.5800    22.0740    24.2080   -19.8990 
  134.1250     2.7000    46.4450    29.6920    26.3240    22.6540    24.0920   -19.7940 
  134.2500     2.7300    47.2020    28.1510    25.3140    23.9410    23.9480   -19.6930 
  134.3750     2.7610    45.5550    24.6500    22.5550    25.4160    23.8640   -19.5370 
  134.5000     2.7650    42.7970    20.4990    19.0810    23.0960    23.9470   -19.3630 
  134.6250     2.7290    42.3510    17.1960    16.1720    17.1590    24.0920   -19.2350 
  134.7500     2.6660    44.4600    15.3210    14.3280    13.1830    24.2600   -19.1070 
  134.8750     2.5950    46.8800    14.9020    13.6310    14.8240    24.4410   -18.9700 
  135.0000     2.5340    48.5040    15.8170    14.1050    16.0390    24.5930   -18.8800 
  135.1250     2.4950    50.6250    17.3860    15.3040    16.2410    24.6100   -18.8420 
  135.2500     2.4780    51.0000    19.0200    16.7980    16.7360    24.5740   -18.8310 
  135.3750     2.4760    48.7560    20.1330    18.0370    17.8620    24.5260   -18.8420 
  135.5000     2.4850    46.1060    20.3410    18.5360    19.1540    24.4420   -18.9240 
  135.6250     2.4920    44.1530    20.0470    18.5280    18.8980    24.3240   -19.0280 
  135.7500     2.4930    43.1630    19.6340    18.3260    17.4920    24.2930   -19.1220 
  135.8750     2.4860    43.3240    19.3110    18.1180    16.5650    24.3550   -19.2260 
  136.0000     2.4720    45.8300    19.1030    17.9380    16.6690    24.4530   -19.3600 
  136.1250     2.4610    49.1120    18.8620    17.6980    18.5080    24.4210   -19.4550 
  136.2500     2.4600    51.7970    18.4450    17.2930    20.0660    24.3280   -19.4990 
  136.3750     2.4760    51.8420    17.8010    16.6810    18.5100    24.2530   -19.5560 
  136.5000     2.5080    49.0450    17.0300    15.9400    15.6640    24.3090   -19.5500 
  136.6250     2.5430    47.4210    16.3550    15.2610    15.0940    24.4580   -19.4820 
  136.7500     2.5720    48.0990    15.9160    14.7710    15.2220    24.5900   -19.4110 
  136.8750     2.5840    50.6490    15.7630    14.5340    15.5270    24.6500   -19.3180 
  137.0000     2.5690    53.2260    15.8590    14.5540    14.8560    24.6450   -19.1380 
  137.1250     2.5310    53.7290    16.0080    14.6660    14.7260    24.5950   -18.9540 
  137.2500     2.4830    51.0740    16.0580    14.7230    15.1560    24.4910   -18.7900 
  137.3750     2.4390    48.4130    15.9170    14.6260    15.6210    24.3840   -18.5850 
  137.5000     2.4220    49.7700    15.5440    14.3200    15.2530    24.3430   -18.3870 
  137.6250     2.4300    51.1580    15.0870    13.9140    14.1510    24.3820   -18.2310 
  137.7500     2.4500    49.7080    14.7300    13.5480    13.1380    24.3860   -18.1030 
  137.8750     2.4640    47.5880    14.6500    13.3710    12.9210    24.2430   -17.9990 
  138.0000     2.4640    47.6510    15.0140    13.5530    13.1250    23.9810   -17.9630 
  138.1250     2.4640    49.2220    15.7250    14.0610    13.2590    23.8720   -17.9750 
  138.2500     2.4750    51.0110    16.6390    14.8010    13.9190    23.9240   -18.0190 
  138.3750     2.4990    52.9690    17.5460    15.6010    15.3920    24.0180   -18.0970 
  138.5000     2.5220    53.9110    18.1850    16.2110    16.6370    23.9260   -18.2510 
  138.6250     2.5340    52.4870    18.4660    16.5200    17.1890    23.6700   -18.4330 
  138.7500     2.5300    49.9200    18.3950    16.5120    16.9210    23.4910   -18.5870 
  138.8750     2.5170    48.3760    18.0470    16.2520    16.4270    23.4310   -18.7620 
