~V
VERS. 2.00: Ver 2.00
~W
STRT.M 52.0000:
STOP.M 260.0000:
STEP.M 0.1250:
NULL. -999.2500:
UWI. F10654:
~C
DEPT.M :
SP.MV :
GR.API :
RML.OHMM :
RI. :
RXO.OHMM :
CALI.CM :
DEN.GM/CC :
~A
# ...
  142.0000    -1.5230    60.7810    19.6590    16.8830    11.4580    22.8880     2.1830 
  142.1250    -1.4100    63.1210    20.0790    17.1700    11.7240    22.8700     2.1870 
  142.2500    -1.3520    65.2260    20.4420    17.4200    11.9500    22.8620     2.1870 
  142.3750    -1.3360    63.6740    20.6730    17.5890    12.2020    22.8750     2.1850 
  142.5000    -1.3280    61.3610    20.6730    17.5990    12.4570    22.9020     2.1830 
  142.6250    -1.3350    62.7650    20.4670    17.4510    12.5870    22.9110     2.1820 
  142.7500    -1.3910    66.1400    20.1390    17.1860    12.5060    22.9030     2.1820 
  142.8750    -1.5210    67.0230    19.8410    16.9130    12.1510    22.9010     2.1810 
  143.0000    -1.7150    64.5510    19.8080    16.8220    11.7040    22.9270     2.1780 
  143.1250    -1.9350    63.4120    20.1300    17.0180    11.5190    22.9560     2.1760 
  143.2500    -2.1960    64.6770    20.7820    17.5100    11.9050    22.9900     2.1780 
  143.3750    -2.5360    66.9870    21.6000    18.1910    12.4760    23.0420     2.1860 
  143.5000    -3.0160    68.2520    22.2790    18.8210    13.0130    23.0450     2.2030 
  143.6250    -3.5680    68.5480    22.5970    19.1820    13.3260    22.9390     2.2230 
  143.7500    -4.1470    69.6630    22.4940    19.1880    13.0990    22.6740     2.2430 
  143.8750    -4.7360    72.2430    22.0590    18.8940    12.2410    22.2080     2.2600 
  144.0000    -5.3830    74.2380    21.4410    18.4250    10.9340    21.6510     2.2800 
  144.1250    -6.0640    73.9750    20.7350    17.8890     9.4670    21.0800     2.3040 
  144.2500    -6.6990    72.1650    19.8550    17.2300     8.1690    20.3820     2.3340 
  144.3750    -7.2560    69.9040    18.6590    16.3180     7.1330    19.3700     2.3600 
  144.5000    -7.7360    69.6060    17.0180    15.0050     6.8570    18.1080     2.3710 
  144.6250    -8.1710    72.7960    15.1160    13.4090     6.9430    17.1670     2.3630 
  144.7500    -8.5720    78.0460    13.1820    11.7060     6.9330    16.5550     2.3430 
  144.8750    -8.9280    82.9630    11.4320    10.0860     6.6950    16.1480     2.3200 
  145.0000    -9.1820    85.2720    10.0360     8.7190     6.4400    15.9390     2.3080 
  145.1250    -9.3730    86.6460     8.9250     7.5980     6.1600    15.8160     2.3060 
  145.2500    -9.5750    87.9650     8.0400     6.7100     5.7780    15.6600     2.3060 
  145.3750    -9.7930    89.3240     7.3440     6.0430     5.5710    15.3890     2.2990 
  145.5000    -9.9680    91.9630     6.8720     5.6340     5.6530    14.9890     2.2760 
  145.6250   -10.0760    92.9900     6.6020     5.4400     5.7720    14.6650     2.2490 
  145.7500   -10.1300    89.3630     6.5130     5.4300     5.7220    14.5790     2.2350 
  145.8750   -10.1830    82.4200     6.5450     5.5470     5.5620    14.8270     2.2420 
  146.0000   -10.2780    78.3420     6.6350     5.7290     5.4820    15.5700     2.2720 
  146.1250   -10.3700    78.8880     6.7570     5.9310     5.4580    16.7840     2.3080 
  146.2500   -10.4200    82.1860     6.9680     6.1790     5.5300    18.2350     2.3390 
  146.3750   -10.4400    86.1480     7.3530     6.5300     5.7960    19.4930     2.3600 
  146.5000   -10.4670    87.2510     8.0150     7.0720     6.1430    20.2720     2.3680 
  146.6250   -10.5090    82.9030     8.8790     7.7720     6.6300    20.8900     2.3620 
  146.7500   -10.5300    75.0940     9.8050     8.5470     7.2810    21.4660     2.3370 
  146.8750   -10.4960    70.0500    10.5880     9.2480     7.7770    21.9970     2.2950 
  147.0000   -10.4240    72.4680    10.9680     9.6570     7.2410    22.3000     2.2480 
  147.1250   -10.3660    76.9270    10.9320     9.7210     6.6780    22.3920     2.2130 
  147.2500   -10.3370    77.8890    10.5450     9.4660     6.5990    22.3660     2.1980 
  147.3750   -10.3150    75.6740     9.9460     8.9900     6.6260    22.3300     2.2050 
  147.5000   -10.2630    76.7890     9.2870     8.4190     6.4870    22.3270     2.2260 
  147.6250   -10.2160    81.7260     8.6830     7.8810     6.2230    22.3750     2.2520 
  147.7500   -10.2250    85.6620     8.1810     7.4380     5.9360    22.4870     2.2740 
  147.8750   -10.2600    84.5370     7.8090     7.1220     5.7660    22.6750     2.2880 
  148.0000   -10.2880    80.7030     7.5810     6.9360     5.7870    22.9270     2.2930 
  148.1250   -10.3370    81.0380     7.4220     6.7990     5.8780    23.1700     2.2980 
  148.2500   -10.3920    85.1200     7.2690     6.6450     5.9400    23.3270     2.3060 
  148.3750   -10.4270    88.5680     7.0660     6.4350     5.8440    23.4060     2.3180 
  148.5000   -10.4760    90.4160     6.7740     6.1650     5.5800    23.4480     2.3320 
  148.6250   -10.5170    92.9370     6.4280     5.8840     5.2440    23.4790     2.3440 
  148.7500   -10.4770    93.4970     6.0860     5.6340     5.2300    23.5140     2.3530 
  148.8750   -10.3780    92.1370     5.8250     5.4490     5.3500    23.5490     2.3600 
  149.0000   -10.2540    94.7240     5.7810     5.4010     5.5440    23.5680     2.3600 
  149.1250   -10.0430    97.8700     6.0360     5.5410     5.7120    23.5660     2.3490 
  149.2500    -9.7240    95.3340     6.6810     5.9530     5.9160    23.5490     2.3210 
  149.3750    -9.3770    87.3620     7.7780     6.7200     6.5850    23.5280     2.2760 
  149.5000    -9.0140    80.9660     9.4060     7.9640     8.1630    23.5430     2.2240 
  149.6250    -8.6300    76.6900    11.4010     9.5870    10.2590    23.6150     2.1780 
  149.7500    -8.3120    72.5950    13.6210    11.4820    12.2350    23.7440     2.1490 
  149.8750    -8.1270    68.8820    15.9360    13.5080    13.6860    23.9280     2.1440 
  150.0000    -8.0410    65.7120    18.3150    15.5700    14.8540    23.9880     2.1700 
  150.1250    -8.0580    63.1520    20.8410    17.7000    16.4740    23.9020     2.2260 
  150.2500    -8.2450    60.8630    23.6670    20.0370    18.1370    23.6280     2.3070 
  150.3750    -8.5160    57.6550    26.9170    22.7250    19.7310    23.1710     2.4030 
  150.5000    -8.8010    54.4360    30.6530    25.8540    20.5850    22.7350     2.4940 
  150.6250    -9.1310    54.4890    34.5810    29.1910    19.6600    22.3810     2.5610 
  150.7500    -9.4680    55.7530    38.3200    32.4280    16.7680    21.9770     2.5960 
  150.8750    -9.7200    53.8980    41.3690    35.1660    13.6020    21.3630     2.5940 
  151.0000    -9.9090    50.1390    42.9340    36.7890    11.2450    20.3140     2.5590 
  151.1250   -10.0570    48.0130    42.8990    37.1790     9.6010    19.0470     2.5120 
  151.2500   -10.1150    47.6050    41.4250    36.4170     8.9980    18.0000     2.4670 
  151.3750   -10.1130    47.6500    39.0820    34.9040     8.9210    17.5370     2.4340 
  151.5000   -10.1200    49.1560    36.6990    33.2680     8.8510    17.6850     2.4220 
  151.6250   -10.1310    51.7970    34.8600    32.0000     8.6700    18.2310     2.4280 
  151.7500   -10.1300    53.4300    33.6300    31.1530     8.5700    18.9230     2.4420 
  151.8750   -10.1350    54.5960    32.6950    30.4730     8.9000    19.3660     2.4530 
  152.0000   -10.1780    54.5720    31.3770    29.4020     9.5910    19.4730     2.4440 
  152.1250   -10.2490    53.9530    29.1980    27.5610    10.1190    19.4730     2.4160 
  152.2500   -10.3310    54.0810    26.1190    24.9040    10.0250    19.5180     2.3750 
  152.3750   -10.4650    55.4640    22.6150    21.8060     9.6420    19.6430     2.3370 
  152.5000   -10.6490    57.6010    19.7120    19.0850     9.5340    19.8740     2.3210 
  152.6250   -10.8010    58.4200    18.1650    17.4010     9.7360    20.0890     2.3320 
  152.7500   -10.9420    57.6000    18.3550    17.1380    10.7470    20.2900     2.3670 
  152.8750   -11.1240    56.2600    20.2870    18.4290    13.2130    20.5420     2.4200 
  153.0000   -11.2870    56.0950    23.7000    21.2790    17.1470    20.9510     2.4770 
  153.1250   -11.3900    56.5670    27.4950    24.8290    20.7520    21.4920     2.5220 
