~V
VERS. 2.00: Ver 2.00
~W
STRT.M 54.0000:
STOP.M 246.0000:
STEP.M 0.1250:
NULL. -999.2500:
UWI. F10643:
~C
DEPT.M :
SP.MV :
GR.API :
RML.OHMM :
RI. :
RXO.OHMM :
CALI.CM :
DEN.GM/CC :
~A
# ...
  177.7500   -17.0290    49.7260    34.9490    27.0150    46.2900    23.6380     2.3790 
  177.8750   -17.0160    50.5850    38.5720    30.6250    48.0190    23.4650     2.3990 
  178.0000   -17.0070    50.5110    36.0560    29.7910    40.3950    23.3170     2.3920 
  178.1250   -16.9430    49.7500    29.4240    25.3290    32.6390    23.3370     2.3650 
  178.2500   -16.8570    51.2610    22.0850    19.6160    23.6860    23.4000     2.3320 
  178.3750   -16.7610    54.5540    16.2430    14.6420    14.7120    23.5290     2.3060 
  178.5000   -16.6320    57.2140    12.6210    11.3300     9.5170    23.6400     2.3010 
  178.6250   -16.5450    58.5090    10.4280     9.2160     8.0430    23.6520     2.3110 
  178.7500   -16.4540    60.3700     9.1910     7.9370     7.6780    23.5790     2.3270 
  178.8750   -16.3720    64.9150     8.5460     7.2040     7.6140    23.5240     2.3430 
  179.0000   -16.3220    69.5050     8.2490     6.8410     6.9030    23.4590     2.3630 
  179.1250   -16.3060    70.1340     8.0580     6.6330     6.3710    23.4040     2.3890 
  179.2500   -16.3220    67.6650     7.8970     6.5010     6.1040    23.4210     2.4150 
  179.3750   -16.3500    66.1270     7.7490     6.4100     6.0730    23.5050     2.4330 
  179.5000   -16.3980    66.9750     7.6280     6.3550     5.9930    23.5660     2.4280 
  179.6250   -16.4640    67.8670     7.5380     6.3250     5.9000    23.5700     2.4080 
  179.7500   -16.5530    69.2080     7.4800     6.3150     6.0430    23.6040     2.3860 
  179.8750   -16.6630    71.9860     7.4520     6.3230     6.2260    23.6050     2.3710 
  180.0000   -16.7980    73.9680     7.4710     6.3550     6.1960    23.5260     2.3700 
  180.1250   -16.9570    72.3740     7.5270     6.4030     6.1760    23.4810     2.3800 
  180.2500   -17.1160    69.4780     7.5970     6.4560     6.2270    23.4910     2.3920 
  180.3750   -17.2940    66.9380     7.6490     6.4960     6.3090    23.5540     2.3980 
  180.5000   -17.4620    65.8390     7.6580     6.5140     6.4930    23.5830     2.3940 
  180.6250   -17.5880    65.8620     7.6340     6.5160     6.4720    23.6290     2.3870 
  180.7500   -17.6720    64.2950     7.6060     6.5120     6.2130    23.5710     2.3780 
  180.8750   -17.7410    62.0830     7.6080     6.5140     6.0830    23.3270     2.3680 
  181.0000   -17.7230    64.8690     7.6630     6.5280     6.1610    23.0480     2.3610 
  181.1250   -17.6750    71.1220     7.7500     6.5460     6.1670    22.9040     2.3580 
  181.2500   -17.6080    72.8740     7.8440     6.5550     6.0540    22.8870     2.3650 
  181.3750   -17.4990    67.7330     7.9190     6.5390     6.0500    22.9070     2.3850 
  181.5000   -17.4080    63.9170     7.9390     6.4820     6.1580    22.9000     2.4080 
  181.6250   -17.2800    64.0410     7.9040     6.3910     6.2090    22.8590     2.4180 
  181.7500   -17.1520    65.2520     7.8390     6.2880     6.3170    22.7440     2.4090 
  181.8750   -17.0250    65.5960     7.8200     6.2230     6.6050    22.5650     2.3880 
  182.0000   -16.8910    65.4410     8.0100     6.3050     6.9640    22.5480     2.3680 
  182.1250   -16.7820    65.8980     8.5380     6.6210     7.0290    22.6600     2.3560 
  182.2500   -16.6950    66.2890     9.5450     7.2730     7.4830    22.7200     2.3480 
  182.3750   -16.6240    65.5200    11.1530     8.3650     8.6980    22.6780     2.3370 
  182.5000   -16.6060    61.5200    13.5300    10.0790    11.4030    22.6350     2.3290 
  182.6250   -16.6550    56.7800    16.4530    12.3210    14.6010    22.8020     2.3280 
  182.7500   -16.7410    53.7040    19.5970    14.9170    18.1700    23.0570     2.3340 
  182.8750   -16.8880    53.0010    22.4360    17.4870    20.7850    23.1350     2.3380 
  183.0000   -17.0900    54.0030    24.2330    19.3840    22.4820    23.1820     2.3310 
  183.1250   -17.3160    53.8130    24.9380    20.3810    22.3500    23.3450     2.3130 
  183.2500   -17.5610    53.2530    24.7610    20.5360    21.7580    23.7230     2.2920 
  183.3750   -17.8480    53.6730    24.0520    20.1020    20.9330    23.9940     2.2780 
  183.5000   -18.1270    54.9250    23.2050    19.3990    20.5560    24.0700     2.2740 
  183.6250   -18.3710    55.4190    22.6480    18.8420    19.9680    24.0000     2.2760 
  183.7500   -18.6160    55.0600    22.6720    18.7000    18.9870    23.8950     2.2790 
  183.8750   -18.7900    53.9580    23.4360    19.1270    18.1220    23.7910     2.2790 
  184.0000   -18.9620    50.5950    25.0320    20.2500    18.8650    23.7210     2.2750 
  184.1250   -19.0960    47.8890    27.0780    21.8290    23.2970    23.6690     2.2780 
  184.2500   -19.1940    49.0380    29.1790    23.5910    26.6650    23.5790     2.2900 
  184.3750   -19.2680    52.8390    30.9330    25.2000    27.6600    23.5780     2.3040 
  184.5000   -19.2560    53.6200    32.0370    26.3310    27.1090    23.7300     2.3080 
  184.6250   -19.2290    51.7690    32.7350    27.0690    26.7230    23.8600     2.2990 
  184.7500   -19.1700    50.5090    33.3780    27.6440    26.9760    23.9940     2.2800 
  184.8750   -19.0810    50.5960    34.2970    28.3400    28.1400    24.0290     2.2620 
  185.0000   -18.9750    51.2900    35.6490    29.3470    29.3800    24.0650     2.2550 
  185.1250   -18.8350    51.4930    37.1180    30.4910    30.0970    24.0930     2.2620 
  185.2500   -18.6720    51.5860    38.3060    31.4950    31.7140    24.1330     2.2770 
  185.3750   -18.4970    51.8430    38.8250    32.0590    34.3070    24.1440     2.2940 
  185.5000   -18.3520    53.4390    38.3190    31.8570    32.9680    24.0590     2.3030 
  185.6250   -18.2510    56.1300    37.0760    31.0190    29.9030    23.8880     2.3010 
  185.7500   -18.1670    57.4800    35.4390    29.7510    27.5470    23.7670     2.2930 
  185.8750   -18.1200    55.6690    33.7980    28.3380    26.4980    23.7460     2.2890 
  186.0000   -18.1210    51.9260    32.5360    27.1120    24.2800    23.6750     2.2910 
  186.1250   -18.1760    48.9610    31.7150    26.2200    22.2740    23.4180     2.2900 
  186.2500   -18.2820    47.6970    31.2270    25.6470    21.5090    23.0670     2.2790 
  186.3750   -18.4270    46.8340    30.8520    25.2620    21.2510    23.0540     2.2620 
  186.5000   -18.5900    46.7400    30.3800    24.9110    21.9500    23.5420     2.2490 
  186.6250   -18.7670    49.3650    29.8140    24.5310    22.9690    23.9660     2.2430 
  186.7500   -18.9630    53.2520    29.3310    24.2020    22.6330    24.1680     2.2410 
  186.8750   -19.1920    55.5710    29.2280    24.1170    22.0110    24.2690     2.2360 
  187.0000   -19.3760    56.3270    29.9730    24.6360    23.1330    24.3140     2.2270 
  187.1250   -19.5410    58.4630    31.6590    25.8670    25.6070    24.3840     2.2170 
  187.2500   -19.6790    60.6910    34.2730    27.8340    28.8820    24.4300     2.2090 
  187.3750   -19.7500    59.7840    37.5930    30.3820    33.0700    24.4200     2.2030 
  187.5000   -19.8330    57.4330    41.1690    33.1540    35.7790    24.3460     2.1980 
  187.6250   -19.8600    55.7750    44.4820    35.7080    37.5400    24.2580     2.1920 
  187.7500   -19.8560    54.4660    47.4510    37.9360    40.6400    24.2290     2.1850 
  187.8750   -19.8430    52.7080    50.3680    40.0400    43.8080    24.2730     2.1760 
  188.0000   -19.8040    51.5260    53.8180    42.4830    46.4570    24.3720     2.1650 
  188.1250   -19.7620    50.7050    58.0080    45.5150    49.4510    24.4630     2.1570 
  188.2500   -19.7150    50.6250    62.7480    49.0980    55.4580    24.4840     2.1560 
  188.3750   -19.6680    51.3440    67.4070    52.8630    64.4880    24.4510     2.1640 
  188.5000   -19.6240    50.3850    70.9010    56.1310    71.6310    24.3890     2.1780 
  188.6250   -19.5900    47.7480    72.9550    58.5810    72.2920    24.3780     2.1910 
  188.7500   -19.5320    45.5640    73.9160    60.2510    70.6790    24.3270     2.1950 
  188.8750   -19.4560    45.8790    74.5780    61.4640    67.3490    24.2050     2.1900 
