~V
VERS. 2.00: Ver 2.00
~W
STRT.M 49.0000:
STOP.M 217.0000:
STEP.M 0.1250:
NULL. -999.2500:
UWI. F10685:
~C
DEPT.M :
SP.MV :
DEN.GM/CC :
GR.API :
RML.OHMM :
RI. :
RXO.OHMM :
CALI.CM :
~A
# ...
  150.2500   -13.0920     2.3480    76.0830    29.8460    24.5640    25.6600    24.6770 
  150.3750   -13.2550     2.3600    74.4050    28.5100    23.5020    23.6210    24.6780 
  150.5000   -13.3670     2.3710    70.3090    27.0580    22.1620    22.1210    24.6730 
  150.6250   -13.4430     2.3840    67.4670    25.2910    20.4820    20.3690    24.6750 
  150.7500   -13.5070     2.3980    67.3650    22.8730    18.3750    19.1780    24.6810 
  150.8750   -13.5480     2.4090    69.6580    19.7210    15.8170    15.9370    24.6780 
  151.0000   -13.5620     2.4110    72.8320    16.1260    13.0350    12.4960    24.6250 
  151.1250   -13.5440     2.3940    73.0070    12.7800    10.4880    10.6390    24.3410 
  151.2500   -13.5280     2.3680    70.8570    10.1690     8.4620     8.9260    23.7550 
  151.3750   -13.4440     2.3450    69.9190     8.4470     7.0480     6.9440    23.5270 
  151.5000   -13.3180     2.3330    70.8960     7.5110     6.2140     5.6960    23.5160 
  151.6250   -13.1850     2.3390    69.9480     7.2010     5.9230     5.5230    23.6580 
  151.7500   -12.9850     2.3520    67.7950     7.1770     5.9540     5.6590    23.8460 
  151.8750   -12.7400     2.3630    67.8790     7.2470     6.1840     5.9640    23.9650 
  152.0000   -12.4450     2.3660    70.2010     7.2190     6.4770     6.4810    24.0000 
  152.1250   -12.0560     2.3600    72.1120     7.0020     6.6710     6.7530    24.0030 
  152.2500   -11.6360     2.3500    72.7200     6.7000     6.7040     6.6950    23.9910 
  152.3750   -11.2170     2.3380    70.6890     6.4190     6.6000     6.4170    23.9400 
  152.5000   -10.7730     2.3300    66.7780     6.2340     6.4310     6.1900    23.9080 
  152.6250   -10.3000     2.3290    65.8860     6.2550     6.2980     6.1040    23.8390 
  152.7500    -9.8790     2.3340    69.1910     6.4740     6.2740     6.0990    23.7730 
  152.8750    -9.4990     2.3460    72.2000     6.8710     6.3930     6.3020    23.6770 
  153.0000    -9.1800     2.3620    70.6870     7.3950     6.6560     6.7470    23.6340 
  153.1250    -8.9800     2.3780    66.6320     8.0310     7.0280     7.1810    23.8620 
  153.2500    -8.8130     2.3920    64.9920     8.6300     7.3980     7.4730    24.2710 
  153.3750    -8.6970     2.4010    66.3280     9.0460     7.6620     7.7670    24.3160 
  153.5000    -8.6300     2.4020    68.6880     9.2410     7.7470     8.0880    24.2240 
  153.6250    -8.5570     2.3940    71.0720     9.3510     7.6300     8.0080    24.4510 
  153.7500    -8.4630     2.3810    73.6670     9.6080     7.4550     7.5470    24.7010 
  153.8750    -8.3680     2.3700    76.5010    10.1620     7.3850     7.4040    24.7770 
  154.0000    -8.2640     2.3640    78.2310    11.0160     7.5740     7.7490    24.8140 
  154.1250    -8.1450     2.3670    80.1760    12.1040     8.2220     8.9770    24.9370 
  154.2500    -8.1020     2.3720    80.5720    13.2590     9.3140    11.6360    25.0100 
  154.3750    -8.1190     2.3730    77.9740    14.3700    10.7380    14.8890    25.0900 
  154.5000    -8.1730     2.3660    74.9500    15.2490    12.1900    17.0670    25.0290 
  154.6250    -8.3130     2.3520    75.7050    15.6210    13.1200    15.1040    24.9810 
  154.7500    -8.4470     2.3360    76.9810    15.5070    13.3550    14.4470    24.9450 
  154.8750    -8.5490     2.3220    75.8390    15.0310    13.0320    13.6050    24.8200 
  155.0000    -8.6670     2.3100    74.0100    14.3560    12.4620    12.4390    24.7220 
  155.1250    -8.7390     2.2980    73.3730    13.6080    11.9460    12.4320    24.7030 
  155.2500    -8.7370     2.2880    69.8750    12.8410    11.5480    12.6560    24.7020 
  155.3750    -8.6670     2.2820    64.0750    12.1470    11.2090    11.8300    24.7180 
  155.5000    -8.5570     2.2810    60.9630    11.6720    10.8800    11.3100    24.7600 
  155.6250    -8.4260     2.2860    65.3510    11.6540    10.6110    11.2810    24.7610 
  155.7500    -8.3070     2.2950    71.2270    12.0950    10.5220    10.6690    24.7260 
  155.8750    -8.2340     2.3060    73.0350    13.0560    10.7730    10.4530    24.6880 
  156.0000    -8.1420     2.3180    69.2760    14.6380    11.5270    11.4450    24.6740 
  156.1250    -8.0580     2.3250    63.8090    17.0370    13.0230    14.8060    24.6650 
  156.2500    -8.0170     2.3230    60.4890    19.9990    15.1790    18.2720    24.5740 
  156.3750    -8.0030     2.3100    59.5240    23.1430    17.8730    21.1890    24.4050 
  156.5000    -7.9960     2.2880    59.9620    26.0020    20.7980    22.9370    23.9900 
  156.6250    -8.0020     2.2630    59.5750    28.2210    23.3880    24.0070    23.9810 
  156.7500    -8.0290     2.2430    58.0810    29.9800    25.2660    25.3880    24.2410 
  156.8750    -8.0340     2.2340    55.9800    31.4250    26.3240    25.9070    24.2490 
  157.0000    -8.0810     2.2400    54.1660    32.5210    26.6970    24.5210    24.2000 
  157.1250    -8.1730     2.2690    53.1600    33.0370    26.6610    24.4520    24.5650 
  157.2500    -8.2340     2.3120    51.4140    33.1080    26.5650    23.9020    24.6060 
  157.3750    -8.3130     2.3580    47.8680    32.9730    26.5220    24.2100    24.5680 
  157.5000    -8.3980     2.3920    44.9780    32.8560    26.5480    25.9750    24.6220 
  157.6250    -8.4700     2.4000    46.9350    32.8140    26.6360    29.0640    24.6270 
  157.7500    -8.5540     2.3870    51.1020    32.9000    26.8440    28.0100    24.4290 
  157.8750    -8.6380     2.3630    54.8150    33.4540    27.3880    25.8400    24.2450 
  158.0000    -8.6910     2.3390    55.2160    35.0500    28.6110    27.8400    24.3250 
  158.1250    -8.7190     2.3230    54.3970    38.3560    31.0410    32.9440    24.1050 
  158.2500    -8.7520     2.3080    56.4260    43.0250    34.6300    38.4050    24.1800 
  158.3750    -8.7490     2.2880    59.9640    48.3850    39.1150    48.1500    24.0470 
  158.5000    -8.7400     2.2570    59.1050    53.3770    43.7940    54.7040    23.9830 
  158.6250    -8.7050     2.2230    53.6920    56.7280    47.5180    54.5160    24.1730 
  158.7500    -8.6060     2.2080    51.1270    58.4950    49.9000    50.1710    24.2490 
  158.8750    -8.4840     2.2260    52.8800    58.9750    51.0000    47.9340    24.4550 
  159.0000    -8.3620     2.2740    55.2980    58.2230    50.8680    47.1750    24.5950 
  159.1250    -8.1970     2.3300    55.5880    55.5800    49.0140    48.6300    24.6640 
  159.2500    -7.9770     2.3650    53.3820    51.1570    45.5220    50.3850    24.6100 
  159.3750    -7.7480     2.3680    49.8700    45.4110    40.7310    44.7440    24.4450 
  159.5000    -7.4830     2.3470    48.8130    39.2890    35.4480    34.3020    24.4600 
  159.6250    -7.2300     2.3170    52.3290    34.0070    30.7750    24.5820    24.4100 
  159.7500    -7.0400     2.2880    56.4650    29.9350    27.1360    22.0330    24.4640 
  159.8750    -6.8510     2.2630    57.2990    26.9800    24.4740    21.4780    24.3970 
  160.0000    -6.6710     2.2460    54.5650    24.8470    22.5180    21.6310    24.2020 
  160.1250    -6.5460     2.2440    53.1660    23.3030    21.0730    20.9640    24.2540 
  160.2500    -6.4540     2.2660    55.5570    22.1610    19.9890    18.2820    24.2900 
  160.3750    -6.4130     2.3120    58.8460    21.5300    19.3570    15.4000    24.2150 
  160.5000    -6.4090     2.3710    58.2050    21.5850    19.2990    14.7090    24.0930 
  160.6250    -6.3870     2.4130    54.7030    22.5140    19.9600    17.1980    23.9350 
  160.7500    -6.3840     2.4160    53.1910    23.9790    21.0760    21.5270    23.8820 
  160.8750    -6.4090     2.3830    53.4060    25.5540    22.3450    23.5720    23.7920 
  161.0000    -6.4450     2.3320    54.4240    26.7410    23.4410    22.1450    23.8950 
  161.1250    -6.5030     2.2890    57.0200    27.0890    24.0850    20.4570    24.0450 
  161.2500    -6.5830     2.2600    60.5400    26.7850    24.3480    20.5440    24.0820 
  161.3750    -6.6570     2.2430    63.0570    26.3010    24.3910    21.2570    24.0650 
