~V
VERS. 2.00: Ver 2.00
~W
STRT.M 55.0000:
STOP.M 197.0000:
STEP.M 0.1250:
NULL. -999.2500:
UWI. F10681:
~C
DEPT.M :
DEN.GM/CC :
GR.API :
RML.OHMM :
RI. :
RXO.OHMM :
CALI.CM :
SP.MV :
~A
# ...
   77.5000     2.4820    60.5480    38.8430    29.9680    30.7070    24.1650   -18.6140 
   77.6250     2.3910    60.8160    44.5240    35.3940    32.6220    24.0140   -18.0230 
   77.7500     2.3100    59.2490    46.8080    38.6110    35.8960    23.5930   -17.5060 
   77.8750     2.2520    57.6740    43.4210    37.2810    42.6560    23.1540   -17.0440 
   78.0000     2.2210    61.0920    34.8450    31.1200    40.1520    23.0020   -16.6120 
   78.1250     2.2110    68.7390    24.7830    22.8620    25.6790    22.9950   -16.2550 
   78.2500     2.2070    72.6060    16.8150    15.9240    14.9920    23.0490   -15.9890 
   78.3750     2.2000    71.9860    11.6760    11.1660     9.3580    23.1460   -15.7700 
   78.5000     2.1890    72.8980     8.9300     8.3410     7.1210    23.4070   -15.5380 
   78.6250     2.1910    75.7280     8.1370     7.1220     6.4840    23.6930   -15.3100 
   78.7500     2.2230    74.9700     8.5890     6.9160     6.7820    23.8840   -15.1530 
   78.8750     2.2930    71.2650    10.2010     7.6260     7.5860    24.0470   -15.1240 
   79.0000     2.3860    70.4790    12.9970     9.2850     9.0860    23.8680   -15.2270 
   79.1250     2.4570    74.1980    16.9900    12.0750    12.7650    24.0920   -15.4220 
   79.2500     2.4640    76.1270    21.3430    15.5470    18.5520    24.3910   -15.6930 
   79.3750     2.3970    73.5740    24.9710    18.9570    21.8820    24.4370   -16.0470 
   79.5000     2.2850    68.1130    26.8190    21.3070    22.1530    24.1470   -16.4900 
   79.6250     2.1820    63.6140    26.5490    21.8490    19.2670    23.6070   -16.9680 
   79.7500     2.1260    62.5160    25.8460    21.5320    17.7030    23.0970   -17.3660 
   79.8750     2.1300    62.3700    26.3350    21.5400    17.4350    22.9740   -17.6500 
   80.0000     2.1920    59.8150    29.1480    22.9330    18.3320    22.9160   -17.8390 
   80.1250     2.2940    56.2950    34.9550    26.6780    21.6550    22.8930   -17.9440 
   80.2500     2.3970    54.6640    42.1060    32.0320    29.9960    22.9490   -17.9360 
   80.3750     2.4680    53.8130    47.3930    36.8850    47.6000    23.4940   -17.8050 
   80.5000     2.4850    53.7890    46.2580    37.4870    76.5370    24.2350   -17.6010 
   80.6250     2.4410    57.8650    36.7140    31.1290    68.0200    24.4390   -17.3770 
   80.7500     2.3730    63.8140    25.6160    22.6200    34.3230    24.3160   -17.1800 
   80.8750     2.3100    66.9920    17.1860    15.5900    14.8980    23.9730   -17.0100 
   81.0000     2.2690    66.6110    12.1750    11.0440     8.8820    23.6970   -16.8620 
   81.1250     2.2540    67.1770     9.9830     8.7410     7.8100    23.7790   -16.7390 
   81.2500     2.2530    69.4110     9.1430     7.6150     7.6400    23.8350   -16.6460 
   81.3750     2.2570    70.3390     8.9790     7.1930     7.4470    23.8650   -16.5570 
   81.5000     2.2620    69.0790     9.0280     7.1240     7.3930    23.7530   -16.4170 
   81.6250     2.2670    69.8100     9.0380     7.1740     7.4040    23.8140   -16.1910 
   81.7500     2.2730    73.6810     8.9960     7.2250     7.0720    24.0020   -15.9590 
   81.8750     2.2780    76.9060     8.9670     7.2710     6.5690    24.2130   -15.7640 
   82.0000     2.2820    77.4100     8.9980     7.3220     6.4420    24.4930   -15.5680 
   82.1250     2.2810    77.8650     9.0990     7.3790     7.3280    24.6240   -15.3580 
   82.2500     2.2730    78.7040     9.2200     7.4290     8.2370    24.5650   -15.1840 
   82.3750     2.2590    76.9550     9.3190     7.4490     7.6060    24.3110   -15.0880 
   82.5000     2.2440    73.0780     9.3710     7.4180     6.6530    24.0970   -15.0620 
   82.6250     2.2380    72.8840     9.3820     7.3370     6.6240    24.0010   -15.0830 
   82.7500     2.2490    75.7320     9.3760     7.2410     7.1230    23.9020   -15.0920 
   82.8750     2.2760    78.1440     9.3370     7.1400     7.4450    23.7670   -15.0970 
   83.0000     2.3100    79.4270     9.2330     7.0150     7.4050    23.8130   -15.1230 
   83.1250     2.3310    80.0700     9.0540     6.8320     7.6490    24.0030   -15.1500 
   83.2500     2.3280    79.6560     8.8850     6.6240     8.0640    24.2670   -15.1660 
   83.3750     2.3070    78.8210     8.8410     6.4590     7.8410    24.3160   -15.1850 
   83.5000     2.2810    79.0360     9.0370     6.4250     6.9050    24.3480   -15.2270 
   83.6250     2.2650    80.4230     9.5410     6.6080     6.8530    24.2860   -15.2980 
   83.7500     2.2620    81.2430    10.1660     6.9320     7.5630    24.0800   -15.3790 
   83.8750     2.2650    81.4500    10.6700     7.2740     8.0270    23.8950   -15.4420 
   84.0000     2.2670    81.0100    10.8190     7.4840     7.8800    23.8390   -15.4950 
   84.1250     2.2570    79.5930    10.4800     7.4220     7.8040    23.7790   -15.5770 
   84.2500     2.2300    78.7290     9.9440     7.1760     7.2880    23.8130   -15.6870 
   84.3750     2.1910    77.2990     9.5280     6.9050     6.8760    23.9430   -15.7930 
   84.5000     2.1480    73.5400     9.4730     6.7780     6.9470    24.1520   -15.8740 
   84.6250     2.1210    70.3060     9.9170     6.9400     7.4310    24.2980   -15.9560 
   84.7500     2.1180    69.6350    10.6710     7.3460     7.9060    24.3340   -16.0750 
   84.8750     2.1400    70.6570    11.4860     7.8790     8.5780    24.2440   -16.2120 
   85.0000     2.1770    71.9140    12.0210     8.3240     9.4810    24.0720   -16.3130 
   85.1250     2.2130    71.9020    11.8310     8.3560    10.1590    23.9250   -16.3080 
   85.2500     2.2370    71.7440    10.9730     7.9310    10.1960    23.6490   -16.1970 
   85.3750     2.2480    72.3730     9.7530     7.1910     8.5870    23.4770   -16.0170 
   85.5000     2.2480    77.2350     8.6100     6.3890     7.0710    23.5260   -15.7820 
   85.6250     2.2400    85.5710     7.9620     5.7920     6.3230    23.6250   -15.5030 
   85.7500     2.2310    91.0380     7.8340     5.4860     5.9930    23.7540   -15.2080 
   85.8750     2.2240    90.4100     8.1350     5.4790     5.9480    23.7880   -14.9410 
   86.0000     2.2220    85.7860     8.6720     5.7060     6.2330    23.7590   -14.7320 
   86.1250     2.2280    81.6820     9.1390     6.0320     6.8080    23.7270   -14.6040 
   86.2500     2.2370    79.1410     9.3170     6.2670     7.2870    23.6130   -14.5190 
   86.3750     2.2440    77.5640     9.1780     6.3200     7.4730    23.5610   -14.4610 
   86.5000     2.2400    77.8710     8.8400     6.2000     7.0920    23.7680   -14.4700 
   86.6250     2.2220    80.7570     8.5230     6.0080     6.5610    24.0800   -14.5230 
   86.7500     2.1960    81.8600     8.4060     5.8900     6.3360    24.1700   -14.5700 
   86.8750     2.1710    78.7490     8.5370     5.9170     6.4850    24.0320   -14.6040 
   87.0000     2.1580    75.4550     8.8470     6.0880     6.6450    24.0150   -14.6590 
   87.1250     2.1650    76.1750     9.1380     6.3240     6.8760    23.9770   -14.7760 
   87.2500     2.1840    76.5500     9.2270     6.4860     7.4370    23.6410   -14.9270 
   87.3750     2.2030    73.2770     9.0890     6.5050     8.3130    23.3300   -15.0100 
   87.5000     2.2100    72.2260     8.8990     6.4250     8.3430    23.2380   -14.9760 
   87.6250     2.1980    78.0220     9.0320     6.4290     7.4670    23.3870   -14.8770 
   87.7500     2.1780    81.3500     9.6490     6.6660     7.0620    23.4880   -14.7660 
   87.8750     2.1630    77.3540    10.6870     7.1760     7.8990    23.3710   -14.5860 
   88.0000     2.1620    69.5210    11.8680     7.8610     9.5260    23.3340   -14.2810 
   88.1250     2.1780    66.0470    12.6040     8.4110    11.2040    23.6810   -13.8720 
   88.2500     2.2020    68.7340    12.4870     8.4920    11.3280    23.9590   -13.4570 
   88.3750     2.2250    74.8960    11.5040     8.0050     9.4500    24.1460   -13.0960 
   88.5000     2.2410    81.0510    10.1030     7.1650     7.1230    24.1780   -12.7970 
   88.6250     2.2430    80.4920     8.9450     6.3550     6.6670    24.0060   -12.5030 
