~V
VERS. 2.00: Ver 2.00
~W
STRT.M 58.0000:
STOP.M 272.0000:
STEP.M 0.1250:
NULL. -999.2500:
UWI. F10670:
~C
DEPT.M :
DEN.GM/CC :
GR.API :
RML.OHMM :
RI. :
RXO.OHMM :
CALI.CM :
SP.MV :
~A
# ...
  170.5000     2.5730    56.7320    20.1290    18.0480    14.8550    23.5790   -19.0310 
  170.6250     2.5600    55.6210    19.3160    17.3360    14.5030    23.4440   -19.1920 
  170.7500     2.5400    55.8990    18.7450    16.8220    14.8640    23.3350   -19.2950 
  170.8750     2.5090    55.7090    18.2760    16.3740    15.5770    23.1980   -19.3600 
  171.0000     2.4750    56.2370    17.7120    15.8060    14.9570    22.9460   -19.3530 
  171.1250     2.4510    59.3120    17.0160    15.0810    14.1480    22.7140   -19.3450 
  171.2500     2.4400    61.9260    16.3020    14.2970    12.9650    22.6170   -19.3280 
  171.3750     2.4370    60.6450    15.7540    13.6280    11.7490    22.6680   -19.3180 
  171.5000     2.4290    56.1040    15.5830    13.2970    11.7610    22.9260   -19.2860 
  171.6250     2.4130    53.8600    15.7430    13.3190    12.2910    23.3130   -19.2350 
  171.7500     2.3970    54.2180    16.1120    13.6230    12.9850    23.6430   -19.1390 
  171.8750     2.3890    55.5970    16.4890    14.0470    14.1340    23.7050   -19.0060 
  172.0000     2.3950    56.7360    16.6140    14.3380    14.2400    23.4670   -18.8770 
  172.1250     2.4120    57.5090    16.4240    14.3530    13.3310    23.1650   -18.7440 
  172.2500     2.4310    58.2170    15.9840    14.0890    12.2040    22.9270   -18.6070 
  172.3750     2.4510    58.1470    15.4660    13.6610    11.3420    22.7780   -18.4690 
  172.5000     2.4660    57.6180    15.1040    13.2540    10.7750    22.6870   -18.3810 
  172.6250     2.4770    57.2960    15.0120    13.0040    10.6770    22.6290   -18.3290 
  172.7500     2.4860    56.1780    15.2020    12.9530    10.7530    22.6480   -18.3680 
  172.8750     2.4960    54.2560    15.5900    13.0720    11.1830    22.8570   -18.4940 
  173.0000     2.5070    54.1510    15.7830    13.2860    12.0820    23.2300   -18.6930 
  173.1250     2.5190    55.1930    15.5390    13.4770    12.5700    23.5520   -18.9030 
  173.2500     2.5260    55.5360    15.0870    13.5840    13.0260    23.7500   -19.1250 
  173.3750     2.5270    55.1730    14.7420    13.5900    13.4990    23.8900   -19.3480 
  173.5000     2.5240    56.2230    14.4940    13.5000    13.3410    24.0520   -19.5370 
  173.6250     2.5230    57.1870    14.2180    13.3560    13.0310    24.1170   -19.7140 
  173.7500     2.5250    56.2320    13.9560    13.1770    13.2110    24.1230   -19.8550 
  173.8750     2.5290    55.4560    13.7290    12.9760    13.4450    24.1120   -19.9580 
  174.0000     2.5310    56.1540    13.5770    12.7810    12.6170    24.0500   -20.0390 
  174.1250     2.5300    56.7330    13.5540    12.6530    11.8410    23.8890   -20.0930 
  174.2500     2.5270    55.8640    13.7440    12.6750    11.6050    23.6810   -20.1140 
  174.3750     2.5280    54.6310    14.2320    12.9350    11.8670    23.4970   -20.1290 
  174.5000     2.5350    55.2680    15.0920    13.5350    12.5350    23.4040   -20.1540 
  174.6250     2.5410    57.0520    16.1330    14.3560    13.8230    23.3470   -20.2210 
  174.7500     2.5440    58.8580    17.0810    15.1990    15.5730    23.3280   -20.2970 
  174.8750     2.5420    59.9320    17.6050    15.7850    16.4180    23.3240   -20.3490 
  175.0000     2.5350    60.2990    17.3720    15.7910    16.4410    23.2860   -20.3670 
  175.1250     2.5240    60.0840    16.5860    15.2960    15.6490    23.1950   -20.3920 
  175.2500     2.5050    61.2990    15.5580    14.5050    13.8500    23.0890   -20.3930 
  175.3750     2.4760    64.2540    14.6120    13.6780    11.8200    23.0220   -20.3800 
  175.5000     2.4440    66.6360    14.0080    13.0510    11.1040    22.9160   -20.3510 
  175.6250     2.4200    66.6050    13.7190    12.6610    12.0440    22.7670   -20.2880 
  175.7500     2.4120    65.2650    13.6660    12.4720    13.9550    22.7530   -20.2120 
  175.8750     2.4210    64.4380    13.7490    12.4140    14.5600    23.0120   -20.1660 
  176.0000     2.4360    63.6020    13.8910    12.4300    12.9200    23.3650   -20.1660 
  176.1250     2.4460    63.6990    14.0450    12.4830    12.3160    23.7010   -20.2390 
  176.2500     2.4470    64.6290    14.1940    12.5740    12.5210    23.9850   -20.4180 
  176.3750     2.4380    64.1470    14.3200    12.7080    13.1990    24.1210   -20.6790 
  176.5000     2.4280    60.9700    14.3840    12.8690    14.1790    24.1390   -21.0280 
  176.6250     2.4260    57.5670    14.3820    13.0180    14.0460    24.1370   -21.3840 
  176.7500     2.4340    56.3220    14.3330    13.1290    13.5410    24.1300   -21.7670 
  176.8750     2.4460    57.2280    14.2800    13.2010    13.1300    24.1100   -22.1680 
  177.0000     2.4500    58.1120    14.2800    13.2560    13.1300    24.0460   -22.6230 
  177.1250     2.4440    57.3810    14.3500    13.3170    12.9310    23.8290   -23.0650 
  177.2500     2.4320    55.7350    14.4780    13.3820    12.5730    23.3860   -23.5210 
  177.3750     2.4240    53.9810    14.6260    13.4320    12.4380    22.8350   -23.9810 
  177.5000     2.4260    53.7410    14.7350    13.4380    12.4520    22.5820   -24.4490 
  177.6250     2.4310    55.6930    14.7780    13.3950    12.8660    22.8520   -24.9630 
  177.7500     2.4320    58.3940    14.7660    13.3220    13.1200    23.4150   -25.5050 
  177.8750     2.4280    60.6670    14.7640    13.2730    13.3660    23.7970   -26.0800 
  178.0000     2.4220    62.0470    14.9430    13.3970    12.8490    23.8690   -26.6390 
  178.1250     2.4190    63.3380    15.4650    13.8400    13.2660    23.8040   -27.1820 
  178.2500     2.4190    63.6430    16.4960    14.7610    14.0050    23.6700   -27.6660 
  178.3750     2.4170    63.7360    18.1420    16.2670    14.2480    23.4370   -28.1000 
  178.5000     2.4040    63.9310    20.4500    18.4220    15.6340    23.2050   -28.4910 
  178.6250     2.3780    63.6890    22.9870    20.8580    19.3770    23.1030   -28.8480 
  178.7500     2.3440    62.5830    25.2020    23.1030    24.6590    23.0870   -29.1730 
  178.8750     2.3100    61.2660    26.4950    24.6140    29.0610    23.1190   -29.4620 
  179.0000     2.2870    61.5660    26.3090    24.7990    31.0730    23.2780   -29.6770 
  179.1250     2.2780    63.3620    25.0840    23.9060    31.4370    23.5880   -29.8340 
  179.2500     2.2800    66.8540    23.3740    22.3660    31.3970    23.9130   -29.9640 
  179.3750     2.2830    69.6330    21.7290    20.7120    29.5090    24.0110   -30.0600 
  179.5000     2.2780    69.5810    20.5470    19.4260    24.2550    23.7890   -30.1160 
  179.6250     2.2660    70.0470    19.7640    18.5750    19.4650    23.4110   -30.1570 
  179.7500     2.2530    72.3570    19.1840    18.0310    18.4180    23.0590   -30.1850 
  179.8750     2.2500    73.6260    18.5420    17.5480    21.8390    22.8190   -30.1700 
  180.0000     2.2610    70.0540    17.5700    16.8340    25.0230    22.8300   -30.1480 
  180.1250     2.2720    65.5010    16.3090    15.8340    21.5590    23.0190   -30.1270 
  180.2500     2.2720    64.2480    14.9500    14.6620    15.8440    23.2860   -30.0920 
  180.3750     2.2550    66.2000    13.7430    13.5250    12.4560    23.5470   -30.0540 
  180.5000     2.2310    68.9520    12.9500    12.6690    11.6160    23.6670   -30.0170 
  180.6250     2.2160    70.1440    12.5570    12.1470    11.4300    23.6940   -29.9380 
  180.7500     2.2150    69.9820    12.4810    11.9350    11.4310    23.6860   -29.8130 
  180.8750     2.2220    69.8540    12.5870    11.9410    11.5850    23.6850   -29.6570 
  181.0000     2.2250    69.9630    12.7310    12.0640    11.6070    23.6580   -29.4710 
  181.1250     2.2210    69.8840    12.8210    12.2020    11.7160    23.4860   -29.2630 
  181.2500     2.2190    69.3310    12.8390    12.3250    11.5870    23.0830   -29.0370 
  181.3750     2.2260    69.2660    12.8030    12.4310    11.1960    22.5420   -28.7840 
  181.5000     2.2420    70.2420    12.7460    12.5190    11.0190    22.2420   -28.4560 
  181.6250     2.2550    71.8990    12.6960    12.5830    10.8980    22.2400   -28.0700 
