~V
VERS. 2.00: Ver 2.00
~W
STRT.M 50.0000:
STOP.M 217.0000:
STEP.M 0.1250:
NULL. -999.2500:
UWI. F10606:
~C
DEPT.M :
DEN.GM/CC :
GR.API :
RML.OHMM :
RI. :
RXO.OHMM :
CALI.CM :
SP.MV :
~A
# ...
  106.2500     2.1430    66.5930    27.6480    25.1900    26.8080    23.8420   -12.5730 
  106.3750     2.1330    65.8270    27.2900    24.7000    25.7410    24.0150   -12.6430 
  106.5000     2.1230    67.2590    27.7660    24.9240    26.6380    24.1580   -12.7010 
  106.6250     2.1160    69.0120    28.7320    25.7310    29.4570    24.0630   -12.7870 
  106.7500     2.1190    67.0170    29.4780    26.5740    35.4530    23.9840   -12.8540 
  106.8750     2.1340    63.1830    29.5610    27.0380    38.8000    23.9220   -12.8940 
  107.0000     2.1560    61.6960    28.9580    26.9750    36.2290    23.9120   -12.9390 
  107.1250     2.1730    64.3100    28.2490    26.6960    28.7660    24.0280   -12.9470 
  107.2500     2.1760    67.4260    28.2170    26.8240    26.3810    24.1860   -12.9420 
  107.3750     2.1680    68.4190    29.1420    27.6880    29.5830    24.2670   -12.9150 
  107.5000     2.1540    67.4710    30.6990    29.1820    33.1820    24.2840   -12.8840 
  107.6250     2.1450    65.8550    31.6980    30.4320    35.7380    24.2680   -12.8080 
  107.7500     2.1440    63.7990    30.8320    30.1030    36.8730    24.2450   -12.7440 
  107.8750     2.1560    62.2260    27.5920    27.4480    33.8470    24.1510   -12.6660 
  108.0000     2.1820    63.1250    22.7100    22.9970    26.0120    24.0360   -12.5550 
  108.1250     2.2220    66.1220    17.8150    18.2930    18.2780    23.9730   -12.4370 
  108.2500     2.2630    68.4070    14.0330    14.5070    13.3460    24.0000   -12.2710 
  108.3750     2.2940    70.1130    11.5980    11.9010    10.7080    24.0710   -12.0820 
  108.5000     2.3070    73.2030    10.3950    10.3990     9.3970    24.1300   -11.8650 
  108.6250     2.2970    74.4570    10.3590     9.9780     9.6470    24.1250   -11.6640 
  108.7500     2.2690    72.4560    11.1240    10.3320    11.0460    24.0920   -11.4290 
  108.8750     2.2350    71.6200    12.5520    11.3550    12.8770    24.1210   -11.1660 
  109.0000     2.1970    73.5440    14.5000    12.9340    14.6370    24.2850   -10.9310 
  109.1250     2.1620    73.9560    16.8270    14.9700    17.3180    24.5120   -10.6830 
  109.2500     2.1350    71.3870    19.2720    17.2090    20.2420    24.7050   -10.4640 
  109.3750     2.1180    67.3250    21.6890    19.4940    22.3390    24.8280   -10.2740 
  109.5000     2.1120    62.3220    23.9820    21.6940    24.6230    24.9480   -10.1010 
  109.6250     2.1150    56.6850    26.0260    23.6350    28.1410    25.1620    -9.9620 
  109.7500     2.1220    53.8130    27.7720    25.2200    31.6360    25.4240    -9.8360 
  109.8750     2.1320    53.1390    29.1730    26.3800    33.3360    25.5690    -9.7640 
  110.0000     2.1430    52.3930    30.2340    27.1280    33.4140    25.5980    -9.6860 
  110.1250     2.1530    51.6180    30.9790    27.5040    33.1600    25.5160    -9.6500 
  110.2500     2.1600    52.2590    31.5690    27.6960    33.0320    25.4620    -9.6400 
  110.3750     2.1630    54.7790    32.0950    27.8190    33.2030    25.5000    -9.6270 
  110.5000     2.1590    57.8130    32.6000    27.9390    33.6120    25.6030    -9.6070 
  110.6250     2.1490    58.3590    33.0600    28.0680    33.2760    25.7110    -9.5550 
  110.7500     2.1360    57.0470    33.4470    28.1810    32.8950    25.7830    -9.4970 
  110.8750     2.1240    55.6330    33.7290    28.2510    32.3960    25.8260    -9.4160 
  111.0000     2.1160    54.0520    33.8730    28.2510    32.1120    26.0030    -9.3750 
  111.1250     2.1180    52.7770    33.8250    28.1410    32.5900    26.2270    -9.3260 
  111.2500     2.1270    52.0990    33.6410    27.9450    32.5010    26.2930    -9.2900 
  111.3750     2.1360    51.2590    33.4740    27.7390    32.3670    26.1520    -9.3120 
  111.5000     2.1400    51.0050    33.6440    27.7150    32.1700    25.9490    -9.3870 
  111.6250     2.1430    52.7280    34.7150    28.2680    31.6400    25.7320    -9.5550 
  111.7500     2.1610    54.6550    36.6960    29.4960    29.8140    25.5400    -9.8080 
  111.8750     2.2070    54.9820    39.2130    31.2260    27.4770    25.1970   -10.1300 
  112.0000     2.2800    54.9950    41.4800    32.9590    26.8140    24.5560   -10.5100 
  112.1250     2.3570    56.8140    42.2540    33.8130    30.7900    23.9330   -10.9390 
  112.2500     2.4050    56.5860    41.3360    33.5090    34.7710    23.7330   -11.4140 
  112.3750     2.4160    53.2100    39.3580    32.3690    33.1440    23.8210   -11.8880 
  112.5000     2.4010    49.7300    37.5000    31.1630    27.2040    23.9670   -12.3530 
  112.6250     2.3780    49.9780    37.0080    30.8170    29.0430    24.1300   -12.7820 
  112.7500     2.3560    52.1960    37.8250    31.5050    33.6460    24.2570   -13.1560 
  112.8750     2.3330    53.6270    39.1280    32.8430    40.1710    24.2720   -13.5020 
  113.0000     2.3100    55.0040    39.3990    33.7610    45.9120    24.2220   -13.7820 
  113.1250     2.2940    56.0860    36.7400    32.5010    42.3020    24.2230   -14.0140 
  113.2500     2.2950    56.3170    31.7400    29.0510    36.8490    24.1990   -14.1810 
  113.3750     2.3190    57.6210    25.8210    24.3830    31.1890    24.0720   -14.3130 
  113.5000     2.3600    61.3030    20.3390    19.6800    25.9100    23.8570   -14.3920 
  113.6250     2.3960    65.8330    16.1550    15.8210    18.5600    23.6930   -14.4380 
  113.7500     2.4050    68.0050    13.0630    12.8370    14.5450    23.5640   -14.4560 
  113.8750     2.3840    69.8090    10.8460    10.6270    10.8920    23.3510   -14.4200 
  114.0000     2.3480    74.7940     9.3420     9.0880     7.6920    23.0350   -14.3550 
  114.1250     2.3140    82.1020     8.5140     8.2160     6.1230    22.7000   -14.2460 
  114.2500     2.2930    86.3620     8.1420     7.8130     5.8050    22.5120   -14.1450 
  114.3750     2.2860    85.3510     8.1610     7.8130     6.1110    22.5480   -14.0120 
  114.5000     2.2920    82.2140     8.5250     8.1770     6.8060    22.8670   -13.8980 
  114.6250     2.3110    80.7830     9.1610     8.8570     7.4110    23.2070   -13.8120 
  114.7500     2.3320    81.4270     9.8570     9.6420     7.7300    23.5000   -13.7390 
  114.8750     2.3430    82.1690    10.4790    10.3730     8.6230    23.6570   -13.7160 
  115.0000     2.3370    81.4330    10.9370    10.9330    10.2730    23.7020   -13.7150 
  115.1250     2.3140    79.6110    11.1570    11.2060    10.8750    23.7660   -13.7830 
  115.2500     2.2890    78.2760    11.1830    11.2230     9.6200    23.8270   -13.8760 
  115.3750     2.2700    78.9540    11.0210    10.9970     9.4680    23.8650   -13.9880 
  115.5000     2.2590    80.6930    10.6370    10.5190    10.1020    23.8610   -14.1540 
  115.6250     2.2520    82.6880    10.0380     9.8010    10.3640    23.8500   -14.2790 
  115.7500     2.2460    83.3110     9.4930     9.0830     9.7150    23.8790   -14.3830 
  115.8750     2.2550    82.1260     9.3120     8.6230     9.1660    23.9350   -14.4550 
  116.0000     2.2920    81.4680     9.7580     8.6280     8.8730    23.9730   -14.5140 
  116.1250     2.3600    81.5560    11.1460     9.3490    10.2910    23.8620   -14.5250 
  116.2500     2.4270    78.9720    13.3410    10.7560    16.9190    23.7030   -14.4840 
  116.3750     2.4710    72.1630    16.0490    12.7520    32.3120    23.7320   -14.4010 
  116.5000     2.4870    64.5270    18.6870    14.9880    40.3810    24.1110   -14.2580 
  116.6250     2.4890    60.0760    20.5650    16.8590    29.0470    24.3490   -14.1100 
  116.7500     2.4990    56.0850    21.8770    18.2290    23.9670    24.4130   -13.9430 
  116.8750     2.5220    51.6430    23.2260    19.4310    27.0280    24.4230   -13.7860 
  117.0000     2.5510    49.2400    25.2350    20.9800    30.3950    24.4480   -13.6230 
  117.1250     2.5740    51.0160    28.4130    23.4490    29.6880    24.3720   -13.4700 
  117.2500     2.5890    53.5760    32.4300    26.7910    33.8460    24.2270   -13.3450 
  117.3750     2.5990    54.0360    36.7220    30.6290    45.3290    24.1470   -13.2340 
