~V
VERS. 2.00: Ver 2.00
~W
STRT.M 57.0000:
STOP.M 248.0000:
STEP.M 0.1250:
NULL. -999.2500:
UWI. F10637:
~C
DEPT.M :
SP.MV :
GR.API :
RML.OHMM :
RI. :
RXO.OHMM :
CALI.CM :
DEN.GM/CC :
~A
# ...
  135.7500   -10.9750    51.8730    33.8810    28.4310    32.8450    24.9710     2.4140 
  135.8750   -11.5260    50.4390    29.5760    26.0370    52.3610    25.1440     2.5300 
  136.0000   -12.1040    54.9640    21.7910    20.3080    43.6430    25.2040     2.5700 
  136.1250   -12.6810    65.4470    14.3630    14.2150    19.4400    25.2210     2.5400 
  136.2500   -13.2260    75.5120     9.8200    10.0120     8.3970    25.2800     2.4730 
  136.3750   -13.7300    80.2530     7.4010     7.4860     5.7630    25.3050     2.4090 
  136.5000   -14.1820    81.4340     6.3050     6.1530     5.4900    25.2980     2.3620 
  136.6250   -14.5710    84.2680     5.9560     5.6070     5.5790    25.2680     2.3350 
  136.7500   -14.8940    89.1790     6.0260     5.6060     5.5590    25.2270     2.3260 
  136.8750   -15.1690    92.1740     6.2280     5.8370     5.5710    25.1870     2.3250 
  137.0000   -15.3940    91.3990     6.4600     6.1590     5.6330    25.1320     2.3270 
  137.1250   -15.5800    88.9480     6.6770     6.4850     5.8650    25.0590     2.3280 
  137.2500   -15.7320    87.7940     6.8560     6.7550     6.0970    25.0020     2.3260 
  137.3750   -15.8620    87.6610     6.9820     6.9370     6.1900    24.9870     2.3200 
  137.5000   -15.9760    87.6230     7.0410     7.0080     6.2670    25.0000     2.3110 
  137.6250   -16.0820    87.8870     7.0370     6.9660     6.4080    25.0320     2.2980 
  137.7500   -16.1810    87.7050     6.9800     6.8120     6.3560    25.0340     2.2840 
  137.8750   -16.2670    86.0730     6.9150     6.6050     6.3110    25.0110     2.2670 
  138.0000   -16.3440    82.9390     6.9100     6.4150     6.3670    24.9860     2.2460 
  138.1250   -16.4060    79.4510     7.0760     6.3520     6.6020    24.9640     2.2260 
  138.2500   -16.4530    76.4130     7.6610     6.6260     6.8040    24.8860     2.2190 
  138.3750   -16.4890    72.5090     8.8460     7.3740     7.1730    24.7110     2.2320 
  138.5000   -16.5100    66.5950    10.9020     8.7880     8.1230    24.4950     2.2680 
  138.6250   -16.5180    60.5900    14.1210    11.1000    10.1940    24.2630     2.3210 
  138.7500   -16.5120    57.3020    18.8780    14.7420    15.0460    24.1020     2.3820 
  138.8750   -16.5050    55.6920    24.5820    19.4880    22.4760    24.0160     2.4390 
  139.0000   -16.5100    54.0790    30.1560    24.6850    31.5100    24.0820     2.4840 
  139.1250   -16.5400    53.0970    33.8610    28.8810    35.3060    24.2960     2.5130 
  139.2500   -16.6110    53.6840    33.2690    29.5720    36.7680    24.4390     2.5140 
  139.3750   -16.7170    54.3420    29.0010    26.7170    35.7860    24.4920     2.4940 
  139.5000   -16.8540    55.7750    22.9480    21.8330    26.1040    24.4810     2.4600 
  139.6250   -17.0140    60.9230    17.2350    16.8670    14.9600    24.4930     2.4170 
  139.7500   -17.1920    68.7060    13.3120    13.1740     9.5630    24.5720     2.3700 
  139.8750   -17.3720    72.8420    10.9660    10.7320     7.4800    24.6090     2.3300 
  140.0000   -17.5330    70.9470     9.7750     9.2900     7.6080    24.5510     2.3040 
  140.1250   -17.6620    68.4300     9.2940     8.5540     7.9870    24.4870     2.2940 
  140.2500   -17.7450    70.6670     9.2840     8.3660     7.7630    24.4990     2.3010 
  140.3750   -17.7820    73.2720     9.6140     8.5520     7.6610    24.5440     2.3190 
  140.5000   -17.7800    71.5810    10.4330     9.1580     8.9260    24.5410     2.3460 
  140.6250   -17.7470    67.2460    12.0310    10.3520    11.5090    24.4550     2.3850 
  140.7500   -17.6850    65.2880    14.9760    12.5960    14.1950    24.3450     2.4450 
  140.8750   -17.6080    63.0650    19.2390    16.0110    18.1320    24.2700     2.5190 
  141.0000   -17.5280    58.9480    24.4890    20.5240    28.6010    24.3200     2.5850 
  141.1250   -17.4580    53.9180    29.7580    25.4430    35.7280    24.3580     2.6160 
  141.2500   -17.4000    50.8270    33.2120    29.0710    33.2580    24.2550     2.5950 
  141.3750   -17.3590    49.0980    34.2380    30.4660    27.7580    24.0260     2.5440 
  141.5000   -17.3390    48.4060    33.4240    29.9250    22.6030    23.8120     2.4890 
  141.6250   -17.3410    48.8910    32.0050    28.5050    19.1100    23.6580     2.4450 
  141.7500   -17.3630    51.0530    31.1430    27.2790    19.3440    23.5950     2.4190 
  141.8750   -17.4000    54.2560    31.1840    26.7120    20.1240    23.5780     2.4100 
  142.0000   -17.4480    56.1720    32.1250    26.8980    19.8070    23.5640     2.4170 
  142.1250   -17.4990    54.7990    33.7730    27.7470    19.7250    23.5430     2.4410 
  142.2500   -17.5530    50.3900    35.8570    29.0980    22.6710    23.5470     2.4780 
  142.3750   -17.6080    47.2740    38.0150    30.6400    26.4230    23.5740     2.5130 
  142.5000   -17.6580    48.3710    40.0590    32.2190    28.9220    23.5910     2.5330 
  142.6250   -17.6990    51.1340    41.8740    33.7240    29.6780    23.5700     2.5370 
  142.7500   -17.7330    52.0440    43.4620    35.1000    28.2950    23.5610     2.5300 
  142.8750   -17.7510    50.8390    45.0840    36.4820    28.6790    23.6280     2.5210 
  143.0000   -17.7460    51.0470    46.9580    38.0300    31.4520    23.7780     2.5110 
  143.1250   -17.7220    52.1200    49.1650    39.8280    34.9450    23.9790     2.5040 
  143.2500   -17.6710    50.6750    51.6230    41.8600    39.2000    24.2230     2.5050 
  143.3750   -17.5950    49.7750    53.9110    43.8640    44.6280    24.4260     2.5130 
  143.5000   -17.4990    50.8310    55.4420    45.4170    49.2700    24.5430     2.5270 
  143.6250   -17.3870    52.0240    55.5650    45.9720    45.3100    24.5690     2.5450 
  143.7500   -17.2560    51.0280    53.6480    44.8990    41.9510    24.4350     2.5580 
  143.8750   -17.1120    50.2700    50.4080    42.6100    40.4130    24.2390     2.5600 
  144.0000   -16.9680    52.2460    46.8250    39.8020    37.6590    24.0560     2.5550 
  144.1250   -16.8280    54.5140    43.9540    37.3350    29.7900    23.8870     2.5480 
  144.2500   -16.7010    53.4110    42.6150    35.9810    26.1200    23.7580     2.5470 
  144.3750   -16.5880    50.3050    42.4250    35.6050    25.4440    23.6680     2.5490 
  144.5000   -16.4840    48.7220    42.8260    35.8620    28.5670    23.5970     2.5440 
  144.6250   -16.3860    48.9000    43.2080    36.3050    33.5300    23.5120     2.5190 
  144.7500   -16.3050    47.3930    43.0580    36.4890    36.4470    23.4240     2.4810 
  144.8750   -16.2490    45.1350    42.4650    36.3180    33.3720    23.3430     2.4510 
  145.0000   -16.2120    44.4000    41.7390    35.9360    28.1160    23.3240     2.4430 
  145.1250   -16.1880    44.9230    41.2010    35.5900    25.7360    23.4030     2.4580 
  145.2500   -16.1710    43.8460    40.9900    35.4600    27.3610    23.4770     2.4840 
  145.3750   -16.1570    43.2510    40.8590    35.4340    27.9590    23.5040     2.5060 
  145.5000   -16.1520    45.4900    40.5310    35.3030    26.4730    23.4970     2.5220 
  145.6250   -16.1610    49.2520    39.8320    34.8860    24.0600    23.4620     2.5350 
  145.7500   -16.1750    49.8100    38.7900    34.1380    24.3520    23.4240     2.5450 
  145.8750   -16.1820    47.3780    37.7410    33.3190    24.7750    23.4540     2.5540 
  146.0000   -16.1860    46.8920    36.9340    32.6570    24.7100    23.5260     2.5600 
  146.1250   -16.1880    51.1720    36.4850    32.2940    24.9430    23.5720     2.5680 
  146.2500   -16.1830    54.5850    36.4000    32.2910    25.3340    23.5440     2.5830 
  146.3750   -16.1750    52.0130    36.4310    32.4580    25.6640    23.4980     2.6010 
  146.5000   -16.1630    45.9100    36.3140    32.5650    25.9610    23.4590     2.6140 
  146.6250   -16.1460    43.3340    35.8200    32.3690    25.8190    23.4020     2.6120 
  146.7500   -16.1340    46.1340    34.8690    31.7210    24.3530    23.2710     2.5910 
  146.8750   -16.1270    47.8780    33.7390    30.8380    22.4770    23.0610     2.5600 
