~V
VERS. 2.00: Ver 2.00
~W
STRT.M 50.0000:
STOP.M 212.0000:
STEP.M 0.1250:
NULL. -999.2500:
UWI. F10691:
~C
DEPT.M :
GR.API :
RML.OHMM :
RI. :
RXO.OHMM :
CALI.CM :
SP.MV :
DEN.GM/CC :
~A
   50.0000    40.1240     0.1390     0.2400     0.8070    24.9240  -999.2500  -999.2500 
   50.1250    39.8930     0.1530     0.2450     0.7840    25.1180  -999.2500  -999.2500 
   50.2500    38.0260     0.1610     0.2490     0.7990    25.3310  -999.2500  -999.2500 
   50.3750    36.2040     0.1590     0.2510     0.9360    25.5940  -999.2500  -999.2500 
   50.5000    38.0700     0.1430     0.2500     1.2600    25.7800  -999.2500  -999.2500 
   50.6250    42.8210     0.1120     0.2470     1.5440    25.7700  -999.2500  -999.2500 
   50.7500    45.1480     0.0810     0.2440     1.4090    25.6700  -999.2500  -999.2500 
   50.8750    43.9110     0.0640     0.2430     1.0770    25.4910  -999.2500  -999.2500 
   51.0000    40.9670     0.0660     0.2410     0.8970    25.2040  -999.2500  -999.2500 
   51.1250    38.8990     0.0920     0.2360     0.8870    24.7820  -999.2500  -999.2500 
   51.2500    38.4110     0.1260     0.2300     0.9460    24.3670  -999.2500  -999.2500 
   51.3750    40.5590     0.1530     0.2260     1.0120    23.9940  -999.2500  -999.2500 
   51.5000    44.1640     0.1660     0.2270     1.0470    23.6870  -999.2500  -999.2500 
   51.6250    44.5610     0.1660     0.2300     1.0330    23.6320  -999.2500  -999.2500 
   51.7500    42.4940     0.1650     0.2330     1.0110    23.5720  -999.2500  -999.2500 
   51.8750    42.5120     0.1710     0.2370     1.0070    23.2720  -999.2500  -999.2500 
   52.0000    45.3120     0.1780     0.2410     1.0400    22.9870  -999.2500  -999.2500 
   52.1250    46.1680     0.1720     0.2450     1.1140    22.9480  -999.2500  -999.2500 
   52.2500    44.1820     0.1510     0.2490     1.1640    23.0150  -999.2500  -999.2500 
   52.3750    42.4530     0.1240     0.2520     1.2010    23.3950  -999.2500  -999.2500 
   52.5000    42.0430     0.1030     0.2570     1.1890    23.6640  -999.2500  -999.2500 
   52.6250    42.0450     0.0940     0.2610     1.1240    23.7110  -999.2500  -999.2500 
   52.7500    42.6800     0.0930     0.2610     1.0710    23.7170  -999.2500  -999.2500 
   52.8750    43.0910     0.0990     0.2580     1.0160    23.7410  -999.2500  -999.2500 
   53.0000    41.4440     0.1110     0.2520     0.9690    23.8670  -999.2500  -999.2500 
   53.1250    37.8060     0.1320     0.2480     1.0570    24.4140  -999.2500  -999.2500 
   53.2500    36.4560     0.1550     0.2460     1.4940    24.9970  -999.2500  -999.2500 
   53.3750    38.6570     0.1670     0.2440     2.7330    25.3410  -999.2500  -999.2500 
   53.5000    41.1890     0.1600     0.2430     5.1590    25.4220  -999.2500  -999.2500 
   53.6250    39.5670     0.1400     0.2430     6.7870    25.4280  -999.2500  -999.2500 
   53.7500    36.0310     0.1260     0.2440     6.3260    25.4280  -999.2500  -999.2500 
   53.8750    34.1130     0.1220     0.2430     5.2440    25.4280  -999.2500  -999.2500 
   54.0000    33.5300     0.1230     0.2390     4.0820    25.4240  -999.2500  -999.2500 
   54.1250    33.0610     0.1150     0.2340     2.9940    25.3950  -999.2500  -999.2500 
   54.2500    33.3160     0.0910     0.2320     2.3570    25.3180  -999.2500  -999.2500 
   54.3750    35.0690     0.0570     0.2340     2.1690    25.2810  -999.2500     2.0380 
   54.5000    36.9540     0.0260     0.2380     2.0320    25.2610  -999.2500     2.0380 
   54.6250    36.8520     0.0190     0.2410     1.5310    25.1420  -999.2500     2.0260 
   54.7500    36.6510     0.0360     0.2410     1.1970    24.7640  -999.2500     2.0190 
   54.8750    37.3630     0.0640     0.2410     1.1570    24.0280  -999.2500     2.0210 
   55.0000    38.1690     0.0870     0.2420     1.2500    23.4970  -999.2500     2.0310 
   55.1250    37.5810     0.0920     0.2440     1.3270    23.4460  -999.2500     2.0460 
   55.2500    37.0670     0.0790     0.2440     1.3280    23.4870  -999.2500     2.0590 
   55.3750    37.8990     0.0600     0.2430     1.3280    23.4470  -999.2500     2.0680 
   55.5000    39.6970     0.0500     0.2420     1.3980    23.2430   109.0880     2.0700 
   55.6250    40.3840     0.0540     0.2400     1.4850    23.0740   109.0880     2.0630 
   55.7500    38.9120     0.0630     0.2360     1.4210    23.0990    99.7000     2.0510 
   55.8750    36.6570     0.0640     0.2310     1.2000    23.3480    89.7530     2.0390 
   56.0000    35.0560     0.0560     0.2280     1.0200    23.5200    88.9560     2.0330 
   56.1250    34.8620     0.0410     0.2310     0.9580    23.5480    88.5040     2.0340 
   56.2500    35.2520     0.0270     0.2400     0.9540    23.5430    88.4150     2.0380 
   56.3750    36.5130     0.0170     0.2510     0.9620    23.4930    88.7330     2.0420 
   56.5000    38.1580     0.0130     0.2610     0.9760    23.4590    89.5210     2.0420 
   56.6250    37.2560     0.0240     0.2680     1.0150    23.3920    90.8240     2.0360 
   56.7500    35.4200     0.0480     0.2740     1.1060    23.2320    92.5230     2.0280 
   56.8750    34.4300     0.0750     0.2760     1.2680    23.1500    94.5790     2.0220 
   57.0000    35.8360     0.0920     0.2730     1.4540    23.0410    96.9280     2.0210 
   57.1250    39.4170     0.0850     0.2640     1.5700    22.8350    99.4380     2.0260 
   57.2500    40.6060     0.0630     0.2570     1.6100    22.8090   101.7610     2.0330 
   57.3750    38.2930     0.0410     0.2560     1.6190    22.9440   103.6220     2.0380 
   57.5000    35.2620     0.0310     0.2610     1.6480    22.9910   104.9640     2.0380 
   57.6250    34.1940     0.0370     0.2700     1.7310    22.9570   105.9150     2.0280 
   57.7500    33.7500     0.0470     0.2780     1.8370    22.8880   106.6870     2.0090 
   57.8750    33.8160     0.0630     0.2850     1.9190    22.8020   107.2980     1.9810 
   58.0000    36.3230     0.0870     0.2930     1.9050    22.7710   107.6890     1.9450 
   58.1250    40.0200     0.1180     0.2960     1.9010    22.7700   107.6840     1.9070 
   58.2500    42.8450     0.1420     0.2930     1.9180    22.7920   107.3860     1.8740 
   58.3750    44.2930     0.1500     0.2810     1.9600    22.8820   107.0010     1.8500 
   58.5000    43.7160     0.1370     0.2670     2.0000    22.9270   106.6550     1.8360 
   58.6250    40.6490     0.1060     0.2560     2.0140    22.9550   106.2530     1.8310 
   58.7500    38.8990     0.0720     0.2520     2.0230    23.0020   105.6040     1.8280 
   58.8750    40.9630     0.0440     0.2550     1.9940    23.0300   104.6120     1.8260 
   59.0000    46.3580     0.0260     0.2650     1.8900    23.1230   103.2960     1.8250 
   59.1250    48.9870     0.0230     0.2800     1.7880    23.2460   101.8610     1.8310 
   59.2500    46.3430     0.0370     0.2920     1.7780    23.3240   100.5510     1.8460 
   59.3750    42.4070     0.0660     0.2930     1.7480    23.3810    99.3920     1.8740 
   59.5000    40.7530     0.0950     0.2790     1.6710    23.4610    98.2150     1.9120 
   59.6250    40.5530     0.1040     0.2450     1.6320    23.5260    96.6240     1.9630 
   59.7500    38.9300     0.0860     0.1950     1.6000    23.5700    94.1460     2.0320 
   59.8750    38.2810     0.0540     0.1390     1.5060    23.6410    90.0970     2.1300 
   60.0000    39.7450     0.0280     0.0890     1.3670    23.7470    83.8810     2.2570 
   60.1250    42.1340     0.0190     0.0610     1.2220    23.8150    74.9680     2.3840 
   60.2500    46.0440     0.0300     0.0570     1.1420    23.9150    64.3640     2.4630 
   60.3750    51.9810     0.0710     0.0890     1.2980    24.0160    52.8130     2.4710 
   60.5000    58.3740     0.1760     0.1900     2.0770    23.9460    40.8190     2.4180 
   60.6250    63.6770     0.4540     0.4620     4.1830    23.6300    28.9180     2.3400 
   60.7500    68.1810     1.0280     1.0070     5.6810    23.4920    17.7860     2.2770 
   60.8750    71.3420     1.9920     1.9200     5.9800    23.6450     8.1740     2.2410 
   61.0000    72.3380     3.1480     3.1220     6.0040    23.6930     0.6980     2.2330 
   61.1250    73.0090     3.8670     4.2360     6.4530    23.6670    -4.1160     2.2390 
