~V
VERS. 2.00: Ver 2.00
~W
STRT.M 52.0000:
STOP.M 240.0000:
STEP.M 0.1250:
NULL. -999.2500:
UWI. F10646:
~C
DEPT.M :
GR.API :
RML.OHMM :
RI. :
RXO.OHMM :
CALI.CM :
DEN.GM/CC :
SP.MV :
~A
# ...
  119.5000    58.1220    26.8980    21.3640    20.7790    24.3050     2.1260    -9.3000 
  119.6250    55.5160    27.6820    22.1190    20.9810    24.3230     2.1180    -8.8700 
  119.7500    53.9640    28.1960    22.6780    20.8820    24.3110     2.1110    -8.3890 
  119.8750    54.3350    28.4510    23.0390    20.8310    24.3680     2.1090    -7.9170 
  120.0000    55.2400    28.4550    23.1830    20.3250    24.5370     2.1150    -7.5280 
  120.1250    55.6690    28.3140    23.1740    19.2850    24.5570     2.1240    -7.1730 
  120.2500    56.0000    28.0910    23.0600    18.9050    24.4400     2.1300    -6.8310 
  120.3750    54.5860    27.8230    22.8840    19.5290    24.3980     2.1270    -6.5320 
  120.5000    53.1530    27.5160    22.6750    19.9050    24.5250     2.1160    -6.2980 
  120.6250    53.6350    27.1760    22.4540    19.8500    24.5760     2.1090    -6.1410 
  120.7500    55.2830    26.8200    22.2400    19.2480    24.5660     2.1080    -6.0850 
  120.8750    54.1210    26.4800    22.0530    18.6230    24.5960     2.1150    -6.0860 
  121.0000    50.2750    26.2250    21.9240    18.6290    24.6890     2.1220    -6.0990 
  121.1250    49.8110    26.0910    21.8700    18.9030    24.8000     2.1230    -6.1470 
  121.2500    52.4350    26.0850    21.9020    19.1040    24.8500     2.1160    -6.2690 
  121.3750    54.5400    26.1560    21.9980    19.4930    24.8410     2.1040    -6.4770 
  121.5000    53.7720    26.1650    22.0740    19.6780    24.9540     2.1020    -6.7090 
  121.6250    53.5100    25.9740    22.0140    19.3100    25.0200     2.1140    -6.9230 
  121.7500    55.5370    25.5180    21.7410    17.6740    24.9060     2.1350    -7.1590 
  121.8750    57.3560    24.8380    21.2580    15.8970    24.7410     2.1530    -7.4350 
  122.0000    57.1270    24.0970    20.6700    15.1530    24.6150     2.1620    -7.6730 
  122.1250    56.0470    23.5320    20.1670    14.7390    24.4850     2.1680    -7.8380 
  122.2500    55.7240    23.3150    19.8930    14.3270    24.3110     2.1790    -7.9340 
  122.3750    56.3430    23.5460    19.9390    13.9840    24.2080     2.1920    -7.9170 
  122.5000    55.8000    24.2750    20.3830    14.4770    24.3060     2.1970    -7.7980 
  122.6250    55.2570    25.2590    21.0840    15.6340    24.6560     2.1870    -7.6460 
  122.7500    55.3070    26.2390    21.8610    16.7160    25.1030     2.1710    -7.4250 
  122.8750    54.3970    26.9350    22.4820    17.6900    25.4460     2.1600    -7.1360 
  123.0000    52.1690    27.0720    22.6790    18.2180    25.6540     2.1580    -6.8610 
  123.1250    51.4220    26.7770    22.4950    17.3260    25.9200     2.1560    -6.6300 
  123.2500    52.6840    26.2800    22.0970    15.8680    26.2820     2.1460    -6.4530 
  123.3750    52.5080    25.8630    21.7170    14.9510    26.7050     2.1290    -6.3730 
  123.5000    50.3050    25.8100    21.5980    14.3890    26.9140     2.1100    -6.3900 
  123.6250    48.9260    26.0960    21.7650    14.4530    26.7470     2.0930    -6.4710 
  123.7500    48.3840    26.5360    22.1100    15.5110    26.1680     2.0840    -6.6520 
  123.8750    49.0130    26.7860    22.3760    17.4060    25.4550     2.0850    -6.9470 
  124.0000    51.3020    26.3220    22.1240    17.5620    25.1010     2.0970    -7.3530 
  124.1250    53.2990    25.0310    21.2040    16.1130    24.9430     2.1140    -7.8560 
  124.2500    54.1540    23.0490    19.6930    13.7390    24.6970     2.1350    -8.4510 
  124.3750    56.1400    20.7660    17.8840    11.9730    24.4420     2.1590    -9.1380 
  124.5000    59.9520    18.7330    16.1940    11.4890    24.2810     2.1810    -9.8720 
  124.6250    62.3340    17.2700    14.8830    10.6210    24.1530     2.1980   -10.5480 
  124.7500    62.6650    16.4830    14.0580    10.0500    24.0590     2.2090   -11.1280 
  124.8750    62.3160    16.3380    13.7320     9.8210    23.9620     2.2120   -11.6220 
  125.0000    61.9410    16.7690    13.9120    10.0570    23.8730     2.2100   -11.9850 
  125.1250    60.5400    17.4930    14.3980    10.5320    23.9820     2.2070   -12.1900 
  125.2500    59.2020    18.3400    15.0560    10.8860    24.2510     2.2000   -12.2430 
  125.3750    58.9400    19.1840    15.7750    11.0490    24.5840     2.1860   -12.1530 
  125.5000    60.0800    19.9340    16.4730    11.1690    24.7620     2.1700   -11.9240 
  125.6250    61.9320    20.5600    17.0950    11.5680    24.7390     2.1660   -11.6680 
  125.7500    62.2700    21.0240    17.5760    11.9270    24.6410     2.1740   -11.4160 
  125.8750    59.3560    21.2880    17.8470    12.0380    24.5420     2.1820   -11.1460 
  126.0000    55.6920    21.3150    17.8470    12.3640    24.3010     2.1820   -10.8520 
  126.1250    54.4970    21.2220    17.6890    13.2160    23.9610     2.1790   -10.5850 
  126.2500    55.2530    21.1490    17.5040    14.7770    23.6690     2.1850   -10.3540 
  126.3750    57.2100    21.2390    17.4230    16.7690    23.6600     2.2070   -10.1630 
  126.5000    61.0820    21.6030    17.5580    14.1280    24.0190     2.2260   -10.0410 
  126.6250    63.1860    22.1420    17.8760    13.4610    24.3720     2.2130    -9.9620 
  126.7500    60.2250    22.7180    18.3220    13.7570    24.6360     2.1690    -9.9290 
  126.8750    55.0730    23.2180    18.8300    14.2890    24.8210     2.1080    -9.9870 
  127.0000    53.5460    23.7040    19.3920    14.8680    24.8750     2.0710   -10.2120 
  127.1250    54.5550    24.5270    20.1460    15.0470    24.6890     2.0760   -10.5300 
  127.2500    55.6320    26.0200    21.3250    14.8440    24.2370     2.1180   -10.8790 
  127.3750    54.0600    28.1090    23.0090    14.4780    23.7740     2.1750   -11.3110 
  127.5000    49.4790    29.7080    24.6160    14.5880    23.8270     2.2230   -11.9290 
  127.6250    47.0400    29.2660    24.8630    16.5880    24.0320     2.2660   -12.6630 
  127.7500    49.7430    26.0250    22.8550    22.3730    23.9260     2.3170   -13.4470 
  127.8750    56.3860    20.7710    18.9670    31.4920    23.5720     2.3720   -14.2530 
  128.0000    62.7150    15.4720    14.6880    22.5400    23.3400     2.4000   -15.0340 
  128.1250    66.9230    11.4490    11.2140    12.4200    23.3280     2.3860   -15.7540 
  128.2500    70.9080     8.8160     8.7450     7.5180    23.6160     2.3440   -16.4420 
  128.3750    74.7020     7.2290     7.1090     6.6520    23.9830     2.2940   -17.0480 
  128.5000    78.3880     6.3800     6.1410     6.5410    24.1630     2.2610   -17.4450 
  128.6250    83.1930     5.8870     5.5580     5.7140    24.1760     2.2530   -17.6800 
  128.7500    88.8250     5.6120     5.2410     5.1590    24.1480     2.2690   -17.8140 
  128.8750    92.9220     5.4930     5.1020     5.0190    24.1080     2.2970   -17.8480 
  129.0000    92.2370     5.5560     5.1260     5.2110    24.0530     2.3270   -17.7520 
  129.1250    89.3940     5.7880     5.2920     5.5570    24.0190     2.3530   -17.5850 
  129.2500    87.0890     6.1710     5.6000     5.8770    24.0190     2.3700   -17.3640 
  129.3750    85.5950     6.6520     6.0250     6.2020    24.0480     2.3730   -17.1340 
  129.5000    83.8790     7.1460     6.4960     6.6420    24.0730     2.3570   -16.9510 
  129.6250    82.3540     7.5570     6.8920     7.2690    24.0980     2.3310   -16.7950 
  129.7500    82.5880     7.8230     7.1260     7.8890    24.0910     2.3040   -16.6120 
  129.8750    83.7450     7.9390     7.1760     8.1600    24.0700     2.2880   -16.4130 
  130.0000    83.7140     8.0050     7.1200     7.8080    24.0400     2.2920   -16.2700 
  130.1250    82.6120     8.2190     7.1360     7.3390    23.9820     2.3050   -16.1690 
  130.2500    80.5870     8.7500     7.3620     7.3830    23.8790     2.3110   -16.0590 
  130.3750    77.4400     9.7090     7.8970     8.2550    23.7050     2.2990   -15.8950 
  130.5000    75.0470    11.1570     8.8380     9.6620    23.5000     2.2700   -15.7040 
  130.6250    73.3820    12.8490    10.0620    11.3970    23.3670     2.2390   -15.5100 
