~V
VERS. 2.00: Ver 2.00
~W
STRT.M 51.0000:
STOP.M 221.0000:
STEP.M 0.1250:
NULL. -999.2500:
UWI. F10616:
~C
DEPT.M :
GR.API :
RML.OHMM :
RI. :
RXO.OHMM :
CALI.CM :
DEN.GM/CC :
SP.MV :
~A
# ...
   96.0000    53.3760    10.9950     7.9150     8.8320    26.2560     2.1160   -14.9150 
   96.1250    53.3260    10.8770     7.9030     8.8400    26.0720     2.1150   -14.8090 
   96.2500    54.2880    10.7370     7.8990     8.6300    25.8780     2.1160   -14.7120 
   96.3750    55.0870    10.6150     7.9260     8.6420    25.7070     2.1180   -14.6180 
   96.5000    56.0200    10.5680     7.9940     8.7130    25.7020     2.1200   -14.5210 
   96.6250    55.0810    10.6450     8.1120     8.7550    25.7660     2.1230   -14.3920 
   96.7500    51.2670    10.8360     8.2620     8.8100    25.7790     2.1260   -14.2200 
   96.8750    49.0660    11.0040     8.3620     8.8210    25.7330     2.1270   -13.9690 
   97.0000    49.6160    10.9400     8.2910     8.7060    25.6070     2.1260   -13.6500 
   97.1250    49.8340    10.4770     7.9490     8.4520    25.3480     2.1270   -13.2590 
   97.2500    50.1310     9.5620     7.3110     7.9310    24.9410     2.1390   -12.8240 
   97.3750    56.2790     8.3030     6.4400     6.8150    24.5760     2.1730   -12.3120 
   97.5000    66.3600     7.0790     5.5620     5.5860    24.4810     2.2220   -11.7760 
   97.6250    74.8630     6.1950     4.8580     4.8770    24.5820     2.2710   -11.2940 
   97.7500    80.4940     5.8360     4.4600     4.6760    24.6230     2.3160   -10.8860 
   97.8750    85.3830     6.1820     4.5150     4.8310    24.4390     2.3570   -10.6040 
   98.0000    87.9740     7.1300     4.9860     5.9050    24.4060     2.3860   -10.4540 
   98.1250    83.1780     8.5650     5.8420     9.0040    24.5420     2.3830   -10.4360 
   98.2500    71.9570    10.1980     6.9470    14.1960    24.7890     2.3370   -10.5460 
   98.3750    60.5110    11.4830     7.9860    12.6850    25.1410     2.2650   -10.7990 
   98.5000    51.5720    12.1140     8.6630    10.2550    25.4360     2.1960   -11.1000 
   98.6250    46.3710    12.1400     8.9050     9.2980    25.5160     2.1540   -11.4100 
   98.7500    47.1310    11.8540     8.8450     9.2700    25.3670     2.1390   -11.7020 
   98.8750    51.6320    11.5960     8.6880     9.2490    25.0650     2.1360   -11.9580 
   99.0000    53.4120    11.4890     8.5700     9.3230    24.8620     2.1310   -12.1640 
   99.1250    52.2960    11.4810     8.4910     9.3610    24.9450     2.1240   -12.3340 
   99.2500    52.1860    11.5060     8.4210     9.3000    25.0540     2.1170   -12.4430 
   99.3750    54.4890    11.5490     8.3660     9.2480    25.0890     2.1150   -12.5180 
   99.5000    57.8410    11.6300     8.3480     9.2140    25.1000     2.1150   -12.6030 
   99.6250    62.1240    11.7580     8.3800     9.3210    25.1620     2.1160   -12.6870 
   99.7500    64.2310    11.9250     8.4620     9.4850    25.2340     2.1190   -12.7690 
   99.8750    61.4250    12.1060     8.5880     9.5220    25.2870     2.1280   -12.8230 
  100.0000    58.1850    12.2810     8.7390     9.5960    25.3240     2.1400   -12.8490 
  100.1250    57.1440    12.4630     8.9130     9.8340    25.3890     2.1500   -12.8300 
  100.2500    57.2140    12.6740     9.1110    10.0920    25.5150     2.1590   -12.7900 
  100.3750    55.6820    12.9190     9.3240    10.3130    25.6910     2.1650   -12.6800 
  100.5000    54.7520    13.1350     9.5250    10.4990    25.7650     2.1670   -12.5040 
  100.6250    55.4430    13.2440     9.6760    10.7420    25.7700     2.1590   -12.2630 
  100.7500    55.0820    13.2010     9.7500    10.8470    25.7770     2.1430   -11.9680 
  100.8750    52.6570    13.0150     9.7330    10.2730    25.7850     2.1210   -11.6210 
  101.0000    50.5150    12.7940     9.6720     9.2210    25.7560     2.1010   -11.2370 
  101.1250    50.1800    12.6230     9.6050     8.1900    25.6690     2.0850   -10.8210 
  101.2500    51.2230    12.5420     9.5620     8.1910    25.4180     2.0810   -10.3830 
  101.3750    53.4040    12.4940     9.5270     8.9200    24.9510     2.0980    -9.9350 
  101.5000    55.7220    12.3240     9.4150     9.3300    24.3840     2.1350    -9.4870 
  101.6250    55.7550    11.8780     9.1210     9.3910    23.9080     2.1860    -9.0580 
  101.7500    53.6790    11.0830     8.5740     9.0800    23.6020     2.2340    -8.6340 
  101.8750    55.0320    10.0130     7.7910     8.1450    23.4080     2.2590    -8.2640 
  102.0000    61.7770     8.9840     6.9860     7.0130    23.2720     2.2620    -7.9520 
  102.1250    70.0020     8.2490     6.3390     6.1070    23.4080     2.2570    -7.7400 
  102.2500    73.3300     7.9710     5.9810     5.8250    23.9950     2.2580    -7.6050 
  102.3750    70.6750     8.3280     6.0670     6.6610    24.6270     2.2570    -7.5700 
  102.5000    66.7930     9.2290     6.5750     7.8640    25.0350     2.2380    -7.5940 
  102.6250    63.1590    10.5250     7.4630     8.6390    25.3910     2.1930    -7.6270 
  102.7500    61.0220    11.9050     8.5570     9.0510    25.6530     2.1330    -7.6800 
  102.8750    60.4890    12.9250     9.5320    10.6480    25.6080     2.0810    -7.6990 
  103.0000    59.3100    13.4680    10.1920    14.4470    25.3590     2.0720    -7.6540 
  103.1250    57.4620    13.6240    10.5340    16.5420    25.0410     2.1370    -7.5080 
  103.2500    57.1900    13.5480    10.6400    11.8390    24.8590     2.2800    -7.2920 
  103.3750    57.7810    13.3020    10.5380    11.6940    24.8150     2.4400    -6.9800 
  103.5000    57.1220    12.8350    10.2260    18.8030    24.6940     2.5280    -6.6280 
  103.6250    58.9070    12.0130     9.6350    25.4250    24.5670     2.5240    -6.2670 
  103.7500    66.7130    10.8260     8.7820    17.4100    24.5120     2.4620    -5.9150 
  103.8750    76.0760     9.5010     7.8310     8.7890    24.6920     2.3830    -5.5880 
  104.0000    81.5950     8.3860     7.0070     6.6830    24.8100     2.3240    -5.2970 
  104.1250    82.5430     7.6680     6.4330     6.2970    24.8600     2.2980    -5.0380 
  104.2500    80.3870     7.3890     6.1550     6.0880    24.9420     2.3070    -4.7880 
  104.3750    77.6150     7.4460     6.1600     6.3620    24.9890     2.3380    -4.5910 
  104.5000    76.0460     7.5190     6.2470     7.0160    24.9840     2.3670    -4.4170 
  104.6250    76.8620     7.4320     6.2710     7.0520    24.9890     2.3790    -4.2800 
  104.7500    79.4100     7.1660     6.1640     6.2560    25.0390     2.3700    -4.1560 
  104.8750    83.2500     6.8090     5.9410     5.7510    25.0910     2.3490    -4.0560 
  105.0000    86.1010     6.4750     5.6820     5.5340    25.1250     2.3340    -3.9710 
  105.1250    86.0630     6.2060     5.4340     5.4770    25.1300     2.3320    -3.9140 
  105.2500    84.3860     6.0120     5.2210     5.3800    25.1290     2.3410    -3.8470 
  105.3750    84.4270     5.8940     5.0590     5.1350    25.1400     2.3530    -3.7470 
  105.5000    87.1030     5.8450     4.9480     4.9050    25.1360     2.3640    -3.6070 
  105.6250    89.1780     5.8780     4.9030     4.8570    25.0980     2.3690    -3.4220 
  105.7500    88.2590     5.9940     4.9340     4.9180    25.0460     2.3710    -3.2270 
  105.8750    86.4320     6.1780     5.0420     5.2630    25.0010     2.3720    -2.9970 
  106.0000    86.6000     6.4000     5.2010     5.6840    24.9870     2.3710    -2.7400 
  106.1250    87.0090     6.6630     5.4040     5.8230    24.9970     2.3650    -2.4500 
  106.2500    86.4640     6.9790     5.6480     5.7450    25.0060     2.3490    -2.1730 
  106.3750    85.0030     7.3760     5.9350     5.9230    24.9980     2.3210    -1.8730 
  106.5000    83.4520     7.8820     6.2730     6.5130    24.9870     2.2900    -1.5920 
  106.6250    79.6400     8.5570     6.7060     7.3020    24.9670     2.2650    -1.3100 
  106.7500    73.1130     9.4390     7.2770     7.9020    24.9340     2.2480    -1.0100 
  106.8750    67.6900    10.5060     7.9960     7.9140    24.8290     2.2290    -0.6840 
  107.0000    66.3830    11.5740     8.7370     8.5620    24.7150     2.2100    -0.3460 
  107.1250    67.0930    12.4710     9.3740    10.6440    24.7000     2.1980     0.0060 
