~V
VERS. 2.00: Ver 2.00
~W
STRT.M 49.0000:
STOP.M 221.0000:
STEP.M 0.1250:
NULL. -999.2500:
UWI. F10615:
~C
DEPT.M :
DEN.GM/CC :
GR.API :
RML.OHMM :
RI. :
RXO.OHMM :
CALI.CM :
SP.MV :
~A
# ...
  139.0000     2.4980    49.3620    17.5340    15.8290    16.5010    23.4250   -18.9500 
  139.1250     2.4810    52.0690    17.0340    15.3880    16.0730    23.4010   -19.0730 
  139.2500     2.4690    53.7340    16.6870    15.0370    14.9910    23.3670   -19.1740 
  139.3750     2.4650    52.9670    16.6300    14.8890    13.8680    23.3380   -19.2870 
  139.5000     2.4680    48.6020    17.0460    15.1100    13.7560    23.3210   -19.3010 
  139.6250     2.4750    44.6130    17.8650    15.6960    15.0790    23.3340   -19.2470 
  139.7500     2.4830    44.7620    18.9390    16.5840    17.4910    23.4030   -19.2030 
  139.8750     2.4860    48.8200    19.9900    17.5740    20.4200    23.4830   -19.1220 
  140.0000     2.4790    52.0310    20.5940    18.2920    21.7250    23.5200   -18.9730 
  140.1250     2.4630    50.9190    20.6180    18.5260    21.3960    23.5220   -18.8540 
  140.2500     2.4390    46.7290    20.1280    18.2690    20.0170    23.6170   -18.7620 
  140.3750     2.4140    43.0810    19.3510    17.6800    18.2940    23.9000   -18.6580 
  140.5000     2.3880    43.3340    18.5400    16.9680    17.7020    24.3420   -18.5910 
  140.6250     2.3740    45.7370    17.8260    16.2900    17.7310    24.6070   -18.5730 
  140.7500     2.3770    46.7000    17.2070    15.6730    17.6140    24.7470   -18.5820 
  140.8750     2.3980    45.9730    16.6580    15.1200    16.5100    24.7990   -18.6160 
  141.0000     2.4310    46.7750    16.2220    14.6860    15.4310    24.8120   -18.7240 
  141.1250     2.4630    49.1590    15.9920    14.4360    15.1850    24.8050   -18.8750 
  141.2500     2.4900    51.5040    16.0890    14.4650    15.5600    24.8070   -19.0350 
  141.3750     2.5070    53.4210    16.6100    14.8510    15.8250    24.8200   -19.2020 
  141.5000     2.5100    53.2590    17.6310    15.6900    16.3210    24.8260   -19.3970 
  141.6250     2.5000    51.0590    18.9460    16.8460    18.2020    24.8180   -19.6070 
  141.7500     2.4790    47.3880    20.3150    18.1480    20.5700    24.7980   -19.7910 
  141.8750     2.4540    43.2260    21.4150    19.3250    22.8950    24.7880   -19.9520 
  142.0000     2.4390    41.2890    21.7890    19.9400    23.4840    24.8370   -20.1030 
  142.1250     2.4380    42.4000    21.3710    19.8340    22.9450    24.9050   -20.1870 
  142.2500     2.4490    43.8480    20.2750    19.0470    21.5090    24.9000   -20.2120 
  142.3750     2.4620    43.0680    18.7990    17.8130    20.3600    24.8350   -20.2450 
  142.5000     2.4690    43.7040    17.3260    16.4630    18.2990    24.8140   -20.2360 
  142.6250     2.4740    46.1680    16.1520    15.3040    16.2920    24.8040   -20.1450 
  142.7500     2.4790    45.3550    15.4040    14.4840    15.0020    24.7840   -20.0480 
  142.8750     2.4850    41.3460    15.1000    14.0570    15.0080    24.7660   -19.9520 
  143.0000     2.4860    40.1550    15.2330    14.0570    15.9650    24.7490   -19.7810 
  143.1250     2.4830    42.1680    15.6170    14.3350    16.4580    24.7090   -19.6140 
  143.2500     2.4780    43.6870    16.1460    14.7900    16.3400    24.6160   -19.4730 
  143.3750     2.4750    44.4440    16.7440    15.3290    16.5630    24.4840   -19.3050 
  143.5000     2.4780    46.6240    17.3760    15.8920    16.6820    24.3280   -19.1330 
  143.6250     2.4850    48.2050    18.0170    16.4500    16.9810    24.1550   -19.0220 
  143.7500     2.4930    47.2490    18.6300    16.9830    16.7540    24.0000   -18.9420 
  143.8750     2.4970    44.8500    19.1710    17.4620    17.1110    23.9570   -18.8840 
  144.0000     2.4920    44.9590    19.6090    17.8460    17.7860    24.0550   -18.8960 
  144.1250     2.4780    47.9590    19.9930    18.1540    18.0470    24.1710   -18.9730 
  144.2500     2.4570    50.5180    20.3630    18.4040    18.0030    24.2250   -19.0760 
  144.3750     2.4390    49.3670    20.7290    18.6220    18.3440    24.2890   -19.1950 
  144.5000     2.4330    47.8780    21.0790    18.8510    19.0480    24.4140   -19.3790 
  144.6250     2.4390    49.7100    21.4130    19.1290    20.4640    24.5670   -19.5830 
  144.7500     2.4500    52.4850    21.7490    19.4740    21.4360    24.6540   -19.7550 
  144.8750     2.4600    52.2840    22.1080    19.8820    21.2190    24.6270   -19.9400 
  145.0000     2.4620    48.6760    22.4490    20.3080    21.0530    24.5070   -20.1400 
  145.1250     2.4590    46.5350    22.6770    20.6640    21.4010    24.4060   -20.2580 
  145.2500     2.4570    46.8020    22.6860    20.8530    22.5330    24.3990   -20.3340 
  145.3750     2.4580    47.5030    22.3980    20.7840    23.1710    24.4870   -20.4100 
  145.5000     2.4590    47.5490    21.7810    20.3660    21.9900    24.5810   -20.3990 
  145.6250     2.4570    47.7110    21.0140    19.7230    20.5600    24.6350   -20.3060 
  145.7500     2.4540    48.6500    20.2580    19.0100    20.2500    24.6310   -20.2130 
  145.8750     2.4510    48.3420    19.6420    18.3870    20.7630    24.5770   -20.0990 
  146.0000     2.4530    45.3020    19.2360    17.9620    18.8860    24.5040   -19.9170 
  146.1250     2.4560    43.5140    18.9660    17.6750    17.2900    24.3830   -19.7570 
  146.2500     2.4560    44.6270    18.7650    17.4410    16.8410    24.2460   -19.6290 
  146.3750     2.4510    47.1320    18.5820    17.2060    17.1410    24.1610   -19.5130 
  146.5000     2.4440    47.6400    18.4500    17.0140    17.0370    24.2050   -19.4400 
  146.6250     2.4420    45.9680    18.4510    16.9790    16.7490    24.3270   -19.4300 
  146.7500     2.4480    44.0630    18.6820    17.1950    16.7470    24.3840   -19.4720 
  146.8750     2.4580    42.6240    19.1920    17.6830    17.3880    24.2770   -19.5310 
  147.0000     2.4670    41.0770    19.9650    18.3970    18.0350    24.0260   -19.6240 
  147.1250     2.4720    40.1170    20.8030    19.1630    18.8240    23.9290   -19.7630 
  147.2500     2.4720    41.1610    21.5240    19.8290    19.9550    24.0390   -19.9110 
  147.3750     2.4680    44.1520    21.9850    20.2700    20.4560    24.2120   -20.0440 
  147.5000     2.4640    47.2460    22.0840    20.3790    20.8690    24.3110   -20.1840 
  147.6250     2.4650    48.3910    21.9050    20.2160    21.6680    24.3410   -20.3280 
  147.7500     2.4730    47.9600    21.5030    19.8310    22.3800    24.3500   -20.4210 
  147.8750     2.4880    46.9730    20.9650    19.3100    20.3980    24.3540   -20.4710 
  148.0000     2.5020    46.7710    20.4250    18.7900    18.5580    24.3440   -20.5410 
  148.1250     2.5050    48.3220    19.9980    18.3770    17.8710    24.3170   -20.5540 
  148.2500     2.4930    50.9790    19.7240    18.1060    18.2520    24.2820   -20.5020 
  148.3750     2.4700    51.6620    19.5880    17.9670    18.8360    24.2300   -20.4710 
  148.5000     2.4470    47.7820    19.5330    17.9200    18.3970    24.0760   -20.4280 
  148.6250     2.4330    43.7570    19.4470    17.8660    18.0060    23.8270   -20.3250 
  148.7500     2.4360    42.7550    19.2570    17.7390    16.9080    23.5920   -20.2250 
  148.8750     2.4540    44.2010    18.9320    17.5090    15.6990    23.4260   -20.1540 
  149.0000     2.4770    46.3250    18.4550    17.1450    15.3820    23.2850   -20.0100 
  149.1250     2.4890    48.2400    17.8840    16.6670    15.0750    23.1250   -19.8640 
  149.2500     2.4880    48.8990    17.2780    16.1060    14.2020    23.0440   -19.7680 
  149.3750     2.4770    49.0430    16.7240    15.5320    13.6020    23.0730   -19.6720 
  149.5000     2.4690    50.1110    16.3370    15.0660    13.5950    23.2440   -19.5790 
  149.6250     2.4710    51.9500    16.1610    14.7880    13.8700    23.5110   -19.5280 
  149.7500     2.4870    52.0060    16.2410    14.7610    13.9660    23.7530   -19.5240 
  149.8750     2.5070    49.6060    16.5890    15.0030    14.2920    23.8860   -19.5560 
  150.0000     2.5180    46.2830    17.1840    15.4940    15.2030    23.8800   -19.6470 
  150.1250     2.5130    44.2770    17.8540    16.0780    15.9630    23.7980   -19.7780 
