~V
VERS. 2.00: Ver 2.00
~W
STRT.M 52.0000:
STOP.M 238.0000:
STEP.M 0.1250:
NULL. -999.2500:
UWI. F10653:
~C
DEPT.M :
GR.API :
RML.OHMM :
RI. :
RXO.OHMM :
CALI.CM :
DEN.GM/CC :
SP.MV :
~A
# ...
  153.2500    54.3790    22.5260    19.5990    20.4190    23.9000     2.6750   -30.9010 
  153.3750    56.3340    21.6370    18.8210    19.8200    23.8460     2.6400   -30.5110 
  153.5000    54.1350    21.2130    18.5030    19.0750    23.7460     2.6100   -29.8740 
  153.6250    51.7100    20.9770    18.4520    19.3620    23.6450     2.5990   -28.9390 
  153.7500    51.8810    20.6030    18.2950    18.7790    23.6170     2.5980   -27.7090 
  153.8750    52.7980    19.9640    17.8880    17.4840    23.5230     2.5960   -26.2220 
  154.0000    53.2780    19.1310    17.3230    16.6470    23.3540     2.5800   -24.5480 
  154.1250    55.7980    18.2780    16.7100    16.6260    23.2440     2.5500   -22.7620 
  154.2500    58.8460    17.5900    16.1420    16.4400    23.0710     2.5200   -20.9850 
  154.3750    60.0230    17.1890    15.6870    15.2510    22.7320     2.5010   -19.2720 
  154.5000    60.6650    17.1780    15.4790    14.1890    22.4450     2.4940   -17.6910 
  154.6250    62.3090    17.7380    15.7200    13.7580    22.2510     2.4870   -16.3160 
  154.7500    61.5390    18.7410    16.3680    13.4570    21.7380     2.4720   -15.1620 
  154.8750    57.0720    19.9290    17.1890    13.3830    20.7660     2.4560   -14.2000 
  155.0000    52.1130    20.8330    17.7790    13.8030    19.5810     2.4420   -13.4690 
  155.1250    49.7870    20.8210    17.6540    13.7130    18.1140     2.4300   -12.9880 
  155.2500    48.2690    19.9690    16.9490    12.5580    16.5560     2.4150   -12.5950 
  155.3750    47.7480    18.6940    16.0030    11.5310    15.2350     2.3960   -12.3210 
  155.5000    49.7380    17.5670    15.1520    10.9690    14.5620     2.3820   -12.1900 
  155.6250    51.2060    17.0580    14.6290    10.8940    14.4410     2.3830   -12.1650 
  155.7500    50.8600    17.0940    14.4580    11.3230    14.5480     2.4060   -12.2860 
  155.8750    49.5250    17.4230    14.5990    12.0620    14.9040     2.4410   -12.5400 
  156.0000    49.0180    17.7060    14.9640    12.8180    15.7310     2.4690   -12.8210 
  156.1250    51.0490    17.6280    15.2780    13.0690    16.9910     2.4770   -13.1580 
  156.2500    53.7350    17.2440    15.3120    13.1460    18.5080     2.4700   -13.5730 
  156.3750    55.5320    16.8170    15.1020    13.2690    19.9970     2.4550   -13.9850 
  156.5000    54.8760    16.6280    14.8510    13.1490    20.9370     2.4370   -14.3860 
  156.6250    53.1060    16.8970    14.8610    13.6120    21.4040     2.4250   -14.8190 
  156.7500    52.7090    17.5260    15.2280    14.5220    21.8060     2.4250   -15.2420 
  156.8750    52.5410    18.3550    15.8790    15.9540    22.3820     2.4380   -15.6560 
  157.0000    51.9940    19.1790    16.5910    17.4420    22.9700     2.4600   -16.0610 
  157.1250    50.9320    19.7170    17.0320    18.6660    23.3520     2.4920   -16.4400 
  157.2500    51.1980    19.8660    17.0620    18.5980    23.4500     2.5270   -16.7620 
  157.3750    53.4430    19.5910    16.6620    19.7910    23.4370     2.5520   -17.0230 
  157.5000    55.6050    18.9410    15.9130    21.0840    23.4470     2.5530   -17.2240 
  157.6250    57.6690    18.0620    15.0980    19.0730    23.4100     2.5230   -17.3450 
  157.7500    59.2690    17.2340    14.5340    17.2500    23.3720     2.4810   -17.3710 
  157.8750    59.3650    16.6790    14.3110    16.3710    23.3520     2.4430   -17.3380 
  158.0000    57.1210    16.5300    14.3650    16.5260    23.3220     2.4230   -17.2870 
  158.1250    53.0800    16.8390    14.5520    16.0960    23.2530     2.4210   -17.1660 
  158.2500    50.3160    17.3370    14.6870    17.0080    23.2030     2.4230   -17.0410 
  158.3750    48.4290    17.7810    14.6710    18.5720    23.2620     2.4220   -16.9900 
  158.5000    47.7170    18.0030    14.4990    19.6900    23.4370     2.4130   -16.9660 
  158.6250    48.9170    17.9150    14.2270    18.8210    23.5750     2.3980   -17.0140 
  158.7500    49.4420    17.6960    13.8980    17.2100    23.5750     2.3870   -17.1930 
  158.8750    48.3040    17.5100    13.6210    16.8810    23.4580     2.3920   -17.4180 
  159.0000    46.4390    17.5020    13.5580    18.0090    23.2640     2.4140   -17.6950 
  159.1250    46.5380    17.8080    13.9200    17.2490    23.0210     2.4450   -18.0930 
  159.2500    47.1890    18.4060    14.6730    16.1370    22.7760     2.4710   -18.5110 
  159.3750    45.6700    19.2630    15.7120    15.9290    22.6210     2.4880   -18.8980 
  159.5000    43.2190    20.2280    16.8670    17.1260    22.4830     2.4980   -19.2910 
  159.6250    44.4030    20.9960    17.7680    17.6370    22.4190     2.5070   -19.5900 
  159.7500    49.4070    21.2760    18.1590    17.3700    22.5530     2.5160   -19.7800 
  159.8750    54.1880    20.8990    17.9520    17.3120    22.8320     2.5170   -19.8560 
  160.0000    54.6040    19.9430    17.2010    17.7270    23.2020     2.5030   -19.7880 
  160.1250    50.7460    18.7250    16.1460    17.4900    23.4970     2.4730   -19.5300 
  160.2500    47.3320    17.7110    15.1850    16.2790    23.6720     2.4420   -19.0630 
  160.3750    46.6400    17.1350    14.5530    15.6420    23.6720     2.4200   -18.3800 
  160.5000    47.9740    17.1030    14.3390    16.1110    23.5700     2.4170   -17.4530 
  160.6250    48.0540    17.6610    14.5980    17.5790    23.5010     2.4370   -16.2650 
  160.7500    47.0200    18.5460    15.1850    18.7720    23.4730     2.4670   -14.9670 
  160.8750    46.0340    19.5230    15.9890    19.7130    23.5200     2.4900   -13.7330 
  161.0000    45.8920    20.3260    16.8290    21.3380    23.6860     2.4980   -12.5910 
  161.1250    45.8400    20.6680    17.4290    21.7970    23.8840     2.4920   -11.5370 
  161.2500    46.9560    20.5420    17.6060    21.2790    24.0120     2.4840   -10.6910 
  161.3750    48.9130    20.0540    17.3370    20.2090    24.0530     2.4800   -10.0730 
  161.5000    49.1080    19.4170    16.8190    19.3960    24.0120     2.4830    -9.6760 
  161.6250    47.3660    18.9350    16.4020    18.0910    23.9180     2.4880    -9.6240 
  161.7500    47.1870    18.8360    16.2780    17.5040    23.7220     2.4870    -9.7530 
  161.8750    48.0660    19.1830    16.4610    18.0660    23.5380     2.4800    -9.8960 
  162.0000    46.8090    19.9060    16.8000    19.4640    23.4400     2.4710   -10.0810 
  162.1250    42.4530    20.8160    17.2070    20.9120    23.4450     2.4660   -10.3240 
  162.2500    39.7390    21.6270    17.6730    22.2520    23.4870     2.4700   -10.5250 
  162.3750    40.8380    22.1770    18.2050    22.6390    23.5420     2.4800   -10.7160 
  162.5000    44.3450    22.3940    18.7040    22.2340    23.5700     2.4900   -10.8950 
  162.6250    47.8490    22.3360    18.9590    22.0500    23.6300     2.4900   -11.0110 
  162.7500    49.8940    22.1930    18.9470    22.6030    23.7930     2.4820   -11.0890 
  162.8750    50.3450    22.0910    18.7730    22.6260    23.9110     2.4700   -11.1220 
  163.0000    49.4690    22.1380    18.6420    21.9350    23.9440     2.4590   -11.0990 
  163.1250    49.0990    22.4370    18.8240    22.0710    23.8980     2.4540   -11.0360 
  163.2500    50.5480    22.9410    19.3290    22.8390    23.8450     2.4550   -10.9510 
  163.3750    51.3200    23.5270    20.0310    23.8950    23.8680     2.4640   -10.8110 
  163.5000    48.9790    24.0170    20.7310    25.0010    23.9220     2.4780   -10.6500 
  163.6250    45.7020    24.1420    21.1360    26.0150    23.8940     2.4920   -10.5000 
  163.7500    45.0760    23.8440    21.0900    25.8730    23.8490     2.4990   -10.3280 
  163.8750    45.7280    23.2290    20.6100    24.2740    23.7780     2.4980   -10.1840 
  164.0000    44.9060    22.4980    19.8620    22.4770    23.6500     2.4920   -10.0790 
  164.1250    44.4380    21.9120    19.0960    21.8220    23.4490     2.4830    -9.9580 
  164.2500    45.8780    21.5440    18.5960    21.8460    23.2760     2.4760    -9.8640 
  164.3750    47.2390    21.3660    18.4480    21.8220    23.2100     2.4720    -9.8430 
