~V
VERS. 2.00: Ver 2.00
~W
STRT.M 58.0000:
STOP.M 244.0000:
STEP.M 0.1250:
NULL. -999.2500:
UWI. F10638:
~C
DEPT.M :
SP.MV :
GR.API :
RML.OHMM :
RI. :
RXO.OHMM :
CALI.CM :
DEN.GM/CC :
~A
# ...
  170.5000   -13.9070    57.6590    18.6170    16.1870    20.6030    24.6070     2.4490 
  170.6250   -14.0960    54.7260    18.3560    15.9190    20.5770    24.5940     2.4490 
  170.7500   -14.2810    50.3640    18.1760    15.6950    20.6350    24.5960     2.4500 
  170.8750   -14.5330    49.8330    18.0900    15.5450    20.6000    24.6080     2.4520 
  171.0000   -14.8300    52.1520    18.0240    15.4350    19.9910    24.6010     2.4550 
  171.1250   -15.1140    55.3840    17.9130    15.3260    19.5460    24.5700     2.4590 
  171.2500   -15.3490    58.5260    17.7170    15.1840    19.6070    24.5230     2.4650 
  171.3750   -15.5680    58.5810    17.4130    14.9720    19.0150    24.5120     2.4720 
  171.5000   -15.7910    56.2360    17.0380    14.6910    17.9710    24.4570     2.4780 
  171.6250   -16.0000    54.1320    16.6310    14.3550    17.0650    24.4240     2.4810 
  171.7500   -16.1960    55.1400    16.2330    13.9940    16.7730    24.4230     2.4790 
  171.8750   -16.3560    59.1800    15.8780    13.6390    17.1480    24.4280     2.4670 
  172.0000   -16.4460    62.5910    15.5540    13.3010    16.7590    24.4220     2.4490 
  172.1250   -16.4850    62.5050    15.2170    12.9660    15.8820    24.4130     2.4340 
  172.2500   -16.5000    58.9400    14.8110    12.6020    15.2430    24.4100     2.4290 
  172.3750   -16.4560    54.3560    14.2760    12.1600    15.4140    24.4240     2.4330 
  172.5000   -16.3600    51.2080    13.6580    11.6560    15.3110    24.4580     2.4370 
  172.6250   -16.2400    50.0050    13.0330    11.1360    14.4930    24.5000     2.4370 
  172.7500   -16.0850    51.2250    12.4930    10.6610    12.9960    24.4920     2.4340 
  172.8750   -15.8950    56.5810    12.1440    10.3140    12.4830    24.4660     2.4370 
  173.0000   -15.7390    62.1340    11.9980    10.1130    12.8780    24.4300     2.4460 
  173.1250   -15.6200    62.5090    12.0240    10.0560    13.6760    24.3950     2.4560 
  173.2500   -15.5100    57.2230    12.1420    10.0970    14.0140    24.3750     2.4620 
  173.3750   -15.4060    52.7720    12.2330    10.1620    13.7440    24.3930     2.4560 
  173.5000   -15.3450    54.2850    12.2320    10.1860    13.9480    24.4210     2.4420 
  173.6250   -15.3470    58.1890    12.1300    10.1430    14.4420    24.4290     2.4220 
  173.7500   -15.4110    58.5030    11.9370    10.0210    13.8000    24.4180     2.4040 
  173.8750   -15.4690    54.5200    11.6380     9.7850    12.1250    24.4000     2.4000 
  174.0000   -15.4900    51.3050    11.2010     9.4130    11.8540    24.3530     2.4140 
  174.1250   -15.5210    50.4940    10.5680     8.8710    11.9850    24.2990     2.4390 
  174.2500   -15.5940    49.7900     9.7450     8.1710    11.2840    24.3640     2.4560 
  174.3750   -15.6770    48.1330     8.8500     7.4030     9.9400    24.3770     2.4480 
  174.5000   -15.7270    46.5180     8.0740     6.7140     8.3200    24.3190     2.4240 
  174.6250   -15.7360    45.5420     7.5360     6.2020     7.2240    24.2330     2.4000 
  174.7500   -15.7390    46.0610     7.2950     5.9240     6.9360    24.2200     2.3860 
  174.8750   -15.7570    47.9910     7.3910     5.9360     7.3480    24.2840     2.3850 
  175.0000   -15.7630    49.9420     7.7200     6.1720     8.1970    24.3780     2.3880 
  175.1250   -15.7420    51.1000     8.2110     6.5800     9.1510    24.4380     2.3850 
  175.2500   -15.6890    50.5250     8.7710     7.0810     9.6100    24.4650     2.3740 
  175.3750   -15.6300    47.5510     9.2220     7.5300     9.7080    24.4650     2.3590 
  175.5000   -15.5430    46.4760     9.3920     7.7670    10.0100    24.4640     2.3430 
  175.6250   -15.3870    51.3370     9.1870     7.6960    10.4370    24.4540     2.3320 
  175.7500   -15.1210    59.0020     8.6500     7.3270    10.0940    24.4490     2.3290 
  175.8750   -14.7830    60.1490     7.9460     6.7680     9.2170    24.4110     2.3350 
  176.0000   -14.4610    54.8280     7.3090     6.2130     8.0470    24.2510     2.3440 
  176.1250   -14.1620    46.8870     6.8470     5.7650     6.9920    24.0400     2.3530 
  176.2500   -13.8630    38.8370     6.5820     5.4620     6.4540    23.9170     2.3600 
  176.3750   -13.5510    34.6950     6.5020     5.3180     6.3620    23.9010     2.3620 
  176.5000   -13.2890    36.1700     6.5100     5.2690     6.2970    23.8970     2.3620 
  176.6250   -13.1310    40.1280     6.5430     5.2710     6.2150    23.8910     2.3640 
  176.7500   -13.0810    41.7700     6.5470     5.2840     6.1310    23.9020     2.3650 
  176.8750   -13.1020    40.8260     6.4920     5.2800     6.1140    23.9140     2.3600 
  177.0000   -13.1290    39.3510     6.4090     5.2630     6.2250    23.9130     2.3490 
  177.1250   -13.1700    37.9570     6.3340     5.2440     6.2000    23.8990     2.3310 
  177.2500   -13.2440    37.3190     6.3000     5.2350     6.0480    23.9240     2.3140 
  177.3750   -13.3270    40.2960     6.3280     5.2490     6.0680    24.0490     2.3060 
  177.5000   -13.3720    45.3050     6.4020     5.2830     6.1460    24.1960     2.3100 
  177.6250   -13.3990    50.6770     6.5080     5.3370     6.2670    24.2030     2.3250 
  177.7500   -13.4390    55.1990     6.6300     5.4100     6.3860    24.0630     2.3440 
  177.8750   -13.4810    58.5750     6.7620     5.4990     6.5720    24.0360     2.3580 
  178.0000   -13.5210    62.4290     6.8960     5.5960     6.9850    24.1450     2.3630 
  178.1250   -13.5370    65.6860     7.0210     5.6830     7.4520    24.2820     2.3580 
  178.2500   -13.5300    67.2360     7.1160     5.7400     7.7730    24.3540     2.3510 
  178.3750   -13.5490    69.4800     7.1440     5.7390     7.6460    24.3740     2.3500 
  178.5000   -13.6020    74.1070     7.0960     5.6790     7.4380    24.3730     2.3570 
  178.6250   -13.6370    78.9070     6.9850     5.5730     7.2270    24.4120     2.3650 
  178.7500   -13.6260    80.1450     6.8550     5.4480     7.0780    24.5320     2.3670 
  178.8750   -13.6340    76.6150     6.7800     5.3490     7.0890    24.7450     2.3620 
  179.0000   -13.7080    72.5200     6.7940     5.3070     7.1660    24.7860     2.3550 
  179.1250   -13.8380    71.5340     6.9050     5.3340     7.2630    24.6460     2.3540 
  179.2500   -13.9790    73.4260     7.0990     5.4350     7.5430    24.4720     2.3580 
  179.3750   -14.1150    75.1660     7.3730     5.6190     8.2930    24.3990     2.3590 
  179.5000   -14.2720    75.5620     7.7170     5.8740     8.8480    24.3960     2.3490 
  179.6250   -14.4880    74.5540     8.1590     6.2110     9.1780    24.4070     2.3430 
  179.7500   -14.7600    71.7360     8.7420     6.6600     9.6140    24.4330     2.3270 
  179.8750   -14.9960    68.6630     9.5600     7.2810    10.4590    24.4430     2.3160 
  180.0000   -15.1590    67.2100    10.6530     8.0910    11.5740    24.4420     2.3200 
  180.1250   -15.2810    64.8800    12.1030     9.1350    13.2130    24.4230     2.3340 
  180.2500   -15.4240    62.4010    13.9460    10.4540    15.7990    24.4120     2.3460 
  180.3750   -15.5600    62.2830    16.0190    12.0150    18.6090    24.4230     2.3450 
  180.5000   -15.6560    63.1060    17.7590    13.4820    19.8520    24.4290     2.3330 
  180.6250   -15.7100    64.0050    18.5180    14.3790    21.2130    24.4150     2.3180 
  180.7500   -15.7470    64.1600    17.8590    14.2740    24.5390    24.3750     2.3120 
  180.8750   -15.7710    65.5750    15.8620    13.0470    22.3670    24.3460     2.3170 
  181.0000   -15.7800    68.5650    13.6210    11.4500    16.2200    24.3480     2.3260 
  181.1250   -15.7750    71.9390    11.8330    10.0260    11.6780    24.3690     2.3320 
  181.2500   -15.7460    72.7460    10.7740     9.0450    10.4150    24.3920     2.3330 
  181.3750   -15.7240    71.2990    10.5160     8.6480    11.1020    24.3960     2.3290 
  181.5000   -15.7180    70.2930    10.7350     8.6770    12.0950    24.4140     2.3270 
  181.6250   -15.6890    68.2320    11.1550     8.9780    12.8150    24.4390     2.3320 
