~V
VERS. 2.00: Ver 2.00
~W
STRT.M 48.0000:
STOP.M 229.0000:
STEP.M 0.1250:
NULL. -999.2500:
UWI. F10623:
~C
DEPT.M :
GR.API :
RML.OHMM :
RI. :
RXO.OHMM :
CALI.CM :
DEN.GM/CC :
SP.MV :
~A
# ...
  104.2500    58.2750    12.9540    11.7800    20.9420    25.2370     2.4170    -7.6600 
  104.3750    58.4840    13.2950    12.2780    27.3250    24.9820     2.4890    -7.3060 
  104.5000    61.9690    12.5940    11.8680    31.8750    24.5370     2.5070    -7.0090 
  104.6250    68.9070    11.1290    10.5650    26.2920    24.0060     2.4610    -6.7950 
  104.7500    74.4490     9.6460     9.0650    13.6790    23.7010     2.3890    -6.6470 
  104.8750    76.4590     8.5420     7.8690     7.5740    23.6330     2.3190    -6.5620 
  105.0000    76.7390     8.0650     7.2280     6.6730    23.6850     2.2620    -6.5340 
  105.1250    76.6970     8.3070     7.2160     7.3610    23.8100     2.2250    -6.5470 
  105.2500    74.7820     8.8430     7.5520     8.0830    24.0140     2.2030    -6.5280 
  105.3750    70.3560     9.3650     8.0050     8.4010    24.2470     2.1970    -6.4460 
  105.5000    66.9700     9.6320     8.3510     8.3960    24.3840     2.2070    -6.2870 
  105.6250    67.0090     9.4860     8.3970     8.3350    24.3650     2.2380    -6.0350 
  105.7500    68.2800     9.0700     8.1900     8.2250    24.2410     2.2820    -5.7150 
  105.8750    71.3440     8.5390     7.8320     7.9240    23.9910     2.3300    -5.3450 
  106.0000    75.9480     8.0340     7.4410     7.4020    23.6570     2.3720    -4.9490 
  106.1250    80.5780     7.6590     7.1180     6.8850    23.4160     2.4010    -4.5380 
  106.2500    82.2210     7.4010     6.8760     6.6860    23.4830     2.4160    -4.1470 
  106.3750    81.0280     7.2050     6.6820     6.7910    23.6770     2.4200    -3.8080 
  106.5000    79.0090     6.9930     6.4790     6.9890    23.8600     2.4180    -3.5380 
  106.6250    79.0390     6.6950     6.2060     6.9750    23.8320     2.4130    -3.3430 
  106.7500    82.8750     6.3320     5.8720     6.5060    23.7060     2.4040    -3.1940 
  106.8750    89.2670     5.9610     5.5200     5.8490    23.5380     2.3930    -3.0770 
  107.0000    95.1200     5.6460     5.2020     5.3770    23.3230     2.3780    -2.9830 
  107.1250    98.7590     5.4470     4.9700     5.1720    23.0430     2.3600    -2.8940 
  107.2500    99.1430     5.3470     4.8240     5.1330    22.7650     2.3440    -2.8240 
  107.3750    96.7570     5.3310     4.7550     5.1640    22.5780     2.3360    -2.7810 
  107.5000    94.7880     5.3830     4.7580     5.1630    22.4880     2.3400    -2.7520 
  107.6250    94.6160     5.5010     4.8330     5.1480    22.4410     2.3540    -2.7170 
  107.7500    94.4610     5.6490     4.9500     5.2630    22.4180     2.3670    -2.6800 
  107.8750    92.6210     5.7950     5.0820     5.5460    22.4870     2.3730    -2.6510 
  108.0000    89.9320     5.9180     5.2100     5.8650    22.6920     2.3700    -2.6320 
  108.1250    89.3180     6.0400     5.3500     5.9970    23.0800     2.3660    -2.6350 
  108.2500    90.7510     6.2390     5.5570     5.8410    23.5100     2.3670    -2.6450 
  108.3750    92.2510     6.5870     5.8900     5.7510    23.8290     2.3750    -2.6520 
  108.5000    92.9850     7.1020     6.3730     6.1360    23.8370     2.3850    -2.6530 
  108.6250    91.7860     7.6910     6.9470     7.0140    23.5840     2.3850    -2.6340 
  108.7500    88.3470     8.1420     7.4360     7.8530    23.4190     2.3750    -2.6030 
  108.8750    82.9890     8.2830     7.6760     8.1130    23.5070     2.3590    -2.5720 
  109.0000    79.6270     8.0400     7.5690     7.5420    23.8020     2.3470    -2.5400 
  109.1250    82.7180     7.4720     7.1160     6.9610    24.1400     2.3440    -2.5000 
  109.2500    88.8770     6.8490     6.5450     6.4200    24.3250     2.3470    -2.4380 
  109.3750    95.3410     6.3580     6.0330     5.9700    24.3780     2.3500    -2.3460 
  109.5000    98.2710     6.1030     5.6910     5.6300    24.3810     2.3470    -2.2170 
  109.6250    95.5890     6.1390     5.5960     5.5930    24.3750     2.3350    -2.0470 
  109.7500    92.7580     6.3870     5.6960     5.8030    24.3680     2.3220    -1.8270 
  109.8750    91.9510     6.7940     5.9590     6.2580    24.3710     2.3110    -1.5360 
  110.0000    89.9430     7.2880     6.3510     6.9230    24.3970     2.3020    -1.1780 
  110.1250    84.4520     7.9040     6.8640     7.5710    24.4200     2.2940    -0.7550 
  110.2500    82.5700     8.6300     7.4800     8.2730    24.4230     2.2820    -0.2980 
  110.3750    87.1380     9.6140     8.2360     9.1860    24.4340     2.2650     0.1680 
  110.5000    90.3510    10.8340     9.2040    10.4440    24.4690     2.2480     0.6460 
  110.6250    86.6130    12.7090    10.5650    12.2030    24.5160     2.2330     1.1290 
  110.7500    82.2810    15.0630    12.4130    13.5130    24.5350     2.2200     1.5860 
  110.8750    78.2750    17.7690    14.8450    15.1130    24.5000     2.2040     1.9800 
  111.0000    71.2480    21.0730    17.8470    17.9060    24.3460     2.1800     2.2940 
  111.1250    62.8890    24.6560    21.2210    21.9000    24.0950     2.1480     2.5250 
  111.2500    59.6960    27.7960    24.4010    25.7090    23.9070     2.1160     2.7050 
  111.3750    61.1620    29.8850    26.8190    28.3820    23.8300     2.0940     2.8460 
  111.5000    62.7620    30.5040    28.0050    28.6880    23.9290     2.0900     2.9350 
  111.6250    63.7990    29.4480    27.6060    26.7300    24.2350     2.1030     2.9420 
  111.7500    65.1140    27.4710    26.1890    25.4280    24.6990     2.1240     2.8760 
  111.8750    66.7600    25.1390    24.2420    24.0520    25.0700     2.1450     2.7490 
  112.0000    68.0890    22.8650    22.1850    22.0520    25.1320     2.1610     2.5970 
  112.1250    69.6390    20.9200    20.3200    18.8970    24.9470     2.1710     2.4300 
  112.2500    71.7520    19.3230    18.7370    15.8700    24.8330     2.1780     2.2600 
  112.3750    72.2680    18.0630    17.4550    14.2810    24.8490     2.1840     2.1070 
  112.5000    71.8660    17.0890    16.4510    13.6590    24.8280     2.1880     1.9700 
  112.6250    73.0220    16.3610    15.7050    13.0720    24.6490     2.1910     1.8730 
  112.7500    73.1650    15.8080    15.1450    12.7160    24.3710     2.1920     1.8430 
  112.8750    71.2480    15.4840    14.8010    12.4670    24.0980     2.1900     1.9060 
  113.0000    70.4910    15.5190    14.7700    12.1920    23.8780     2.1850     2.0450 
  113.1250    72.9500    16.1580    15.2720    12.2670    23.7960     2.1830     2.2590 
  113.2500    73.2260    17.3720    16.3070    13.0790    23.8340     2.1920     2.5270 
  113.3750    71.6750    19.0380    17.8080    15.2550    23.9870     2.2110     2.8470 
  113.5000    71.0670    20.8840    19.5570    18.3460    24.2310     2.2320     3.2250 
  113.6250    70.6770    22.4680    21.1660    21.3530    24.3930     2.2360     3.6540 
  113.7500    68.6200    23.5140    22.3190    22.9420    24.3260     2.2170     4.0990 
  113.8750    65.7680    23.9770    22.9090    22.4170    24.2720     2.1820     4.5290 
  114.0000    63.6760    24.0350    23.0520    21.3740    24.4700     2.1470     4.9270 
  114.1250    63.0640    23.9950    23.0090    21.8940    24.9460     2.1270     5.2880 
  114.2500    63.5600    24.0890    23.0430    22.9450    25.4460     2.1240     5.5980 
  114.3750    63.6060    24.3520    23.2230    23.6720    25.7570     2.1320     5.8260 
  114.5000    63.0130    24.7310    23.5280    23.8750    25.6100     2.1450     5.9580 
  114.6250    63.4960    25.1660    23.9120    23.8290    25.0700     2.1560     5.9890 
  114.7500    64.9620    25.6170    24.3340    23.7610    24.5670     2.1640     5.9640 
  114.8750    65.4570    26.0860    24.7940    23.8650    23.9610     2.1680     5.9240 
  115.0000    64.0000    26.5670    25.2920    24.1680    23.1240     2.1680     5.8780 
  115.1250    62.6040    26.9960    25.7790    24.7220    22.5570     2.1660     5.7940 
  115.2500    62.2610    27.2660    26.1470    25.2440    22.6200     2.1630     5.6700 
  115.3750    61.9840    27.2570    26.2680    25.7160    22.9380     2.1610     5.5120 
