~V
VERS. 2.00: Ver 2.00
~W
STRT.M 51.0000:
STOP.M 221.0000:
STEP.M 0.1250:
NULL. -999.2500:
UWI. F10616:
~C
DEPT.M :
GR.API :
RML.OHMM :
RI. :
RXO.OHMM :
CALI.CM :
DEN.GM/CC :
SP.MV :
~A
# ...
  197.2500    29.2500     4.0220     3.2270     3.6000    22.8450     2.3320   -13.8860 
  197.3750    29.6370     3.9810     3.1330     3.5560    22.7740     2.3310   -13.9510 
  197.5000    28.7940     3.9490     3.0940     3.4930    22.8950     2.3140   -14.0150 
  197.6250    28.5200     3.9190     3.0920     3.4630    23.1990     2.2870   -14.0430 
  197.7500    29.2140     3.9220     3.1200     3.4650    23.5830     2.2660   -14.0470 
  197.8750    29.9180     4.0150     3.2010     3.5010    23.7750     2.2770   -14.0280 
  198.0000    29.6790     4.1780     3.3400     3.5200    23.8760     2.3170   -13.9780 
  198.1250    27.7340     4.3780     3.5200     3.5380    24.0290     2.3690   -13.9280 
  198.2500    24.6650     4.5580     3.6940     3.6400    24.2000     2.4080   -13.8420 
  198.3750    23.1680     4.6240     3.7760     3.7740    24.1510     2.4140   -13.6970 
  198.5000    23.4680     4.5490     3.7360     3.7700    23.9380     2.3960   -13.5410 
  198.6250    24.1250     4.3690     3.5930     3.6020    23.7070     2.3720   -13.4160 
  198.7500    25.0800     4.1620     3.4060     3.4540    23.5580     2.3520   -13.3310 
  198.8750    26.3710     4.0180     3.2490     3.3980    23.6320     2.3400   -13.2710 
  199.0000    26.5070     3.9660     3.1590     3.3310    23.6710     2.3320   -13.2720 
  199.1250    26.0820     3.9980     3.1300     3.3320    23.6370     2.3270   -13.3090 
  199.2500    27.4220     4.0870     3.1320     3.4070    23.6300     2.3250   -13.4130 
  199.3750    30.2310     4.2080     3.1350     3.4990    23.7460     2.3340   -13.5970 
  199.5000    32.2330     4.3300     3.1310     3.5460    23.9030     2.3490   -13.7930 
  199.6250    33.2750     4.4160     3.1290     3.5450    23.9890     2.3630   -13.9700 
  199.7500    34.1000     4.4320     3.1430     3.4950    24.0090     2.3680   -14.1420 
  199.8750    34.2700     4.3540     3.1790     3.5080    24.0310     2.3560   -14.3190 
  200.0000    33.4120     4.2370     3.2340     3.6260    24.0650     2.3340   -14.4820 
  200.1250    32.2790     4.1440     3.3070     3.7570    24.0790     2.3110   -14.6170 
  200.2500    31.3900     4.1330     3.3960     3.8500    24.0690     2.2930   -14.7240 
  200.3750    32.4800     4.2360     3.4870     3.9290    24.0110     2.2840   -14.7730 
  200.5000    34.7260     4.3940     3.5550     4.0630    23.8750     2.2800   -14.7830 
  200.6250    35.0640     4.5580     3.5830     4.1850    23.7810     2.2820   -14.7650 
  200.7500    32.4540     4.6920     3.5660     4.0080    23.7880     2.2870   -14.7140 
  200.8750    30.0770     4.7610     3.5230     3.6130    23.8590     2.2930   -14.6310 
  201.0000    30.9620     4.7660     3.4890     3.4010    23.9400     2.2980   -14.5260 
  201.1250    32.8570     4.7130     3.4810     3.3760    24.0190     2.3000   -14.4030 
  201.2500    32.9270     4.6240     3.4960     3.4180    24.0220     2.3000   -14.2710 
  201.3750    31.4070     4.5430     3.5180     3.4440    23.9870     2.3030   -14.1430 
  201.5000    30.7400     4.4970     3.5230     3.4820    23.9760     2.3120   -14.0550 
  201.6250    30.4070     4.4740     3.5030     3.5460    24.0010     2.3260   -14.0040 
  201.7500    28.9010     4.4470     3.4640     3.6260    24.0430     2.3440   -13.9800 
  201.8750    27.7110     4.4180     3.4240     3.6080    24.1030     2.3560   -13.9760 
  202.0000    27.7020     4.4180     3.4010     3.6030    24.1440     2.3600   -13.9810 
  202.1250    29.0180     4.4810     3.4060     3.6410    24.1570     2.3560   -14.0140 
  202.2500    32.5380     4.6100     3.4440     3.7590    24.1580     2.3470   -14.0800 
  202.3750    39.2450     4.7650     3.5220     3.9630    24.1580     2.3390   -14.2010 
  202.5000    44.1830     4.8790     3.6260     4.0910    24.1580     2.3330   -14.3380 
  202.6250    44.2370     4.9220     3.7360     4.2500    24.1540     2.3290   -14.4830 
  202.7500    43.9830     4.9010     3.8230     4.4040    24.1390     2.3290   -14.6380 
  202.8750    46.4760     4.8760     3.8640     4.4800    24.1060     2.3320   -14.7970 
  203.0000    47.7470     4.9470     3.8880     4.5370    24.0860     2.3380   -14.9720 
  203.1250    47.2010     5.1890     3.9410     4.5710    24.0820     2.3460   -15.1330 
  203.2500    48.5990     5.6300     4.0810     4.7200    24.0930     2.3500   -15.2450 
  203.3750    50.8740     6.2860     4.3820     5.1510    24.1210     2.3510   -15.2850 
  203.5000    50.8730     7.0680     4.8470     5.8210    24.1470     2.3580   -15.2700 
  203.6250    49.7640     7.8540     5.4500     6.5630    24.1510     2.3840   -15.2050 
  203.7500    48.0170     8.4540     6.0920     7.0900    24.1290     2.4330   -15.0940 
  203.8750    42.1120     8.5500     6.5280     7.8060    24.0690     2.4920   -14.9380 
  204.0000    33.9870     8.0800     6.5640     9.0830    23.9990     2.5280   -14.7390 
  204.1250    28.6380     7.1550     6.1410     9.5330    23.9220     2.5240   -14.5070 
  204.2500    26.8330     6.0610     5.3940     8.0000    23.8660     2.4850   -14.2540 
  204.3750    27.6610     5.1100     4.5740     5.5940    23.8120     2.4340   -14.0370 
  204.5000    30.1480     4.3850     3.8910     4.3130    23.7430     2.3920   -13.8590 
  204.6250    32.0190     3.8780     3.4180     3.7170    23.6800     2.3590   -13.7040 
  204.7500    31.7020     3.5820     3.1580     3.5710    23.6540     2.3290   -13.5730 
  204.8750    30.2430     3.5240     3.0960     3.5860    23.6550     2.2990   -13.5040 
  205.0000    30.0580     3.6330     3.1390     3.5680    23.6520     2.2730   -13.4800 
  205.1250    30.5970     3.8340     3.2340     3.5060    23.6610     2.2580   -13.4700 
  205.2500    30.6340     4.0370     3.3440     3.4560    23.6820     2.2600   -13.5150 
  205.3750    30.8690     4.1740     3.4410     3.5570    23.7180     2.2780   -13.6080 
  205.5000    30.7470     4.2700     3.5150     3.7800    23.7400     2.3030   -13.6900 
  205.6250    29.8510     4.3720     3.5590     3.9130    23.7140     2.3300   -13.7800 
  205.7500    29.2110     4.4740     3.5710     3.8340    23.6490     2.3550   -13.9070 
  205.8750    28.6890     4.4810     3.5510     3.7430    23.5860     2.3800   -13.9900 
  206.0000    27.6540     4.3540     3.5150     3.7350    23.6340     2.4050   -14.0280 
  206.1250    26.6070     4.1340     3.4780     3.7520    23.8050     2.4300   -14.0830 
  206.2500    27.0300     3.9150     3.4490     3.7310    24.0390     2.4470   -14.1050 
  206.3750    28.5290     3.8010     3.4310     3.6940    24.2940     2.4400   -14.0200 
  206.5000    30.4740     3.7960     3.4190     3.6720    24.5660     2.4080   -13.9140 
  206.6250    33.0560     3.8610     3.4120     3.6310    24.8460     2.3670   -13.7670 
  206.7500    34.4860     3.9380     3.4120     3.6120    25.2130     2.3310   -13.5700 
  206.8750    32.5860     3.9710     3.4200     3.6510    25.4730     2.3170   -13.3850 
  207.0000    29.5930     3.9540     3.4290     3.6700    25.5910     2.3160   -13.1990 
  207.1250    28.2840     3.8920     3.4290     3.6360    25.6740     2.3120   -13.0000 
  207.2500    28.1300     3.8140     3.4120     3.6110    25.8750     2.2950   -12.8100 
  207.3750    27.4680     3.7900     3.3750     3.6220    26.0490     2.2640   -12.6380 
  207.5000    27.2910     3.8620     3.3340     3.6440    25.9320     2.2300   -12.4910 
  207.6250    28.0900     4.0400     3.3140     3.6460    25.6670     2.2020   -12.4350 
  207.7500    28.4060     4.2980     3.3400     3.6320    25.6050     2.1940   -12.4220 
  207.8750    29.0860     4.5990     3.4510     3.6920    25.6740     2.2150   -12.4340 
  208.0000    32.7080     4.9130     3.6450     3.9620    25.4440     2.2550   -12.5300 
  208.1250    37.3820     5.2340     3.9110     4.5070    25.0890     2.3020   -12.6660 
  208.2500    39.6230     5.5680     4.2170     5.0350    24.9250     2.3460   -12.8760 
  208.3750    40.0150     5.8800     4.5150     5.5600    24.9200     2.3800   -13.1780 
