~V
VERS. 2.00: Ver 2.00
~W
STRT.M 49.0000:
STOP.M 221.0000:
STEP.M 0.1250:
NULL. -999.2500:
UWI. F10615:
~C
DEPT.M :
DEN.GM/CC :
GR.API :
RML.OHMM :
RI. :
RXO.OHMM :
CALI.CM :
SP.MV :
~A
   49.0000     1.9270  -999.2500  -999.2500  -999.2500  -999.2500  -999.2500  -999.2500 
   49.1250     1.9250  -999.2500  -999.2500  -999.2500  -999.2500  -999.2500  -999.2500 
   49.2500     1.9140  -999.2500  -999.2500  -999.2500  -999.2500  -999.2500  -999.2500 
   49.3750     1.8980  -999.2500  -999.2500  -999.2500  -999.2500  -999.2500  -999.2500 
   49.5000     1.8860  -999.2500  -999.2500  -999.2500  -999.2500  -999.2500  -999.2500 
   49.6250     1.8840  -999.2500  -999.2500  -999.2500  -999.2500  -999.2500  -999.2500 
   49.7500     1.8890  -999.2500  -999.2500  -999.2500  -999.2500  -999.2500  -999.2500 
   49.8750     1.8950  -999.2500  -999.2500  -999.2500  -999.2500  -999.2500  -999.2500 
   50.0000     1.8960  -999.2500  -999.2500  -999.2500  -999.2500  -999.2500  -999.2500 
   50.1250     1.8910  -999.2500  -999.2500  -999.2500  -999.2500  -999.2500  -999.2500 
   50.2500     1.8850  -999.2500  -999.2500  -999.2500  -999.2500  -999.2500  -999.2500 
   50.3750     1.8860  -999.2500  -999.2500  -999.2500  -999.2500  -999.2500  -999.2500 
   50.5000     1.8970  -999.2500  -999.2500  -999.2500  -999.2500  -999.2500  -999.2500 
   50.6250     1.9180  -999.2500  -999.2500  -999.2500  -999.2500  -999.2500  -999.2500 
   50.7500     1.9440  -999.2500  -999.2500  -999.2500  -999.2500  -999.2500  -999.2500 
   50.8750     1.9730  -999.2500  -999.2500  -999.2500  -999.2500  -999.2500  -999.2500 
   51.0000     2.0010  -999.2500  -999.2500  -999.2500  -999.2500  -999.2500  -999.2500 
   51.1250     2.0250  -999.2500  -999.2500  -999.2500  -999.2500  -999.2500  -999.2500 
   51.2500     2.0460  -999.2500  -999.2500  -999.2500  -999.2500  -999.2500  -999.2500 
   51.3750     2.0690  -999.2500  -999.2500  -999.2500  -999.2500  -999.2500  -999.2500 
   51.5000     2.0950  -999.2500  -999.2500  -999.2500  -999.2500  -999.2500   119.8120 
   51.6250     2.1220  -999.2500  -999.2500  -999.2500  -999.2500  -999.2500   119.8120 
   51.7500     2.1410  -999.2500  -999.2500  -999.2500  -999.2500  -999.2500   119.8120 
   51.8750     2.1430  -999.2500  -999.2500  -999.2500  -999.2500  -999.2500   119.8120 
   52.0000     2.1250  -999.2500  -999.2500  -999.2500  -999.2500  -999.2500   119.8120 
   52.1250     2.0950  -999.2500  -999.2500  -999.2500  -999.2500  -999.2500   119.8540 
   52.2500     2.0670  -999.2500  -999.2500  -999.2500  -999.2500  -999.2500   119.8880 
   52.3750     2.0520  -999.2500  -999.2500  -999.2500  -999.2500  -999.2500   119.8360 
   52.5000     2.0530  -999.2500  -999.2500  -999.2500  -999.2500  -999.2500   119.7490 
   52.6250     2.0670  -999.2500  -999.2500  -999.2500  -999.2500  -999.2500   119.7080 
   52.7500     2.0820  -999.2500  -999.2500  -999.2500  -999.2500  -999.2500   119.7350 
   52.8750     2.0850  -999.2500  -999.2500  -999.2500  -999.2500  -999.2500   119.7930 
   53.0000     2.0720  -999.2500  -999.2500  -999.2500  -999.2500  -999.2500   119.8570 
   53.1250     2.0450  -999.2500  -999.2500  -999.2500  -999.2500  -999.2500   119.8150 
   53.2500     2.0160  -999.2500  -999.2500  -999.2500  -999.2500  -999.2500   119.5200 
   53.3750     1.9950  -999.2500  -999.2500  -999.2500  -999.2500  -999.2500   118.7920 
   53.5000     1.9870  -999.2500  -999.2500  -999.2500  -999.2500  -999.2500   117.3500 
   53.6250     1.9860  -999.2500  -999.2500  -999.2500  -999.2500  -999.2500   115.2620 
   53.7500     1.9790  -999.2500  -999.2500  -999.2500  -999.2500  -999.2500   112.6780 
   53.8750     1.9610  -999.2500  -999.2500  -999.2500  -999.2500  -999.2500   109.7840 
   54.0000     1.9350  -999.2500  -999.2500  -999.2500  -999.2500  -999.2500   106.7550 
   54.1250     1.9130  -999.2500  -999.2500  -999.2500  -999.2500  -999.2500   103.7750 
   54.2500     1.9010  -999.2500  -999.2500  -999.2500  -999.2500  -999.2500   101.0420 
   54.3750     1.8980  -999.2500  -999.2500  -999.2500  -999.2500  -999.2500    98.7850 
   54.5000     1.8940  -999.2500  -999.2500  -999.2500  -999.2500  -999.2500    97.3130 
   54.6250     1.8830  -999.2500  -999.2500  -999.2500  -999.2500  -999.2500    96.5360 
   54.7500     1.8680  -999.2500  -999.2500  -999.2500  -999.2500  -999.2500    96.2720 
   54.8750     1.8570  -999.2500  -999.2500  -999.2500  -999.2500  -999.2500    96.2460 
   55.0000     1.8550  -999.2500  -999.2500  -999.2500  -999.2500  -999.2500    96.1960 
   55.1250     1.8630  -999.2500  -999.2500  -999.2500  -999.2500  -999.2500    95.9380 
   55.2500     1.8740    33.4130     2.3360     0.2480     0.8230    25.2990    95.3180 
   55.3750     1.8820    33.4130     2.3360     0.2480     0.8230    25.2990    94.1890 
   55.5000     1.8830    33.4130     2.3360     0.2480     0.8230    25.2990    92.3460 
   55.6250     1.8750    33.4130     2.3360     0.2480     0.8230    25.2990    89.9260 
   55.7500     1.8630    33.7630     2.2980     0.2480     0.8500    25.2990    87.1170 
   55.8750     1.8520    33.9070     2.2200     0.2440     0.8300    25.3000    84.1000 
   56.0000     1.8490    33.2260     2.1340     0.2350     0.8070    25.3030    81.0450 
   56.1250     1.8580    32.9430     2.0720     0.2290     0.7930    25.3050    78.1550 
   56.2500     1.8730    33.8620     2.0590     0.2310     0.7830    25.3020    75.5810 
   56.3750     1.8860    34.8800     2.0940     0.2410     0.7640    25.2970    73.4310 
   56.5000     1.8910    35.2170     2.1300     0.2550     0.7440    25.2860    71.8690 
   56.6250     1.8890    35.0080     2.1230     0.2660     0.7330    25.2680    70.7790 
   56.7500     1.9050    34.1730     2.0890     0.2690     0.7390    25.2440    70.0190 
   56.8750     1.9590    33.6920     2.0890     0.2600     0.7230    25.2340    69.5070 
   57.0000     2.0520    33.3000     2.1860     0.2370     0.7400    25.2400    69.2150 
   57.1250     2.1550    32.1590     2.3060     0.2040     0.7430    25.2490    69.0240 
   57.2500     2.2400    31.5510     2.2510     0.1600     0.7920    25.2450    68.8020 
   57.3750     2.3100    33.1940     1.8270     0.1130     0.9640    25.2190    68.4200 
   57.5000     2.3810    35.3000     1.1700     0.0780     0.9100    25.1700    67.7150 
   57.6250     2.4400    36.1010     0.6560     0.0600     0.6910    25.1010    66.5160 
   57.7500     2.4490    37.9820     0.3770     0.0550     0.5970    24.8620    64.5700 
   57.8750     2.3900    43.5230     0.3080     0.0620     0.6510    24.3130    61.5480 
   58.0000     2.2830    52.0960     0.4860     0.1100     1.3570    23.7360    56.8660 
   58.1250     2.1710    58.0820     0.9590     0.2520     2.7540    23.5280    50.6560 
   58.2500     2.0920    58.9100     1.8830     0.5780     4.1770    23.6200    43.2970 
   58.3750     2.0600    55.5430     3.4080     1.2020     4.8160    23.9140    35.3880 
   58.5000     2.0680    52.5450     5.3580     2.2370     4.7890    24.5650    27.4110 
   58.6250     2.0960    51.9300     6.7840     3.4630     4.8530    25.2050    19.7020 
   58.7500     2.1240    52.4540     7.2860     4.6190     5.4600    25.3610    12.5110 
   58.8750     2.1500    53.9970     7.3510     5.5760     6.8770    25.2490     6.1710 
   59.0000     2.1700    57.6760     7.5670     6.3680     8.4210    25.2080     1.2830 
   59.1250     2.1690    59.7880     8.0560     7.1210     8.9840    25.3200    -2.2490 
   59.2500     2.1430    58.3490     8.8860     7.9680     9.0060    25.4550    -4.6830 
   59.3750     2.1080    54.7020    10.2460     9.1540     8.9980    25.4890    -6.5120 
   59.5000     2.1000    51.2400    12.5540    11.1320    11.3930    25.2970    -8.0900 
   59.6250     2.1880    49.9650    15.8530    13.9470    19.1670    24.9380    -9.5820 
   59.7500     2.3590    52.6590    19.7820    17.2140    33.0090    24.5580   -10.9920 
   59.8750     2.5110    57.7780    22.9360    19.7680    37.6340    24.2370   -12.3230 
   60.0000     2.5330    58.7210    22.6600    19.6810    43.1110    24.0310   -13.5800 
   60.1250     2.4360    55.7200    19.6140    17.3740    30.9780    23.9460   -14.7430 
