~V
VERS. 2.00: Ver 2.00
~W
STRT.M 50.0000:
STOP.M 224.0000:
STEP.M 0.1250:
NULL. -999.2500:
UWI. F10690:
~C
DEPT.M :
SP.MV :
DEN.GM/CC :
GR.API :
RML.OHMM :
RI. :
RXO.OHMM :
CALI.CM :
~A
# ...
  106.2500   -23.1920     2.4060    61.2180    11.9150    11.8380     9.5970    24.9620 
  106.3750   -23.3320     2.3520    67.0630     9.9840     9.9130     7.0060    24.9450 
  106.5000   -23.4420     2.3270    71.5740     9.3680     9.0810     6.2070    24.9380 
  106.6250   -23.5070     2.3320    71.7180     9.5930     9.0590     6.2400    24.9380 
  106.7500   -23.5360     2.3560    66.9010     9.9420     9.2910     6.5460    24.9410 
  106.8750   -23.5320     2.3920    61.8950     9.9460     9.3760     6.6740    24.9620 
  107.0000   -23.4930     2.4270    63.3080     9.3690     9.0460     6.2990    25.0320 
  107.1250   -23.4350     2.4440    69.5730     8.3200     8.2920     5.5920    25.1620 
  107.2500   -23.3700     2.4410    74.0590     7.2830     7.4710     5.0200    25.3290 
  107.3750   -23.3080     2.4240    74.6600     6.5290     6.8110     4.7220    25.5040 
  107.5000   -23.2720     2.4010    74.3580     6.1450     6.4180     4.6040    25.6570 
  107.6250   -23.2660     2.3840    75.9840     6.1170     6.3190     4.7210    25.7510 
  107.7500   -23.2820     2.3780    78.8070     6.2580     6.3820     4.9630    25.8020 
  107.8750   -23.3220     2.3780    80.5920     6.4450     6.5040     5.0900    25.8320 
  108.0000   -23.3970     2.3780    80.0580     6.5880     6.6070     5.2140    25.8510 
  108.1250   -23.5160     2.3810    79.2800     6.6530     6.6590     5.2300    25.8570 
  108.2500   -23.6560     2.3920    78.5880     6.7060     6.7050     5.1960    25.8440 
  108.3750   -23.7960     2.4040    76.2290     6.8210     6.8030     5.1960    25.7980 
  108.5000   -23.9050     2.4070    73.6950     7.0630     6.9980     5.2610    25.7180 
  108.6250   -23.9750     2.3880    74.2980     7.4700     7.3170     5.5730    25.6630 
  108.7500   -24.0360     2.3540    74.9140     7.9610     7.6980     5.9890    25.6440 
  108.8750   -24.1070     2.3230    71.2060     8.4330     8.0640     6.1750    25.6430 
  109.0000   -24.1950     2.3080    64.7710     8.7780     8.3310     6.2420    25.6520 
  109.1250   -24.2770     2.3170    61.5840     8.8890     8.4090     6.2890    25.6680 
  109.2500   -24.3290     2.3360    61.4010     8.7940     8.3180     6.1150    25.6510 
  109.3750   -24.3440     2.3580    61.7740     8.5360     8.0850     5.9530    25.5390 
  109.5000   -24.3260     2.3750    62.4510     8.1770     7.7600     5.8870    25.3150 
  109.6250   -24.2970     2.3770    64.4980     7.8260     7.4300     5.9360    25.1240 
  109.7500   -24.2730     2.3660    66.9840     7.6160     7.2030     6.1800    25.0210 
  109.8750   -24.2670     2.3460    68.6940     7.6560     7.1680     6.3230    24.9930 
  110.0000   -24.2910     2.3190    69.9660     8.0290     7.3950     6.7860    24.9900 
  110.1250   -24.3440     2.2820    68.5780     8.8460     7.9930     7.7770    24.9900 
  110.2500   -24.4170     2.2480    64.4500    10.0340     8.9350     8.8060    24.9900 
  110.3750   -24.4870     2.2250    60.5290    11.5200    10.2000     9.2310    24.9900 
  110.5000   -24.5340     2.2110    59.7040    13.1770    11.7080     8.9460    24.9900 
  110.6250   -24.5550     2.2090    59.3850    14.7870    13.2970     9.2360    24.9900 
  110.7500   -24.5610     2.2190    56.7830    16.0880    14.6970    10.1070    24.9900 
  110.8750   -24.5660     2.2360    53.2050    16.8740    15.6740    10.5450    24.9900 
  111.0000   -24.5690     2.2500    51.5430    17.0720    16.0950    10.5240    24.9900 
  111.1250   -24.5780     2.2550    53.4640    16.7680    15.9700    10.4690    24.9910 
  111.2500   -24.5960     2.2560    56.7690    16.3390    15.6290    10.0850    24.9990 
  111.3750   -24.6200     2.2500    58.8920    16.0510    15.3160     9.3440    25.0200 
  111.5000   -24.6530     2.2350    57.9550    16.0890    15.2120     9.1460    25.0390 
  111.6250   -24.6670     2.2220    55.6140    16.6100    15.4850    10.3750    25.0510 
  111.7500   -24.6500     2.2200    55.0280    17.5520    16.1340    11.8410    25.0550 
  111.8750   -24.6050     2.2270    55.6550    18.9120    17.1960    11.4950    25.0580 
  112.0000   -24.5440     2.2320    55.7480    20.6980    18.7090    10.5760    25.0610 
  112.1250   -24.5010     2.2250    53.8970    22.9630    20.7730    12.2640    25.0680 
  112.2500   -24.4810     2.2110    51.6070    25.5500    23.2690    16.1200    25.0780 
  112.3750   -24.4770     2.1980    48.2990    28.2950    26.0880    19.5700    25.0800 
  112.5000   -24.4790     2.1850    46.2320    30.9500    29.0300    20.1300    25.0620 
  112.6250   -24.4630     2.1730    47.5600    33.0850    31.6710    20.1960    25.0480 
  112.7500   -24.4260     2.1640    50.6340    34.4990    33.6650    21.4430    25.0430 
  112.8750   -24.3720     2.1570    52.4800    35.1310    34.8440    24.1610    25.0440 
  113.0000   -24.3060     2.1520    51.8870    35.0300    35.1920    25.4890    25.0430 
  113.1250   -24.2560     2.1530    50.3070    34.2250    34.6880    22.8700    25.0430 
  113.2500   -24.2320     2.1590    48.6770    33.0020    33.6470    19.6250    25.0500 
  113.3750   -24.2320     2.1640    47.8690    31.4360    32.1700    18.2360    25.0700 
  113.5000   -24.2430     2.1630    47.1500    29.4670    30.2150    18.0040    25.0900 
  113.6250   -24.2340     2.1580    46.2760    27.0250    27.7310    17.5940    25.0980 
  113.7500   -24.2110     2.1560    46.7340    24.4840    25.1230    17.7660    25.0990 
  113.8750   -24.1890     2.1610    50.1040    22.3690    22.8950    16.2850    25.0990 
  114.0000   -24.1850     2.1670    55.3920    21.3040    21.5700    13.1990    25.1020 
  114.1250   -24.1970     2.1740    57.5880    22.2030    21.9020    11.2760    25.1200 
  114.2500   -24.1990     2.1850    54.7290    25.2290    24.1040    13.2230    25.1690 
  114.3750   -24.1820     2.1970    49.3310    30.6060    28.5700    18.4010    25.2550 
  114.5000   -24.1540     2.1980    45.1820    38.3090    35.5540    25.6150    25.3710 
  114.6250   -24.1430     2.1740    43.7370    47.6820    44.7400    32.2250    25.4830 
  114.7500   -24.1570     2.1400    43.3300    56.1520    53.4670    38.7450    25.5860 
  114.8750   -24.1870     2.1190    44.1490    60.9930    58.8010    45.3080    25.6960 
  115.0000   -24.2180     2.1320    45.1280    60.7730    59.1180    50.3430    25.8410 
  115.1250   -24.2160     2.1750    45.6130    56.1840    54.8960    46.2620    25.9530 
  115.2500   -24.1910     2.2220    45.2450    50.5230    49.3390    36.0510    26.0060 
  115.3750   -24.1450     2.2580    43.9040    45.5800    44.2580    28.3000    25.9980 
  115.5000   -24.0790     2.2710    42.9430    42.1360    40.5190    25.3970    25.8930 
  115.6250   -24.0060     2.2550    44.5750    40.4090    38.4350    23.6160    25.6210 
  115.7500   -23.9280     2.2290    46.7800    39.6280    37.3630    23.2490    25.3330 
  115.8750   -23.8570     2.2080    47.9350    39.1720    36.7680    23.0190    25.1690 
  116.0000   -23.7870     2.1990    48.3510    38.4880    36.1240    22.8240    25.1100 
  116.1250   -23.6990     2.1990    50.8160    37.1670    34.9820    22.3710    25.0870 
  116.2500   -23.5890     2.2040    53.5190    35.3580    33.3610    21.0400    25.0650 
  116.3750   -23.4430     2.2100    54.3270    33.3180    31.4550    18.5320    25.0430 
  116.5000   -23.2670     2.2170    53.9730    31.3290    29.5180    16.4120    25.0240 
  116.6250   -23.0760     2.2180    55.8300    29.6140    27.7750    15.1530    25.0020 
  116.7500   -22.8790     2.2070    58.4540    28.1500    26.2420    14.2480    24.9920 
  116.8750   -22.6810     2.1940    58.5810    26.8660    24.8750    13.5640    24.9900 
  117.0000   -22.4800     2.1880    55.4620    25.6940    23.6290    12.9840    24.9900 
  117.1250   -22.2920     2.1930    52.6660    24.6620    22.5360    12.1700    24.9900 
  117.2500   -22.1170     2.1970    51.6150    23.8470    21.6560    11.0670    24.9900 
  117.3750   -21.9550     2.1990    50.4890    23.3370    21.0620    10.2900    24.9900 
