~V
VERS. 2.00: Ver 2.00
~W
STRT.M 58.0000:
STOP.M 244.0000:
STEP.M 0.1250:
NULL. -999.2500:
UWI. F10638:
~C
DEPT.M :
SP.MV :
GR.API :
RML.OHMM :
RI. :
RXO.OHMM :
CALI.CM :
DEN.GM/CC :
~A
# ...
   80.5000   -33.5830    64.2780    10.1060     7.3580    10.2170    23.8620     2.1940 
   80.6250   -33.2960    65.2390     9.8040     7.0640    10.5090    23.8970     2.1590 
   80.7500   -33.0640    65.2130     9.5910     6.8230    10.8990    24.1520     2.1430 
   80.8750   -32.8750    63.8940     9.4120     6.6320    11.0770    24.5450     2.1410 
   81.0000   -32.7130    62.6720     9.2150     6.4720    11.2750    24.8260     2.1440 
   81.1250   -32.5740    61.5960     9.0270     6.3510    11.4590    24.9200     2.1510 
   81.2500   -32.4220    60.8890     8.9600     6.3140    11.3270    24.8590     2.1570 
   81.3750   -32.1810    60.2720     9.2790     6.4950    11.2540    24.7310     2.1480 
   81.5000   -31.8360    59.4920    10.0650     6.9550    12.0460    24.6570     2.1180 
   81.6250   -31.3400    58.3100    11.2200     7.6890    13.0020    24.6610     2.0780 
   81.7500   -30.6150    57.2310    12.3990     8.5360    13.9850    24.6900     2.0620 
   81.8750   -29.6730    60.6970    12.8850     9.0640    15.4850    24.6520     2.0720 
   82.0000   -28.6460    68.9530    12.3250     8.9360    15.9920    24.6280     2.1450 
   82.1250   -27.5410    77.1830    10.8910     8.1510    13.3050    24.6760     2.2780 
   82.2500   -26.4090    80.7900     9.1930     7.0450     8.5470    24.8410     2.4050 
   82.3750   -25.3940    80.8230     7.8620     6.0360     6.8590    24.9260     2.4340 
   82.5000   -24.5190    80.7650     7.0100     5.2940     6.5850    24.8720     2.3860 
   82.6250   -23.7730    80.8120     6.5700     4.8360     6.9090    24.7750     2.3150 
   82.7500   -23.2280    81.5180     6.4240     4.6230     7.0520    24.7080     2.2620 
   82.8750   -22.8890    85.5020     6.4560     4.5990     6.4740    24.6240     2.2430 
   83.0000   -22.6320    90.4510     6.5330     4.6470     6.0760    24.5480     2.2430 
   83.1250   -22.4310    93.6290     6.6160     4.7200     6.2960    24.5410     2.2490 
   83.2500   -22.2560    93.3050     6.6890     4.7940     6.8450    24.6370     2.2520 
   83.3750   -22.0840    91.0910     6.7300     4.8520     7.0390    24.7840     2.2510 
   83.5000   -21.9170    89.5210     6.7390     4.8870     6.5420    24.8740     2.2510 
   83.6250   -21.7960    87.7660     6.7320     4.9020     6.2930    24.8750     2.2550 
   83.7500   -21.7250    83.8690     6.7380     4.9110     6.5210    24.8820     2.2630 
   83.8750   -21.7370    79.8190     6.7730     4.9250     7.1220    24.9840     2.2660 
   84.0000   -21.8310    79.1240     6.8230     4.9420     7.0110    25.0490     2.2620 
   84.1250   -21.9850    81.8470     6.8740     4.9560     6.9950    24.9730     2.2500 
   84.2500   -22.1810    84.1220     6.9290     4.9740     7.5550    24.8700     2.2390 
   84.3750   -22.3990    82.2270     7.0070     5.0130     7.7500    24.7610     2.2360 
   84.5000   -22.6630    79.1520     7.1110     5.0770     7.3490    24.6010     2.2400 
   84.6250   -22.9360    76.9710     7.2210     5.1550     7.2380    24.4260     2.2420 
   84.7500   -23.1450    75.5650     7.2960     5.2170     8.2430    24.2770     2.2380 
   84.8750   -23.2650    73.6110     7.2780     5.2240     8.8200    24.2420     2.2310 
   85.0000   -23.3120    73.1350     7.1720     5.1710     8.2670    24.3110     2.2290 
   85.1250   -23.3180    75.4060     7.0130     5.0750     7.0600    24.4290     2.2360 
   85.2500   -23.3150    78.4830     6.8630     4.9700     6.6960    24.5130     2.2460 
   85.3750   -23.3070    79.1460     6.8030     4.9090     6.9900    24.5460     2.2490 
   85.5000   -23.2230    78.4640     6.8590     4.9240     6.9290    24.5630     2.2440 
   85.6250   -23.0930    77.7970     7.0180     5.0170     6.7550    24.5420     2.2350 
   85.7500   -22.9900    77.1680     7.2310     5.1620     7.1780    24.4560     2.2270 
   85.8750   -22.9060    74.7860     7.4370     5.3130     8.1130    24.3790     2.2130 
   86.0000   -22.7730    73.7150     7.5830     5.4260     8.5190    24.3420     2.1970 
   86.1250   -22.5440    75.1790     7.6270     5.4720     8.4910    24.3540     2.1920 
   86.2500   -22.2330    78.2890     7.5340     5.4280     8.0920    24.3860     2.2140 
   86.3750   -21.9060    81.1940     7.2770     5.2770     8.0510    24.4300     2.2710 
   86.5000   -21.6590    84.3820     6.9160     5.0550     8.3650    24.4600     2.3340 
   86.6250   -21.4980    87.3980     6.5180     4.8020     7.4350    24.4690     2.3770 
   86.7500   -21.3960    88.7870     6.1760     4.5700     6.3040    24.4620     2.3900 
   86.8750   -21.4020    89.1760     6.0260     4.4490     5.7820    24.4520     2.3780 
   87.0000   -21.6240    87.5690     6.1420     4.5010     5.8370    24.4340     2.3590 
   87.1250   -22.0940    82.8600     6.5880     4.7840     6.1460    24.3450     2.3320 
   87.2500   -22.7130    75.5460     7.3740     5.3240     6.8460    24.1190     2.2960 
   87.3750   -23.3630    68.3890     8.4100     6.1030     8.1910    23.7670     2.2540 
   87.5000   -23.9850    63.7080     9.3560     6.8940     9.8120    23.5670     2.2190 
   87.6250   -24.5390    62.3230     9.8580     7.4200    11.1010    23.5300     2.1960 
   87.7500   -24.9890    64.4830     9.6930     7.4540    11.0840    23.5740     2.1900 
   87.8750   -25.2920    68.2660     8.9080     6.9450     9.6930    23.6900     2.2030 
   88.0000   -25.4800    73.8790     7.9610     6.2220     8.1030    23.8690     2.2280 
   88.1250   -25.5890    82.2860     7.0870     5.4880     6.7000    24.0780     2.2560 
   88.2500   -25.6720    89.2370     6.3570     4.8410     6.1440    24.2860     2.2790 
   88.3750   -25.8350    87.0820     5.8330     4.3540     6.2500    24.3750     2.2900 
   88.5000   -26.1410    81.6670     5.6290     4.0840     6.1380    24.4000     2.2920 
   88.6250   -26.6490    81.1910     5.9570     4.1380     5.5940    24.4050     2.2920 
   88.7500   -27.4160    85.0620     7.0320     4.6250     5.4250    24.4140     2.3080 
   88.8750   -28.5380    83.7900     9.1600     5.7430     7.5590    24.4020     2.3690 
   89.0000   -29.9300    75.9430    12.0320     7.4140    15.2390    24.3240     2.4640 
   89.1250   -31.5290    65.2490    14.8690     9.3360    32.4280    24.1690     2.5440 
   89.2500   -33.2500    56.1000    16.3270    10.7590    37.3610    23.9720     2.5460 
   89.3750   -34.9590    51.8830    15.3210    10.7780    23.0310    23.9270     2.4590 
   89.5000   -36.5760    51.6620    13.2370     9.9210    14.9900    24.0080     2.3440 
   89.6250   -38.0420    52.3940    11.3590     8.9080    12.9380    24.1560     2.2420 
   89.7500   -39.3100    52.5930    10.2920     8.1860    12.6670    24.2110     2.1770 
   89.8750   -40.2650    51.9840    10.1210     7.9400    12.3670    24.0920     2.1520 
   90.0000   -40.9460    51.6790    10.3720     7.9950    11.9160    23.9430     2.1410 
   90.1250   -41.4150    53.0420    10.7430     8.1890    11.3860    23.9910     2.1330 
   90.2500   -41.7380    54.3140    11.0470     8.3870    10.9910    24.2590     2.1260 
   90.3750   -41.9310    51.8670    11.2040     8.5080    11.1680    24.4090     2.1260 
   90.5000   -42.0340    48.7190    11.2500     8.5540    11.3580    24.4660     2.1340 
   90.6250   -42.1150    49.0590    11.2130     8.5340    11.4090    24.5000     2.1490 
   90.7500   -42.1950    52.4520    11.1130     8.4590    11.3860    24.5310     2.1640 
   90.8750   -42.2620    54.1740    10.9580     8.3350    11.0880    24.5490     2.1660 
   91.0000   -42.2860    53.7230    10.7800     8.1870    11.0090    24.5620     2.1540 
   91.1250   -42.2600    52.2890    10.6370     8.0450    11.2890    24.5720     2.1380 
   91.2500   -42.1700    50.3290    10.6410     7.9730    11.8960    24.5900     2.1260 
   91.3750   -42.0110    48.6690    10.9540     8.0780    12.8260    24.6110     2.1200 
   91.5000   -41.8310    48.5320    11.5330     8.3670    13.5770    24.6580     2.1130 
   91.6250   -41.6050    50.6530    12.2480     8.7850    13.6270    24.7430     2.1070 
