~V
VERS. 2.00: Ver 2.00
~W
STRT.M 55.0000:
STOP.M 192.0000:
STEP.M 0.1250:
NULL. -999.2500:
UWI. F10682:
~C
DEPT.M :
DEN.GM/CC :
GR.API :
RML.OHMM :
RI. :
RXO.OHMM :
CALI.CM :
SP.MV :
~A
# ...
  111.2500     2.1930    53.6950    26.4220    21.9910    23.3770    25.4250   -15.0760 
  111.3750     2.2080    53.0790    27.8920    23.3130    25.0960    25.6650   -15.1290 
  111.5000     2.2080    53.3170    28.7570    24.2380    26.4770    25.7070   -15.1610 
  111.6250     2.1870    54.5010    29.0170    24.6170    26.7580    25.6920   -15.1920 
  111.7500     2.1610    52.8920    29.0910    24.7040    26.0630    25.6620   -15.2160 
  111.8750     2.1480    49.2740    29.2930    24.7550    25.8100    25.6400   -15.2540 
  112.0000     2.1630    46.2950    29.8430    25.0020    25.7680    25.6430   -15.3010 
  112.1250     2.2140    44.6360    30.8790    25.6550    25.4200    25.6480   -15.3530 
  112.2500     2.2760    43.9120    32.2100    26.6490    24.7130    25.4070   -15.4630 
  112.3750     2.3200    44.8170    33.5760    27.8400    23.8860    24.8180   -15.5690 
  112.5000     2.3210    46.1410    34.6520    29.0060    23.6940    24.6460   -15.7100 
  112.6250     2.2690    46.0880    35.0950    29.8580    26.4060    24.9360   -15.8770 
  112.7500     2.1990    45.5160    35.0920    30.3600    29.5010    25.3490   -16.0490 
  112.8750     2.1480    44.8290    35.1480    30.7370    30.9450    25.7960   -16.2540 
  113.0000     2.1460    44.5430    35.9760    31.5040    31.4770    26.0710   -16.4610 
  113.1250     2.2220    44.6520    38.1400    33.3320    31.9970    26.1730   -16.6610 
  113.2500     2.3460    43.5840    40.6820    35.8010    32.6240    26.1470   -16.8180 
  113.3750     2.4780    39.1560    41.6160    37.3700    36.1290    25.9140   -16.9570 
  113.5000     2.5650    33.9590    38.4920    35.5970    45.8760    25.4180   -17.0960 
  113.6250     2.5670    34.2130    30.2440    28.8330    61.3280    24.8580   -17.1870 
  113.7500     2.5140    40.7600    20.8990    20.5680    45.9010    24.6090   -17.2670 
  113.8750     2.4470    51.0440    13.4700    13.6620    21.4280    24.5030   -17.2870 
  114.0000     2.3910    60.5760     8.8330     9.0720     9.4100    24.5100   -17.2910 
  114.1250     2.3590    63.5430     6.6490     6.6530     6.7700    24.4940   -17.2930 
  114.2500     2.3430    61.2660     5.6850     5.4030     5.7520    24.4530   -17.2850 
  114.3750     2.3350    58.6940     5.4080     4.8910     5.4950    24.3620   -17.3000 
  114.5000     2.3280    58.6800     5.4730     4.8210     5.5950    24.4170   -17.2730 
  114.6250     2.3240    60.0210     5.6470     4.9760     5.5200    24.4140   -17.2390 
  114.7500     2.3250    62.9710     5.7940     5.1680     5.2930    24.5410   -17.1810 
  114.8750     2.3340    67.4410     5.9040     5.3560     5.0790    24.6750   -17.1140 
  115.0000     2.3470    71.1320     5.9940     5.5410     5.0840    24.6870   -17.0230 
  115.1250     2.3580    70.7730     6.0620     5.7100     5.3770    24.7560   -16.9070 
  115.2500     2.3620    66.6150     6.0890     5.8180     5.6730    24.8660   -16.8120 
  115.3750     2.3570    63.5990     6.0480     5.8190     5.9430    24.9040   -16.6990 
  115.5000     2.3480    64.2620     5.9330     5.7040     5.9230    24.9110   -16.5950 
  115.6250     2.3380    68.7560     5.7760     5.5230     5.5870    24.9110   -16.4960 
  115.7500     2.3270    72.1810     5.6430     5.3650     5.3020    24.9120   -16.4030 
  115.8750     2.3140    71.7460     5.5660     5.2680     5.2350    24.9160   -16.3330 
  116.0000     2.3020    69.2090     5.5440     5.2250     5.2760    24.9120   -16.2900 
  116.1250     2.2930    68.4090     5.5320     5.1880     5.3430    24.8780   -16.2250 
  116.2500     2.2890    70.8820     5.4640     5.1040     5.2770    24.8960   -16.1440 
  116.3750     2.2890    75.3080     5.3210     4.9550     4.9870    24.9140   -16.0720 
  116.5000     2.2920    79.3640     5.1400     4.7670     4.6830    24.9090   -16.0090 
  116.6250     2.2950    80.4990     4.9940     4.5990     4.5590    24.8600   -15.9480 
  116.7500     2.2990    78.9710     4.9300     4.4960     4.5780    24.8790   -15.8940 
  116.8750     2.3060    77.7870     4.9570     4.4660     4.6370    24.8760   -15.8290 
  117.0000     2.3150    77.5670     5.0440     4.4800     4.7380    24.8510   -15.7710 
  117.1250     2.3260    75.9500     5.1180     4.4770     5.0550    24.8450   -15.7760 
  117.2500     2.3350    73.8610     5.1210     4.4100     5.5590    24.8360   -15.7710 
  117.3750     2.3390    75.4700     5.0880     4.2990     5.7410    24.8080   -15.7900 
  117.5000     2.3430    77.6560     5.1520     4.2380     5.3710    24.7140   -15.8080 
  117.6250     2.3550    72.9550     5.5730     4.4030     5.3360    24.5480   -15.8710 
  117.7500     2.3800    64.9810     6.4920     4.9000     6.1420    24.5520   -15.9670 
  117.8750     2.4170    58.8460     8.0330     5.8300     7.9030    24.6880   -16.0670 
  118.0000     2.4550    53.3050    10.2220     7.2720    11.1130    24.7310   -16.1620 
  118.1250     2.4820    46.5770    12.9050     9.2640    15.1410    24.6640   -16.2260 
  118.2500     2.4990    41.9910    15.4810    11.4340    16.6450    24.6670   -16.2990 
  118.3750     2.5110    40.6090    17.4210    13.3360    16.8200    24.7280   -16.3590 
  118.5000     2.5220    39.7370    18.4920    14.6180    18.3200    24.7420   -16.4180 
  118.6250     2.5260    37.7920    18.8330    15.1950    20.5950    24.6820   -16.4600 
  118.7500     2.5180    37.6500    19.0240    15.4890    21.9440    24.6140   -16.4830 
  118.8750     2.4990    39.4930    19.3690    15.7770    21.6540    24.4760   -16.5190 
  119.0000     2.4780    41.2440    19.9500    16.1900    20.5870    24.1840   -16.5650 
  119.1250     2.4650    39.9730    20.6900    16.7290    21.3800    24.1170   -16.6310 
  119.2500     2.4640    37.8200    21.4220    17.2850    22.3000    24.2420   -16.7050 
  119.3750     2.4730    38.7140    22.0460    17.7730    21.6900    24.4690   -16.7750 
  119.5000     2.4910    42.0630    22.5060    18.1370    20.4360    24.6030   -16.8640 
  119.6250     2.5100    42.6980    22.7950    18.3510    20.7420    24.6720   -16.9360 
  119.7500     2.5250    40.7290    22.9890    18.4800    20.1750    24.7840   -17.0230 
  119.8750     2.5260    38.7500    23.0690    18.5530    20.4740    24.7700   -17.0910 
  120.0000     2.5100    36.7870    22.9240    18.5340    21.6770    24.7140   -17.1630 
  120.1250     2.4830    34.3740    22.3730    18.2870    21.1530    24.7340   -17.2480 
  120.2500     2.4580    36.0800    21.4840    17.7900    19.9430    24.7160   -17.3220 
  120.3750     2.4440    42.5250    20.3950    17.0880    18.8410    24.6640   -17.4220 
  120.5000     2.4420    48.0170    19.3090    16.2870    17.6780    24.6950   -17.5170 
  120.6250     2.4450    47.7970    18.4760    15.5570    16.2720    24.7480   -17.6270 
  120.7500     2.4450    45.4870    17.9820    15.0330    15.6910    24.7650   -17.7520 
  120.8750     2.4370    44.3950    17.8370    14.7810    15.9060    24.7960   -17.9000 
  121.0000     2.4230    44.8940    17.9820    14.8040    16.2720    24.7630   -18.0720 
  121.1250     2.4060    46.1020    18.3120    15.0690    16.7420    24.7390   -18.2400 
  121.2500     2.3900    46.0140    18.6290    15.4120    17.3350    24.6760   -18.4020 
  121.3750     2.3770    44.5770    18.7960    15.7040    17.9610    24.6700   -18.5360 
  121.5000     2.3690    44.9320    18.7640    15.8600    18.2770    24.6610   -18.6460 
  121.6250     2.3660    47.9730    18.5910    15.8630    17.2100    24.6340   -18.7440 
  121.7500     2.3670    48.3200    18.4330    15.8100    16.4810    24.6880   -18.7840 
  121.8750     2.3740    44.4930    18.3620    15.7580    16.7270    24.7440   -18.7820 
  122.0000     2.3870    41.1080    18.3740    15.7290    17.3390    24.8830   -18.7440 
  122.1250     2.4060    41.9060    18.3900    15.7020    18.6530    24.8660   -18.6900 
  122.2500     2.4240    42.3070    18.3370    15.6480    19.4480    24.8050   -18.6650 
  122.3750     2.4330    40.4820    18.2360    15.5790    18.7750    24.8740   -18.6200 
