~V
VERS. 2.00: Ver 2.00
~W
STRT.M 55.0000:
STOP.M 197.0000:
STEP.M 0.1250:
NULL. -999.2500:
UWI. F10681:
~C
DEPT.M :
DEN.GM/CC :
GR.API :
RML.OHMM :
RI. :
RXO.OHMM :
CALI.CM :
SP.MV :
~A
# ...
  122.5000     2.1610    60.9290    18.3990    14.0610    17.2380    25.1940   -13.2800 
  122.6250     2.1510    61.4080    19.4770    14.5370    16.1350    25.1660   -13.2610 
  122.7500     2.1460    64.2870    21.2950    15.5200    16.3500    25.2110   -13.2670 
  122.8750     2.1390    66.0710    23.6750    16.9710    19.1750    25.2970   -13.2730 
  123.0000     2.1280    63.3730    26.2130    18.7020    24.7570    25.3490   -13.2370 
  123.1250     2.1170    59.3120    28.1960    20.2880    26.5070    25.3800   -13.1760 
  123.2500     2.1120    59.2080    29.2420    21.3330    25.9740    25.4860   -13.1210 
  123.3750     2.1170    61.7250    29.3960    21.7240    24.2310    25.8100   -13.1030 
  123.5000     2.1330    65.5090    29.0790    21.6370    22.9910    27.1400   -13.1150 
  123.6250     2.1610    69.4120    28.8770    21.4410    22.5960    28.2590   -13.0770 
  123.7500     2.1970    70.8070    29.0730    21.4560    22.8820    26.9970   -13.0080 
  123.8750     2.2360    67.8750    29.6210    21.7590    24.2110    26.3490   -12.9580 
  124.0000     2.2650    63.6090    30.3590    22.2920    25.8310    26.1110   -12.9500 
  124.1250     2.2670    62.3870    31.1800    22.9890    28.7040    25.2830   -12.9530 
  124.2500     2.2450    61.9970    32.0800    23.7920    30.3830    25.1390   -12.9260 
  124.3750     2.2140    61.6120    33.0950    24.7150    28.4720    25.1140   -12.8660 
  124.5000     2.1870    60.6960    34.1610    25.7470    27.9510    25.3300   -12.7970 
  124.6250     2.1740    57.6900    34.9470    26.7270    30.7630    25.4860   -12.7520 
  124.7500     2.1680    54.8310    35.0940    27.3700    33.1500    25.4690   -12.6940 
  124.8750     2.1610    54.7370    34.4100    27.4490    34.3300    25.2380   -12.6130 
  125.0000     2.1500    56.3670    32.9840    26.9070    31.7560    25.0670   -12.5350 
  125.1250     2.1410    56.2310    31.0700    25.7940    27.7410    25.1460   -12.4590 
  125.2500     2.1490    56.1590    29.0440    24.3900    23.8690    25.1730   -12.3820 
  125.3750     2.1850    57.2080    27.0290    22.8330    22.4190    25.0070   -12.2970 
  125.5000     2.2510    55.8200    25.0330    21.1960    22.3680    25.0520   -12.2110 
  125.6250     2.3380    50.1470    23.0840    19.5470    20.4850    24.9100   -12.1640 
  125.7500     2.4190    47.4360    21.3270    18.0210    17.1570    24.3670   -12.1560 
  125.8750     2.4790    51.6550    19.9240    16.7450    15.2010    24.3300   -12.1850 
  126.0000     2.5110    57.5500    18.9590    15.7860    14.2390    24.5960   -12.2300 
  126.1250     2.5090    54.9100    18.4930    15.2110    14.3660    24.6630   -12.2890 
  126.2500     2.4810    48.1010    18.4180    14.9740    14.2270    24.6630   -12.3980 
  126.3750     2.4300    44.3880    18.7330    15.0940    14.8130    24.6730   -12.5700 
  126.5000     2.3660    47.3460    19.5160    15.6190    15.1770    24.6490   -12.7420 
  126.6250     2.3000    53.0190    21.0240    16.7480    16.4950    24.5930   -12.8510 
  126.7500     2.2420    56.0780    23.1710    18.4680    20.2870    24.8750   -12.9410 
  126.8750     2.1930    56.5470    25.6730    20.6610    25.4720    25.0790   -13.0450 
  127.0000     2.1540    56.6830    27.9440    22.9260    29.3810    25.1790   -13.1270 
  127.1250     2.1360    58.5840    29.0150    24.4080    30.0900    25.2400   -13.1680 
  127.2500     2.1460    60.4970    28.6340    24.6070    29.9860    25.2450   -13.1760 
  127.3750     2.1900    60.6220    27.0960    23.5710    28.1090    25.2520   -13.1510 
  127.5000     2.2610    59.1630    25.1240    21.8620    24.6640    25.1980   -13.1210 
  127.6250     2.3360    55.9130    23.5010    20.2000    20.6600    25.0430   -13.0810 
  127.7500     2.3920    52.8370    22.5050    18.9820    18.5620    24.9140   -13.0170 
  127.8750     2.4210    54.3580    22.1490    18.3090    18.1720    24.7380   -12.9030 
  128.0000     2.4280    59.9180    22.3330    18.1620    18.7040    24.7080   -12.7790 
  128.1250     2.4240    61.2590    22.9400    18.5040    18.7720    24.6570   -12.6890 
  128.2500     2.4190    56.2910    23.7270    19.1090    19.7140    24.7130   -12.5960 
  128.3750     2.4180    50.5260    24.5690    19.8370    21.0770    24.7190   -12.4710 
  128.5000     2.4280    46.9720    25.3970    20.5910    23.3770    24.7360   -12.3330 
  128.6250     2.4560    44.9510    26.1710    21.3250    26.5060    24.6850   -12.2540 
  128.7500     2.4940    45.9060    26.8770    22.0200    27.1710    24.7040   -12.2450 
  128.8750     2.5320    49.7430    27.4930    22.6540    24.8650    24.7130   -12.2820 
  129.0000     2.5520    52.8620    27.9760    23.1900    23.1290    24.7120   -12.3090 
  129.1250     2.5430    52.2820    28.1730    23.5190    24.0600    24.6720   -12.3030 
  129.2500     2.5130    51.4520    27.9750    23.5480    25.1240    24.4030   -12.3240 
  129.3750     2.4760    50.8110    27.3320    23.2030    24.3630    23.9780   -12.4010 
  129.5000     2.4480    48.8820    26.3520    22.5200    23.5870    23.6830   -12.4920 
  129.6250     2.4380    46.4740    25.3070    21.6730    23.9280    23.5230   -12.5390 
  129.7500     2.4430    46.0100    24.4910    20.9310    22.7870    23.3510   -12.5650 
  129.8750     2.4530    48.2270    24.0250    20.4430    21.8060    23.1110   -12.5960 
  130.0000     2.4590    49.5510    23.9000    20.2540    20.8860    22.8500   -12.6330 
  130.1250     2.4490    48.1590    24.0740    20.3750    20.9980    22.6850   -12.7000 
  130.2500     2.4270    47.6380    24.4420    20.7100    20.7900    22.7950   -12.7790 
  130.3750     2.4030    49.1090    24.9920    21.2320    20.6130    23.2230   -12.8170 
  130.5000     2.3880    51.9850    25.7350    21.9250    20.8600    23.6660   -12.8640 
  130.6250     2.3890    53.1450    26.6720    22.7870    21.8950    23.7070   -12.9610 
  130.7500     2.4010    52.7670    27.6510    23.7080    23.3960    23.5190   -13.0290 
  130.8750     2.4140    52.1950    28.4740    24.5370    24.5410    23.5540   -13.0800 
  131.0000     2.4250    53.7060    28.9470    25.0980    25.0330    23.9680   -13.1450 
  131.1250     2.4330    55.7030    28.9120    25.2120    26.1090    24.5450   -13.1850 
  131.2500     2.4460    53.4770    28.5360    24.9670    26.6300    24.8590   -13.2150 
  131.3750     2.4660    49.6700    28.0040    24.4860    25.9130    24.9830   -13.2870 
  131.5000     2.4850    48.6740    27.5060    23.9270    24.7250    24.9890   -13.3340 
  131.6250     2.4880    50.1850    27.2140    23.4560    25.0290    24.9190   -13.3390 
  131.7500     2.4740    49.5470    27.1440    23.1490    24.8740    24.8850   -13.3650 
  131.8750     2.4500    48.8140    27.2710    23.0240    23.4070    24.8670   -13.3860 
  132.0000     2.4340    50.4220    27.5200    23.0450    22.5100    24.8990   -13.4080 
  132.1250     2.4440    50.7020    27.7390    23.0850    23.7800    24.8180   -13.4430 
  132.2500     2.4760    48.6590    27.7960    22.9940    24.6300    24.7200   -13.4500 
  132.3750     2.5170    48.0860    27.6810    22.7380    24.8010    24.7280   -13.4350 
  132.5000     2.5520    51.2890    27.4980    22.4050    22.5320    24.7370   -13.4260 
  132.6250     2.5670    55.1940    27.4560    22.1870    22.0150    24.6880   -13.3950 
  132.7500     2.5660    56.2360    27.7060    22.2290    22.1230    24.7050   -13.3650 
  132.8750     2.5570    55.0220    28.3060    22.6130    23.2080    24.6060   -13.3120 
  133.0000     2.5470    52.8320    29.1800    23.3200    24.9680    24.3060   -13.2180 
  133.1250     2.5430    51.0500    30.0820    24.1980    26.0030    24.2030   -13.1470 
  133.2500     2.5430    49.4030    30.7240    24.9600    25.5580    24.1690   -13.0840 
  133.3750     2.5480    48.4760    30.9430    25.4100    25.8060    24.3100   -12.9940 
  133.5000     2.5540    49.8570    30.7120    25.4650    27.1160    24.4940   -12.9070 
  133.6250     2.5530    52.0990    30.0680    25.1190    27.1370    24.6040   -12.8610 
