~V
VERS. 2.00: Ver 2.00
~W
STRT.M 57.0000:
STOP.M 242.0000:
STEP.M 0.1250:
NULL. -999.2500:
UWI. F10636:
~C
DEPT.M :
GR.API :
RML.OHMM :
RI. :
RXO.OHMM :
CALI.CM :
DEN.GM/CC :
SP.MV :
~A
# ...
  124.5000    65.2840    20.2390    19.7310    25.0170    24.7040     2.1220    -8.6960 
  124.6250    72.0440    17.6280    17.5840    23.2580    24.7500     2.1420    -8.7030 
  124.7500    74.0800    15.3590    15.3370    18.5410    24.7580     2.1830    -8.7510 
  124.8750    70.4340    14.0320    13.7270    13.4060    24.7000     2.2330    -8.8170 
  125.0000    64.6460    13.8500    13.1650    12.1430    24.6060     2.2780    -8.8860 
  125.1250    61.4060    15.0210    13.9760    16.8170    24.6090     2.2990    -8.9440 
  125.2500    60.9930    17.2180    15.8330    21.1410    24.7860     2.2980    -8.9810 
  125.3750    61.7730    20.0340    18.3680    25.5670    25.0400     2.2800    -8.9950 
  125.5000    61.9220    22.6990    20.9640    31.8150    25.1080     2.2480    -9.0030 
  125.6250    60.8680    24.0880    22.7360    36.7860    24.7050     2.2010    -9.0030 
  125.7500    60.4100    24.1030    23.4130    29.4780    24.0720     2.1490    -9.0120 
  125.8750    60.7860    23.1950    23.1460    24.9240    23.6140     2.1030    -9.0490 
  126.0000    62.0220    21.9790    22.3180    23.6180    23.5910     2.0790    -9.1070 
  126.1250    63.8010    20.9170    21.3180    23.2630    23.9350     2.0870    -9.1960 
  126.2500    65.2210    20.1400    20.4290    22.5640    24.2840     2.1110    -9.3120 
  126.3750    66.6080    19.6430    19.7380    21.5240    24.4790     2.1370    -9.4510 
  126.5000    68.8800    19.3640    19.2370    20.3860    24.5160     2.1550    -9.5970 
  126.6250    71.1970    19.2460    18.8900    19.5510    24.4660     2.1630    -9.7300 
  126.7500    71.1180    19.2340    18.6480    19.5190    24.4160     2.1650    -9.8320 
  126.8750    68.2160    19.3530    18.5350    19.8200    24.3810     2.1630    -9.8980 
  127.0000    66.0210    19.6320    18.5990    20.0570    24.3500     2.1590    -9.9450 
  127.1250    65.9630    20.0940    18.9110    20.2820    24.3280     2.1530    -9.9790 
  127.2500    65.8130    20.6820    19.4260    20.3830    24.3550     2.1500    -9.9820 
  127.3750    63.4470    21.3840    20.1070    20.8430    24.4730     2.1510    -9.9540 
  127.5000    61.1670    22.2020    20.9100    21.8080    24.6820     2.1560    -9.9100 
  127.6250    62.2620    23.0870    21.7780    23.4760    24.9320     2.1630    -9.8690 
  127.7500    63.7580    23.8570    22.5840    25.1890    25.1440     2.1700    -9.8610 
  127.8750    62.3050    24.3200    23.1790    26.4960    25.2870     2.1780    -9.9040 
  128.0000    58.6090    24.3870    23.4320    26.7770    25.3760     2.1850    -9.9960 
  128.1250    57.8470    24.1110    23.2580    25.7300    25.4540     2.1870   -10.1520 
  128.2500    60.6270    23.7550    22.8530    23.8820    25.5080     2.1800   -10.3720 
  128.3750    63.5930    23.4520    22.4040    22.6710    25.4500     2.1650   -10.6510 
  128.5000    63.6010    23.2420    22.0590    21.9560    25.2180     2.1500   -10.9800 
  128.6250    61.2050    23.0980    21.8820    21.9510    24.9290     2.1430   -11.3480 
  128.7500    59.5820    22.9540    21.7800    22.3280    24.8120     2.1450   -11.7220 
  128.8750    59.0700    22.7710    21.6720    22.8460    24.9240     2.1510   -12.0870 
  129.0000    59.9520    22.5370    21.5110    22.4350    25.1400     2.1550   -12.4150 
  129.1250    64.2470    22.2490    21.2650    21.4540    25.2690     2.1470   -12.6810 
  129.2500    70.6870    21.8890    20.9070    21.0690    25.2770     2.1270   -12.8980 
  129.3750    75.3420    21.3810    20.3770    20.5740    25.2380     2.0990   -13.0730 
  129.5000    74.8340    20.6660    19.6400    19.7890    25.2380     2.0740   -13.1970 
  129.6250    71.7690    19.7850    18.7710    18.1250    25.2790     2.0680   -13.2770 
  129.7500    70.8340    18.9860    17.9980    17.3620    25.2540     2.0860   -13.3260 
  129.8750    71.3720    18.5010    17.5090    16.6970    25.1180     2.1200   -13.3380 
  130.0000    71.1920    18.4750    17.4100    16.3220    24.9390     2.1570   -13.3140 
  130.1250    69.6410    18.9670    17.7330    17.7280    24.8430     2.1780   -13.2530 
  130.2500    69.2860    19.7520    18.2890    19.9970    24.8490     2.1830   -13.1890 
  130.3750    69.1100    20.6500    18.9410    20.7810    24.8980     2.1810   -13.1210 
  130.5000    66.2260    21.4780    19.5800    20.4090    24.9260     2.1760   -13.0710 
  130.6250    62.9950    22.0320    20.0970    20.6380    24.9100     2.1690   -13.0540 
  130.7500    62.4880    22.2850    20.4420    20.9460    24.8880     2.1560   -13.0740 
  130.8750    63.3890    22.2860    20.5850    20.9520    24.8560     2.1370   -13.1310 
  131.0000    64.0040    22.1230    20.5370    20.7870    24.7620     2.1170   -13.2360 
  131.1250    65.1360    21.8460    20.3460    20.9090    24.5800     2.1060   -13.4200 
  131.2500    65.4250    21.5080    20.1380    21.0450    24.4330     2.1080   -13.6430 
  131.3750    62.0950    21.1920    20.0280    21.8520    24.4320     2.1200   -13.8980 
  131.5000    56.9940    21.0900    20.1660    23.0380    24.5710     2.1320   -14.2020 
  131.6250    56.2920    21.6260    20.8740    24.5030    24.7160     2.1370   -14.5680 
  131.7500    58.8700    23.0380    22.3160    25.1390    24.7590     2.1430   -14.9800 
  131.8750    61.1890    25.3600    24.5020    25.1490    24.6960     2.1690   -15.4380 
  132.0000    62.3690    28.0480    26.9580    27.2400    24.5720     2.2350   -15.9420 
  132.1250    64.9460    28.8500    28.2180    35.9510    24.4330     2.3440   -16.4690 
  132.2500    72.0530    26.7990    27.0900    49.8400    24.3000     2.4560   -16.9950 
  132.3750    83.5630    22.2850    23.4380    50.4500    24.1850     2.5300   -17.5180 
  132.5000    94.5160    16.9260    18.3930    32.0100    24.1020     2.5410   -18.0120 
  132.6250    98.1580    12.5410    13.7110    17.1690    24.0660     2.4880   -18.4350 
  132.7500    95.8730     9.6080    10.2750     9.2260    24.0510     2.4170   -18.7910 
  132.8750    93.9600     7.9410     8.1180     7.0360    24.0340     2.3610   -19.0920 
  133.0000    95.9840     7.1700     6.9460     6.5000    24.0100     2.3340   -19.3380 
  133.1250    98.1970     7.0180     6.4880     6.2010    23.9990     2.3350   -19.5270 
  133.2500    97.8300     7.1350     6.3710     6.1930    24.0150     2.3480   -19.6650 
  133.3750    97.9880     7.3580     6.4520     6.3180    24.0430     2.3630   -19.7560 
  133.5000   100.3170     7.5730     6.6390     6.4180    24.0520     2.3760   -19.7960 
  133.6250   100.0370     7.7030     6.8520     6.5650    24.0350     2.3790   -19.8030 
  133.7500    95.1760     7.7740     7.0360     6.8740    24.0380     2.3710   -19.7970 
  133.8750    89.7320     7.8650     7.2140     7.1990    24.0940     2.3530   -19.7770 
  134.0000    86.7500     8.0910     7.4780     7.5840    24.1830     2.3280   -19.7480 
  134.1250    82.5750     8.6470     8.0200     7.9550    24.2110     2.3060   -19.7230 
  134.2500    77.4400     9.6550     8.9450     8.4780    24.1230     2.2960   -19.7210 
  134.3750    73.5580    11.2360    10.3320     9.8810    23.9400     2.2990   -19.7340 
  134.5000    71.5450    13.3860    12.1710    13.0090    23.7350     2.3130   -19.7680 
  134.6250    70.0770    15.7710    14.2450    17.6110    23.5990     2.3300   -19.8410 
  134.7500    70.6650    17.5640    15.9430    19.5770    23.5520     2.3470   -19.9420 
  134.8750    74.3550    17.9900    16.6140    21.1970    23.5880     2.3640   -20.0660 
  135.0000    78.8750    16.7570    15.8820    19.8900    23.7010     2.3820   -20.2080 
  135.1250    81.6070    14.3240    13.9220    14.7040    23.8580     2.3950   -20.3670 
  135.2500    82.0800    11.9550    11.7930    10.4360    23.9800     2.4020   -20.5230 
  135.3750    80.0360    10.4010    10.2150     8.2940    24.0230     2.4040   -20.6920 
  135.5000    75.5830    10.0830     9.6580     7.3890    24.0030     2.4110   -20.8620 
  135.6250    70.3310    11.4870    10.6810     9.3210    23.9810     2.4370   -20.9900 
