~V
VERS. 2.00: Ver 2.00
~W
STRT.M 49.0000:
STOP.M 221.0000:
STEP.M 0.1250:
NULL. -999.2500:
UWI. F10615:
~C
DEPT.M :
DEN.GM/CC :
GR.API :
RML.OHMM :
RI. :
RXO.OHMM :
CALI.CM :
SP.MV :
~A
# ...
  206.5000     2.4600    40.8520     6.7460     5.5420     7.2870    24.2170   -22.4960 
  206.6250     2.4860    42.4630     6.9590     5.7340     7.7180    24.2320   -22.8550 
  206.7500     2.4970    42.5640     6.9760     5.7760     8.1630    24.2450   -23.1440 
  206.8750     2.4850    40.0420     6.7150     5.5950     8.3410    24.2990   -23.3210 
  207.0000     2.4400    37.2630     6.1560     5.1600     7.1980    24.4390   -23.3490 
  207.1250     2.3700    36.8170     5.4850     4.6190     5.4640    24.5910   -23.2480 
  207.2500     2.2890    36.2810     4.8690     4.1020     4.4350    24.5780   -23.0240 
  207.3750     2.2150    33.3340     4.4430     3.7170     4.0600    24.3600   -22.7170 
  207.5000     2.1790    29.6180     4.3360     3.5680     4.0910    24.2110   -22.3800 
  207.6250     2.1950    29.6400     4.5370     3.6570     4.3310    24.1550   -22.0580 
  207.7500     2.2550    34.3900     5.0260     3.9880     4.8880    24.1250   -21.7410 
  207.8750     2.3290    40.0110     5.7320     4.5290     5.9500    24.1610   -21.5210 
  208.0000     2.3780    44.0650     6.4830     5.1740     7.3380    24.1610   -21.3970 
  208.1250     2.3850    49.5380     6.9860     5.6870     8.4900    24.1290   -21.3380 
  208.2500     2.3590    55.9310     7.0110     5.8570     8.2890    24.1100   -21.2830 
  208.3750     2.3140    60.0100     6.5130     5.5980     6.7710    24.1760   -21.2100 
  208.5000     2.2700    60.2670     5.6900     4.9990     5.2500    24.2680   -21.0560 
  208.6250     2.2410    59.7460     4.9190     4.3560     4.2700    24.3570   -20.8560 
  208.7500     2.2320    58.0930     4.3630     3.8290     3.8440    24.3610   -20.6150 
  208.8750     2.2390    55.8290     4.0450     3.4750     3.8020    24.2860   -20.3370 
  209.0000     2.2600    56.2910     3.9230     3.2990     3.9080    24.3140   -20.0700 
  209.1250     2.2860    58.4860     3.8910     3.2290     3.9440    24.9070   -19.8640 
  209.2500     2.3080    59.2490     3.9240     3.2400     3.9190    25.8820   -19.7590 
  209.3750     2.3190    58.0740     4.0340     3.3290     3.9550    26.7680   -19.7810 
  209.5000     2.3180    58.2360     4.2740     3.5250     4.2510    26.9310   -19.9750 
  209.6250     2.3120    60.1370     4.6480     3.8220     4.8300    26.1880   -20.2760 
  209.7500     2.3100    61.6230     5.1330     4.2050     5.5620    25.0740   -20.6680 
  209.8750     2.3140    61.3360     5.6570     4.6320     6.1480    24.1600   -21.1060 
  210.0000     2.3230    59.7020     6.0790     5.0110     6.4160    23.8690   -21.5410 
  210.1250     2.3310    58.7470     6.2970     5.2570     6.5600    23.8180   -21.9360 
  210.2500     2.3360    58.8190     6.2770     5.3220     6.6030    23.8190   -22.2900 
  210.3750     2.3420    58.9030     6.0540     5.2090     6.6120    23.7920   -22.5520 
  210.5000     2.3520    58.9030     5.6960     4.9570     5.8860    23.7890   -22.6900 
  210.6250     2.3630    58.9030     5.3060     4.6600     5.0940    23.8920   -22.7420 
  210.7500     2.3720    58.9030     4.9410     4.3700     4.6290    24.1070   -22.7290 
  210.8750     2.3780    58.9030     4.6460     4.1220     4.7060    24.2860   -22.6320 
  211.0000     2.3800    58.9030     4.4550     3.9340     4.7320    24.2430   -22.3890 
  211.1250     2.3790    58.9030     4.3380     3.7910     4.4030    24.2760   -22.0280 
  211.2500     2.3700    58.9030     4.2570     3.6770     4.1330    24.0700   -21.5880 
  211.3750     2.3500    58.9030     4.1800     3.5840     4.0370    23.6280   -21.1180 
  211.5000     2.3220    58.9030     4.1010     3.5220     4.0150    23.3720   -20.6100 
  211.6250     2.3040    58.9030     4.0490     3.4990     3.9830    23.3050   -20.0840 
  211.7500     2.3120    58.9030     4.0420     3.5150     3.9840    23.3030   -19.5300 
  211.8750     2.3440    58.9030     4.0760     3.5560     4.0510    23.3150   -18.9940 
  212.0000     2.3740    58.9030     4.1160     3.5920     4.1960    23.3160   -18.6050 
  212.1250     2.3830    58.9030     4.1220     3.6000     4.2330    23.2930   -18.3350 
  212.2500     2.3730    58.9030     4.0790     3.5710     4.0480    23.2720   -18.1380 
  212.3750     2.3590    58.9030     4.0030     3.5180     3.8430    23.2440   -17.9870 
  212.5000     2.3510    58.9030     3.9310     3.4710     3.7770    23.1740   -17.8990 
  212.6250     2.3430    58.9030     3.8860     3.4500     3.7920    23.1020   -17.8530 
  212.7500     2.3240    58.9030     3.8750     3.4590     3.8460    23.0600   -17.8120 
  212.8750     2.2900    58.9030     3.8860     3.4860     3.9270    23.0310   -17.7310 
  213.0000     2.2560    58.9030     3.8910     3.5000     3.9290    23.0340   -17.5720 
  213.1250     2.2420    58.9030     3.8700     3.4810     3.8910    23.0520   -17.3920 
  213.2500     2.2550    58.9030     3.8160     3.4240     3.8200    23.0480   -17.2120 
  213.3750     2.2860    58.9030     3.7350     3.3400     3.7490    23.0220   -17.0290 
  213.5000     2.3120    58.9030     3.6480     3.2520     3.7430    23.0130   -16.8430 
  213.6250     2.3220    58.9030     3.5800     3.1870     3.7640    23.0120   -16.6470 
  213.7500     2.3210    58.9030     3.5580     3.1650     3.8650    23.0090   -16.4610 
  213.8750     2.3220    58.9030     3.5980     3.1910     4.0000    23.0070   -16.3270 
  214.0000     2.3300    58.9030     3.7080     3.2660     4.0890    23.0620   -16.2440 
  214.1250     2.3360    58.9030     3.7910     3.3230     4.1620    23.1130   -16.1710 
  214.2500     2.3330    58.9030     3.9960     3.4790     4.7820    23.2890   -16.1160 
  214.3750     2.3230    58.9030     4.0570     3.5460     5.3560    23.3140   -16.0950 
  214.5000     2.3150    58.9030     4.0680     3.5840     5.6370    23.3130   -16.1130 
  214.6250     2.3140    58.9030     4.0550     3.5980     5.6760    23.3090   -16.1440 
  214.7500     2.3130    58.9030     4.0440     3.5980     5.5980    23.3040   -16.1880 
  214.8750     2.3020    58.9030     4.0470     3.5940     5.4270    23.3010   -16.2350 
  215.0000     2.2780    58.9030     4.0530     3.5920     5.4120    23.2870   -16.2780 
  215.1250     2.2520    58.9030     4.0510     3.5930     5.6120    23.2360   -16.3510 
  215.2500     2.2360    58.9030     4.0360     3.5940     5.9110    23.1250   -16.4250 
  215.3750     2.2390    58.9030     4.0130     3.5960     5.9470    23.0070   -16.4490 
  215.5000     2.2650    58.9030     3.9970     3.5940     5.9090    22.8470   -16.4370 
  215.6250     2.3030    58.9030     3.9980     3.5910     5.9640    22.7000   -16.4060 
  215.7500     2.3460    58.9030     4.0150     3.5890     6.3750    22.6200   -16.3670 
  215.8750     2.3940    58.9030     4.0380     3.5910     7.2660    22.5720   -16.3120 
  216.0000     2.4460    58.9030     4.0520     3.5930     7.9950    22.4760   -16.2150 
  216.1250     2.4820    58.9030     4.0560     3.5960     8.6870    22.3510   -16.0710 
  216.2500     2.4880    58.9030     4.0560     3.5960     9.4310    22.2660   -15.9230 
  216.3750     2.4610    58.9030     4.0560     3.5960    10.1310    22.2500   -15.7470 
  216.5000     2.4150    58.9030     4.0560     3.5960    10.0410    22.2710   -15.5300 
  216.6250     2.3760    58.9030     4.0560     3.5960     9.2930    22.2980   -15.2950 
  216.7500     2.3570    58.9030     4.0560     3.5960     8.3130    22.3090   -15.0650 
  216.8750     2.3580    58.9030     4.0560     3.5960     7.8080    22.2950   -14.8470 
  217.0000     2.3660    58.9030     4.0560     3.5960     7.6430    22.2700   -14.6740 
  217.1250     2.3670    58.9030     4.0560     3.5960     7.6540    22.2560   -14.5320 
  217.2500     2.3600    58.9030     4.0560     3.5960     7.6600    22.2510   -14.4650 
  217.3750     2.3490    58.9030     4.0560     3.5960     7.5980    22.2490   -14.5020 
  217.5000     2.3400    58.9030     4.0560     3.5960     7.6080    22.2150   -14.5890 
  217.6250     2.3370    58.9030     4.0560     3.5960     7.5480    22.0590   -14.6120 
