~V
VERS. 2.00: Ver 2.00
~W
STRT.M 55.0000:
STOP.M 242.0000:
STEP.M 0.1250:
NULL. -999.2500:
UWI. F10652:
~C
DEPT.M :
SP.MV :
GR.API :
RML.OHMM :
RI. :
RXO.OHMM :
CALI.CM :
DEN.GM/CC :
~A
# ...
   66.2500   -25.4090    58.1110    11.1980     8.9730     8.9520    25.1820     2.1330 
   66.3750   -25.5320    58.6970    11.2550     8.9750     8.8020    25.0860     2.1250 
   66.5000   -25.6220    60.6320    11.3830     9.0300     8.6610    24.8620     2.1300 
   66.6250   -25.6610    59.2160    11.5280     9.1110     9.1070    24.5230     2.1450 
   66.7500   -25.6590    54.2380    11.6560     9.2040     9.8370    24.3660     2.1580 
   66.8750   -25.6390    50.7480    11.7490     9.2970    10.1930    24.4150     2.1610 
   67.0000   -25.5860    51.5160    11.7900     9.3640    10.1180    24.5410     2.1590 
   67.1250   -25.4900    54.3570    11.7820     9.3810     9.7730    24.5480     2.1570 
   67.2500   -25.3660    55.5460    11.7620     9.3680     9.4340    24.4110     2.1580 
   67.3750   -25.2150    55.4820    11.7630     9.3570     9.2990    24.2340     2.1590 
   67.5000   -25.0430    55.9640    11.8050     9.3720     9.5330    24.1130     2.1570 
   67.6250   -24.8580    57.7540    11.8700     9.4190     9.7080    24.1200     2.1490 
   67.7500   -24.6700    59.3820    11.9090     9.4570     9.8080    24.1750     2.1370 
   67.8750   -24.4780    60.6880    11.8380     9.4250     9.6120    24.2240     2.1270 
   68.0000   -24.2980    61.8620    11.5430     9.2440     9.4290    24.2500     2.1230 
   68.1250   -24.1470    62.6940    10.9050     8.8230     9.2170    24.2680     2.1370 
   68.2500   -24.0200    62.9290    10.0510     8.2320     8.8660    24.2780     2.1670 
   68.3750   -23.9350    64.9540     9.1640     7.5740     8.2660    24.2810     2.2050 
   68.5000   -23.9010    69.1930     8.4470     6.9740     7.1950    24.2790     2.2360 
   68.6250   -23.9410    72.6630     8.0950     6.5700     6.3650    24.1990     2.2430 
   68.7500   -24.0080    73.7870     8.0910     6.3870     6.4820    23.9730     2.2330 
   68.8750   -24.1210    73.8680     8.3650     6.4200     7.1140    23.6620     2.2160 
   69.0000   -24.2370    72.6660     8.8030     6.6250     7.4850    23.4770     2.2000 
   69.1250   -24.3790    70.3220     9.2540     6.9290     7.4590    23.4460     2.1870 
   69.2500   -24.4990    67.3670     9.5790     7.2190     7.5560    23.5090     2.1730 
   69.3750   -24.5880    63.5380     9.7240     7.4300     7.9110    23.6560     2.1590 
   69.5000   -24.6220    59.6320     9.7190     7.5450     8.2830    23.7940     2.1530 
   69.6250   -24.5930    58.9690     9.6940     7.6080     8.3570    23.8450     2.1590 
   69.7500   -24.5060    61.1560     9.7860     7.7110     8.2540    23.8420     2.1680 
   69.8750   -24.3360    63.2910    10.0410     7.9090     8.1490    23.8910     2.1760 
   70.0000   -24.1150    63.3620    10.4220     8.2030     8.0480    24.0670     2.1840 
   70.1250   -23.7900    60.4100    10.7620     8.5000     7.9670    24.2760     2.1950 
   70.2500   -23.4370    58.6140    10.8180     8.6230     7.8500    24.1460     2.2100 
   70.3750   -23.0530    62.6270    10.4190     8.4270     7.6700    23.7200     2.2260 
   70.5000   -22.6560    69.4580     9.5900     7.8890     7.2340    23.3860     2.2350 
   70.6250   -22.2490    70.4380     8.5880     7.1400     6.5090    23.2950     2.2360 
   70.7500   -21.8510    70.0720     7.7400     6.4230     6.0960    23.2870     2.2370 
   70.8750   -21.5070    75.9090     7.1840     5.8620     5.7740    23.2870     2.2420 
   71.0000   -21.2040    85.7270     6.9300     5.5030     5.4960    23.2850     2.2470 
   71.1250   -21.0270    89.4650     6.9090     5.3470     5.5160    23.2800     2.2520 
   71.2500   -20.8920    88.1820     6.9910     5.3130     5.4570    23.2750     2.2600 
   71.3750   -20.8360    87.4540     7.1590     5.3760     5.4710    23.2490     2.2710 
   71.5000   -20.8250    88.2610     7.4450     5.5410     5.6300    23.1810     2.2790 
   71.6250   -20.9060    86.6620     7.9190     5.8440     5.8230    23.0720     2.2740 
   71.7500   -21.0390    81.4070     8.5750     6.2760     6.0660    22.9560     2.2590 
   71.8750   -21.2080    76.1290     9.3890     6.8240     6.4590    22.8140     2.2350 
   72.0000   -21.4050    72.8580    10.2870     7.4490     7.1170    22.7080     2.2080 
   72.1250   -21.5820    68.5760    11.1110     8.0700     7.6780    22.7820     2.1800 
   72.2500   -21.7560    61.9720    11.7040     8.5880     8.4550    22.9580     2.1540 
   72.3750   -21.9160    57.2130    11.9760     8.9310     9.0550    23.1340     2.1290 
   72.5000   -22.0640    57.2490    11.9370     9.0700     9.1870    23.2620     2.1070 
   72.6250   -22.1570    60.6020    11.6930     9.0100     9.2030    23.3310     2.0970 
   72.7500   -22.2140    62.0960    11.4410     8.8550     9.2700    23.3440     2.0970 
   72.8750   -22.2240    61.2730    11.2720     8.6780     9.1610    23.3310     2.1030 
   73.0000   -22.1860    61.1900    11.2090     8.5300     8.9540    23.3440     2.1100 
   73.1250   -22.1190    61.6190    11.2500     8.4630     8.8100    23.3620     2.1130 
   73.2500   -22.0180    58.4020    11.3840     8.4810     8.8360    23.3850     2.1140 
   73.3750   -21.8900    53.4060    11.6410     8.5910     8.9510    23.4130     2.1150 
   73.5000   -21.7350    53.8310    12.0440     8.7980     9.0270    23.4400     2.1220 
   73.6250   -21.5590    61.3250    12.5750     9.1170     9.0680    23.4720     2.1390 
   73.7500   -21.3740    66.3600    13.1100     9.5100     9.2450    23.5110     2.1610 
   73.8750   -21.1760    65.7100    13.5390     9.9200     9.8850    23.5610     2.1790 
   74.0000   -20.9840    62.9670    13.7720    10.2680    10.9270    23.7170     2.1880 
   74.1250   -20.7780    60.5770    13.7400    10.4470    11.0340    23.9900     2.1870 
   74.2500   -20.6020    58.1990    13.5270    10.4530     9.7080    24.1410     2.1820 
   74.3750   -20.4180    56.9670    13.2150    10.3270     8.6350    23.9720     2.1750 
   74.5000   -20.2580    58.2770    12.8580    10.1240     8.2020    23.7280     2.1640 
   74.6250   -20.0810    60.8950    12.4160     9.8390     8.2960    23.6250     2.1430 
   74.7500   -19.9130    62.3500    11.8130     9.4250     8.6810    23.6740     2.1230 
   74.8750   -19.7590    63.0700    10.9980     8.8360     8.9680    23.7470     2.1170 
   75.0000   -19.6170    66.9150    10.0130     8.0820     8.4970    23.7600     2.1320 
   75.1250   -19.4810    74.9980     9.0130     7.2540     7.1940    23.7450     2.1670 
   75.2500   -19.3270    82.7520     8.1690     6.4990     6.1350    23.7400     2.2050 
   75.3750   -19.1770    85.5620     7.5450     5.9020     5.7960    23.7370     2.2300 
   75.5000   -19.0370    84.7000     7.1370     5.4910     5.7890    23.7340     2.2450 
   75.6250   -18.9240    82.8640     6.9310     5.2760     5.7770    23.7430     2.2600 
   75.7500   -18.8200    80.6220     6.8480     5.1850     5.5960    23.7920     2.2790 
   75.8750   -18.7070    78.8080     6.8560     5.1770     5.4420    23.9050     2.2970 
   76.0000   -18.5730    77.2000     6.9230     5.2170     5.3590    24.0080     2.3070 
   76.1250   -18.4390    76.3530     7.0100     5.2890     6.0250    24.0240     2.3060 
   76.2500   -18.2920    76.7380     7.0830     5.3730     6.7560    23.9650     2.2980 
   76.3750   -18.1690    78.9280     7.1380     5.4540     6.5830    23.8980     2.2850 
   76.5000   -18.0110    81.1790     7.1860     5.5270     6.1050    23.8540     2.2710 
   76.6250   -17.8650    80.3910     7.2490     5.5920     5.9750    23.8110     2.2550 
   76.7500   -17.7340    79.2030     7.3320     5.6580     6.1170    23.7090     2.2420 
   76.8750   -17.6020    78.9710     7.4360     5.7310     6.2330    23.6500     2.2370 
   77.0000   -17.5170    78.4840     7.5470     5.8090     6.2800    23.7630     2.2410 
   77.1250   -17.4850    76.5190     7.6430     5.8820     6.2210    23.9340     2.2470 
   77.2500   -17.4830    74.8500     7.7130     5.9370     6.2570    24.0020     2.2480 
   77.3750   -17.5000    74.6110     7.7420     5.9680     6.4660    23.9500     2.2440 
