~V
VERS. 2.00: Ver 2.00
~W
STRT.M 50.0000:
STOP.M 265.0000:
STEP.M 0.1250:
NULL. -999.2500:
UWI. F10671:
~C
DEPT.M :
GR.API :
RML.OHMM :
RI. :
RXO.OHMM :
CALI.CM :
DEN.GM/CC :
SP.MV :
~A
# ...
  241.2500    32.4660     5.5630     4.7540     3.8140    23.7530     2.3100    -4.5310 
  241.3750    33.4510     5.5160     4.7460     3.9760    23.9450     2.3150    -4.4570 
  241.5000    33.9100     5.3750     4.6610     4.0430    24.0360     2.3110    -4.3650 
  241.6250    34.2440     5.2280     4.5490     4.1310    24.0530     2.3020    -4.2590 
  241.7500    33.9600     5.2510     4.5540     4.5920    24.0600     2.3010    -4.2060 
  241.8750    32.4020     5.6140     4.8200     5.8930    24.0710     2.3210    -4.2070 
  242.0000    29.7740     6.3850     5.4240     8.6310    24.0960     2.3700    -4.1870 
  242.1250    27.5520     7.4840     6.3150    12.8490    24.1490     2.4430    -4.1850 
  242.2500    26.2170     8.4840     7.1630    17.1270    24.2220     2.5100    -4.2350 
  242.3750    25.7940     8.9720     7.6280    19.6790    24.2830     2.5430    -4.3120 
  242.5000    26.2690     8.6370     7.4540    17.8750    24.3240     2.5250    -4.4230 
  242.6250    27.9730     7.4290     6.5850    11.9690    24.3950     2.4530    -4.5480 
  242.7500    30.2630     5.9220     5.4930     7.7380    24.5470     2.3640    -4.6510 
  242.8750    32.2560     4.5550     4.5330     5.2360    24.7640     2.2870    -4.7460 
  243.0000    32.8330     3.7250     3.8900     4.3390    25.0070     2.2420    -4.8610 
  243.1250    30.9220     3.6140     3.6210     4.2310    25.1850     2.2420    -4.9810 
  243.2500    27.6570     3.7080     3.5810     4.3650    25.2010     2.2700    -5.0890 
  243.3750    25.1640     3.8810     3.6650     4.4840    25.1640     2.3100    -5.1560 
  243.5000    25.7750     4.0340     3.7810     4.5650    25.3060     2.3410    -5.2200 
  243.6250    28.7380     4.0890     3.8490     4.5700    25.5060     2.3480    -5.2990 
  243.7500    30.3700     4.0560     3.8480     4.5020    25.5970     2.3360    -5.3630 
  243.8750    29.1160     3.9660     3.7880     4.3750    25.5750     2.3130    -5.3940 
  244.0000    26.1950     3.8610     3.6980     4.2400    25.5050     2.2890    -5.4440 
  244.1250    25.6410     3.7890     3.6200     4.1270    25.3940     2.2720    -5.4960 
  244.2500    27.8020     3.7690     3.5810     4.1060    25.2390     2.2680    -5.5410 
  244.3750    30.9890     3.8050     3.5930     4.1910    25.1210     2.2750    -5.6280 
  244.5000    33.7900     3.8880     3.6570     4.2940    25.0600     2.2910    -5.6990 
  244.6250    36.8990     4.0100     3.7600     4.3940    25.0010     2.3150    -5.7090 
  244.7500    39.3670     4.1430     3.8740     4.4900    24.8750     2.3470    -5.6920 
  244.8750    40.2750     4.2650     3.9750     4.5600    24.7290     2.3890    -5.6800 
  245.0000    39.5010     4.3550     4.0470     4.5760    24.5870     2.4330    -5.5940 
  245.1250    39.6890     4.3890     4.0690     4.4670    24.4270     2.4580    -5.4700 
  245.2500    40.3220     4.3710     4.0430     4.3920    24.3800     2.4500    -5.3180 
  245.3750    41.2180     4.3020     3.9730     4.3890    24.5220     2.4050    -5.1620 
  245.5000    42.4320     4.1940     3.8680     4.3580    24.7420     2.3350    -4.9820 
  245.6250    41.8760     4.0470     3.7430     4.2520    24.8780     2.2590    -4.7990 
  245.7500    38.1310     3.8970     3.6210     4.1390    24.8560     2.2020    -4.6640 
  245.8750    32.7280     3.7630     3.5190     4.0760    24.7940     2.1780    -4.5660 
  246.0000    28.5970     3.6640     3.4490     4.0490    24.8250     2.1910    -4.5170 
  246.1250    27.3320     3.6670     3.4210     4.0640    24.9640     2.2360    -4.4930 
  246.2500    28.0860     3.6940     3.4210     4.0110    25.1290     2.2860    -4.5100 
  246.3750    30.2950     3.7260     3.4350     3.8860    25.1290     2.3250    -4.5170 
  246.5000    31.6130     3.7430     3.4480     3.7570    24.9870     2.3440    -4.5330 
  246.6250    31.1720     3.7320     3.4450     3.6170    24.8570     2.3490    -4.5790 
  246.7500    30.3650     3.7000     3.4270     3.5450    24.8250     2.3520    -4.5910 
  246.8750    28.9440     3.6580     3.4000     3.5460    24.9130     2.3520    -4.5660 
  247.0000    26.8940     3.6220     3.3720     3.5810    25.1240     2.3440    -4.5200 
  247.1250    26.2460     3.6130     3.3580     3.6270    25.2130     2.3220    -4.4050 
  247.2500    27.4850     3.6350     3.3610     3.6480    25.2450     2.2960    -4.2470 
  247.3750    27.7770     3.6820     3.3810     3.7030    25.5820     2.2760    -4.1040 
  247.5000    26.1800     3.7360     3.4080     3.7630    26.1380     2.2690    -3.9690 
  247.6250    26.0420     3.7700     3.4300     3.8240    26.2480     2.2740    -3.8530 
  247.7500    27.1820     3.7750     3.4360     3.8980    26.1320     2.2760    -3.7640 
  247.8750    26.9600     3.7490     3.4210     3.9850    26.1050     2.2680    -3.7210 
  248.0000    25.4260     3.7020     3.3860     3.9970    26.1540     2.2500    -3.6930 
  248.1250    25.1530     3.6400     3.3330     3.9080    26.2640     2.2340    -3.7370 
  248.2500    25.6710     3.5740     3.2760     3.8100    26.4820     2.2300    -3.8140 
  248.3750    25.7070     3.5100     3.2240     3.7380    26.4160     2.2350    -3.8820 
  248.5000    25.3090     3.4630     3.1900     3.7020    25.7130     2.2340    -3.9780 
  248.6250    25.5030     3.4670     3.1900     3.6990    25.1500     2.2070    -4.0560 
  248.7500    26.9020     3.5370     3.2290     3.7730    24.8830     2.1620    -4.1640 
  248.8750    29.1380     3.6750     3.3120     3.8580    24.9170     2.1210    -4.2580 
  249.0000    31.1310     3.8560     3.4300     3.9610    25.0360     2.1080    -4.3060 
  249.1250    32.2280     4.0210     3.5580     4.1190    24.8480     2.1390    -4.3320 
  249.2500    35.5560     4.1150     3.6560     4.2810    24.5880     2.1940    -4.3360 
  249.3750    39.9540     4.1110     3.6970     4.4140    24.3270     2.2500    -4.3080 
  249.5000    40.1950     4.0180     3.6690     4.4310    24.1560     2.2900    -4.2680 
  249.6250    34.7320     3.8710     3.5790     4.1460    24.1010     2.3100    -4.2560 
  249.7500    30.5780     3.7320     3.4740     3.8980    24.1150     2.3240    -4.2100 
  249.8750    30.8810     3.6380     3.3880     3.8630    24.1670     2.3330    -4.1310 
  250.0000    32.3440     3.6060     3.3400     3.9050    24.2130     2.3360    -4.0840 
  250.1250    31.6280     3.6340     3.3370     3.9150    24.2460     2.3290    -4.0470 
  250.2500    31.0010     3.6860     3.3570     3.9140    24.2580     2.3160    -4.0490 
  250.3750    30.9960     3.7330     3.3790     3.9170    24.2670     2.3060    -4.1070 
  250.5000    30.9700     3.7540     3.3880     3.9630    24.2670     2.3030    -4.1680 
  250.6250    29.5310     3.7380     3.3740     3.9720    24.2310     2.3070    -4.2120 
  250.7500    26.8850     3.6970     3.3420     3.9040    24.1670     2.3130    -4.2650 
  250.8750    24.0600     3.6430     3.3000     3.7850    24.1130     2.3170    -4.3310 
  251.0000    22.4150     3.5960     3.2590     3.6850    24.1200     2.3140    -4.4410 
  251.1250    22.6350     3.5760     3.2340     3.6220    24.2210     2.2950    -4.5810 
  251.2500    23.3740     3.5820     3.2280     3.6460    24.4350     2.2640    -4.6690 
  251.3750    24.1130     3.6060     3.2370     3.7250    24.7310     2.2310    -4.7300 
  251.5000    24.4030     3.6250     3.2550     3.7700    24.9340     2.2090    -4.7930 
  251.6250    24.2050     3.6200     3.2660     3.7920    24.8440     2.2150    -4.9040 
  251.7500    24.3930     3.5920     3.2650     3.7750    24.5800     2.2400    -5.0490 
  251.8750    25.1830     3.5550     3.2540     3.7170    24.3160     2.2660    -5.1800 
  252.0000    25.3840     3.5280     3.2410     3.6270    24.1810     2.2800    -5.2500 
  252.1250    24.6950     3.5360     3.2440     3.5880    24.1300     2.2780    -5.3070 
  252.2500    24.6390     3.5830     3.2750     3.6430    24.0650     2.2780    -5.4440 
  252.3750    25.1450     3.6640     3.3350     3.7520    23.9640     2.2920    -5.6090 
