~V
VERS. 2.00: Ver 2.00
~W
STRT.M 49.0000:
STOP.M 217.0000:
STEP.M 0.1250:
NULL. -999.2500:
UWI. F10685:
~C
DEPT.M :
SP.MV :
DEN.GM/CC :
GR.API :
RML.OHMM :
RI. :
RXO.OHMM :
CALI.CM :
~A
# ...
  172.7500   -17.0100     2.2750    57.5610    36.3100    33.0090    31.0420    24.3560 
  172.8750   -17.3800     2.2670    56.6280    36.0440    32.7670    32.3700    24.4250 
  173.0000   -17.8220     2.2460    57.3420    35.8310    32.5730    32.6210    24.4790 
  173.1250   -18.3030     2.2190    60.4300    36.0760    32.7970    32.0630    24.5110 
  173.2500   -18.8660     2.2010    63.0910    37.3230    33.9300    30.6790    24.5580 
  173.3750   -19.5570     2.2100    62.2730    40.2200    36.5630    30.6830    24.6440 
  173.5000   -20.3000     2.2600    58.1890    45.2920    41.1750    33.1380    24.6960 
  173.6250   -21.1060     2.3570    55.0360    52.9230    48.1120    41.4840    24.8380 
  173.7500   -21.9850     2.4710    54.3530    61.6410    56.0370    55.3370    24.9180 
  173.8750   -22.9320     2.5740    55.2880    69.2780    62.9800    71.6370    24.5790 
  174.0000   -23.9260     2.6410    55.7800    73.2740    66.6120    78.9330    24.1120 
  174.1250   -24.9500     2.6620    57.0620    71.5070    65.0060    72.5670    23.7090 
  174.2500   -25.9610     2.6550    62.2460    66.1610    60.1470    61.3300    23.6900 
  174.3750   -26.8950     2.6350    68.6020    59.6140    54.1940    53.7170    23.9320 
  174.5000   -27.7400     2.6140    71.4410    53.8160    48.9240    44.7480    23.9510 
  174.6250   -28.4480     2.5970    70.9270    50.0910    45.5370    35.4470    23.9320 
  174.7500   -28.9580     2.5900    71.7870    48.1780    43.7980    31.2640    24.0690 
  174.8750   -29.2430     2.5940    74.9940    47.7210    43.3830    32.5250    24.2710 
  175.0000   -29.2600     2.6080    79.0590    48.4430    44.0390    37.6200    24.4240 
  175.1250   -28.9600     2.6300    81.2520    50.3220    45.7470    43.8100    24.4900 
  175.2500   -28.4120     2.6540    79.8450    52.4840    47.7120    39.5340    24.6470 
  175.3750   -27.6440     2.6700    74.5170    53.1850    48.3500    33.9480    24.6340 
  175.5000   -26.7090     2.6630    69.2210    49.8650    45.3310    40.2240    24.6490 
  175.6250   -25.5950     2.6150    65.2980    40.4950    36.8130    49.9270    24.5710 
  175.7500   -24.3930     2.5350    61.7960    28.9000    26.2730    39.1190    24.4680 
  175.8750   -23.1030     2.4430    59.4930    18.8190    17.1080    17.9350    23.9280 
  176.0000   -21.7830     2.3600    59.0540    11.9110    10.8280     7.7780    23.1650 
  176.1250   -20.5440     2.3090    60.7830     8.2170     7.4700     5.1090    21.7580 
  176.2500   -19.4520     2.2880    64.1100     6.3050     5.7310     4.6410    21.5000 
  176.3750   -18.5740     2.2870    68.4600     5.5580     5.0530     4.7070    21.2760 
  176.5000   -17.8770     2.2920    70.8090     5.5850     5.0770     4.9130    20.5330 
  176.6250   -17.3610     2.2950    68.8660     6.1600     5.6000     5.2030    19.5580 
  176.7500   -17.0500     2.2980    64.4780     6.9990     6.3630     5.5170    19.2950 
  176.8750   -16.9400     2.3040    59.1930     7.9850     7.2590     6.1890    20.2700 
  177.0000   -17.0170     2.3130    55.3710     9.0280     8.2070     7.2450    21.7350 
  177.1250   -17.1950     2.3270    54.0370    10.0500     9.1360     8.3880    23.2530 
  177.2500   -17.3430     2.3520    55.8140    11.0510    10.0460     8.9590    23.6190 
  177.3750   -17.4500     2.3880    59.9820    12.0910    10.9920     9.5080    23.1530 
  177.5000   -17.5110     2.4300    65.2440    13.2240    12.0220    10.3580    22.7210 
  177.6250   -17.5430     2.4580    68.8030    14.4690    13.1530    12.7860    22.4850 
  177.7500   -17.5350     2.4590    68.3740    15.7460    14.3140    16.8150    22.8450 
  177.8750   -17.4960     2.4370    65.7290    16.9530    15.4120    19.9950    24.1700 
  178.0000   -17.4380     2.4070    62.0090    18.0080    16.3710    19.4080    24.8210 
  178.1250   -17.3680     2.3840    60.1560    18.9630    17.2390    18.5410    24.9530 
  178.2500   -17.2880     2.3730    62.5990    20.0940    18.2670    19.2120    24.9980 
  178.3750   -17.2180     2.3640    67.7000    21.7230    19.7480    21.0310    24.9600 
  178.5000   -17.1570     2.3480    70.5050    24.2070    22.0060    23.5670    24.9410 
  178.6250   -17.0910     2.3190    68.1280    28.5350    25.5290    28.1760    24.9720 
  178.7500   -17.0470     2.2830    63.9510    34.9740    30.1620    34.1430    25.0640 
  178.8750   -16.9980     2.2540    59.3870    40.4890    35.4660    40.4430    25.1190 
  179.0000   -16.8940     2.2450    54.8450    45.2060    40.4990    47.4650    24.8720 
  179.1250   -16.8030     2.2630    53.2590    47.4300    43.4900    58.5200    24.9210 
  179.2500   -16.6900     2.2990    55.7100    46.6990    43.6920    64.9360    25.0680 
  179.3750   -16.5310     2.3370    58.5580    43.5280    41.4230    57.1430    25.1980 
  179.5000   -16.3630     2.3630    59.5880    39.5070    38.0180    44.7500    25.2700 
  179.6250   -16.1620     2.3660    59.6930    36.7260    35.1730    35.8690    25.2730 
  179.7500   -15.9480     2.3510    59.1580    36.0240    33.7580    33.5190    25.2640 
  179.8750   -15.7440     2.3240    57.9160    37.3980    34.0450    35.9050    25.2170 
  180.0000   -15.5760     2.2940    56.5330    40.2770    35.9640    41.5800    25.1890 
  180.1250   -15.3760     2.2740    56.1600    43.7420    39.1880    43.4350    25.1390 
  180.2500   -15.1890     2.2670    54.0540    46.7240    42.6580    43.8180    25.1160 
  180.3750   -15.0100     2.2730    51.3130    48.7710    45.5650    46.4720    25.1170 
  180.5000   -14.7950     2.2850    52.6770    49.8650    47.3890    53.3470    25.3270 
  180.6250   -14.5860     2.2950    58.1760    50.2550    47.9670    53.6860    25.3860 
  180.7500   -14.3460     2.3020    61.9150    50.4830    47.9910    50.7240    25.4540 
  180.8750   -14.0520     2.3080    62.1450    51.0510    48.0790    48.5070    25.4720 
  181.0000   -13.7210     2.3220    60.8070    52.4970    48.8000    48.5900    25.5150 
  181.1250   -13.4080     2.3570    58.9840    55.1220    50.6440    48.4340    25.5960 
  181.2500   -13.0710     2.4060    56.0870    57.6750    52.9310    49.7050    25.5620 
  181.3750   -12.7060     2.4560    53.8270    58.2170    54.2040    52.8590    25.4780 
  181.5000   -12.3840     2.4800    53.9770    54.9340    52.6920    57.7500    25.4180 
  181.6250   -12.0270     2.4560    56.8110    47.4060    47.1790    56.0600    25.2910 
  181.7500   -11.6670     2.4040    60.5360    38.7420    39.7890    44.0310    25.2160 
  181.8750   -11.3660     2.3540    65.8060    31.3120    32.6590    29.1900    25.0550 
  182.0000   -11.0780     2.3320    72.1790    26.2670    27.2210    21.1040    25.0520 
  182.1250   -10.8350     2.3520    75.7740    24.0050    24.2010    20.0970    25.0990 
  182.2500   -10.6380     2.3890    74.6150    23.4600    22.9430    21.4290    25.0880 
  182.3750   -10.4690     2.4170    72.1220    23.8340    22.9880    22.7770    25.0360 
  182.5000   -10.3330     2.4200    71.9400    24.3670    23.7670    25.1740    25.0980 
  182.6250   -10.2710     2.4030    72.0180    24.4270    24.5150    27.2670    25.1420 
  182.7500   -10.2870     2.3850    71.0290    23.9960    24.6310    25.6810    24.9820 
  182.8750   -10.3730     2.3790    70.2880    23.4080    24.0180    23.0490    24.9590 
  183.0000   -10.5220     2.3800    70.7870    23.0560    23.0110    21.8170    25.1330 
  183.1250   -10.7190     2.3750    72.3700    23.3700    22.2690    20.9870    25.0960 
  183.2500   -10.9560     2.3550    74.4950    24.5320    22.3180    19.4480    24.8590 
  183.3750   -11.2330     2.3250    75.0370    26.7220    23.5330    19.9120    24.5560 
  183.5000   -11.5540     2.2960    71.9030    29.9660    26.1940    25.2900    24.4160 
  183.6250   -11.8790     2.2790    66.3710    34.1910    30.6060    36.7580    24.5470 
  183.7500   -12.1460     2.2760    63.5740    38.7390    36.0610    40.7120    24.5900 
  183.8750   -12.3900     2.2810    62.6180    42.8600    41.5940    41.2720    24.6420 
