~V
VERS. 2.00: Ver 2.00
~W
STRT.M 57.0000:
STOP.M 248.0000:
STEP.M 0.1250:
NULL. -999.2500:
UWI. F10637:
~C
DEPT.M :
SP.MV :
GR.API :
RML.OHMM :
RI. :
RXO.OHMM :
CALI.CM :
DEN.GM/CC :
~A
# ...
  102.0000   -17.1400    68.7960     8.7070     6.1310     5.5740    23.8990     2.2470 
  102.1250   -17.1350    68.0280    10.0200     7.0650     7.0140    23.8270     2.2240 
  102.2500   -17.1380    65.4880    11.1940     8.0870     7.8130    23.8950     2.2040 
  102.3750   -17.1480    63.2630    11.7720     8.7970     8.8630    23.9970     2.1860 
  102.5000   -17.1550    65.1620    11.5350     8.9240     9.4420    24.0880     2.1750 
  102.6250   -17.1490    69.9070    10.6010     8.4410     9.4160    24.1440     2.1770 
  102.7500   -17.1150    70.7930     9.3420     7.5490     9.0330    24.1900     2.2060 
  102.8750   -17.0460    70.2730     8.2040     6.6290     8.7180    24.2440     2.2540 
  103.0000   -16.9370    73.1070     7.3580     5.8610     8.4400    24.3410     2.3060 
  103.1250   -16.7950    79.0410     6.8350     5.3190     8.1090    24.5090     2.3380 
  103.2500   -16.6400    83.1280     6.6240     5.0370     7.3880    24.6990     2.3340 
  103.3750   -16.5010    84.5830     6.6000     4.9320     7.1790    24.8750     2.3090 
  103.5000   -16.3910    85.7280     6.6850     4.9500     6.9700    24.8880     2.2830 
  103.6250   -16.3210    85.0490     6.8010     5.0340     6.6770    24.7980     2.2700 
  103.7500   -16.3020    80.8500     6.8830     5.1340     5.7610    24.7310     2.2720 
  103.8750   -16.3260    76.6180     6.9080     5.2110     5.6610    24.7190     2.2810 
  104.0000   -16.3930    75.4610     6.8650     5.2380     5.6130    24.6720     2.2880 
  104.1250   -16.4910    75.4970     6.7460     5.1920     5.5680    24.6480     2.2920 
  104.2500   -16.5980    76.6820     6.5490     5.0580     5.5300    24.7940     2.2950 
  104.3750   -16.6970    80.1720     6.3210     4.8780     5.2100    25.0280     2.3020 
  104.5000   -16.7790    84.8740     6.1130     4.6920     4.8330    25.2040     2.3100 
  104.6250   -16.8370    87.5610     5.9860     4.5500     4.8740    25.2880     2.3150 
  104.7500   -16.8750    86.7960     6.0210     4.5170     4.7190    25.2330     2.3110 
  104.8750   -16.9040    84.6950     6.2070     4.5990     4.8070    25.0940     2.3090 
  105.0000   -16.9260    83.0310     6.5010     4.7810     5.1410    24.8540     2.3190 
  105.1250   -16.9440    79.8750     6.8270     5.0160     5.5790    24.7510     2.3480 
  105.2500   -16.9610    75.6420     7.0980     5.2400     6.0930    24.8770     2.3850 
  105.3750   -16.9740    75.2060     7.3010     5.4190     5.9580    24.9350     2.4040 
  105.5000   -16.9800    80.3940     7.4680     5.5580     5.8520    24.8880     2.4000 
  105.6250   -16.9790    86.4420     7.6350     5.6760     5.9290    24.8620     2.3860 
  105.7500   -16.9670    84.5590     7.7870     5.7710     6.0780    24.8850     2.3870 
  105.8750   -16.9430    77.1790     7.8430     5.8090     6.1730    24.9560     2.3990 
  106.0000   -16.9130    71.5660     7.7150     5.7320     6.2130    24.8660     2.4020 
  106.1250   -16.8840    72.9020     7.3780     5.5140     6.1360    24.6720     2.3850 
  106.2500   -16.8670    78.5410     6.9370     5.2010     5.8830    24.5260     2.3550 
  106.3750   -16.8720    81.5660     6.5960     4.9250     5.5810    24.4300     2.3330 
  106.5000   -16.9010    81.7230     6.4760     4.7810     5.3620    24.3190     2.3250 
  106.6250   -16.9590    81.2560     6.6070     4.8140     5.2680    24.3680     2.3210 
  106.7500   -17.0560    79.7970     6.9500     5.0290     5.2890    24.5100     2.3010 
  106.8750   -17.1860    76.3680     7.3330     5.3180     5.4170    24.4400     2.2690 
  107.0000   -17.3340    72.6840     7.6150     5.5810     5.6440    24.1430     2.2350 
  107.1250   -17.4950    71.5040     7.7100     5.7320     5.8830    23.8860     2.2110 
  107.2500   -17.6540    74.6870     7.5780     5.7080     6.0180    23.7380     2.2020 
  107.3750   -17.8000    79.1250     7.3210     5.5610     5.9880    23.6100     2.2060 
  107.5000   -17.9220    81.2220     7.0250     5.3540     5.8950    23.5180     2.2220 
  107.6250   -18.0090    80.6280     6.7620     5.1510     5.8540    23.4890     2.2430 
  107.7500   -18.0410    81.1550     6.5930     5.0110     5.7570    23.4990     2.2620 
  107.8750   -18.0210    81.9250     6.5200     4.9450     5.5740    23.4830     2.2720 
  108.0000   -17.9560    80.6660     6.5420     4.9510     5.4070    23.4360     2.2760 
  108.1250   -17.8560    79.2560     6.6350     5.0130     5.3180    23.3440     2.2780 
  108.2500   -17.7290    80.3760     6.7400     5.0910     5.3420    23.3000     2.2810 
  108.3750   -17.5870    81.7080     6.7910     5.1340     5.5680    23.2850     2.2820 
  108.5000   -17.4350    81.4000     6.7730     5.1220     5.8940    23.2850     2.2780 
  108.6250   -17.2780    81.0370     6.7230     5.0720     6.0820    23.2770     2.2680 
  108.7500   -17.1310    82.0220     6.7170     5.0390     6.1540    23.2540     2.2540 
  108.8750   -17.0040    83.0990     6.7910     5.0610     6.1410    23.2200     2.2390 
  109.0000   -16.8940    82.5210     6.9370     5.1430     6.0350    23.1880     2.2260 
  109.1250   -16.7970    79.1130     7.1370     5.2730     5.8760    23.1370     2.2160 
  109.2500   -16.7180    76.8960     7.4120     5.4660     5.8000    23.1160     2.2150 
  109.3750   -16.6460    77.7990     7.7790     5.7380     6.0230    23.2070     2.2220 
  109.5000   -16.5820    77.7630     8.2320     6.0970     6.5920    23.3990     2.2430 
  109.6250   -16.5300    73.1320     8.6930     6.5010     7.2660    23.5980     2.2850 
  109.7500   -16.4880    69.6370     8.9840     6.8330     7.6910    23.7390     2.3480 
  109.8750   -16.4570    72.4480     8.9970     6.9760     7.8810    23.8170     2.4030 
  110.0000   -16.4500    78.1190     8.7230     6.8770     7.9610    23.8230     2.4240 
  110.1250   -16.4740    81.8460     8.2800     6.5810     7.9240    23.7540     2.4000 
  110.2500   -16.5200    82.2720     7.8620     6.2150     7.6940    23.6050     2.3450 
  110.3750   -16.5850    80.7090     7.5980     5.9180     7.2930    23.4470     2.2940 
  110.5000   -16.6720    77.1000     7.5090     5.7440     6.3820    23.3930     2.2660 
  110.6250   -16.7680    73.1690     7.5460     5.6910     6.2230    23.4360     2.2670 
  110.7500   -16.8580    71.5150     7.6150     5.7090     6.5860    23.4920     2.2840 
  110.8750   -16.9250    71.7290     7.6160     5.7080     6.7810    23.4910     2.2970 
  111.0000   -16.9550    73.0750     7.5040     5.6400     6.7380    23.4890     2.2930 
  111.1250   -16.9510    74.7260     7.2760     5.4840     6.8850    23.5770     2.2710 
  111.2500   -16.9240    74.2020     6.9930     5.2650     7.2570    23.6520     2.2430 
  111.3750   -16.8960    72.9590     6.8150     5.0890     7.4160    23.6970     2.2230 
  111.5000   -16.8780    73.2360     6.9130     5.0830     7.3520    23.7200     2.2260 
  111.6250   -16.8920    74.0750     7.4260     5.3600     7.2360    23.7350     2.2640 
  111.7500   -16.9650    71.4610     8.4860     6.0460     8.0670    23.7240     2.3410 
  111.8750   -17.1050    66.9210     9.8930     7.0390    10.2360    23.6520     2.4170 
  112.0000   -17.3200    63.6510    11.3270     8.1590    11.7420    23.5110     2.4470 
  112.1250   -17.6000    60.3240    12.3460     9.0960    11.9760    23.2910     2.4100 
  112.2500   -17.9290    55.2340    12.5180     9.4660    11.8560    23.0130     2.3230 
  112.3750   -18.2790    51.4940    12.1260     9.3530    11.5770    22.8410     2.2360 
  112.5000   -18.6300    50.8720    11.5490     8.9870    10.9070    22.8430     2.1740 
  112.6250   -18.9590    52.4780    11.0460     8.5770    10.5950    22.9850     2.1470 
  112.7500   -19.2460    53.3110    10.6520     8.2010    10.3610    23.2030     2.1530 
  112.8750   -19.4980    54.6630    10.2150     7.8050    10.1380    23.3810     2.1780 
  113.0000   -19.7090    56.5870     9.6740     7.3490     9.8290    23.5010     2.2090 
  113.1250   -19.8840    58.7390     9.1100     6.8700     9.5050    23.6340     2.2310 
