~V
VERS. 2.00: Ver 2.00
~W
STRT.M 52.0000:
STOP.M 260.0000:
STEP.M 0.1250:
NULL. -999.2500:
UWI. F10654:
~C
DEPT.M :
SP.MV :
GR.API :
RML.OHMM :
RI. :
RXO.OHMM :
CALI.CM :
DEN.GM/CC :
~A
# ...
  232.0000    -4.3620    61.3330     5.7010     4.8440     5.2700    22.3220     2.4000 
  232.1250    -4.3030    57.5990     5.5140     4.6540     5.3410    22.4250     2.4020 
  232.2500    -4.2390    50.8770     5.4450     4.5580     5.1890    22.5380     2.4050 
  232.3750    -4.1660    45.4140     5.5510     4.6080     4.7120    22.5440     2.4150 
  232.5000    -4.0910    45.1070     5.8970     4.8720     4.3570    22.4550     2.4390 
  232.6250    -4.0320    46.3050     6.3820     5.2860     4.6070    22.3730     2.4670 
  232.7500    -3.9800    47.6140     6.8630     5.7460     5.2320    22.2830     2.4870 
  232.8750    -3.9360    51.3970     7.1620     6.0980     5.9390    22.1400     2.4880 
  233.0000    -3.9260    56.5830     7.0840     6.1450     6.2040    21.8750     2.4660 
  233.1250    -3.9640    58.8520     6.6990     5.8910     5.7980    21.4530     2.4360 
  233.2500    -4.0400    56.9970     6.1490     5.4260     4.8830    20.9440     2.4090 
  233.3750    -4.1600    52.6330     5.6070     4.8980     4.2290    20.4890     2.3880 
  233.5000    -4.3320    49.0210     5.2090     4.4470     4.0940    20.2440     2.3760 
  233.6250    -4.5380    48.2020     4.9570     4.1150     4.1290    20.1010     2.3680 
  233.7500    -4.7980    47.4270     4.8350     3.9090     4.1660    20.0610     2.3650 
  233.8750    -5.1350    43.7800     4.8490     3.8360     4.1910    20.1240     2.3640 
  234.0000    -5.5470    40.8570     5.0680     3.9530     4.4310    20.2390     2.3670 
  234.1250    -5.9940    44.2990     5.5140     4.2770     4.9110    20.3440     2.3730 
  234.2500    -6.4720    52.3240     6.2050     4.8380     5.6390    20.4370     2.3850 
  234.3750    -6.9760    59.9460     7.1100     5.6290     6.5670    20.5350     2.4040 
  234.5000    -7.4810    64.9570     8.1360     6.6040     7.5220    20.6610     2.4300 
  234.6250    -7.9670    67.1100     9.1110     7.5990     8.4110    20.9120     2.4520 
  234.7500    -8.4240    67.1000     9.8990     8.4740     9.2470    21.2790     2.4640 
  234.8750    -8.8190    67.5330    10.4030     9.1040     9.8830    21.7100     2.4610 
  235.0000    -9.1450    69.0320    10.5250     9.3600    10.2010    22.0140     2.4460 
  235.1250    -9.4370    68.8430    10.3470     9.2930    10.0400    22.1640     2.4290 
  235.2500    -9.6910    66.6570     9.9310     8.9540     9.6990    22.2060     2.4130 
  235.3750    -9.9120    65.6820     9.3580     8.4210     9.2760    22.1860     2.3970 
  235.5000   -10.1160    68.9900     8.7320     7.7940     8.2610    22.1440     2.3800 
  235.6250   -10.3320    73.1740     8.1840     7.2120     7.1540    22.1630     2.3590 
  235.7500   -10.5540    75.7580     7.8170     6.7760     6.5180    22.2640     2.3360 
  235.8750   -10.7780    75.7830     7.7110     6.5670     6.5720    22.4460     2.3180 
  236.0000   -11.0260    75.3440     7.9730     6.6900     7.0700    22.6970     2.3160 
  236.1250   -11.2790    77.1850     8.5480     7.1160     7.9170    22.9800     2.3330 
  236.2500   -11.5330    79.7700     9.3660     7.8030     9.2920    23.2490     2.3650 
  236.3750   -11.7640    79.8040    10.2940     8.6560    10.9760    23.4290     2.4030 
  236.5000   -11.9400    79.2060    11.1200     9.5090    12.5290    23.5310     2.4290 
  236.6250   -12.0430    81.6940    11.6870    10.1920    13.3110    23.5850     2.4360 
  236.7500   -12.0690    83.6820    11.9250    10.6070    13.2120    23.6320     2.4280 
  236.8750   -12.0370    80.5940    11.8650    10.7360    12.3460    23.6900     2.4150 
  237.0000   -11.9160    77.7580    11.5940    10.6120    11.2500    23.7350     2.4060 
  237.1250   -11.7150    79.8490    11.2350    10.3550    10.7610    23.7780     2.4000 
  237.2500   -11.4390    82.2820    10.7900     9.9860    10.8210    23.8180     2.3950 
  237.3750   -11.0850    81.4670    10.1980     9.4720    11.1340    23.8430     2.3880 
  237.5000   -10.6460    78.2810     9.3820     8.7500    11.0760    23.8590     2.3790 
  237.6250   -10.1590    74.2700     8.4230     7.8850    10.6160    23.8770     2.3730 
  237.7500    -9.6740    68.4750     7.4470     6.9800     9.6440    23.8870     2.3740 
  237.8750    -9.2250    61.4690     6.6040     6.1640     7.9650    23.8850     2.3800 
  238.0000    -8.8500    56.1070     6.0500     5.5900     6.0600    23.8770     2.3890 
  238.1250    -8.5580    52.8890     5.7670     5.2610     5.2730    23.8850     2.3940 
  238.2500    -8.3420    54.4620     5.6970     5.1470     5.2140    23.9050     2.3930 
  238.3750    -8.1850    60.5400     5.7480     5.1750     5.3810    23.9260     2.3870 
  238.5000    -8.1010    65.6310     5.8120     5.2520     5.5290    23.9410     2.3790 
  238.6250    -8.0780    66.3970     5.8170     5.2910     5.6120    23.9300     2.3750 
  238.7500    -8.1000    64.8180     5.7590     5.2700     5.5170    23.8970     2.3770 
  238.8750    -8.1600    63.4630     5.6800     5.2140     5.2350    23.8660     2.3880 
  239.0000    -8.2270    58.7250     5.6460     5.1770     5.0240    23.8420     2.4060 
  239.1250    -8.2620    50.6630     5.6750     5.1920     5.0220    23.8320     2.4260 
  239.2500    -8.2930    45.1170     5.7550     5.2580     5.3170    23.8250     2.4450 
  239.3750    -8.3940    45.0720     5.8620     5.3620     5.8020    23.8110     2.4580 
  239.5000    -8.6000    47.4890     5.9970     5.4980     6.1870    23.7810     2.4590 
  239.6250    -8.8530    49.3430     6.1800     5.6750     6.3570    23.7540     2.4450 
  239.7500    -9.1220    52.9570     6.4350     5.9110     6.4640    23.7630     2.4180 
  239.8750    -9.3750    60.3150     6.7510     6.2020     7.1950    23.7840     2.3840 
  240.0000    -9.5670    70.1060     7.0450     6.4890     8.6710    23.7920     2.3550 
  240.1250    -9.7530    78.9400     7.2130     6.6820    10.3740    23.7550     2.3350 
  240.2500    -9.9130    84.1480     7.1940     6.7140    11.5240    23.6810     2.3240 
  240.3750   -10.0530    83.8720     7.0060     6.5760    10.4320    23.6070     2.3170 
  240.5000   -10.1690    77.5210     6.7430     6.3270     7.8520    23.6150     2.3110 
  240.6250   -10.3120    71.1910     6.5280     6.0850     6.0830    23.6950     2.3060 
  240.7500   -10.4660    68.4040     6.3950     5.8990     5.6220    23.7810     2.3040 
  240.8750   -10.6040    68.4430     6.3050     5.7600     5.8110    23.8110     2.3070 
  241.0000   -10.7640    68.2260     6.1960     5.6310     6.0890    23.8010     2.3140 
  241.1250   -10.9570    66.6420     6.0720     5.5070     6.1260    23.7980     2.3200 
  241.2500   -11.2100    63.6840     6.0200     5.4460     6.0050    23.7930     2.3240 
  241.3750   -11.4860    61.0570     6.1840     5.5610     6.0930    23.8000     2.3290 
  241.5000   -11.7740    63.3470     6.7760     6.0470     7.0540    23.8240     2.3430 
  241.6250   -12.0590    69.5500     7.7980     6.9410     8.7480    23.8510     2.3700 
  241.7500   -12.3220    75.3930     9.1870     8.2280    10.7350    23.8540     2.4090 
  241.8750   -12.6070    78.6010    10.7850     9.7970    12.5980    23.8270     2.4490 
  242.0000   -12.9070    78.8820    12.3380    11.4290    14.0970    23.7900     2.4730 
  242.1250   -13.1780    77.5040    13.6240    12.8620    15.3650    23.7610     2.4730 
  242.2500   -13.3820    77.2030    14.5230    13.9300    16.5280    23.7720     2.4560 
  242.3750   -13.5380    78.3650    14.9860    14.5480    17.3790    23.8180     2.4330 
  242.5000   -13.6220    77.7110    14.9200    14.6040    17.6540    23.8280     2.4180 
  242.6250   -13.6280    75.4790    14.3850    14.1700    17.3480    23.8420     2.4100 
  242.7500   -13.5640    74.5440    13.4130    13.2780    16.5080    23.8740     2.4020 
  242.8750   -13.4290    75.8330    12.1240    12.0380    14.9500    23.8900     2.3890 
  243.0000   -13.2690    76.9570    10.7290    10.6420    12.7600    23.8420     2.3680 
  243.1250   -13.1040    77.6620     9.4740     9.3370    10.5880    23.7710     2.3480 
