~V
VERS. 2.00: Ver 2.00
~W
STRT.M 59.0000:
STOP.M 270.0000:
STEP.M 0.1250:
NULL. -999.2500:
UWI. F10667:
~C
DEPT.M :
GR.API :
RML.OHMM :
RI. :
RXO.OHMM :
CALI.CM :
DEN.GM/CC :
SP.MV :
~A
# ...
  104.0000    65.7160    10.0240     8.1420     9.1640    23.8080     2.1890   -23.4010 
  104.1250    65.3290     9.9330     8.1110     9.1220    23.6570     2.1770   -23.0760 
  104.2500    66.1440     9.7870     8.0810     9.0000    23.5880     2.1660   -22.6900 
  104.3750    65.9650     9.6250     8.0710     8.8970    23.5710     2.1560   -22.2670 
  104.5000    65.5600     9.4700     8.0830     8.8530    23.5700     2.1490   -21.7590 
  104.6250    64.0470     9.3100     8.0900     8.8890    23.5540     2.1470   -21.1120 
  104.7500    62.4630     9.1080     8.0490     8.9510    23.5030     2.1500   -20.3860 
  104.8750    64.2980     8.8260     7.9200     8.8640    23.4220     2.1590   -19.5770 
  105.0000    70.4720     8.4460     7.6740     8.6220    23.3540     2.1740   -18.6580 
  105.1250    76.6180     7.9740     7.2910     7.8610    23.3190     2.1940   -17.6620 
  105.2500    80.4250     7.4850     6.8280     6.9490    23.2840     2.2180   -16.7020 
  105.3750    84.8020     7.0440     6.3470     6.0140    23.2400     2.2420   -15.8110 
  105.5000    89.6920     6.7050     5.9160     5.4390    23.2130     2.2640   -14.9840 
  105.6250    90.0390     6.5150     5.6130     5.2830    23.2030     2.2790   -14.3070 
  105.7500    86.1890     6.4320     5.4370     5.1950    23.1790     2.2870   -13.8030 
  105.8750    82.2950     6.4040     5.3690     5.3650    23.1300     2.2880   -13.4000 
  106.0000    81.8560     6.3630     5.3640     5.7110    23.0910     2.2860   -13.1160 
  106.1250    83.2940     6.2390     5.3710     5.8140    23.0780     2.2870   -12.9940 
  106.2500    84.1500     6.0330     5.3540     5.4820    23.0750     2.2970   -12.8970 
  106.3750    85.5430     5.7970     5.3100     5.2580    23.0670     2.3180   -12.7900 
  106.5000    87.9280     5.6140     5.2600     5.1180    23.0450     2.3430   -12.7380 
  106.6250    88.8670     5.6060     5.2560     5.0760    23.0180     2.3590   -12.7470 
  106.7500    86.9420     5.7960     5.3360     5.1890    22.9960     2.3570   -12.7260 
  106.8750    85.3070     6.1640     5.5110     5.3090    22.9850     2.3360   -12.7360 
  107.0000    85.3030     6.6330     5.7560     5.4920    22.9800     2.3060   -12.7930 
  107.1250    84.3420     7.0700     6.0040     5.8540    22.9810     2.2810   -12.8080 
  107.2500    82.8140     7.3480     6.1710     6.4800    22.9850     2.2710   -12.8360 
  107.3750    81.9310     7.3900     6.2000     6.7050    22.9910     2.2770   -12.8810 
  107.5000    81.9480     7.1790     6.0770     6.2710    23.0130     2.2950   -12.8780 
  107.6250    82.3270     6.7320     5.8060     5.5250    23.1260     2.3130   -12.7990 
  107.7500    84.8910     6.1770     5.4650     5.3870    23.3260     2.3260   -12.7110 
  107.8750    89.3830     5.6140     5.1090     5.5800    23.5110     2.3370   -12.6170 
  108.0000    93.0180     5.1450     4.8010     5.5190    23.6110     2.3440   -12.5240 
  108.1250    95.9750     4.9190     4.6360     5.0540    23.6690     2.3500   -12.4620 
  108.2500    97.6900     4.9950     4.6640     4.9130    23.7270     2.3570   -12.3990 
  108.3750    95.2940     5.4190     4.9200     5.0460    23.7520     2.3700   -12.3730 
  108.5000    87.6400     6.1720     5.3970     5.8550    23.7570     2.3910   -12.3780 
  108.6250    80.1550     7.1400     6.0240     8.1130    23.7920     2.4090   -12.4130 
  108.7500    77.7770     8.0230     6.6210    11.1820    23.8870     2.4070   -12.5150 
  108.8750    78.3390     8.5780     7.0410    11.5010    24.0120     2.3780   -12.6450 
  109.0000    78.6040     8.7010     7.2130     8.2730    24.0880     2.3300   -12.7440 
  109.1250    77.4360     8.4500     7.1490     7.0320    24.1150     2.2800   -12.8270 
  109.2500    75.4760     8.0890     7.0000     7.0140    24.1250     2.2470   -12.9270 
  109.3750    74.3310     7.7500     6.8520     7.2800    24.1350     2.2340   -12.9780 
  109.5000    75.9520     7.4800     6.7450     7.3550    24.1560     2.2350   -12.9820 
  109.6250    82.4500     7.2800     6.6680     7.2460    24.1840     2.2440   -12.9700 
  109.7500    90.5730     7.1310     6.5830     7.0630    24.2070     2.2560   -12.8750 
  109.8750    96.3790     7.0470     6.4790     6.8430    24.2160     2.2690   -12.7070 
  110.0000    97.3160     7.0460     6.3790     6.6850    24.2180     2.2820   -12.5490 
  110.1250    93.0650     7.1420     6.3360     6.6040    24.2110     2.2920   -12.4560 
  110.2500    88.6210     7.2920     6.3750     6.6930    24.1950     2.2960   -12.3900 
  110.3750    86.0410     7.4540     6.4860     7.1430    24.1810     2.2930   -12.3430 
  110.5000    84.9810     7.5640     6.6180     7.9110    24.1740     2.2850   -12.3470 
  110.6250    84.8170     7.5000     6.6600     7.5190    24.1740     2.2790   -12.4010 
  110.7500    86.2580     7.2130     6.5450     7.2250    24.1740     2.2820   -12.4540 
  110.8750    91.0050     6.7110     6.2560     7.0450    24.1750     2.2970   -12.5170 
  111.0000    96.6300     6.0970     5.8420     6.2660    24.1760     2.3200   -12.5980 
  111.1250    99.8290     5.5730     5.4120     5.4950    24.1770     2.3390   -12.6750 
  111.2500   100.2830     5.2970     5.0880     4.8530    24.1750     2.3430   -12.7350 
  111.3750    96.0420     5.3460     4.9480     4.7450    24.1680     2.3300   -12.8490 
  111.5000    88.3420     5.7180     5.0310     5.1520    24.1530     2.3060   -13.0250 
  111.6250    83.0930     6.3480     5.3520     6.1590    24.1320     2.2800   -13.1960 
  111.7500    81.5140     7.0120     5.7910     6.6990    24.1250     2.2600   -13.4060 
  111.8750    80.3180     7.5180     6.2240     7.0760    24.1280     2.2500   -13.6720 
  112.0000    76.9990     7.7240     6.5220     7.0950    24.1380     2.2480   -13.9040 
  112.1250    78.0890     7.5650     6.5660     7.0810    24.1610     2.2560   -14.1130 
  112.2500    83.2680     7.2110     6.4080     6.7820    24.1720     2.2700   -14.3650 
  112.3750    87.4110     6.8150     6.1420     6.4930    24.1720     2.2890   -14.5800 
  112.5000    89.7910     6.5170     5.9000     6.2850    24.1610     2.3090   -14.7520 
  112.6250    90.5850     6.4930     5.8590     5.8940    24.1300     2.3190   -14.9630 
  112.7500    88.9030     6.8220     6.0920     6.0830    24.1000     2.3120   -15.2280 
  112.8750    83.5920     7.5590     6.6310     6.8810    24.1130     2.2900   -15.4800 
  113.0000    77.0520     8.6750     7.4500     8.1620    24.2250     2.2560   -15.7170 
  113.1250    73.1480     9.9940     8.4590     9.6510    24.3980     2.2210   -15.9040 
  113.2500    71.6640    11.1160     9.4070    10.4190    24.4320     2.1920   -15.9450 
  113.3750    72.5550    11.6680    10.0230    10.6720    24.2400     2.1700   -15.8810 
  113.5000    77.0150    11.4020    10.0630    10.7200    23.8870     2.1600   -15.7040 
  113.6250    82.9730    10.2650     9.3630    10.4040    23.7820     2.1670   -15.3560 
  113.7500    88.1920     8.7710     8.2570     9.0440    23.8470     2.1940   -14.8560 
  113.8750    92.5420     7.3380     7.0780     6.9980    24.0090     2.2380   -14.2730 
  114.0000    98.4740     6.2870     6.1130     5.4970    24.1790     2.2950   -13.6720 
  114.1250   103.5040     5.8760     5.5750     5.0210    24.2820     2.3570   -13.1330 
  114.2500   101.1200     5.9820     5.3980     5.2700    24.2870     2.4110   -12.6980 
  114.3750    92.3910     6.4160     5.4820     6.1340    24.2410     2.4470   -12.3690 
  114.5000    85.3460     6.8750     5.6830     7.5010    24.1660     2.4580   -12.1580 
  114.6250    84.7790     7.0110     5.8340     7.6630    24.1320     2.4400   -12.0480 
  114.7500    87.1230     6.8250     5.8630     6.6940    24.1170     2.4120   -12.0150 
  114.8750    90.6350     6.5220     5.7960     5.9490    24.1050     2.3870   -12.0640 
  115.0000    93.5440     6.3470     5.7200     5.8620    24.0800     2.3740   -12.1700 
  115.1250    91.4860     6.4580     5.7480     5.9700    23.9980     2.3760   -12.2380 
