~V
VERS. 2.00: Ver 2.00
~W
STRT.M 50.0000:
STOP.M 221.0000:
STEP.M 0.1250:
NULL. -999.2500:
UWI. F10611:
~C
DEPT.M :
SP.MV :
GR.API :
RML.OHMM :
RI. :
RXO.OHMM :
CALI.CM :
DEN.GM/CC :
~A
# ...
   83.7500   -35.3580    63.5920    10.1680     8.6370     6.3930    25.5970     2.1550 
   83.8750   -35.6020    69.6330     9.4020     8.0920     5.7410    25.4840     2.1760 
   84.0000   -35.8580    77.7380     8.6800     7.4830     5.2110    24.9650     2.2070 
   84.1250   -36.0820    77.6750     8.1340     6.9440     5.5170    24.4490     2.2340 
   84.2500   -36.2640    72.0080     7.6510     6.4470     5.9750    24.2380     2.2560 
   84.3750   -36.3810    70.4530     7.1080     5.9340     6.0620    24.1560     2.2810 
   84.5000   -36.4320    75.1750     6.4670     5.3790     5.5020    24.0250     2.3140 
   84.6250   -36.3430    80.2870     5.8710     4.8550     4.7950    23.8300     2.3460 
   84.7500   -36.1820    82.4200     5.5610     4.5060     4.3530    23.7380     2.3690 
   84.8750   -35.9470    84.2850     5.7640     4.4800     4.3340    23.7520     2.3820 
   85.0000   -35.6570    84.8660     6.6540     4.9030     4.9650    23.8450     2.3850 
   85.1250   -35.3580    78.6520     8.4420     5.9730     7.1190    23.9640     2.3610 
   85.2500   -35.0680    68.8590    10.8170     7.5850    10.7380    23.9920     2.3090 
   85.3750   -34.8240    60.8830    13.2050     9.4760    13.0670    23.6400     2.2380 
   85.5000   -34.6430    57.7170    14.7180    11.0550    12.7470    22.9370     2.1720 
   85.6250   -34.5840    59.0640    14.4110    11.4490    10.4190    22.3340     2.1500 
   85.7500   -34.5950    62.8610    12.8400    10.7390     8.9420    22.5400     2.1880 
   85.8750   -34.7060    68.9880    10.8110     9.4130     7.6540    23.4370     2.2750 
   86.0000   -34.8820    75.0730     8.9730     8.0000     6.7360    24.2540     2.3670 
   86.1250   -35.1330    79.1400     7.6920     6.8590     6.6380    24.4830     2.4060 
   86.2500   -35.4220    81.6460     6.9060     6.0350     6.1400    24.4960     2.4010 
   86.3750   -35.7240    81.4610     6.5720     5.5240     4.9230    24.4760     2.3760 
   86.5000   -36.0050    79.4540     6.6240     5.2950     4.1740    24.3800     2.3500 
   86.6250   -36.2580    79.5280     6.9190     5.2910     4.3560    24.2220     2.3200 
   86.7500   -36.4680    80.8160     7.1760     5.3520     5.0380    24.3140     2.2810 
   86.8750   -36.6330    79.1490     7.2380     5.3840     5.6280    24.6130     2.2350 
   87.0000   -36.7610    75.3670     7.1320     5.3610     5.7640    25.1100     2.1960 
   87.1250   -36.7960    74.8840     7.1540     5.3960     5.4600    25.3550     2.2010 
   87.2500   -36.7670    77.7950     7.7180     5.7140     5.6100    25.2790     2.2670 
   87.3750   -36.6790    79.8930     9.2720     6.6070     7.0810    25.0370     2.3850 
   87.5000   -36.5480    77.4630    12.2100     8.4000    10.7820    24.8850     2.5210 
   87.6250   -36.3570    70.6170    16.8000    11.4910    21.1420    24.8400     2.6150 
   87.7500   -36.1480    64.9590    21.7950    15.2770    34.1490    24.8560     2.6360 
   87.8750   -35.8890    61.9110    24.9740    18.2580    44.0430    24.8940     2.5830 
   88.0000   -35.6200    60.0520    24.0670    18.4620    42.8800    24.8740     2.4820 
   88.1250   -35.3550    60.0930    19.1030    15.3700    28.4170    24.7860     2.3730 
   88.2500   -35.1070    62.1560    13.7960    11.6140    15.0650    24.7940     2.2900 
   88.3750   -34.8880    66.1090     9.9100     8.5760     8.5540    24.8660     2.2490 
   88.5000   -34.7050    70.6320     7.6470     6.5670     6.2630    24.8260     2.2460 
   88.6250   -34.5750    74.7460     6.7050     5.5190     5.7820    24.7440     2.2610 
   88.7500   -34.4700    76.7270     6.4080     5.0300     5.8470    24.6860     2.2690 
   88.8750   -34.4330    77.0860     6.4410     4.8930     5.9510    24.6430     2.2710 
   89.0000   -34.4240    79.0030     6.5740     4.9270     5.9400    24.6140     2.2750 
   89.1250   -34.4850    83.7730     6.6600     5.0020     5.8810    24.5990     2.2840 
   89.2500   -34.5790    87.0510     6.6790     5.0540     5.7170    24.5950     2.2900 
   89.3750   -34.6920    87.1090     6.6640     5.0820     5.3810    24.5910     2.2870 
   89.5000   -34.8020    86.0280     6.6550     5.0960     5.2690    24.5880     2.2760 
   89.6250   -34.8850    86.0040     6.6920     5.1180     5.6330    24.5840     2.2670 
   89.7500   -34.9490    85.7010     6.7780     5.1650     5.8840    24.5650     2.2780 
   89.8750   -34.9720    84.2600     6.9040     5.2470     5.7690    24.5390     2.3130 
   90.0000   -34.9730    84.2330     7.0410     5.3610     5.6870    24.5120     2.3620 
   90.1250   -34.9000    84.7570     7.1510     5.4790     6.0850    24.4910     2.3980 
   90.2500   -34.7620    81.9590     7.2110     5.5630     6.7950    24.4470     2.4070 
   90.3750   -34.5660    79.2030     7.2200     5.5970     6.6620    24.3740     2.3840 
   90.5000   -34.3140    80.2080     7.2060     5.5990     6.0350    24.2990     2.3400 
   90.6250   -34.0210    82.6410     7.2470     5.6280     5.6150    24.2610     2.2990 
   90.7500   -33.7100    82.5830     7.3900     5.7260     5.7460    24.2270     2.2810 
   90.8750   -33.3750    81.4130     7.6360     5.8890     5.9950    24.1370     2.2970 
   91.0000   -33.0260    80.8240     7.9150     6.0740     6.5930    24.0430     2.3390 
   91.1250   -32.7180    79.2690     8.0610     6.1800     7.5920    23.9980     2.3790 
   91.2500   -32.4310    79.9470     7.9830     6.1480     7.8210    24.0540     2.3890 
   91.3750   -32.1850    84.3500     7.7240     5.9940     7.0430    24.1490     2.3680 
   91.5000   -32.0070    87.9130     7.4430     5.8080     6.2570    24.2030     2.3360 
   91.6250   -31.9090    85.2610     7.3490     5.7210     6.2700    24.2590     2.3170 
   91.7500   -31.8720    80.4940     7.4860     5.7780     6.3320    24.3780     2.3140 
   91.8750   -31.9140    76.9740     7.8000     5.9680     6.8000    24.4790     2.3150 
   92.0000   -31.9880    73.8250     8.1630     6.2230     8.0660    24.5110     2.3090 
   92.1250   -32.0950    70.6880     8.3820     6.4260     9.8600    24.5550     2.2930 
   92.2500   -32.2300    69.5460     8.4060     6.5160     8.7160    24.6280     2.2740 
   92.3750   -32.3590    71.1820     8.2990     6.5110     7.4040    24.7230     2.2570 
   92.5000   -32.4830    73.1720     8.1710     6.4770     6.7780    24.8070     2.2440 
   92.6250   -32.5760    74.4370     8.1150     6.4800     6.6270    24.8690     2.2340 
   92.7500   -32.6200    75.9320     8.1190     6.5210     6.8910    24.9350     2.2270 
   92.8750   -32.6050    76.5550     8.1060     6.5370     7.3390    24.9620     2.2260 
   93.0000   -32.5620    75.7970     7.9720     6.4410     7.4370    24.9260     2.2360 
   93.1250   -32.4460    77.0040     7.6460     6.1680     6.8910    24.8440     2.2600 
   93.2500   -32.2570    82.9610     7.2410     5.8100     6.2430    24.7890     2.2890 
   93.3750   -32.0270    89.1330     6.9030     5.4830     5.6810    24.7450     2.3100 
   93.5000   -31.7320    89.2210     6.7860     5.3080     5.6790    24.7140     2.3180 
   93.6250   -31.3660    85.0090     7.1050     5.4380     6.0510    24.7670     2.3070 
   93.7500   -30.9600    82.6620     7.9320     5.9200     6.5910    24.8030     2.2890 
   93.8750   -30.5180    80.0220     9.3470     6.8170     7.5700    24.7590     2.2830 
   94.0000   -30.0540    72.9820    11.3470     8.1570     9.5860    24.6160     2.3030 
   94.1250   -29.5680    64.3810    13.7460     9.8920    13.3250    24.4360     2.3600 
   94.2500   -29.0980    59.6490    15.9550    11.6520    13.6330    24.3110     2.4270 
   94.3750   -28.6510    58.2990    17.4060    13.0140    11.5810    24.2100     2.4650 
   94.5000   -28.2290    58.3730    17.7650    13.6500    11.5450    24.2440     2.4490 
   94.6250   -27.8520    59.0490    17.0980    13.4800    14.2450    24.5450     2.3810 
   94.7500   -27.5050    58.8300    16.1480    12.9960    14.0780    24.9940     2.3020 
   94.8750   -27.2190    56.8520    15.3480    12.5370    10.9150    25.6170     2.2350 
