~V
VERS. 2.00: Ver 2.00
~W
STRT.M 59.0000:
STOP.M 270.0000:
STEP.M 0.1250:
NULL. -999.2500:
UWI. F10667:
~C
DEPT.M :
GR.API :
RML.OHMM :
RI. :
RXO.OHMM :
CALI.CM :
DEN.GM/CC :
SP.MV :
~A
# ...
  149.0000    61.8370    23.3890    22.6290    22.2480    23.9910     2.1600    -9.8510 
  149.1250    66.1970    23.5650    22.7530    22.6670    24.4140     2.1630   -10.0510 
  149.2500    68.9160    23.9220    23.1010    22.9790    24.6610     2.1700   -10.2480 
  149.3750    68.1780    24.3460    23.6310    22.9860    24.7560     2.1760   -10.5000 
  149.5000    64.7650    24.5030    24.0720    22.9020    24.7690     2.1750   -10.7730 
  149.6250    61.5420    23.6140    23.6870    22.9330    24.7360     2.1640   -11.1020 
  149.7500    62.2300    21.3590    22.0010    23.1610    24.6940     2.1540   -11.4870 
  149.8750    68.5320    17.9210    19.0070    22.6530    24.6610     2.1570   -11.9260 
  150.0000    79.7570    14.0410    15.3030    18.4160    24.5940     2.1810   -12.3960 
  150.1250    92.5840    10.7340    11.8650    10.9890    24.4380     2.2260   -12.8680 
  150.2500   103.2750     8.4130     9.2660     6.7110    24.2940     2.2730   -13.3210 
  150.3750   108.7050     7.1010     7.6160     5.3040    24.2180     2.3050   -13.7330 
  150.5000   107.9980     6.6280     6.7950     5.3960    24.1960     2.3180   -14.1050 
  150.6250   102.6010     6.7890     6.6660     6.1690    24.1870     2.3120   -14.4040 
  150.7500    98.2350     7.0760     6.8700     7.2460    24.1680     2.3010   -14.6270 
  150.8750    97.7830     7.3320     7.1910     7.8690    24.1480     2.2910   -14.7900 
  151.0000    99.0320     7.5580     7.4580     7.8360    24.1400     2.2860   -14.8990 
  151.1250    98.3040     7.6350     7.5830     7.1210    24.1400     2.2840   -14.9690 
  151.2500    97.8700     7.6500     7.6470     6.9650    24.1380     2.2790   -15.0540 
  151.3750    97.4640     7.7170     7.7560     7.4710    24.1290     2.2700   -15.1490 
  151.5000    96.2480     7.9520     8.0010     8.0030    24.1090     2.2590   -15.2280 
  151.6250    93.2530     8.4300     8.4650     8.5720    24.0820     2.2480   -15.3260 
  151.7500    88.9110     9.0660     9.1010     9.0250    24.0700     2.2390   -15.4510 
  151.8750    84.5840     9.8100     9.8460     9.5490    24.0680     2.2330   -15.5720 
  152.0000    82.6290    10.6130    10.6130    10.1560    24.0650     2.2280   -15.6980 
  152.1250    84.1360    11.3830    11.2760    10.9190    24.0360     2.2220   -15.8520 
  152.2500    85.5640    11.9840    11.7470    11.4210    23.9640     2.2150   -15.9610 
  152.3750    84.1150    12.2850    11.9600    11.3850    23.8920     2.2080   -16.0420 
  152.5000    81.3320    12.2120    11.8940    11.0600    23.8660     2.2050   -16.1380 
  152.6250    81.3660    11.7750    11.5720    10.5400    23.8860     2.2080   -16.1930 
  152.7500    83.0040    11.2010    11.1480    10.0220    23.8950     2.2130   -16.2170 
  152.8750    84.2470    10.6630    10.7400     9.5230    23.8830     2.2170   -16.2230 
  153.0000    84.1650    10.2850    10.4270     9.1170    23.8400     2.2180   -16.1990 
  153.1250    84.5510    10.1370    10.2520     8.7800    23.7700     2.2170   -16.1270 
  153.2500    86.0950    10.1350    10.1570     8.6660    23.7750     2.2190   -16.0770 
  153.3750    87.0940    10.1820    10.0820     8.8660    23.8610     2.2250   -15.9850 
  153.5000    86.1680    10.1780     9.9760     9.1040    23.9910     2.2340   -15.8510 
  153.6250    82.5410    10.0350     9.8090     9.0800    24.0270     2.2410   -15.7210 
  153.7500    80.0440     9.7810     9.6090     8.9460    24.0340     2.2450   -15.5640 
  153.8750    79.9720     9.4850     9.4140     8.7690    24.0310     2.2460   -15.4250 
  154.0000    81.3330     9.2420     9.2630     8.6510    24.0330     2.2460   -15.2710 
  154.1250    82.6230     9.1690     9.2040     8.6290    24.0220     2.2460   -15.1050 
  154.2500    84.8850     9.2950     9.2460     8.7260    23.9700     2.2460   -14.9320 
  154.3750    86.7850     9.6190     9.4020     8.7770    23.8730     2.2420   -14.7370 
  154.5000    86.9010    10.1150     9.6790     8.8420    23.7710     2.2350   -14.5450 
  154.6250    85.2210    10.7510    10.1050     9.0990    23.7250     2.2250   -14.3140 
  154.7500    82.2550    11.4610    10.6650     9.6050    23.7000     2.2110   -14.0320 
  154.8750    78.3920    12.2260    11.3650    10.3540    23.5880     2.1970   -13.7040 
  155.0000    74.8910    13.0580    12.2140    11.2510    23.2810     2.1830   -13.3240 
  155.1250    73.1140    14.0180    13.2330    12.2650    23.0430     2.1770   -12.9090 
  155.2500    73.0610    15.1340    14.3790    13.5020    23.2990     2.1790   -12.4730 
  155.3750    73.4420    16.4320    15.6210    14.7460    23.8210     2.1890   -12.0130 
  155.5000    72.9430    17.8980    16.9250    15.7290    24.1680     2.2050   -11.5420 
  155.6250    70.3710    19.4700    18.2560    17.4840    24.2520     2.2170   -11.0730 
  155.7500    66.5640    20.9990    19.5600    19.5170    24.2430     2.2180   -10.6450 
  155.8750    62.2150    22.3360    20.7790    21.3040    24.2180     2.2020   -10.2800 
  156.0000    59.5610    23.3470    21.8370    23.3890    24.1890     2.1730    -9.9850 
  156.1250    60.9650    23.8770    22.6200    25.5120    24.1570     2.1460    -9.7750 
  156.2500    63.6130    24.0250    23.1320    25.1820    24.1390     2.1380    -9.6280 
  156.3750    63.4900    23.9230    23.4090    25.3660    24.1150     2.1530    -9.5410 
  156.5000    60.7490    23.7590    23.5460    26.8080    24.0630     2.1800    -9.5150 
  156.6250    61.2470    23.7480    23.6950    28.9750    24.0370     2.2020    -9.5540 
  156.7500    64.5320    23.9770    23.9860    25.6000    24.0290     2.2100    -9.6400 
  156.8750    66.1510    24.4470    24.4810    24.0930    24.0300     2.2050    -9.7590 
  157.0000    63.0430    25.0870    25.1760    24.0880    24.0280     2.1970    -9.8820 
  157.1250    56.9490    25.7110    25.9610    24.6670    24.0240     2.1920   -10.0560 
  157.2500    53.6250    25.9550    26.4960    25.1040    24.0200     2.1880   -10.2630 
  157.3750    55.5900    25.3630    26.3120    24.9630    24.0250     2.1790   -10.5210 
  157.5000    60.7170    23.6890    24.9980    24.6570    24.0410     2.1650   -10.8520 
  157.6250    65.2020    21.1090    22.4680    24.6420    24.0260     2.1570   -11.2840 
  157.7500    69.7300    18.4880    19.5870    23.5340    23.9640     2.1700   -11.7680 
  157.8750    76.5210    16.3190    17.0790    19.2900    23.9550     2.2160   -12.2880 
  158.0000    80.8210    15.0360    15.4220    14.4510    23.9890     2.2950   -12.8660 
  158.1250    76.3430    14.9500    14.9690    16.4750    24.0290     2.3900   -13.3910 
  158.2500    69.5770    15.7310    15.4800    28.0050    23.9410     2.4740   -13.8790 
  158.3750    66.0170    17.1360    16.7760    34.8280    23.8460     2.5340   -14.3360 
  158.5000    65.6540    18.9190    18.6350    28.5640    23.7770     2.5680   -14.7030 
  158.6250    64.1450    20.9390    20.8810    22.7600    23.7430     2.5830   -14.9800 
  158.7500    61.0910    23.1270    23.3090    27.4990    23.7500     2.5910   -15.1820 
  158.8750    58.8620    25.4760    25.8370    30.1220    23.7640     2.5950   -15.3170 
  159.0000    58.3590    27.8020    28.2870    32.1890    23.7620     2.5930   -15.3810 
  159.1250    58.8020    29.4300    30.0900    35.5120    23.8040     2.5830   -15.4630 
  159.2500    57.8050    29.8210    30.7770    39.2750    23.8490     2.5660   -15.5180 
  159.3750    55.5420    28.8510    30.1780    38.1880    23.7250     2.5460   -15.5460 
  159.5000    53.3210    26.9370    28.5930    31.1150    23.5220     2.5250   -15.5700 
  159.6250    52.7860    24.8060    26.6220    25.0390    23.3890     2.5060   -15.5350 
  159.7500    55.5110    23.1000    24.9100    23.5110    23.3570     2.4920   -15.5150 
  159.8750    59.4710    22.1070    23.7650    23.1010    23.3310     2.4830   -15.4720 
  160.0000    60.4960    21.9220    23.3160    21.4570    23.2780     2.4840   -15.3930 
  160.1250    57.7160    22.5870    23.6430    20.7580    23.2130     2.5000   -15.2800 
