~V
VERS. 2.00: Ver 2.00
~W
STRT.M 55.0000:
STOP.M 192.0000:
STEP.M 0.1250:
NULL. -999.2500:
UWI. F10682:
~C
DEPT.M :
DEN.GM/CC :
GR.API :
RML.OHMM :
RI. :
RXO.OHMM :
CALI.CM :
SP.MV :
~A
# ...
  156.2500     2.3460    52.1330    23.5540    18.6500    23.9960    25.1140   -23.1080 
  156.3750     2.3350    50.6170    27.7220    23.5590    31.6760    25.1360   -23.3090 
  156.5000     2.3260    52.3450    32.5230    28.6310    37.0660    25.1400   -23.4680 
  156.6250     2.3180    55.0010    37.0800    33.2010    40.4470    25.1400   -23.6020 
  156.7500     2.3100    54.5730    41.1510    37.2260    42.9320    25.1400   -23.7150 
  156.8750     2.3030    50.7630    44.9160    40.8510    46.7470    25.1400   -23.7960 
  157.0000     2.2990    46.7720    48.3330    44.0900    53.1720    25.1400   -23.8160 
  157.1250     2.2950    47.1640    51.0010    46.6320    54.4990    25.1400   -23.7670 
  157.2500     2.2900    50.1580    52.9220    48.4580    51.4810    25.1400   -23.7090 
  157.3750     2.2840    52.4500    54.4560    49.8190    49.9950    25.1400   -23.6740 
  157.5000     2.2750    50.9840    56.1990    51.2270    49.0090    25.1400   -23.7060 
  157.6250     2.2660    45.8360    58.7390    53.2940    47.8370    25.1400   -23.7590 
  157.7500     2.2610    42.4500    61.8010    55.9740    49.6380    25.1400   -23.7940 
  157.8750     2.2600    42.4220    64.5320    58.6810    51.9270    25.1400   -23.8480 
  158.0000     2.2650    43.4660    65.7760    60.4270    56.3610    25.1400   -23.8950 
  158.1250     2.2750    42.6340    64.4860    60.0720    60.6120    25.1400   -24.0020 
  158.2500     2.2850    41.0160    61.6610    58.1350    62.7520    25.1400   -24.0910 
  158.3750     2.2940    40.9820    58.6280    55.6280    58.7360    25.1420   -24.1420 
  158.5000     2.2990    45.1110    56.6010    53.6770    52.7630    25.1500   -24.1700 
  158.6250     2.3000    51.1110    56.5720    53.3440    47.8820    25.1950   -24.1700 
  158.7500     2.2990    53.1150    58.2120    54.5730    48.9790    25.2130   -24.1670 
  158.8750     2.2950    50.4500    60.9900    57.0240    55.1960    25.2170   -24.1550 
  159.0000     2.2920    46.5500    64.2290    60.1470    58.6780    25.2210   -24.1150 
  159.1250     2.2870    45.5900    67.3430    63.4080    57.2770    25.2460   -24.0000 
  159.2500     2.2800    46.0220    70.2720    66.5680    54.6770    25.2950   -23.8590 
  159.3750     2.2730    45.1000    73.3330    69.7890    53.5240    25.3030   -23.7170 
  159.5000     2.2670    42.0160    76.7070    73.2450    55.7320    25.3050   -23.5470 
  159.6250     2.2660    39.9670    79.6740    76.4250    65.8470    25.3050   -23.3730 
  159.7500     2.2720    41.6930    80.8370    78.0930    74.0110    25.3050   -23.1900 
  159.8750     2.2840    43.7360    79.2550    77.2480    75.1760    25.3050   -22.9750 
  160.0000     2.2970    43.6800    75.2480    73.8940    74.5470    25.3050   -22.7840 
  160.1250     2.3060    43.2760    70.4520    69.1820    72.9420    25.3030   -22.5890 
  160.2500     2.3110    44.7980    66.9880    65.1720    65.8590    25.2920   -22.3690 
  160.3750     2.3120    47.4000    66.0360    63.1810    55.4500    25.2240   -22.1180 
  160.5000     2.3140    49.4770    68.0950    63.9390    55.9430    25.1550   -21.8260 
  160.6250     2.3180    50.1930    79.4990    68.1730    60.0200    25.1420   -21.4780 
  160.7500     2.3260    49.1890    88.0130    75.0860    64.9270    25.1400   -21.0660 
  160.8750     2.3340    46.4670    97.8710    83.8260    71.5670    25.1470   -20.6220 
  161.0000     2.3380    43.8480   107.3880    93.0280    85.0760    25.1710   -20.1290 
  161.1250     2.3320    43.1220   114.8240   101.1170   109.1190    25.3110   -19.5500 
  161.2500     2.3180    42.2610   120.5720   108.0530   115.2630    25.3610   -18.9120 
  161.3750     2.2980    39.5460   125.2380   114.5100   105.1680    25.3760   -18.2010 
  161.5000     2.2840    38.5360   127.4000   119.8390    96.1280    25.4060   -17.4440 
  161.6250     2.2890    41.7970   119.2340   117.4610   108.5960    25.4580   -16.6180 
  161.7500     2.3120    45.8310    97.1400   101.3860   136.2530    25.5230   -15.7350 
  161.8750     2.3450    48.2530    67.0750    73.7910   169.5340    25.5720   -14.7740 
  162.0000     2.3750    50.1640    40.1860    45.5740   166.9030    25.4940   -13.7630 
  162.1250     2.3910    53.4430    23.5690    26.7350    79.1170    25.0520   -12.7520 
  162.2500     2.3940    57.0090    14.2620    15.9390    28.1650    24.5840   -11.7460 
  162.3750     2.3880    60.1550     9.5380    10.3570    10.6540    24.3620   -10.8370 
  162.5000     2.3780    62.7960     7.3890     7.6460     6.0100    24.2850   -10.0040 
  162.6250     2.3680    63.7530     6.7520     6.5820     5.3070    24.2690    -9.2910 
  162.7500     2.3580    64.2600     6.7290     6.2490     5.3700    24.2780    -8.7340 
  162.8750     2.3470    64.1200     6.9420     6.2910     5.4510    24.3230    -8.2960 
  163.0000     2.3300    62.6830     7.1300     6.4370     5.2510    24.3310    -7.9770 
  163.1250     2.3060    62.5520     7.1670     6.5190     5.2340    24.2940    -7.8060 
  163.2500     2.2840    65.2960     7.1370     6.5380     5.4060    24.2920    -7.6900 
  163.3750     2.2720    68.0540     7.1350     6.5460     5.9170    24.3050    -7.5880 
  163.5000     2.2720    65.7920     7.2190     6.5980     6.6800    24.4070    -7.4950 
  163.6250     2.2840    60.6510     7.4420     6.7500     7.4150    24.3850    -7.3850 
  163.7500     2.3030    59.2360     7.8010     7.0030     8.0280    24.4000    -7.2690 
  163.8750     2.3300    60.6180     8.2950     7.3460     9.7470    24.5160    -7.1620 
  164.0000     2.3640    61.3060     8.5250     7.7480    12.6820    24.6900    -7.0190 
  164.1250     2.4050    60.4950     9.0440     8.1580    11.8340    24.6980    -6.8800 
  164.2500     2.4460    58.5240     9.5010     8.5290    10.0300    24.7120    -6.7600 
  164.3750     2.4810    55.0130    10.0380     8.8340     9.2230    24.8220    -6.6350 
  164.5000     2.5060    52.7060    10.4480     9.0600     9.3280    24.7990    -6.5610 
  164.6250     2.5130    55.1060    10.7070     9.1970    10.1100    24.8880    -6.5480 
  164.7500     2.5050    59.1910    10.8530     9.2690    10.5270    24.7220    -6.5400 
  164.8750     2.4860    60.3000    10.9110     9.2780    10.2310    24.6050    -6.5550 
  165.0000     2.4660    58.0930    10.9090     9.2240    10.0330    24.5940    -6.6160 
  165.1250     2.4480    54.9800    10.8530     9.0960    10.5790    24.6500    -6.6250 
  165.2500     2.4350    51.8460    10.7210     8.9030    10.7760    24.7220    -6.6310 
  165.3750     2.4240    50.4530    10.4670     8.6380    10.3640    24.7340    -6.6880 
  165.5000     2.4160    50.6060    10.0720     8.3060     9.5060    24.7360    -6.7260 
  165.6250     2.4120    53.9500     9.5980     7.9300     8.5380    24.7280    -6.7630 
  165.7500     2.4070    58.4400     9.1940     7.5700     7.7800    24.6850    -6.8120 
  165.8750     2.3990    60.6420     8.9670     7.2830     7.1850    24.5840    -6.8100 
  166.0000     2.3850    59.6610     8.9510     7.1230     6.9780    24.4720    -6.7810 
  166.1250     2.3690    57.0980     9.1390     7.1480     7.0430    24.2670    -6.7930 
  166.2500     2.3590    55.6910     9.4450     7.3220     7.1710    24.0580    -6.8180 
  166.3750     2.3590    55.5410     9.8200     7.6030     7.6330    24.0530    -6.8280 
  166.5000     2.3690    56.6290    10.2240     7.9360     8.0190    24.1780    -6.8420 
  166.6250     2.3870    60.2990    10.6080     8.2520     8.1510    24.3110    -6.8190 
  166.7500     2.4050    64.1300    10.9270     8.5120     8.5780    24.3230    -6.7870 
  166.8750     2.4170    66.2830    11.1430     8.6970     9.1680    24.5490    -6.8150 
  167.0000     2.4170    65.5290    11.2310     8.7930     9.5690    24.7050    -6.8420 
  167.1250     2.4010    59.8400    11.1250     8.7520     9.3310    24.7340    -6.8710 
  167.2500     2.3740    54.5410    10.8080     8.5540     8.8470    24.7330    -6.9210 
  167.3750     2.3450    53.6190    10.2680     8.1840     8.1850    24.7210    -6.9400 
