~V
VERS. 2.00: Ver 2.00
~W
STRT.M 55.0000:
STOP.M 228.0000:
STEP.M 0.1250:
NULL. -999.2500:
UWI. F10621:
~C
DEPT.M :
GR.API :
RML.OHMM :
RI. :
RXO.OHMM :
CALI.CM :
DEN.GM/CC :
SP.MV :
~A
# ...
  178.7500    51.6380     5.4790     4.5400     4.7470    24.6240     2.3280    -6.3950 
  178.8750    54.3960     5.7060     4.6690     4.9370    24.7300     2.3170    -6.2960 
  179.0000    62.2390     6.1150     5.0430     5.1960    24.7760     2.3110    -6.3250 
  179.1250    73.2270     6.6770     5.6210     5.7710    24.7790     2.3150    -6.5000 
  179.2500    80.5060     7.3340     6.3240     6.7510    24.8260     2.3290    -6.7720 
  179.3750    81.9510     8.0270     7.0940     7.9650    24.9190     2.3500    -7.0840 
  179.5000    79.7080     8.6750     7.8460     9.0170    24.9950     2.3730    -7.3930 
  179.6250    78.5690     9.1700     8.4540     9.5200    25.0180     2.3910    -7.6750 
  179.7500    79.7520     9.4990     8.8690     9.7210    25.0010     2.4020    -7.9240 
  179.8750    82.7290     9.6870     9.0860     9.7560    24.8930     2.4040    -8.1360 
  180.0000    85.4140     9.7720     9.1480     9.6940    24.6960     2.4030    -8.3040 
  180.1250    89.2640     9.8020     9.1030     9.5570    24.5720     2.4010    -8.4150 
  180.2500    94.9230     9.7900     9.0180     9.3960    24.6950     2.4020    -8.4720 
  180.3750    99.9060     9.7460     8.9190     9.2450    24.7910     2.4030    -8.5120 
  180.5000   104.2810     9.7160     8.8230     9.0890    24.8130     2.4030    -8.5530 
  180.6250   106.9150     9.6950     8.7460     8.9800    24.8090     2.4040    -8.5980 
  180.7500   107.2800     9.6400     8.6910     8.9400    24.8050     2.4040    -8.6420 
  180.8750   105.9370     9.5500     8.6490     8.9780    24.7910     2.4060    -8.6720 
  181.0000   107.2290     9.4600     8.6000     9.0150    24.7590     2.4070    -8.6850 
  181.1250   112.8440     9.3830     8.5160     9.0180    24.7430     2.4040    -8.7080 
  181.2500   116.7500     9.4150     8.4040     9.0050    24.7380     2.3970    -8.7310 
  181.3750   115.7020     9.6510     8.3120     8.9840    24.7380     2.3900    -8.7570 
  181.5000   109.4880    10.2050     8.3480     8.9840    24.7380     2.3900    -8.8050 
  181.6250   102.3690    11.3430     8.7650     9.2760    24.7380     2.4100    -8.8830 
  181.7500    98.2070    12.9900     9.7630    10.3830    24.7370     2.4470    -8.9860 
  181.8750    95.6060    15.7260    11.5680    12.9430    24.7090     2.4910    -9.1360 
  182.0000    90.9730    19.5870    14.3270    17.1680    24.6050     2.5200    -9.3330 
  182.1250    82.3830    24.3410    18.0860    22.9530    24.4220     2.5080    -9.5580 
  182.2500    74.4860    29.0940    22.2230    28.6470    24.3940     2.4610    -9.8080 
  182.3750    69.4480    33.0340    26.0490    32.7420    24.5330     2.3970   -10.0790 
  182.5000    66.6890    35.5730    28.8880    34.5920    24.6610     2.3390   -10.3350 
  182.6250    66.1970    36.4870    30.2490    35.2870    24.7240     2.3080   -10.5610 
  182.7500    68.6240    36.6750    30.7280    34.9870    24.7400     2.3040   -10.7690 
  182.8750    73.2160    36.8920    30.9600    33.8400    24.7420     2.3160   -10.9360 
  183.0000    78.0330    37.6260    31.4470    32.7840    24.7390     2.3290   -11.0840 
  183.1250    77.3390    38.9910    32.4420    34.3180    24.7420     2.3270   -11.2040 
  183.2500    73.0680    40.5400    33.7180    37.0800    24.7480     2.3130   -11.2990 
  183.3750    69.7350    41.9020    35.0170    38.4800    24.7340     2.2950   -11.3640 
  183.5000    69.9290    42.9030    36.1520    38.0260    24.6690     2.2830   -11.3890 
  183.6250    72.2470    43.7490    37.1650    35.4910    24.6090     2.2830   -11.3690 
  183.7500    73.1470    45.0100    38.4240    32.9610    24.6180     2.2860   -11.3210 
  183.8750    72.2520    47.0820    40.2590    31.9050    24.6650     2.2860   -11.2700 
  184.0000    69.3890    49.9080    42.7150    32.4560    24.6840     2.2790   -11.2110 
  184.1250    65.3170    52.7100    45.2800    33.9210    24.6860     2.2690   -11.1550 
  184.2500    62.5680    54.3440    47.0150    35.3600    24.6820     2.2610   -11.1010 
  184.3750    63.0450    54.0620    47.1980    35.3890    24.7300     2.2620   -11.0560 
  184.5000    65.0880    51.8690    45.6550    32.4770    24.7820     2.2720   -11.0400 
  184.6250    66.0430    48.8420    43.0500    27.1820    24.7890     2.2870   -11.0730 
  184.7500    67.4060    47.0300    41.0710    22.3960    24.7510     2.3010   -11.1290 
  184.8750    69.4830    48.0900    41.1540    20.0770    24.7030     2.3050   -11.2100 
  185.0000    69.5220    53.2520    44.4870    20.6750    24.6770     2.2990   -11.3150 
  185.1250    64.8210    63.8870    52.5510    24.8620    24.6650     2.2850   -11.4230 
  185.2500    59.5590    78.6630    64.5420    32.1460    24.6390     2.2690   -11.5600 
  185.3750    57.4060    95.9050    79.2130    41.4770    24.5860     2.2540   -11.6960 
  185.5000    57.8910   113.1490    94.4740    50.6380    24.5540     2.2430   -11.8420 
  185.6250    58.6190   127.5320   107.8050    55.2390    24.5560     2.2340   -11.9870 
  185.7500    56.8650   139.1530   118.9930    55.7160    24.5640     2.2280   -12.1000 
  185.8750    55.7600   150.1190   129.6290    57.8460    24.5680     2.2270   -12.1700 
  186.0000    56.0530   163.0490   141.8870    68.6420    24.6000     2.2310   -12.1950 
  186.1250    55.0710   178.6250   156.7780    89.9320    24.6340     2.2410   -12.1940 
  186.2500    52.8050   192.6180   171.2510   116.0680    24.6410     2.2470   -12.1400 
  186.3750    52.3160   199.4490   180.6160   138.6650    24.6390     2.2450   -12.0490 
  186.5000    53.7380   193.7220   180.0220   150.9830    24.6200     2.2350   -11.9060 
  186.6250    54.1830   172.7210   165.0350   152.3160    24.5360     2.2200   -11.7110 
  186.7500    55.9100   143.8360   140.7440   147.5100    24.3870     2.2120   -11.5030 
  186.8750    59.4980   115.3250   113.4820   133.3200    24.1320     2.2150   -11.2920 
  187.0000    61.4070    92.9750    89.4880   108.3240    23.8490     2.2300   -11.0920 
  187.1250    60.3080    77.4330    73.7660    77.7090    23.8330     2.2490   -10.9280 
  187.2500    60.2740    70.5870    65.8000    57.8670    24.1220     2.2660   -10.7980 
  187.3750    63.3410    71.5400    64.9480    53.8940    24.3210     2.2760   -10.7100 
  187.5000    67.2100    79.1680    70.3460    61.8910    24.3610     2.2830   -10.6850 
  187.6250    66.8350    92.3190    81.4160    79.4240    24.3290     2.2880   -10.7270 
  187.7500    63.8120   106.3360    94.9890    98.7510    24.3130     2.2910   -10.8100 
  187.8750    62.0110   118.9930   108.1350   114.1500    24.3080     2.2900   -10.9360 
  188.0000    62.2800   127.4530   117.9690   119.8560    24.3170     2.2840   -11.0960 
  188.1250    60.7050   129.6520   122.0550   113.5220    24.3410     2.2720   -11.2630 
  188.2500    55.8010   127.8410   121.9460   104.7400    24.3870     2.2610   -11.4400 
  188.3750    52.5930   124.1720   119.4400    97.5290    24.4710     2.2510   -11.6240 
  188.5000    53.8590   120.0660   115.9750    95.4590    24.6080     2.2430   -11.7960 
  188.6250    56.8140   115.4930   111.7880    96.5250    24.7820     2.2340   -11.9390 
  188.7500    58.6220   109.7690   106.4610    95.2290    24.8540     2.2250   -12.0810 
  188.8750    58.1250   102.6550    99.7480    88.7890    24.8700     2.2170   -12.2260 
  189.0000    56.0130    94.8970    92.2460    77.1220    24.8700     2.2140   -12.3790 
  189.1250    54.4300    88.5700    85.7780    64.0970    24.8700     2.2190   -12.5480 
  189.2500    55.9260    85.5340    82.1850    54.1090    24.8700     2.2250   -12.7390 
  189.3750    59.5100    87.2150    82.9520    50.7050    24.8700     2.2290   -12.9430 
  189.5000    62.4240    94.5420    89.1520    55.9220    24.8700     2.2300   -13.1560 
  189.6250    61.8790   108.6940   102.1870    73.6420    24.8700     2.2270   -13.3920 
  189.7500    60.4330   127.5870   120.1920    97.3470    24.8700     2.2260   -13.6330 
  189.8750    58.8730   148.7710   140.8770   118.6180    24.8700     2.2260   -13.8540 
