~V
VERS. 2.00: Ver 2.00
~W
STRT.M 52.0000:
STOP.M 240.0000:
STEP.M 0.1250:
NULL. -999.2500:
UWI. F10646:
~C
DEPT.M :
GR.API :
RML.OHMM :
RI. :
RXO.OHMM :
CALI.CM :
DEN.GM/CC :
SP.MV :
~A
# ...
  108.2500    86.7840     6.4760     5.4850     5.4770    24.5910     2.3620   -21.7330 
  108.3750    91.3030     5.7730     4.8280     4.7830    24.5980     2.3840   -21.1870 
  108.5000    92.0300     5.3170     4.3430     4.7540    24.5810     2.3980   -20.6840 
  108.6250    90.3100     5.0190     4.0090     4.6530    24.8260     2.4130   -20.2330 
  108.7500    86.2950     4.8690     3.8280     4.6240    25.4090     2.4140   -19.8450 
  108.8750    82.7410     4.9280     3.8310     4.6640    25.8990     2.3930   -19.5770 
  109.0000    82.5120     5.3850     4.1170     4.7050    25.7170     2.3640   -19.4370 
  109.1250    81.6890     6.3230     4.7230     5.5310    25.0800     2.3600   -19.3250 
  109.2500    75.9770     7.7990     5.7030     8.4880    24.4910     2.3880   -19.2540 
  109.3750    65.9200     9.6910     7.0320    14.8650    24.1150     2.4250   -19.2860 
  109.5000    59.6430    11.5260     8.4850    18.7790    23.8300     2.4230   -19.3940 
  109.6250    57.7450    12.7210     9.6180    13.8860    23.6610     2.3720   -19.5040 
  109.7500    56.6370    13.0880    10.1740    10.2390    23.7290     2.2970   -19.6050 
  109.8750    54.9590    12.8950    10.2240     9.4130    24.0460     2.2290   -19.7150 
  110.0000    54.0410    12.6440    10.0690     9.7920    24.7510     2.1850   -19.8520 
  110.1250    54.0970    12.6490    10.0120    10.2710    25.4780     2.1550   -19.9820 
  110.2500    53.9710    12.8980    10.1130    10.3750    25.8770     2.1330   -20.0940 
  110.3750    53.8080    13.2380    10.3060    10.1210    25.8790     2.1160   -20.1750 
  110.5000    54.0290    13.5180    10.4970     9.8400    25.5170     2.1080   -20.1970 
  110.6250    53.5380    13.7210    10.6470     9.9490    25.0380     2.1040   -20.1850 
  110.7500    52.0660    13.8660    10.7600    10.2620    24.8130     2.1050   -20.1730 
  110.8750    50.2110    13.9660    10.8400    10.4420    24.8900     2.1080   -20.1340 
  111.0000    49.6970    14.0270    10.8970    10.4520    25.1360     2.1110   -20.0220 
  111.1250    49.9220    14.0590    10.9500    10.4930    25.2670     2.1140   -19.8970 
  111.2500    49.8700    14.0520    10.9870    10.5520    25.3050     2.1160   -19.7950 
  111.3750    48.7540    13.9670    10.9660    10.6520    25.3090     2.1140   -19.7090 
  111.5000    46.7780    13.7360    10.8120    10.5850    25.3100     2.1100   -19.6420 
  111.6250    46.8320    13.3780    10.5400    10.5680    25.3070     2.1100   -19.5880 
  111.7500    49.3400    12.9470    10.2040    10.4570    25.2420     2.1200   -19.5330 
  111.8750    53.4880    12.5250     9.8740    10.1080    25.0440     2.1380   -19.4910 
  112.0000    56.7120    12.1960     9.6220     9.9400    24.8470     2.1530   -19.4760 
  112.1250    56.6490    11.9690     9.4550    10.1640    25.0990     2.1580   -19.4650 
  112.2500    53.5610    11.8420     9.3610    10.3500    25.5110     2.1560   -19.4390 
  112.3750    51.3680    11.8910     9.3680    10.2550    25.4230     2.1580   -19.4140 
  112.5000    53.3460    12.4170     9.6560    10.0290    24.7360     2.1660   -19.4250 
  112.6250    55.4900    13.5590    10.3610     9.8450    24.1060     2.1720   -19.4480 
  112.7500    55.6730    15.2200    11.4950    10.1880    23.9870     2.1780   -19.4390 
  112.8750    56.3800    16.9030    12.7930    12.4170    24.1970     2.2080   -19.4090 
  113.0000    58.5330    17.5020    13.4940    21.0030    24.3090     2.2980   -19.4080 
  113.1250    59.8110    16.4630    13.0520    32.1940    24.2970     2.4200   -19.4350 
  113.2500    62.2090    14.0600    11.5340    25.9810    24.3000     2.5130   -19.4290 
  113.3750    66.3690    11.2670     9.5750    12.9060    24.4150     2.5310   -19.3930 
  113.5000    72.4650     9.1330     7.9020     8.2040    24.5590     2.4890   -19.3510 
  113.6250    78.8680     7.8490     6.7490     7.8760    24.4700     2.4390   -19.2900 
  113.7500    83.5850     7.2950     6.1130     8.1860    24.3820     2.4000   -19.2250 
  113.8750    84.1970     7.2760     5.9300     7.4160    24.5440     2.3720   -19.1690 
  114.0000    79.5040     7.6070     6.1360     7.1820    24.5660     2.3550   -19.0810 
  114.1250    74.4270     8.0250     6.5080     8.3440    24.3820     2.3520   -18.9470 
  114.2500    70.6230     8.3780     6.8890    10.2500    24.1660     2.3670   -18.8230 
  114.3750    68.8400     8.5540     7.1470     9.9660    24.0740     2.3890   -18.7010 
  114.5000    70.2430     8.4400     7.1690     8.6790    24.0490     2.3990   -18.5630 
  114.6250    73.7310     8.0870     6.9860     7.6850    23.9850     2.3960   -18.4270 
  114.7500    77.3290     7.5920     6.6650     6.9390    23.9530     2.3920   -18.2870 
  114.8750    79.3250     7.0890     6.2950     6.3110    23.9280     2.3930   -18.1290 
  115.0000    80.4870     6.6930     5.9510     6.0840    23.8560     2.3950   -18.0040 
  115.1250    82.9340     6.4080     5.6560     6.0100    23.8090     2.3890   -17.9560 
  115.2500    85.9370     6.2150     5.4170     6.0820    23.8470     2.3740   -17.9350 
  115.3750    87.0780     6.0980     5.2490     6.1010    23.9700     2.3580   -17.8990 
  115.5000    85.6220     6.0950     5.1930     6.0140    24.0610     2.3480   -17.8930 
  115.6250    84.4250     6.2270     5.2580     6.0720    24.0870     2.3490   -17.9520 
  115.7500    85.0800     6.5160     5.4480     6.1950    24.0580     2.3570   -18.0520 
  115.8750    86.8130     6.9410     5.7510     6.5300    23.9580     2.3650   -18.1270 
  116.0000    85.5140     7.4280     6.1390     7.2920    23.7560     2.3590   -18.1710 
  116.1250    82.1010     7.8450     6.5210     8.1580    23.5080     2.3430   -18.2070 
  116.2500    82.6400     8.0920     6.8070     8.1770    23.3720     2.3310   -18.2150 
  116.3750    86.8710     8.1310     6.9280     7.7220    23.4330     2.3330   -18.2140 
  116.5000    88.7040     8.0010     6.8570     7.3770    23.5490     2.3500   -18.1930 
  116.6250    87.5730     7.8630     6.7150     7.4900    23.6540     2.3640   -18.0870 
  116.7500    86.0020     7.8410     6.6250     7.4060    23.7890     2.3610   -17.8890 
  116.8750    84.7600     8.0100     6.6700     7.3570    23.9070     2.3380   -17.6610 
  117.0000    83.3190     8.3720     6.8790     7.5190    23.9470     2.3040   -17.3760 
  117.1250    81.6410     8.7830     7.1450     8.2640    23.9090     2.2760   -16.9960 
  117.2500    79.0460     9.1310     7.3780     9.3630    23.8960     2.2600   -16.5480 
  117.3750    76.1870     9.3870     7.5440     9.7570    23.9990     2.2560   -16.0450 
  117.5000    76.1730     9.6950     7.7310     9.1060    24.1050     2.2650   -15.4950 
  117.6250    77.8090    10.3190     8.1190     9.0160    24.1580     2.2760   -14.9500 
  117.7500    79.1950    11.5000     8.8810     9.5940    24.1750     2.2770   -14.4150 
  117.8750    78.9080    13.3520    10.1310    11.6240    24.2130     2.2630   -13.8620 
  118.0000    74.4040    15.7870    11.9030    15.0910    24.2850     2.2380   -13.3310 
  118.1250    67.0490    18.2010    13.8260    17.4920    24.3020     2.2120   -12.8770 
  118.2500    61.6250    19.9950    15.4480    17.9360    24.2490     2.1930   -12.4960 
  118.3750    62.2770    20.8110    16.4000    17.2760    24.1850     2.1810   -12.1490 
  118.5000    64.1510    20.7500    16.6020    16.8460    24.1650     2.1720   -11.8000 
  118.6250    62.6050    20.5380    16.5400    16.9320    24.1650     2.1630   -11.4840 
  118.7500    59.8600    20.6030    16.5540    16.9290    24.1710     2.1570   -11.2280 
  118.8750    61.1510    21.1170    16.8340    16.8230    24.1940     2.1530   -10.9970 
  119.0000    66.1460    22.1000    17.4800    17.6170    24.2150     2.1510   -10.7210 
  119.1250    67.4480    23.3240    18.3720    18.8230    24.2350     2.1490   -10.4120 
  119.2500    65.0620    24.6240    19.3970    19.8970    24.2520     2.1440   -10.0890 
  119.3750    61.5490    25.8640    20.4380    20.3640    24.2770     2.1360    -9.7060 
