~V
VERS. 2.00: Ver 2.00
~W
STRT.M 50.0000:
STOP.M 265.0000:
STEP.M 0.1250:
NULL. -999.2500:
UWI. F10671:
~C
DEPT.M :
GR.API :
RML.OHMM :
RI. :
RXO.OHMM :
CALI.CM :
DEN.GM/CC :
SP.MV :
~A
# ...
  230.0000    61.5180   106.0910   101.5090    97.0590    23.8160     2.2310   -14.5370 
  230.1250    59.3250   106.8250   102.0150    98.1380    23.7990     2.2290   -14.4370 
  230.2500    59.4620   108.2770   103.0910   102.0320    23.8260     2.2260   -14.4230 
  230.3750    61.0270   110.2600   104.6730   104.5350    23.8680     2.2250   -14.4550 
  230.5000    60.6190   112.3500   106.4480   103.6590    23.8870     2.2260   -14.3950 
  230.6250    57.7130   113.9190   107.8920   104.9900    23.8580     2.2320   -14.3440 
  230.7500    55.3230   114.6490   108.6650   110.2350    23.8040     2.2370   -14.3520 
  230.8750    55.3920   114.4420   108.6540   111.9490    23.7100     2.2400   -14.3730 
  231.0000    56.1400   113.4310   107.9630   108.2520    23.5660     2.2380   -14.4180 
  231.1250    56.1990   111.8740   106.8030   100.5600    23.3120     2.2310   -14.4600 
  231.2500    56.1330   110.2810   105.5480    97.3610    23.0500     2.2220   -14.4570 
  231.3750    55.8180   109.0310   104.3790    99.9560    22.9810     2.2140   -14.4670 
  231.5000    55.7500   108.3410   103.3040   106.1320    23.1420     2.2110   -14.5390 
  231.6250    56.9080   108.1310   102.1050   108.4850    23.3520     2.2130   -14.5290 
  231.7500    57.8470   107.7370   100.5760   105.1200    23.4780     2.2180   -14.5230 
  231.8750    58.8090   106.3030    98.6540   100.9130    23.5920     2.2230   -14.5020 
  232.0000    60.6600   103.7700    96.4650    98.1990    23.7070     2.2270   -14.3480 
  232.1250    62.1480   100.4330    94.3880    96.4870    23.7730     2.2290   -14.2730 
  232.2500    61.8660    97.7120    92.8010    94.4050    23.7950     2.2330   -14.2160 
  232.3750    61.6200    95.6610    91.7760    92.4160    23.8050     2.2390   -14.0910 
  232.5000    62.3740    93.7450    90.8980    89.3480    23.8180     2.2480   -13.9740 
  232.6250    62.7680    90.6570    88.9740    88.1510    23.8390     2.2570   -13.8930 
  232.7500    62.4310    85.5000    85.0370    88.7980    23.8550     2.2630   -13.7510 
  232.8750    62.1130    78.0420    78.6830    89.9840    23.8610     2.2650   -13.6220 
  233.0000    63.5360    68.9530    70.3910    85.5180    23.8610     2.2640   -13.6000 
  233.1250    66.1610    59.7850    61.5450    68.7660    23.8620     2.2630   -13.5310 
  233.2500    66.5360    52.1180    53.8440    51.4110    23.8620     2.2650   -13.4260 
  233.3750    65.3340    46.7950    48.2170    42.7610    23.8640     2.2690   -13.3610 
  233.5000    65.8240    44.1400    45.0440    40.2310    23.8690     2.2740   -13.3360 
  233.6250    69.1290    44.5860    44.8000    40.5890    23.8850     2.2750   -13.3530 
  233.7500    69.9520    47.5680    47.0460    43.4460    23.9140     2.2710   -13.4580 
  233.8750    67.1940    52.9750    51.7770    48.6070    23.9600     2.2620   -13.6270 
  234.0000    63.9430    60.6420    58.9260    55.7320    24.0170     2.2510   -13.7740 
  234.1250    62.9950    70.4260    68.4520    65.7210    24.0880     2.2420   -14.0000 
  234.2500    64.5270    81.1750    79.1590    78.9220    24.1840     2.2350   -14.3260 
  234.3750    65.7720    91.8540    89.9290    94.2730    24.3200     2.2320   -14.6430 
  234.5000    64.3220   101.4320    99.5900   108.9000    24.5000     2.2320   -14.9690 
  234.6250    60.1530   108.8610   106.8860   116.9970    24.6010     2.2320   -15.3520 
  234.7500    56.4600   114.3330   111.9160   118.7090    24.6150     2.2320   -15.7100 
  234.8750    55.5600   118.0890   114.9330   119.7730    24.5850     2.2310   -16.0590 
  235.0000    57.9880   120.2900   116.2270   123.2490    24.5520     2.2320   -16.4200 
  235.1250    59.9590   120.4980   115.5800   126.7080    24.5400     2.2330   -16.6700 
  235.2500    57.6500   118.8350   113.2690   126.6780    24.5370     2.2330   -16.8010 
  235.3750    53.6720   115.6900   109.7010   126.9390    24.5350     2.2310   -16.9370 
  235.5000    52.0380   112.2040   105.9030   125.1450    24.5310     2.2270   -16.9560 
  235.6250    53.7830   110.4940   103.8090   117.8340    24.5260     2.2220   -16.8210 
  235.7500    55.6050   111.8480   104.6530   107.0930    24.5110     2.2180   -16.6620 
  235.8750    56.0230   116.6540   108.9170   106.3080    24.4850     2.2130   -16.4210 
  236.0000    55.9060   124.2310   116.1170   120.2230    24.4590     2.2070   -16.0940 
  236.1250    56.7690   132.8270   124.8410   141.0350    24.4290     2.2000   -15.7580 
  236.2500    58.5970   139.9250   132.7340   157.8970    24.3820     2.1940   -15.4430 
  236.3750    60.1580   143.9350   138.2660   157.8140    24.3060     2.1890   -15.0280 
  236.5000    60.6140   144.4250   140.8450   145.8150    24.2220     2.1860   -14.6280 
  236.6250    60.3580   141.7460   140.4940   141.6040    24.2530     2.1860   -14.2990 
  236.7500    60.4600   137.1770   138.2020   140.5810    24.3320     2.1880   -13.8550 
  236.8750    60.2780   130.5000   133.7220   138.7730    24.3880     2.1910   -13.3740 
  237.0000    58.7100   120.7810   126.2010   134.6490    24.4180     2.1940   -12.9420 
  237.1250    56.4710   107.4080   114.4710   126.9930    24.4520     2.1980   -12.4850 
  237.2500    56.6560    92.2920   100.0300   114.6340    24.4990     2.2040   -11.9920 
  237.3750    59.0120    78.0800    84.9150    95.6110    24.5130     2.2140   -11.5810 
  237.5000    60.6530    66.3780    71.3730    72.6600    24.5000     2.2270   -11.2310 
  237.6250    61.1960    59.6590    61.6220    54.9760    24.4660     2.2410   -10.8600 
  237.7500    62.8530    56.2290    55.6400    47.0670    24.4240     2.2540   -10.6170 
  237.8750    64.6760    54.4210    53.2810    45.5690    24.3940     2.2640   -10.4240 
  238.0000    65.4930    54.5390    54.3000    47.9230    24.3770     2.2720   -10.2170 
  238.1250    65.6240    58.3730    59.0620    53.1750    24.3660     2.2750   -10.0880 
  238.2500    65.6030    65.9510    67.0350    62.1420    24.3650     2.2720   -10.0020 
  238.3750    64.1320    77.4590    78.4140    75.2360    24.3970     2.2590    -9.8570 
  238.5000    60.9390    92.7560    93.5240    92.0800    24.4550     2.2450    -9.6720 
  238.6250    58.4980   112.9780   113.0860   116.1610    24.5170     2.2510    -9.5190 
  238.7500    57.8940   136.6440   135.4870   150.6030    24.5360     2.2910    -9.2900 
  238.8750    56.3610   161.1460   158.3550   199.6830    24.4950     2.3690    -9.0370 
  239.0000    52.0890   182.1220   178.0010   265.2270    24.4040     2.4720    -8.8100 
  239.1250    48.3430   192.5460   188.6190   336.5540    24.3180     2.5680    -8.5290 
  239.2500    49.5600   190.9180   188.9480   361.2380    24.2780     2.6320    -8.2050 
  239.3750    55.0720   178.8100   179.7980   325.2280    24.2770     2.6580    -7.9180 
  239.5000    60.9510   160.2530   163.9530   270.5930    24.3010     2.6560    -7.6430 
  239.6250    62.6820   137.9430   143.5720   236.8960    24.3410     2.6370    -7.3190 
  239.7500    62.4470   112.8800   120.1020   215.2400    24.3770     2.6130    -7.0310 
  239.8750    62.5720    85.5070    93.6930   186.3890    24.3750     2.5880    -6.7170 
  240.0000    61.3600    58.5840    66.2590   136.8480    24.3140     2.5620    -6.3530 
  240.1250    55.7920    37.3860    42.8720    92.9700    24.1540     2.5290    -6.0490 
  240.2500    48.7980    22.9900    26.1620    45.9920    23.9160     2.4810    -5.7760 
  240.3750    42.9870    14.2650    15.7940    16.5770    23.5880     2.4200    -5.5250 
  240.5000    37.9550     9.3800     9.9460     6.0400    23.2160     2.3560    -5.2840 
  240.6250    34.1570     7.0760     7.1080     4.2050    22.9110     2.3080    -5.1110 
  240.7500    32.6020     5.9700     5.6320     3.7730    22.8600     2.2810    -4.9260 
  240.8750    31.7930     5.5440     4.9470     3.6460    23.0220     2.2760    -4.7680 
  241.0000    30.5780     5.4670     4.7130     3.5690    23.2620     2.2840    -4.6900 
  241.1250    30.9590     5.5260     4.7150     3.6450    23.5010     2.2990    -4.6040 
