~V
VERS. 2.00: Ver 2.00
~W
STRT.M 57.0000:
STOP.M 248.0000:
STEP.M 0.1250:
NULL. -999.2500:
UWI. F10637:
~C
DEPT.M :
SP.MV :
GR.API :
RML.OHMM :
RI. :
RXO.OHMM :
CALI.CM :
DEN.GM/CC :
~A
# ...
  180.7500   -11.8570    40.7710    16.6420    14.4050    16.3270    25.3020     2.4770 
  180.8750   -11.9270    40.8830    16.5500    14.3280    16.5000    25.2780     2.4800 
  181.0000   -11.9930    39.6050    16.4700    14.2560    16.3180    25.2640     2.4900 
  181.1250   -12.0480    38.4610    16.4130    14.1980    15.8910    25.2650     2.5020 
  181.2500   -12.0840    39.6970    16.3980    14.1610    15.6290    25.2800     2.5080 
  181.3750   -12.0960    42.7930    16.4260    14.1520    15.3960    25.2970     2.5060 
  181.5000   -12.0820    45.1900    16.5030    14.1810    15.1680    25.2900     2.4940 
  181.6250   -12.0450    45.8840    16.6280    14.2540    14.9410    25.2760     2.4790 
  181.7500   -11.9880    45.8220    16.8010    14.3760    14.8100    25.2560     2.4660 
  181.8750   -11.9190    45.1700    16.9930    14.5180    14.9470    25.2150     2.4600 
  182.0000   -11.8390    44.1640    17.1890    14.6500    15.5140    25.1690     2.4620 
  182.1250   -11.7490    43.7860    17.3940    14.7560    16.2990    25.1550     2.4720 
  182.2500   -11.6560    44.1270    17.6570    14.8550    16.9120    25.1590     2.4900 
  182.3750   -11.5730    42.5760    18.0090    14.9920    17.1820    25.1430     2.5110 
  182.5000   -11.5060    39.3940    18.4480    15.1910    17.3800    25.1410     2.5290 
  182.6250   -11.4550    37.7990    18.9070    15.4310    17.5810    25.1580     2.5380 
  182.7500   -11.4180    40.2360    19.2130    15.6100    17.6210    25.1320     2.5350 
  182.8750   -11.3900    42.1800    19.2350    15.6260    17.4880    25.0950     2.5250 
  183.0000   -11.3750    41.9060    18.9290    15.4270    17.2160    25.0680     2.5120 
  183.1250   -11.3810    41.7280    18.3800    15.0470    16.8700    25.0540     2.5000 
  183.2500   -11.4090    42.6110    17.7910    14.6110    16.4330    25.0600     2.4920 
  183.3750   -11.4480    42.3220    17.3770    14.2830    15.8960    25.0850     2.4910 
  183.5000   -11.4900    40.4950    17.2380    14.1590    15.3550    25.1150     2.4970 
  183.6250   -11.5360    39.8860    17.3760    14.2710    14.9210    25.1260     2.5040 
  183.7500   -11.5930    42.8190    17.7250    14.5980    14.6300    25.1240     2.5080 
  183.8750   -11.6660    45.1030    18.1040    14.9910    14.6020    25.1270     2.5060 
  184.0000   -11.7500    44.9980    18.3500    15.3040    14.7770    25.1270     2.5000 
  184.1250   -11.8340    45.1910    18.3080    15.3920    14.9880    25.1270     2.4940 
  184.2500   -11.9070    46.2200    17.8390    15.1150    15.2020    25.1470     2.4910 
  184.3750   -11.9690    46.2030    17.0920    14.5800    15.2780    25.1880     2.4880 
  184.5000   -12.0190    44.4890    16.2260    13.9220    14.9600    25.2160     2.4870 
  184.6250   -12.0540    43.4550    15.3760    13.2600    12.2490    25.1970     2.4910 
  184.7500   -12.0680    44.1840    14.6060    12.6570    12.3000    25.1570     2.5020 
  184.8750   -12.0530    45.2900    13.8800    12.0900    11.3790    25.1410     2.5140 
  185.0000   -12.0080    47.3160    13.1670    11.5310    10.7380    25.1410     2.5180 
  185.1250   -11.9460    49.5120    12.4930    10.9840    10.2930    25.1350     2.5130 
  185.2500   -11.8790    49.3190    11.9550    10.5180    10.0720    25.1040     2.4990 
  185.3750   -11.8120    47.4600    11.6050    10.1810     9.9250    25.1200     2.4870 
  185.5000   -11.7440    45.6960    11.4550    10.0010     9.7930    25.1920     2.4800 
  185.6250   -11.6840    45.3860    11.4740     9.9670     9.6910    25.2520     2.4770 
  185.7500   -11.6400    47.2330    11.5900    10.0450     9.6810    25.2770     2.4780 
  185.8750   -11.6220    49.1350    11.7020    10.1480     9.8610    25.2800     2.4810 
  186.0000   -11.6340    48.3500    11.7750    10.2340    10.2070    25.2700     2.4850 
  186.1250   -11.6660    44.8210    11.8240    10.2940    10.6500    25.2540     2.4920 
  186.2500   -11.7110    43.0840    11.8890    10.3440    11.0510    25.2390     2.5010 
  186.3750   -11.7640    44.4070    11.9800    10.4010    11.3190    25.2240     2.5050 
  186.5000   -11.8310    45.3060    12.0660    10.4490    11.5010    25.2250     2.5010 
  186.6250   -11.9060    44.5000    12.1040    10.4580    11.6160    25.2400     2.4900 
  186.7500   -11.9820    44.1230    12.0520    10.3940    11.5670    25.2440     2.4800 
  186.8750   -12.0570    44.1390    11.9380    10.2770    11.3800    25.2500     2.4750 
  187.0000   -12.1260    43.2560    11.8030    10.1380    11.0800    25.2120     2.4800 
  187.1250   -12.1890    42.5080    11.6870    10.0080    10.7620    25.0340     2.4930 
  187.2500   -12.2490    42.8400    11.6140     9.9070    10.4830    24.7920     2.5050 
  187.3750   -12.3060    43.3770    11.5660     9.8230    10.3730    24.7900     2.5120 
  187.5000   -12.3590    43.9060    11.5280     9.7460    10.2240    24.9980     2.5120 
  187.6250   -12.4110    44.7730    11.4900     9.6730    10.0860    25.1490     2.5060 
  187.7500   -12.4680    45.7310    11.4620     9.6160    10.0350    25.2080     2.4960 
  187.8750   -12.5240    46.5360    11.4580     9.5880    10.0390    25.2680     2.4860 
  188.0000   -12.5790    47.3020    11.4870     9.5920    10.1020    25.3010     2.4760 
  188.1250   -12.6450    48.0330    11.5490     9.6280    10.2420    25.2850     2.4620 
  188.2500   -12.7260    47.4230    11.6890     9.7230    10.3860    25.2270     2.4420 
  188.3750   -12.8200    45.7910    11.9850     9.9250    10.6140    25.1370     2.4210 
  188.5000   -12.9300    45.3440    12.5480    10.3110    10.8990    25.0500     2.4130 
  188.6250   -13.0610    46.5100    13.4590    10.9510    11.3280    24.9890     2.4220 
  188.7500   -13.2150    47.2910    14.7150    11.8860    12.0010    24.9190     2.4410 
  188.8750   -13.3920    47.9170    15.9590    12.8910    13.1450    24.9070     2.4420 
  189.0000   -13.5980    50.3560    16.7230    13.6180    14.5450    24.9670     2.4120 
  189.1250   -13.8250    55.6850    16.5980    13.7090    15.3500    25.0800     2.3610 
  189.2500   -14.0640    58.8300    15.4470    12.9640    15.4280    25.2280     2.3110 
  189.3750   -14.3140    57.6410    13.9450    11.8450    14.5830    25.3120     2.2830 
  189.5000   -14.5720    56.0840    12.6570    10.7790    12.5020    25.3630     2.2770 
  189.6250   -14.8290    57.0210    11.9400    10.0720    10.4020    25.4130     2.2830 
  189.7500   -15.0770    59.6050    11.9910     9.9340    10.1620    25.4570     2.2820 
  189.8750   -15.3180    60.5270    12.6290    10.2770    11.0460    25.4790     2.2700 
  190.0000   -15.5450    60.6640    13.7270    11.0470    12.6780    25.4690     2.2540 
  190.1250   -15.7520    61.5030    15.0510    12.1130    13.7020    25.4390     2.2440 
  190.2500   -15.9420    61.8940    16.0700    13.1220    14.0340    25.3890     2.2420 
  190.3750   -16.1120    61.1680    16.2760    13.6010    14.0090    25.3370     2.2480 
  190.5000   -16.2580    60.2910    15.4630    13.2720    13.7680    25.3110     2.2620 
  190.6250   -16.3840    59.8130    13.8670    12.2110    13.1170    25.3090     2.2830 
  190.7500   -16.4890    59.7100    12.0880    10.8120    12.5710    25.3220     2.3090 
  190.8750   -16.5690    60.3330    10.6760     9.5710    10.9740    25.3190     2.3370 
  191.0000   -16.6320    62.9880     9.7780     8.6790     8.5800    25.3160     2.3650 
  191.1250   -16.6870    66.9470     9.3200     8.1540     8.4930    25.2940     2.3870 
  191.2500   -16.7310    68.9310     9.1540     7.9440     9.1890    25.2740     2.4030 
  191.3750   -16.7670    69.3020     9.0540     7.8640     9.4000    25.2720     2.4090 
  191.5000   -16.7980    69.0510     8.9110     7.8000     9.0730    25.2790     2.4010 
  191.6250   -16.8260    68.4070     8.7190     7.7050     8.3770    25.2830     2.3810 
  191.7500   -16.8510    67.4760     8.5820     7.6260     7.7420    25.2680     2.3620 
  191.8750   -16.8710    66.0670     8.5800     7.6310     7.5210    25.2390     2.3610 
