~V
VERS. 2.00: Ver 2.00
~W
STRT.M 58.0000:
STOP.M 244.0000:
STEP.M 0.1250:
NULL. -999.2500:
UWI. F10638:
~C
DEPT.M :
SP.MV :
GR.API :
RML.OHMM :
RI. :
RXO.OHMM :
CALI.CM :
DEN.GM/CC :
~A
# ...
  204.2500   -14.7710    57.6310    31.2710    24.6840    35.1060    24.4100     2.2300 
  204.3750   -14.9340    64.6910    33.3240    27.4000    34.1060    24.4300     2.1840 
  204.5000   -15.0790    68.4990    33.4680    28.3570    29.1830    24.4550     2.1690 
  204.6250   -15.1820    67.9210    32.8960    28.3070    26.3200    24.4520     2.1740 
  204.7500   -15.2340    68.3700    32.6440    28.1250    25.7380    24.4510     2.1860 
  204.8750   -15.1940    71.1550    33.2030    28.3920    26.5840    24.4830     2.2020 
  205.0000   -15.0840    72.5510    34.1860    29.0440    28.2180    24.5220     2.2140 
  205.1250   -14.9370    71.0710    35.1160    29.8040    29.5440    24.5510     2.2200 
  205.2500   -14.7630    68.2400    35.6410    30.3830    29.7560    24.5520     2.2190 
  205.3750   -14.5540    66.6510    35.7280    30.6510    27.8980    24.5540     2.2120 
  205.5000   -14.3570    66.8560    35.8050    30.8470    25.3240    24.5410     2.2040 
  205.6250   -14.2050    66.7500    36.1970    31.2120    23.6360    24.5080     2.1970 
  205.7500   -14.1030    65.2380    36.9990    31.8780    24.4300    24.4640     2.1910 
  205.8750   -14.0660    64.3670    37.9840    32.7650    27.0820    24.4830     2.1880 
  206.0000   -14.0960    64.1800    38.6320    33.4830    29.4400    24.5180     2.1890 
  206.1250   -14.1720    64.0360    38.5710    33.6980    29.4160    24.5380     2.1930 
  206.2500   -14.2730    64.0410    37.7250    33.2870    27.7800    24.5430     2.2010 
  206.3750   -14.3870    65.4650    36.3880    32.4220    27.2080    24.5470     2.2080 
  206.5000   -14.5230    65.7340    35.2540    31.6440    26.7250    24.5460     2.2120 
  206.6250   -14.6770    65.5600    34.8490    31.3790    25.6880    24.5570     2.2110 
  206.7500   -14.8400    66.3800    35.4920    31.9200    26.4540    24.5660     2.2060 
  206.8750   -15.0000    66.4240    37.3530    33.4930    29.0290    24.5610     2.1980 
  207.0000   -15.1380    65.6840    39.9640    35.7940    32.0950    24.5580     2.1930 
  207.1250   -15.2910    64.9970    42.9590    38.5620    35.5350    24.5680     2.1880 
  207.2500   -15.4920    64.1240    45.9910    41.5000    39.7940    24.5780     2.1820 
  207.3750   -15.7340    63.1440    48.7120    44.2720    40.9470    24.5900     2.1770 
  207.5000   -15.9770    63.9710    50.9900    46.6750    41.8180    24.5910     2.1830 
  207.6250   -16.1960    64.4320    52.6960    48.5670    44.4950    24.5900     2.2090 
  207.7500   -16.4000    61.6460    53.5590    49.7140    49.9200    24.5920     2.2490 
  207.8750   -16.6060    58.1060    53.0760    49.6340    52.7440    24.6190     2.2830 
  208.0000   -16.8300    56.9200    51.6620    48.5970    50.6890    24.6410     2.2890 
  208.1250   -17.0540    57.5280    50.1870    47.2740    49.3460    24.6360     2.2660 
  208.2500   -17.2660    58.7280    49.8740    46.6710    48.0630    24.6190     2.2280 
  208.3750   -17.5250    60.3730    52.6850    48.4600    42.8530    24.6280     2.1930 
  208.5000   -17.8520    59.7970    59.6760    53.8200    41.9350    24.6290     2.1670 
  208.6250   -18.2510    57.2440    72.0440    64.1540    55.2330    24.6050     2.1510 
  208.7500   -18.6940    55.3440    90.7450    80.6150    79.4680    24.5950     2.1440 
  208.8750   -19.1820    54.7930   134.3870   104.3330   109.9190    24.6150     2.1430 
  209.0000   -19.7280    53.5890   168.7940   131.9210   136.8840    24.6340     2.1470 
  209.1250   -20.3150    51.0850   201.6230   158.8860   152.6370    24.6450     2.1530 
  209.2500   -20.9270    49.0110   226.6970   180.5720   153.5160    24.6270     2.1620 
  209.3750   -21.5030    48.7480   241.2250   194.3060   143.5690    24.5920     2.1740 
  209.5000   -22.0370    49.7630   250.2590   203.2880   145.1940    24.5770     2.1830 
  209.6250   -22.5340    52.0990   256.3730   209.5100   157.4890    24.5790     2.1880 
  209.7500   -23.0190    54.3920   260.3730   213.9030   165.5390    24.5740     2.1890 
  209.8750   -23.4670    54.6130   261.4500   216.2470   159.3740    24.5360     2.1870 
  210.0000   -23.8330    53.5850   259.6150   216.6720   152.9500    24.5120     2.1850 
  210.1250   -24.1260    52.9220   255.3870   215.4520   136.5450    24.5200     2.1860 
  210.2500   -24.3610    53.3250   250.0180   213.4320   126.4570    24.5330     2.1910 
  210.3750   -24.5500    53.0340   244.3800   211.4360   136.8860    24.5450     2.1980 
  210.5000   -24.7020    52.1800   237.5770   208.9370   145.6570    24.5410     2.2050 
  210.6250   -24.8180    53.2690   227.4670   204.1380   153.7650    24.5170     2.2080 
  210.7500   -24.8850    55.3410   212.4460   195.1440   165.1000    24.4750     2.2050 
  210.8750   -24.9430    55.4490   192.9570   181.0740   163.5920    24.4610     2.1960 
  211.0000   -25.0460    54.2450   173.4830   165.2820   147.9700    24.4920     2.1880 
  211.1250   -25.1820    53.9960   157.6060   151.1660   124.3650    24.5270     2.1810 
  211.2500   -25.3170    55.1820   147.4630   141.3490   103.5070    24.5210     2.1750 
  211.3750   -25.4450    55.5120   144.3360   137.7210   100.9420    24.4710     2.1690 
  211.5000   -25.5790    55.8880   145.7650   138.5320   112.4920    24.4580     2.1640 
  211.6250   -25.7180    56.8090   149.4280   141.8620   117.5430    24.4720     2.1650 
  211.7500   -25.8780    56.4300   152.7780   145.4090   114.1810    24.4900     2.1800 
  211.8750   -26.0410    54.1530   153.8450   147.1000   111.5230    24.4640     2.2070 
  212.0000   -26.2070    53.1550   153.7620   147.3940   108.0030    24.4310     2.2320 
  212.1250   -26.4150    54.0790   154.9660   148.2090   103.4820    24.4180     2.2410 
  212.2500   -26.6710    53.8090   160.1670   152.1010    99.5330    24.4130     2.2410 
  212.3750   -26.9300    50.6470   172.5020   162.2860    97.4920    24.4140     2.2240 
  212.5000   -27.1740    48.4810   191.5520   178.6530   101.8320    24.4280     2.1990 
  212.6250   -27.4410    49.4050   216.0280   199.9550   108.4980    24.4360     2.1800 
  212.7500   -27.7380    50.8310   241.9780   222.5470   132.5840    24.4800     2.1730 
  212.8750   -28.0200    50.7620   259.9930   238.4960   113.1000    24.4680     2.1750 
  213.0000   -28.2650    52.2890   263.3760   242.3390    75.5850    24.3740     2.1770 
  213.1250   -28.4510    55.1120   252.1370   233.5670    56.1480    24.2770     2.1750 
  213.2500   -28.6160    55.0030   233.3320   217.2010    53.0980    24.2460     2.1680 
  213.3750   -28.7900    52.1460   216.6980   201.1390    57.7020    24.2390     2.1590 
  213.5000   -28.9050    51.8090   207.3480   190.7880    63.2050    24.2550     2.1520 
  213.6250   -28.9160    53.5350   206.5190   188.0540    76.4490    24.3210     2.1490 
  213.7500   -28.8160    54.9670   213.5240   192.9050   106.8110    24.3960     2.1490 
  213.8750   -28.6350    54.7540   226.5120   204.1630   153.8720    24.4510     2.1500 
  214.0000   -28.3950    52.8690   239.5890   216.5620   186.4900    24.4860     2.1540 
  214.1250   -28.1090    48.2030   246.6270   224.6240   209.1900    24.4890     2.1650 
  214.2500   -27.7600    43.7910   242.5360   223.4160   230.5110    24.4690     2.1840 
  214.3750   -27.3530    45.2710   225.4660   210.0530   228.1450    24.4520     2.2090 
  214.5000   -26.9200    49.6850   203.1000   190.4500   201.4220    24.4460     2.2270 
  214.6250   -26.4730    51.8100   181.5730   170.0940   166.8330    24.4390     2.2300 
  214.7500   -26.0130    50.0970   165.0650   153.3050   142.8440    24.4150     2.2180 
  214.8750   -25.5640    48.8490   156.9170   143.6820   143.8580    24.4100     2.1970 
  215.0000   -25.1490    49.6840   156.4850   141.0560   141.6460    24.4120     2.1780 
  215.1250   -24.7750    50.2830   163.5490   145.3410   148.8400    24.4130     2.1660 
  215.2500   -24.3890    50.2850   177.4660   155.9900   171.4000    24.4180     2.1610 
  215.3750   -23.9800    51.4520   197.5240   172.3430   221.9240    24.4250     2.1540 
