~V
VERS. 2.00: Ver 2.00
~W
STRT.M 51.0000:
STOP.M 206.0000:
STEP.M 0.1250:
NULL. -999.2500:
UWI. F10683:
~C
DEPT.M :
GR.API :
RML.OHMM :
RI. :
RXO.OHMM :
CALI.CM :
SP.MV :
DEN.GM/CC :
~A
# ...
   73.5000    54.3560    17.7560    15.3710    20.0240    24.2920   -16.6930     2.4030 
   73.6250    52.6970    17.0830    14.9370    14.4260    24.0130   -16.4610     2.3480 
   73.7500    51.3510    15.8760    14.0000    11.8090    23.8570   -16.1680     2.3140 
   73.8750    51.8740    14.4110    12.8140    11.0890    23.7970   -15.8290     2.2950 
   74.0000    53.8470    12.8830    11.5720    10.7490    23.7800   -15.4360     2.2810 
   74.1250    56.3000    11.4370    10.4120     9.5350    23.8180   -14.9060     2.2770 
   74.2500    59.5310    10.1780     9.3980     7.9890    23.9060   -14.2210     2.2900 
   74.3750    62.8550     9.2100     8.5880     7.0650    23.9780   -13.4080     2.3200 
   74.5000    64.2620     8.6030     8.0260     6.8630    23.9820   -12.5490     2.3540 
   74.6250    65.7570     8.4040     7.7700     7.0040    23.9380   -11.7660     2.3720 
   74.7500    69.9620     8.4610     7.7330     7.0960    23.9680   -11.0810     2.3700 
   74.8750    73.9650     8.6620     7.8380     6.7750    24.0900   -10.4600     2.3580 
   75.0000    74.0620     8.9020     7.9950     6.6170    24.2100    -9.8940     2.3460 
   75.1250    70.8060     9.0430     8.0790     6.9020    24.2580    -9.3890     2.3340 
   75.2500    69.1890     8.9730     7.9970     7.1500    24.2910    -8.9200     2.3220 
   75.3750    68.9440     8.6230     7.7020     6.9530    24.3730    -8.4980     2.3110 
   75.5000    68.6940     8.0260     7.2270     6.5580    24.5060    -8.1360     2.3010 
   75.6250    67.2310     7.3880     6.7200     6.3600    24.5920    -7.8870     2.2910 
   75.7500    64.7840     7.0430     6.3960     6.2340    24.6130    -7.8120     2.2790 
   75.8750    64.1890     7.2600     6.4290     6.4870    24.5720    -7.9480     2.2700 
   76.0000    64.8760     8.2370     6.9570     7.3340    24.4250    -8.2950     2.2640 
   76.1250    62.3090    10.2590     8.2230     9.1280    24.1690    -8.8790     2.2600 
   76.2500    57.0680    13.1720    10.2170    12.2470    23.9080    -9.6070     2.2570 
   76.3750    53.6020    16.7140    12.8670    15.6660    23.7790   -10.4080     2.2550 
   76.5000    52.7910    20.2660    15.8090    17.9250    23.7470   -11.2180     2.2510 
   76.6250    51.7010    22.7360    18.2190    18.1930    23.7340   -11.9570     2.2410 
   76.7500    50.6040    23.7750    19.5950    17.2400    23.7040   -12.5980     2.2330 
   76.8750    51.1910    23.6910    19.9850    16.5080    23.6640   -13.1470     2.2370 
   77.0000    52.4010    23.1450    19.8040    16.1210    23.6280   -13.5990     2.2550 
   77.1250    53.0310    22.6630    19.4530    15.7800    23.6350   -13.9450     2.2820 
   77.2500    53.6380    22.2810    19.0850    15.4350    23.6580   -14.2210     2.3000 
   77.3750    54.1740    21.7740    18.6150    15.0870    23.6650   -14.4380     2.2960 
   77.5000    54.5370    20.9150    17.9220    14.6300    23.6500   -14.6240     2.2690 
   77.6250    54.7680    19.5920    16.9420    13.9340    23.6230   -14.8360     2.2240 
   77.7500    55.1760    18.0850    15.8480    12.8590    23.6020   -15.0730     2.1730 
   77.8750    56.0770    16.7040    14.8420    11.6490    23.5810   -15.2950     2.1300 
   78.0000    56.4210    15.7370    14.1200    10.9920    23.5500   -15.4720     2.1100 
   78.1250    54.6920    15.5160    13.9270    10.7640    23.5350   -15.5780     2.1230 
   78.2500    52.4940    16.0570    14.2970    10.6900    23.5260   -15.6280     2.1530 
   78.3750    50.8530    17.3220    15.2470    10.8200    23.5090   -15.6050     2.1910 
   78.5000    50.6240    19.0210    16.6210    11.2720    23.4730   -15.4420     2.2340 
   78.6250    52.8360    20.2740    17.7920    12.3560    23.4770   -15.0370     2.2870 
   78.7500    55.3360    20.0770    17.8580    13.5230    23.5520   -14.4040     2.3390 
   78.8750    56.8070    18.0230    16.3510    13.9510    23.7190   -13.5740     2.3770 
   79.0000    58.0920    14.7060    13.6900    12.7730    23.9510   -12.6280     2.3950 
   79.1250    62.3170    11.4370    10.9450     9.6150    24.2450   -11.6330     2.3930 
   79.2500    67.9550     9.1510     8.9110     6.9620    24.4900   -10.6840     2.3870 
   79.3750    70.9080     8.1460     7.8200     6.1490    24.5660    -9.8310     2.3970 
   79.5000    69.6560     8.4740     7.7160     7.2990    24.4780    -9.1000     2.4420 
   79.6250    64.8560    10.4320     8.8660     9.6280    24.4030    -8.5200     2.5280 
   79.7500    61.6490    13.9450    11.3350    14.9920    24.4710    -8.1510     2.6180 
   79.8750    61.7410    19.1040    15.3810    25.8890    24.5750    -8.0380     2.6750 
   80.0000    63.8570    25.6580    20.9920    37.4420    24.6260    -8.1660     2.6900 
   80.1250    66.0330    32.4520    27.3930    39.6080    24.6280    -8.5310     2.6740 
   80.2500    66.6640    37.5530    32.7800    40.3810    24.6100    -9.0060     2.6330 
   80.3750    69.1630    39.7040    35.8260    46.6720    24.5370    -9.5490     2.5590 
   80.5000    72.1260    38.9520    36.1840    47.1430    24.3500   -10.1620     2.4660 
   80.6250    67.8550    36.3690    34.3470    37.6020    24.1010   -10.8230     2.3950 
   80.7500    58.6950    33.3230    31.5820    26.4230    23.9580   -11.3710     2.3560 
   80.8750    53.6270    29.9420    28.1900    20.2910    23.9790   -11.6760     2.3310 
   81.0000    55.6240    25.9520    24.1670    17.8340    24.0650   -11.6940     2.2970 
   81.1250    59.2060    21.1650    19.6050    16.6680    24.1010   -11.4290     2.2640 
   81.2500    61.6590    16.2320    15.1470    14.4590    24.1190   -11.0140     2.2610 
   81.3750    65.0390    11.9780    11.4220    11.3890    24.1580   -10.5350     2.2970 
   81.5000    72.1540     9.0620     8.8280     7.9540    24.2410   -10.0770     2.3500 
   81.6250    79.6570     8.0500     7.6700     6.8320    24.3060    -9.7490     2.3860 
   81.7500    79.8500     8.7570     7.7660     7.4740    24.3300    -9.6370     2.4010 
   81.8750    71.1710    11.3400     9.3060    10.7800    24.3250    -9.8280     2.4020 
   82.0000    61.4770    16.0210    12.6380    18.3730    24.2690   -10.2970     2.3790 
   82.1250    58.1020    22.7150    18.0600    30.8790    24.1190   -10.9360     2.3340 
   82.2500    55.1970    28.5920    23.4710    34.0740    23.9580   -11.5720     2.3000 
   82.3750    51.3360    29.9270    25.6510    32.2290    23.9130   -12.0760     2.2940 
   82.5000    49.1780    25.8540    23.2490    27.7140    23.9660   -12.3410     2.3090 
   82.6250    51.6510    19.6880    18.4380    19.4210    24.0680   -12.2630     2.3350 
   82.7500    58.8970    14.7070    14.1670    13.3500    24.1820   -11.9080     2.3620 
   82.8750    66.9550    11.4510    11.1170     9.8270    24.2870   -11.3100     2.3830 
   83.0000    70.7020     9.6600     9.1970     8.6950    24.3570   -10.5470     2.4010 
   83.1250    69.3940     9.0720     8.2550     8.3710    24.4170    -9.7080     2.4140 
   83.2500    68.3980     9.1330     7.9080     8.4170    24.4540    -8.8870     2.4120 
   83.3750    68.3430     9.5620     7.9720     8.2990    24.4390    -8.1440     2.3960 
   83.5000    67.3920    10.1540     8.2910     8.0610    24.4030    -7.5200     2.3900 
   83.6250    67.5590    10.7840     8.7630     8.2060    24.4560    -7.0970     2.4160 
   83.7500    70.4940    11.3360     9.2510     8.9990    24.5970    -6.8690     2.4530 
   83.8750    71.2480    11.6930     9.6300     9.8830    24.6720    -6.7790     2.4790 
   84.0000    68.2390    11.7710     9.7910    10.4960    24.6730    -6.7750     2.4830 
   84.1250    67.1840    11.5530     9.6700    11.7530    24.6580    -6.8570     2.4580 
   84.2500    68.5010    11.2250     9.3930    10.1340    24.6480    -7.0280     2.4130 
   84.3750    69.4490    10.9570     9.0900     7.9670    24.5700    -7.2810     2.3710 
   84.5000    68.7630    10.8470     8.8580     7.5280    24.3990    -7.5440     2.3530 
   84.6250    69.5780    10.8370     8.7030     8.5960    24.2430    -7.6810     2.3620 
