~V
VERS. 2.00: Ver 2.00
~W
STRT.M 52.0000:
STOP.M 260.0000:
STEP.M 0.1250:
NULL. -999.2500:
UWI. F10654:
~C
DEPT.M :
SP.MV :
GR.API :
RML.OHMM :
RI. :
RXO.OHMM :
CALI.CM :
DEN.GM/CC :
~A
# ...
  243.2500   -12.9530    78.3520     8.4920     8.2690     8.8050    23.6970     2.3350 
  243.3750   -12.7980    80.0460     7.8360     7.5090     7.8170    23.6280     2.3290 
  243.5000   -12.6750    80.5520     7.5410     7.1180     7.4440    23.5430     2.3300 
  243.6250   -12.6060    78.8390     7.5150     7.0160     7.3730    23.4600     2.3300 
  243.7500   -12.6240    78.4880     7.7230     7.1710     7.4720    23.4180     2.3290 
  243.8750   -12.7050    81.7440     8.1210     7.5400     7.6720    23.4470     2.3270 
  244.0000   -12.8050    85.1940     8.6440     8.0660     8.1610    23.5530     2.3270 
  244.1250   -12.8920    85.9170     9.1410     8.5970     9.0410    23.7100     2.3280 
  244.2500   -12.9450    86.5150     9.4650     8.9890    10.2000    23.8580     2.3290 
  244.3750   -12.9480    88.1910     9.4940     9.1120    11.1440    23.9750     2.3280 
  244.5000   -12.8690    90.8180     9.1410     8.8530    11.2110    24.0660     2.3270 
  244.6250   -12.7100    94.0640     8.5690     8.3410    10.2210    24.1220     2.3240 
  244.7500   -12.4850    95.1850     7.9480     7.7220     8.7830    24.1560     2.3190 
  244.8750   -12.2300    92.1950     7.4330     7.1480     7.6320    24.1840     2.3110 
  245.0000   -11.9700    87.7880     7.1370     6.7420     6.9400    24.1980     2.3040 
  245.1250   -11.7190    84.4020     7.0100     6.4920     6.7150    24.1920     2.3020 
  245.2500   -11.5110    81.1200     6.9780     6.3570     6.7050    24.1910     2.3090 
  245.3750   -11.3440    78.9690     6.9650     6.2800     6.6710    24.2220     2.3240 
  245.5000   -11.2600    80.0840     6.9170     6.2180     6.5650    24.2430     2.3440 
  245.6250   -11.2700    81.8080     6.8440     6.1600     6.4290    24.2500     2.3590 
  245.7500   -11.3870    82.6600     6.7870     6.1250     6.3290    24.2520     2.3610 
  245.8750   -11.5650    83.3260     6.7980     6.1440     6.3850    24.2500     2.3490 
  246.0000   -11.7900    83.2510     6.9300     6.2640     6.5170    24.2240     2.3260 
  246.1250   -12.0580    82.7020     7.1670     6.4770     6.5930    24.1530     2.3020 
  246.2500   -12.3120    83.5240     7.4720     6.7650     6.7080    24.0470     2.2860 
  246.3750   -12.5460    85.2980     7.7900     7.0800     6.9750    23.8760     2.2810 
  246.5000   -12.7340    86.0250     8.0370     7.3460     7.5060    23.6410     2.2860 
  246.6250   -12.8480    86.3840     8.1740     7.5160     8.0990    23.4390     2.2940 
  246.7500   -12.8500    87.6630     8.1940     7.5750     8.5380    23.3670     2.3020 
  246.8750   -12.7600    88.9170     8.1240     7.5370     8.6720    23.4080     2.3060 
  247.0000   -12.5720    89.4120     8.0000     7.4360     8.8290    23.6330     2.3080 
  247.1250   -12.2410    89.7160     7.8540     7.3080     9.0810    23.9190     2.3070 
  247.2500   -11.7910    86.3500     7.6720     7.1480     9.1600    24.1410     2.3030 
  247.3750   -11.2560    77.2100     7.4200     6.9280     8.8770    24.2360     2.2960 
  247.5000   -10.5960    67.4660     7.0460     6.5990     8.0960    24.2710     2.2880 
  247.6250    -9.8660    62.7180     6.5720     6.1730     7.3030    24.3210     2.2850 
  247.7500    -9.0760    61.8740     6.0410     5.6830     6.5240    24.3590     2.2910 
  247.8750    -8.2260    61.1940     5.5160     5.1840     5.7200    24.3650     2.3090 
  248.0000    -7.3800    59.9740     5.0830     4.7540     5.2470    24.3420     2.3340 
  248.1250    -6.6050    59.3000     4.7700     4.4260     4.8430    24.3050     2.3540 
  248.2500    -5.9340    60.0790     4.5850     4.2130     4.4630    24.2690     2.3630 
  248.3750    -5.3460    62.5330     4.5090     4.1040     4.2270    24.2500     2.3600 
  248.5000    -4.9060    63.2760     4.5150     4.0790     4.1090    24.2470     2.3530 
  248.6250    -4.5700    61.7600     4.5430     4.0850     4.0150    24.2330     2.3500 
  248.7500    -4.3350    60.8560     4.5630     4.0900     3.9380    24.2010     2.3540 
  248.8750    -4.1790    62.1570     4.5500     4.0730     3.8900    24.1750     2.3630 
  249.0000    -4.0600    64.5280     4.4900     4.0210     3.8800    24.1760     2.3730 
  249.1250    -3.9680    67.0020     4.3930     3.9380     3.8950    24.2030     2.3820 
  249.2500    -3.8870    68.5890     4.2690     3.8330     3.9080    24.2120     2.3920 
  249.3750    -3.8330    68.0030     4.1360     3.7190     3.9170    24.2210     2.4050 
  249.5000    -3.8090    65.3610     4.0380     3.6330     3.9500    24.2400     2.4160 
  249.6250    -3.8130    63.8350     4.0270     3.6160     4.0450    24.2580     2.4180 
  249.7500    -3.8140    63.8350     4.1590     3.7220     4.2750    24.2650     2.4130 
  249.8750    -3.8620    63.8350     4.4720     3.9920     4.7230    24.2540     2.4080 
  250.0000    -3.9170    63.8350     4.9710     4.4410     5.7640    24.2480     2.4150 
  250.1250    -4.0070    63.8350     5.5140     4.9470     7.3050    24.2470     2.4330 
  250.2500    -4.1300    63.8350     5.9380     5.3620     8.9830    24.2530     2.4530 
  250.3750    -4.2790    63.8350     6.0870     5.5350    10.3500    24.2650     2.4640 
  250.5000    -4.4000    63.8350     5.8350     5.3360     9.9830    24.2610     2.4560 
  250.6250    -4.5190    63.8350     5.3450     4.8990     7.6600    24.2500     2.4370 
  250.7500    -4.6760    63.8350     4.8210     4.3990     5.3550    24.2500     2.4150 
  250.8750    -4.8510    63.8350     4.4590     4.0120     4.3880    24.2810     2.3960 
  251.0000    -5.0890    63.8350     4.4120     3.8790     4.5710    24.3150     2.3800 
  251.1250    -5.3230    63.8350     4.6210     3.9750     5.2580    24.3210     2.3630 
  251.2500    -5.5800    63.8350     5.0050     4.2570     6.1510    24.2840     2.3390 
  251.3750    -5.8490    63.8350     5.4710     4.6640     7.0720    24.2190     2.3090 
  251.5000    -6.1430    63.8350     5.9590     5.1620     7.6240    24.1570     2.2760 
  251.6250    -6.4300    63.8350     6.4680     5.7290     7.7930    24.0930     2.2490 
  251.7500    -6.6460    63.8350     7.0250     6.3730     8.2700    23.9910     2.2350 
  251.8750    -6.7660    63.8350     7.6320     7.0770     8.9330    23.8640     2.2330 
  252.0000    -6.7840    63.8350     8.1960     7.7380     9.4380    23.6610     2.2400 
  252.1250    -6.7160    63.8350     8.5690     8.2010     9.6910    23.3560     2.2450 
  252.2500    -6.5090    63.8350     8.6220     8.3270     9.6000    22.8980     2.2380 
  252.3750    -6.1990    63.8350     8.3130     8.0610     8.9220    22.2650     2.2140 
  252.5000    -5.8440    63.8350     7.6950     7.4480     7.7350    21.7170     2.1670 
  252.6250    -5.4400    63.8350     6.9870     6.7220     6.6530    21.6370     2.1100 
  252.7500    -5.0570    63.8350     6.3210     6.0230     5.9720    21.9200     2.0520 
  252.8750    -4.6910    63.8350     5.7710     5.4230     5.8630    22.3870     2.0040 
  253.0000    -4.2770    63.8350     5.3770     4.9550     6.0200    22.8420     1.9730 
  253.1250    -3.8870    63.8350     5.0990     4.5920     6.0070    23.3090     1.9530 
  253.2500    -3.5650    63.8350     4.9160     4.3280     5.4950    23.7140     1.9430 
  253.3750    -3.3100    63.8350     4.8110     4.1580     4.6360    23.9940     1.9370 
  253.5000    -3.1190    63.8350     4.7750     4.0800     4.4150    24.1120     1.9360 
  253.6250    -2.9690    63.8350     4.7820     4.0530     4.4960    24.1500     1.9380 
  253.7500    -2.8410    63.8350     4.8130     4.0520     4.7040    24.1520     1.9440 
  253.8750    -2.7360    63.8350     4.8450     4.0570     4.9490    24.1370     1.9500 
  254.0000    -2.7440    63.8350     4.8560     4.0600     5.1150    24.1030     1.9540 
  254.1250    -2.8090    63.8350     4.8460     4.0600     5.2510    24.0610     1.9560 
  254.2500    -2.8900    63.8350     4.8220     4.0630     5.4370    24.0320     1.9550 
  254.3750    -2.9490    63.8350     4.7980     4.0700     5.8240    24.0210     1.9520 
