~V
VERS. 2.00: Ver 2.00
~W
STRT.M 56.0000:
STOP.M 256.0000:
STEP.M 0.1250:
NULL. -999.2500:
UWI. F10668:
~C
DEPT.M :
SP.MV :
GR.API :
RML.OHMM :
RI. :
RXO.OHMM :
CALI.CM :
DEN.GM/CC :
~A
# ...
  247.2500   -19.7410    26.6710     7.0840     5.7720     7.9560    24.1950     2.2840 
  247.3750   -19.9250    26.6710     7.6380     6.2370     8.0950    24.1890     2.2820 
  247.5000   -20.0720    26.6710     8.0750     6.6480     7.9100    24.1400     2.2850 
  247.6250   -20.1320    26.6710     8.2330     6.8690     7.4940    24.1150     2.2910 
  247.7500   -20.1160    26.6710     7.9740     6.7670     8.0040    24.1490     2.2910 
  247.8750   -20.0160    26.6710     7.2260     6.2560     8.9450    24.2010     2.2770 
  248.0000   -19.7880    26.6710     6.2560     5.5320     7.8690    24.1760     2.2570 
  248.1250   -19.4130    26.6710     5.3110     4.7830     5.4170    24.1290     2.2450 
  248.2500   -18.9530    26.6710     4.5690     4.1600     4.0830    24.1980     2.2540 
  248.3750   -18.4530    26.6710     4.1490     3.7630     3.8410    24.1280     2.2910 
  248.5000   -17.9260    26.6710     3.9910     3.5600     3.9710    23.9980     2.3400 
  248.6250   -17.3980    26.6710     4.0330     3.5160     4.2560    24.0250     2.3840 
  248.7500   -16.8980    26.6710     4.1880     3.5850     4.5780    24.1040     2.4090 
  248.8750   -16.4810    26.6710     4.3690     3.7170     4.4980    24.1500     2.4100 
  249.0000   -16.1550    26.6710     4.5160     3.8550     4.5160    24.1600     2.4110 
  249.1250   -15.9210    26.6710     4.6070     3.9670     4.6060    24.1700     2.4210 
  249.2500   -15.7410    26.6710     4.6380     4.0300     4.4600    24.1760     2.4330 
  249.3750   -15.5420    26.6710     4.5970     4.0250     4.2130    24.1930     2.4220 
  249.5000   -15.3880    26.6710     4.4960     3.9690     4.0700    24.2150     2.3860 
  249.6250   -15.3170    26.6710     4.3470     3.8730     4.0740    24.2290     2.3430 
  249.7500   -15.2920    26.6710     4.1710     3.7540     4.0380    24.2250     2.3160 
  249.8750   -15.2480    26.6710     4.0030     3.6340     3.9020    24.1890     2.3210 
  250.0000   -15.2050    26.6710     3.8720     3.5320     3.8060    24.1740     2.3400 
  250.1250   -15.1610    26.6710     3.7870     3.4610     3.8010    24.2150     2.3570 
  250.2500   -15.1360    26.6710     3.7390     3.4190     3.8360    24.2720     2.3650 
  250.3750   -15.1930    26.6710     3.7160     3.4050     3.8630    24.2560     2.3710 
  250.5000   -15.2860    26.6710     3.7100     3.4050     3.9110    24.2550     2.3770 
  250.6250   -15.3800    26.6710     3.7200     3.4110     3.9700    24.2890     2.3800 
  250.7500   -15.4490    26.6710     3.7480     3.4210     3.9000    24.2850     2.3750 
  250.8750   -15.4900    26.6710     3.7880     3.4300     3.8440    24.1840     2.3660 
  251.0000   -15.5360    26.6710     3.8260     3.4350     3.8900    24.0560     2.3630 
  251.1250   -15.6050    26.6710     3.8500     3.4370     3.9760    24.0200     2.3680 
  251.2500   -15.6780    26.6710     3.8610     3.4370     4.0010    24.0480     2.3780 
  251.3750   -15.6810    26.6710     3.8670     3.4370     3.9540    24.0420     2.3900 
  251.5000   -15.6120    26.6710     3.8730     3.4380     3.9780    23.9510     2.3990 
  251.6250   -15.4960    26.6710     3.8790     3.4380     4.1440    23.8090     2.4060 
  251.7500   -15.3630    26.6710     3.8850     3.4400     4.3950    23.6300     2.4110 
  251.8750   -15.2270    26.6710     3.8880     3.4430     4.7210    23.5840     2.4140 
  252.0000   -15.0950    26.6710     3.8880     3.4450     4.8830    23.6700     2.4070 
  252.1250   -14.9540    26.6710     3.8880     3.4450     4.9030    23.7690     2.3870 
  252.2500   -14.8100    26.6710     3.8880     3.4450     4.9520    23.8240     2.3580 
  252.3750   -14.7050    26.6710     3.8880     3.4450     4.8210    23.9460     2.3350 
  252.5000   -14.6580    26.6710     3.8880     3.4450     4.7940    24.0210     2.3180 
  252.6250   -14.6620    26.6710     3.8880     3.4450     4.7220    24.0820     2.3050 
  252.7500   -14.6840    26.6710     3.8880     3.4450     4.7770    23.7790     2.2880 
  252.8750   -14.7500    26.6710     3.8880     3.4450     5.2790    23.6180     2.2500 
  253.0000   -14.7920    26.6710     3.8880     3.4450     6.1470    23.5690     2.1890 
  253.1250   -14.7150    26.6710     3.8880     3.4450     6.8550    23.5700     2.1120 
  253.2500   -14.5830    26.6710     3.8880     3.4450     7.0060    23.5430     2.0440 
  253.3750   -14.4380    26.6710     3.8880     3.4450     7.0040    23.4990     1.9970 
  253.5000   -14.2760    26.6710     3.8880     3.4450     7.2530    23.4570     1.9740 
  253.6250   -14.0850    26.6710     3.8880     3.4450     7.4740    23.3790     1.9670 
  253.7500   -13.8950    26.6710     3.8880     3.4450     7.6280    23.1970     1.9640 
  253.8750   -13.6970    26.6710     3.8880     3.4450     7.5620    23.1000     1.9620 
  254.0000   -13.5790    26.6710     3.8880     3.4450     7.2970    23.0600     1.9630 
  254.1250   -13.5890    26.6710     3.8880     3.4450     7.0240    23.0520     1.9640 
  254.2500   -13.5990    26.6710     3.8880     3.4450     7.1060    23.0040     1.9530 
  254.3750  -999.2500    26.6710     3.8880     3.4450     7.4250    22.8580     1.9260 
  254.5000  -999.2500    26.6710     3.8880     3.4450     7.6190    22.5480     1.8940 
  254.6250  -999.2500    26.6710     3.8880     3.4450     7.3050    21.9950     1.8770 
  254.7500  -999.2500    26.6710     3.8880     3.4450     6.4270    21.0820     1.8760 
  254.8750  -999.2500    26.6710     3.8880     3.4450     6.0680    20.3920     1.8720 
  255.0000  -999.2500    26.6710     3.8880     3.4450     5.9250    19.8540     1.8480 
  255.1250  -999.2500    26.6710     3.8880     3.4450     5.6440    19.3710     1.7990 
  255.2500  -999.2500    26.6710     3.8880     3.4450     4.9860    18.5670     1.7500 
  255.3750  -999.2500    26.6710     3.8880     3.4450     4.3140    17.0970     1.7180 
  255.5000  -999.2500    26.6710     3.8880     3.4450     4.0220    15.4560     1.7100 
  255.6250  -999.2500    26.6710     3.8880     3.4450     3.9770    14.5620     1.7170 
  255.7500  -999.2500    26.6710     3.8880     3.4450     3.9880    14.3770     1.7230 
  255.8750  -999.2500    26.6710     3.8880     3.4450     3.9880    14.3770     1.7240 
  256.0000  -999.2500    26.6710     3.8880     3.4450     3.9880    14.3770     1.7210 
