~V
VERS. 2.00: Ver 2.00
~W
STRT.M 48.0000:
STOP.M 229.0000:
STEP.M 0.1250:
NULL. -999.2500:
UWI. F10623:
~C
DEPT.M :
GR.API :
RML.OHMM :
RI. :
RXO.OHMM :
CALI.CM :
DEN.GM/CC :
SP.MV :
~A
# ...
   81.7500    78.8490    10.0860     9.0760     8.3570    24.6630     2.2300    -9.9320 
   81.8750    81.1460    10.7030     9.5670     8.7860    24.6400     2.2390    -9.8510 
   82.0000    79.3620    11.2600    10.0390     9.3530    24.6320     2.2450    -9.7250 
   82.1250    75.0700    11.4310    10.2440     9.7740    24.6470     2.2440    -9.5620 
   82.2500    71.1400    11.1020    10.0580     9.6300    24.6730     2.2370    -9.3980 
   82.3750    68.6060    10.3340     9.4890     8.8180    24.6860     2.2280    -9.2450 
   82.5000    69.3560     9.3840     8.7110     7.7350    24.6800     2.2240    -9.1210 
   82.6250    73.4490     8.6730     8.0430     6.7140    24.6030     2.2270    -9.0100 
   82.7500    78.4980     8.4650     7.7280     6.2620    24.4410     2.2340    -8.8780 
   82.8750    81.7900     8.8490     7.8770     6.7720    24.1930     2.2400    -8.7390 
   83.0000    80.3450     9.7590     8.4870     8.1800    23.9410     2.2410    -8.6200 
   83.1250    74.7100    11.0180     9.4800     9.7870    23.8850     2.2350    -8.5250 
   83.2500    70.3780    12.2670    10.5710    11.3180    24.0430     2.2260    -8.4300 
   83.3750    69.5260    13.2400    11.5270    12.3000    24.3060     2.2170    -8.3180 
   83.5000    70.3540    13.7730    12.1670    12.1950    24.5290     2.2070    -8.1820 
   83.6250    68.7450    13.8060    12.3720    12.0550    24.6570     2.1970    -8.0270 
   83.7500    69.5170    13.5800    12.3060    11.7540    24.7010     2.1860    -7.8860 
   83.8750    73.3990    13.2900    12.1210    11.2950    24.6750     2.1720    -7.7640 
   84.0000    74.4100    13.0970    11.9650    10.8970    24.5670     2.1560    -7.6400 
   84.1250    70.9470    13.1260    11.9650    10.7800    24.3160     2.1410    -7.4910 
   84.2500    68.4100    13.3470    12.1280    11.0010    23.9920     2.1310    -7.3590 
   84.3750    68.0060    13.6870    12.4150    11.5020    23.6440     2.1280    -7.2630 
   84.5000    66.7990    14.0280    12.7390    12.0250    23.2850     2.1310    -7.1980 
   84.6250    63.9620    14.1690    12.9350    12.2510    23.0220     2.1390    -7.1890 
   84.7500    63.0400    13.9820    12.8710    12.1990    22.9970     2.1480    -7.2410 
   84.8750    63.6350    13.3900    12.4600    12.0400    23.1720     2.1600    -7.3440 
   85.0000    64.0050    12.4090    11.6940    11.6420    23.3870     2.1770    -7.5160 
   85.1250    65.2450    11.1300    10.6290    10.7880    23.4350     2.2000    -7.7640 
   85.2500    68.7530     9.8080     9.4830     9.4540    23.3300     2.2240    -8.0230 
   85.3750    73.3510     8.6480     8.4290     8.0550    23.2220     2.2430    -8.2630 
   85.5000    77.6280     7.8320     7.6340     7.1810    23.2480     2.2560    -8.4760 
   85.6250    80.8110     7.5820     7.3080     6.9350    23.5310     2.2700    -8.6440 
   85.7500    82.5530     7.8530     7.4450     7.2090    23.9150     2.2970    -8.7540 
   85.8750    80.8980     8.5500     7.9930     7.9480    24.1330     2.3360    -8.7980 
   86.0000    77.8190     9.4310     8.7760     9.3070    24.0560     2.3750    -8.7760 
   86.1250    77.4960    10.0700     9.4350    10.6300    23.8870     2.3850    -8.7110 
   86.2500    78.3400    10.1470     9.6420    11.0230    23.8500     2.3590    -8.6510 
   86.3750    78.9340     9.5570     9.2460    10.5850    23.9760     2.3120    -8.6160 
   86.5000    80.9170     8.4560     8.3330     9.1340    24.1660     2.2700    -8.6180 
   86.6250    84.1870     7.2210     7.1950     7.4350    24.1540     2.2590    -8.6620 
   86.7500    86.3110     6.2520     6.2110     6.1560    24.0670     2.2770    -8.7320 
   86.8750    89.0650     5.7440     5.5750     5.8860    24.0540     2.3120    -8.8280 
   87.0000    92.8730     5.7790     5.3820     6.2820    24.1450     2.3510    -8.9370 
   87.1250    92.4630     6.4750     5.7630     7.2070    24.2340     2.3840    -9.0330 
   87.2500    87.2670     7.6870     6.6360     8.5770    24.2620     2.4050    -9.1170 
   87.3750    81.3340     9.2750     7.9290    10.5010    24.2470     2.4050    -9.1880 
   87.5000    77.3860    11.0090     9.4830    12.7020    24.2600     2.3750    -9.2300 
   87.6250    72.1690    12.5570    11.0460    14.2050    24.4340     2.3120    -9.2270 
   87.7500    66.9710    13.7140    12.3760    14.3640    24.7800     2.2360    -9.2060 
   87.8750    65.3800    14.4140    13.3510    14.5390    25.1350     2.1680    -9.1810 
   88.0000    65.8060    14.6930    13.9350    14.5930    25.3430     2.1240    -9.1470 
   88.1250    65.0460    14.5350    14.0560    14.1830    25.3180     2.1130    -9.0830 
   88.2500    63.2900    13.9560    13.7190    13.6110    25.1300     2.1200    -9.0020 
   88.3750    62.1940    12.8900    12.8580    12.8850    24.8970     2.1360    -8.9140 
   88.5000    62.9180    11.3750    11.5010    11.8160    24.7770     2.1530    -8.8210 
   88.6250    68.4800     9.6120     9.8230    10.2810    24.6590     2.1730    -8.7320 
   88.7500    77.5580     7.9740     8.1940     8.3570    24.3410     2.2010    -8.6500 
   88.8750    85.1820     6.7130     6.8600     6.5500    23.8670     2.2390    -8.5710 
   89.0000    90.6180     5.9570     5.9540     5.5780    23.4330     2.2820    -8.5080 
   89.1250    97.9980     5.7470     5.5460     5.4880    23.1870     2.3150    -8.4990 
   89.2500   103.4420     5.8430     5.4580     5.6960    23.0770     2.3340    -8.5120 
   89.3750   102.0130     6.0600     5.5480     5.9650    23.0730     2.3380    -8.5230 
   89.5000    95.0490     6.2290     5.6730     6.1640    23.1940     2.3360    -8.5330 
   89.6250    89.0240     6.2290     5.7090     6.0420    23.4860     2.3340    -8.5340 
   89.7500    85.8690     6.1230     5.6610     5.7190    23.8430     2.3360    -8.5300 
   89.8750    85.4980     6.0300     5.6010     5.4400    24.1510     2.3400    -8.5250 
   90.0000    87.3980     6.0690     5.6190     5.4410    24.4140     2.3480    -8.5090 
   90.1250    89.3190     6.3090     5.7840     5.6680    24.5010     2.3610    -8.4440 
   90.2500    89.3400     6.6520     6.0380     6.0960    24.4810     2.3750    -8.3540 
   90.3750    87.3860     6.9720     6.2940     6.6400    24.3720     2.3860    -8.2690 
   90.5000    85.6130     7.1400     6.4500     7.0450    24.1980     2.3860    -8.1930 
   90.6250    86.3370     7.0470     6.4030     7.0330    23.9650     2.3680    -8.1120 
   90.7500    86.5220     6.7700     6.1960     6.5160    23.7180     2.3410    -8.0300 
   90.8750    84.7480     6.4140     5.8970     6.1240    23.5410     2.3150    -7.9480 
   91.0000    83.0870     6.0880     5.5940     5.8490    23.4550     2.3000    -7.8680 
   91.1250    87.3540     5.8770     5.3670     5.5270    23.4700     2.3020    -7.8170 
   91.2500    92.3240     5.7670     5.2240     5.2880    23.5820     2.3130    -7.7950 
   91.3750    91.6300     5.7200     5.1420     5.2530    23.7890     2.3250    -7.7930 
   91.5000    86.2970     5.6840     5.0820     5.3680    24.0910     2.3340    -7.8030 
   91.6250    82.7580     5.6060     5.0000     5.3810    24.3560     2.3380    -7.8300 
   91.7500    84.8660     5.4710     4.8780     5.2430    24.4920     2.3410    -7.8730 
   91.8750    90.6410     5.2920     4.7220     5.0190    24.5130     2.3450    -7.9340 
   92.0000    98.7280     5.1160     4.5620     4.8020    24.4570     2.3520    -8.0130 
   92.1250   104.0060     5.0150     4.4530     4.6870    24.3230     2.3600    -8.0920 
   92.2500   105.2640     5.0250     4.4230     4.6730    24.1550     2.3630    -8.1700 
   92.3750   102.1390     5.1500     4.4850     4.7940    24.0180     2.3610    -8.2460 
   92.5000    95.7870     5.3630     4.6270     5.0280    24.0170     2.3540    -8.3270 
   92.6250    90.3380     5.6140     4.8200     5.2290    24.1670     2.3420    -8.4320 
   92.7500    89.1740     5.8330     5.0060     5.3720    24.3630     2.3300    -8.5350 
   92.8750    91.5430     5.9760     5.1460     5.4380    24.4760     2.3200    -8.6130 
