~V
VERS. 2.00: Ver 2.00
~W
STRT.M 54.0000:
STOP.M 246.0000:
STEP.M 0.1250:
NULL. -999.2500:
UWI. F10643:
~C
DEPT.M :
SP.MV :
GR.API :
RML.OHMM :
RI. :
RXO.OHMM :
CALI.CM :
DEN.GM/CC :
~A
# ...
  222.7500   -23.6130    75.2950     9.1920     7.8450     9.8720    23.7050     2.2900 
  222.8750   -23.4810    69.4770     8.7080     7.4140     8.5670    23.7140     2.3050 
  223.0000   -23.3410    65.0950     8.4790     7.1390     8.0620    23.7150     2.3120 
  223.1250   -23.2620    64.3000     8.5150     7.0510     8.0920    23.6910     2.3090 
  223.2500   -23.2560    66.2350     8.7880     7.1540     8.4870    23.6600     2.2990 
  223.3750   -23.2440    69.3810     9.2310     7.4260     8.8920    23.6480     2.2860 
  223.5000   -23.2630    71.8960     9.7710     7.8430     9.1010    23.6270     2.2790 
  223.6250   -23.3220    71.5530    10.3260     8.3200     9.2130    23.6320     2.2820 
  223.7500   -23.3160    70.6870    10.8560     8.8070     9.5670    23.6280     2.2930 
  223.8750   -23.2530    73.3040    11.3400     9.2650    10.1780    23.6250     2.3050 
  224.0000   -23.1540    75.5890    11.6950     9.6340    10.8120    23.6350     2.3100 
  224.1250   -22.9570    74.4670    11.8130     9.8390    10.8430    23.6480     2.3050 
  224.2500   -22.6700    73.8680    11.5810     9.7830    10.5980    23.6610     2.2930 
  224.3750   -22.3820    74.8730    10.9740     9.4240    10.5670    23.6780     2.2830 
  224.5000   -22.0630    74.5960    10.0950     8.7990    10.8090    23.6840     2.2810 
  224.6250   -21.7050    73.2710     9.2230     8.1160    10.3870    23.6800     2.2840 
  224.7500   -21.3930    72.8810     8.5360     7.5270     8.8110    23.6770     2.2890 
  224.8750   -21.1020    72.1110     8.1240     7.1210     7.5280    23.6770     2.2900 
  225.0000   -20.8380    69.4610     8.0370     6.9600     7.4470    23.6780     2.2840 
  225.1250   -20.6020    68.2690     8.1630     6.9870     8.1030    23.7170     2.2740 
  225.2500   -20.4030    69.5470     8.3940     7.1380     8.4780    23.7810     2.2670 
  225.3750   -20.1880    71.8670     8.5720     7.3050     8.1100    23.7530     2.2690 
  225.5000   -19.9190    74.7900     8.4970     7.3180     7.7880    23.6400     2.2810 
  225.6250   -19.6280    77.0190     8.1640     7.1200     7.8040    23.4850     2.2950 
  225.7500   -19.2950    76.5110     7.6700     6.7570     7.5300    23.4350     2.3030 
  225.8750   -18.9390    72.9760     7.1760     6.3490     6.6860    23.5110     2.3010 
  226.0000   -18.5350    69.2200     6.8550     6.0420     5.9080    23.6580     2.2890 
  226.1250   -18.1590    67.8120     6.7510     5.8970     5.7750    23.6590     2.2750 
  226.2500   -17.8100    68.1000     6.8620     5.9200     6.1490    23.5150     2.2620 
  226.3750   -17.4520    67.0020     7.1330     6.0800     6.6600    23.3420     2.2550 
  226.5000   -17.1410    62.0280     7.4460     6.2980     6.6000    23.2940     2.2580 
  226.6250   -16.8880    56.6930     7.6360     6.4530     6.5340    23.2860     2.2730 
  226.7500   -16.6630    56.3480     7.5950     6.4580     6.9160    23.2890     2.2970 
  226.8750   -16.4400    60.4430     7.3090     6.2830     7.3200    23.2970     2.3230 
  227.0000   -16.2360    64.3720     6.8780     5.9760     7.0890    23.3400     2.3370 
  227.1250   -16.0510    66.2860     6.5080     5.6810     6.4420    23.4000     2.3330 
  227.2500   -15.9020    66.2950     6.3150     5.4890     6.1220    23.4260     2.3170 
  227.3750   -15.8260    64.4660     6.3330     5.4430     6.3000    23.3590     2.3010 
  227.5000   -15.7970    62.0380     6.5230     5.5390     6.8710    23.2090     2.2990 
  227.6250   -15.7410    61.3690     6.7300     5.6740     7.5970    23.0390     2.3140 
  227.7500   -15.6850    61.4490     6.8440     5.7670     7.8540    22.9800     2.3400 
  227.8750   -15.6870    59.8650     6.8270     5.7800     6.8990    23.0600     2.3650 
  228.0000   -15.6970    57.2660     6.7110     5.7190     6.2260    23.2680     2.3790 
  228.1250   -15.6240    55.2340     6.5820     5.6330     6.0880    23.4370     2.3820 
  228.2500   -15.4550    56.1220     6.4690     5.5430     6.3710    23.5700     2.3780 
  228.3750   -15.2190    59.0750     6.3740     5.4540     6.7340    23.6460     2.3700 
  228.5000   -14.9650    58.9870     6.2700     5.3500     6.7940    23.6820     2.3590 
  228.6250   -14.7440    54.9440     6.1390     5.2250     6.0260    23.7020     2.3460 
  228.7500   -14.5280    49.3360     5.9840     5.0840     5.5810    23.7120     2.3310 
  228.8750   -14.2690    46.2360     5.8240     4.9430     5.4440    23.7220     2.3140 
  229.0000   -13.9700    45.1460     5.6920     4.8300     5.2600    23.7720     2.2970 
  229.1250   -13.6720    43.7970     5.6480     4.7830     5.1010    23.8680     2.2800 
  229.2500   -13.3730    41.8990     5.7620     4.8510     5.0890    23.9820     2.2660 
  229.3750   -13.0810    39.7490     6.0810     5.0720     5.2060    24.0750     2.2610 
  229.5000   -12.7840    40.3900     6.6040     5.4620     5.6310    24.0760     2.2710 
  229.6250   -12.4500    42.2160     7.1580     5.9080     6.8830    24.0150     2.2930 
  229.7500   -12.0840    42.5540     7.5230     6.2550     9.0870    23.8730     2.3240 
  229.8750   -11.7090    40.2370     7.4900     6.3380    10.7300    23.7490     2.3620 
  230.0000   -11.3630    36.9400     6.9550     6.0250     8.9810    23.6310     2.4060 
  230.1250   -11.0630    34.2960     6.2080     5.4740     6.3530    23.5080     2.4490 
  230.2500   -10.8140    31.5800     5.4880     4.8570     4.8050    23.3980     2.4820 
  230.3750   -10.5940    29.3180     4.9400     4.3140     4.3100    23.3190     2.4920 
  230.5000   -10.4540    28.1490     4.6310     3.9530     4.2330    23.3070     2.4740 
  230.6250   -10.3820    26.5290     4.4870     3.7590     4.1590    23.3250     2.4480 
  230.7500   -10.3360    24.5930     4.4560     3.7030     4.0360    23.3390     2.4290 
  230.8750   -10.3030    23.6750     4.4910     3.7380     4.0240    23.3590     2.4220 
  231.0000   -10.2730    24.4520     4.5610     3.8150     4.3960    23.3550     2.4240 
  231.1250   -10.2430    25.2410     4.6340     3.8920     4.9350    23.3470     2.4260 
  231.2500   -10.1900    25.5660     4.6960     3.9550     5.1200    23.3390     2.4270 
  231.3750   -10.0790    25.5240     4.7340     3.9950     5.0860    23.3290     2.4310 
  231.5000    -9.8800    23.7260     4.7210     3.9980     5.0760    23.3310     2.4360 
  231.6250    -9.6290    20.9910     4.6460     3.9520     5.2680    23.3250     2.4380 
  231.7500    -9.3320    19.6560     4.5020     3.8460     5.6180    23.3790     2.4330 
  231.8750    -9.0440    20.4050     4.3000     3.6840     5.2030    23.5080     2.4240 
  232.0000    -8.7390    21.3340     4.0850     3.4910     4.2080    23.6940     2.4180 
  232.1250    -8.4250    21.5040     3.9050     3.3160     3.6020    23.6730     2.4150 
  232.2500    -8.1570    22.0710     3.7830     3.1870     3.4670    23.5280     2.4080 
  232.3750    -7.9230    22.9780     3.7190     3.1140     3.4910    23.4560     2.3910 
  232.5000    -7.7350    22.5800     3.6990     3.0960     3.4910    23.4920     2.3630 
  232.6250    -7.5820    21.1240     3.6920     3.0960     3.4360    23.5370     2.3340 
  232.7500    -7.4830    19.9470     3.6790     3.0900     3.3590    23.5640     2.3150 
  232.8750    -7.4360    19.9850     3.6550     3.0690     3.3400    23.6060     2.3070 
  233.0000    -7.4380    20.9060     3.6180     3.0320     3.3650    23.5900     2.3090 
  233.1250    -7.4460    21.2660     3.5780     2.9970     3.3810    23.5320     2.3130 
  233.2500    -7.4680    21.0660     3.5470     2.9720     3.3700    23.5200     2.3120 
  233.3750    -7.5420    20.9300     3.5430     2.9650     3.3490    23.5330     2.3060 
  233.5000    -7.6020    20.9590     3.5750     2.9770     3.3540    23.5520     2.2960 
  233.6250    -7.6770    20.9560     3.6230     2.9970     3.3780    23.5860     2.2870 
  233.7500    -7.7660    20.9210     3.6720     3.0180     3.3940    23.5470     2.2830 
  233.8750    -7.7820    21.2730     3.7070     3.0320     3.4130    23.3010     2.2870 
