~V
VERS. 2.00: Ver 2.00
~W
STRT.M 52.0000:
STOP.M 260.0000:
STEP.M 0.1250:
NULL. -999.2500:
UWI. F10654:
~C
DEPT.M :
SP.MV :
GR.API :
RML.OHMM :
RI. :
RXO.OHMM :
CALI.CM :
DEN.GM/CC :
~A
# ...
  130.7500    -7.7140    92.0610     7.1600     5.8200     6.6370    23.9270     2.3720 
  130.8750    -7.2580    88.0600     8.6950     6.8960     7.8130    24.0560     2.3890 
  131.0000    -6.6640    83.0300    10.6320     8.4680     9.9340    24.1230     2.4070 
  131.1250    -5.9440    78.3570    12.5060    10.2120    12.2620    24.0330     2.4090 
  131.2500    -5.1740    74.8820    13.9040    11.7600    14.3910    23.6840     2.3860 
  131.3750    -4.3550    72.9040    14.5630    12.7730    15.6470    23.1060     2.3420 
  131.5000    -3.4940    72.9240    14.4800    13.0620    13.4100    22.4140     2.2910 
  131.6250    -2.6900    73.6430    14.2130    13.0200    10.9670    21.7840     2.2490 
  131.7500    -1.9080    72.8950    14.1780    13.0090    10.0330    21.2840     2.2200 
  131.8750    -1.1390    70.2860    14.5810    13.2570    10.1660    20.8630     2.2040 
  132.0000    -0.4510    68.1690    15.4200    13.8410    10.6110    20.5580     2.1980 
  132.1250     0.1130    66.4470    16.4210    14.6020    10.7270    20.3460     2.1930 
  132.2500     0.6200    64.3160    17.4150    15.4220    10.7320    20.2620     2.1810 
  132.3750     1.0650    62.6300    18.3390    16.2460    11.2330    20.3420     2.1620 
  132.5000     1.4030    62.1020    19.2290    17.0980    12.9920    20.8270     2.1510 
  132.6250     1.7100    62.0430    20.1170    17.9850    15.3140    21.7350     2.1620 
  132.7500     1.9810    62.0770    20.9550    18.8490    17.4640    22.8450     2.2000 
  132.8750     2.1750    62.0000    21.6540    19.5840    18.4530    23.8160     2.2510 
  133.0000     2.3160    61.1830    22.1080    20.0470    18.4530    24.2750     2.2850 
  133.1250     2.4820    60.2370    22.3680    20.2740    18.7460    24.3580     2.2850 
  133.2500     2.6190    61.1380    22.5240    20.3580    19.3440    24.3420     2.2540 
  133.3750     2.7120    64.0150    22.6810    20.4300    19.6890    24.3010     2.2130 
  133.5000     2.8250    64.9130    22.9280    20.6050    19.7510    24.1630     2.1810 
  133.6250     2.9740    61.9040    23.2750    20.8840    20.4130    24.1300     2.1660 
  133.7500     3.1170    58.5830    23.6970    21.2240    21.3930    24.3500     2.1640 
  133.8750     3.2830    58.4070    24.1180    21.5470    22.2600    24.7250     2.1710 
  134.0000     3.4820    59.8650    24.4020    21.7580    22.6470    25.0160     2.1820 
  134.1250     3.6490    58.8240    24.4960    21.8450    22.4290    25.2030     2.1930 
  134.2500     3.8160    56.3250    24.4200    21.8460    21.6260    25.3410     2.2000 
  134.3750     4.0340    56.3440    24.2560    21.8290    20.8150    25.4200     2.2020 
  134.5000     4.2520    59.8510    24.1410    21.8860    20.6470    25.4330     2.1950 
  134.6250     4.4310    62.6550    24.1630    22.0590    20.7970    25.4030     2.1820 
  134.7500     4.6320    62.6240    24.3480    22.3580    21.1740    25.3200     2.1660 
  134.8750     4.8140    61.8230    24.6840    22.7550    21.8160    25.1870     2.1540 
  135.0000     4.9190    62.8170    25.1490    23.1990    22.6290    24.9270     2.1540 
  135.1250     4.9950    63.2170    25.6580    23.6150    22.9290    24.5750     2.1640 
  135.2500     5.0450    61.6800    26.1320    23.9440    22.5360    24.2040     2.1790 
  135.3750     5.0270    58.9010    26.4690    24.1330    21.4440    23.8550     2.1900 
  135.5000     4.9390    57.7330    26.4750    24.0630    19.1470    23.3710     2.1920 
  135.6250     4.8370    58.4070    26.0230    23.6440    15.9450    22.6460     2.1890 
  135.7500     4.7130    60.9130    25.0160    22.7820    12.7130    21.6520     2.1860 
  135.8750     4.5710    63.6550    23.5130    21.5030    10.1220    20.4200     2.1880 
  136.0000     4.4720    64.8170    21.8250    20.0310     8.3440    18.9770     2.1940 
  136.1250     4.4210    65.3820    20.5010    18.7950     7.3180    17.8080     2.1970 
  136.2500     4.4010    67.1970    19.9910    18.1420     6.7750    17.2850     2.1910 
  136.3750     4.4560    68.8970    20.5760    18.3040     6.6310    17.1630     2.1760 
  136.5000     4.5580    67.3580    22.3750    19.4540     7.0980    17.0380     2.1540 
  136.6250     4.6010    64.7340    24.7590    21.2090     7.7740    16.7280     2.1330 
  136.7500     4.5880    64.3680    27.0860    23.1370     8.4600    16.3580     2.1210 
  136.8750     4.5410    66.4530    28.7040    24.7160     8.7280    16.2100     2.1200 
  137.0000     4.3640    66.3000    29.0330    25.3680     8.3140    16.3930     2.1330 
  137.1250     4.0600    65.9160    28.4270    25.1920     7.7260    16.6330     2.1540 
  137.2500     3.6500    67.6030    27.4120    24.5310     7.3530    16.7430     2.1770 
  137.3750     3.0960    69.4900    26.5460    23.8420     7.3470    16.6110     2.1930 
  137.5000     2.3990    69.4000    26.2760    23.5530     7.8000    16.2620     2.1950 
  137.6250     1.6590    68.3900    26.4720    23.6650     8.1230    15.9670     2.1860 
  137.7500     0.8630    66.9330    26.7150    23.9030     8.1240    15.9120     2.1720 
  137.8750    -0.0250    63.9820    26.3670    23.7580     7.8760    16.0470     2.1610 
  138.0000    -0.9480    60.4550    24.6160    22.4830     7.5890    16.0380     2.1640 
  138.1250    -1.9040    61.0090    21.6100    20.0630     7.2830    15.8620     2.1800 
  138.2500    -2.9120    66.3410    17.9030    16.8970     6.9510    15.7180     2.2060 
  138.3750    -3.9300    72.9310    14.2810    13.6690     6.5400    15.6530     2.2350 
  138.5000    -4.8720    76.7370    11.5210    11.0930     6.2480    15.6250     2.2570 
  138.6250    -5.7160    78.9340     9.7120     9.3120     6.0920    15.6400     2.2700 
  138.7500    -6.4420    83.3160     8.7560     8.2810     6.1250    15.8170     2.2740 
  138.8750    -7.0220    89.0910     8.4460     7.8540     6.3390    16.2490     2.2720 
  139.0000    -7.4570    91.5340     8.5710     7.8860     6.3940    16.9870     2.2680 
  139.1250    -7.7780    89.0580     8.8090     8.0980     6.4220    17.9250     2.2630 
  139.2500    -7.9450    83.6800     8.9880     8.3290     6.3610    19.0450     2.2550 
  139.3750    -7.9500    80.0690     9.0200     8.4760     6.2540    20.1860     2.2460 
  139.5000    -7.8110    80.4080     8.9100     8.5000     6.2800    20.9980     2.2360 
  139.6250    -7.6200    80.9050     8.7930     8.4820     6.2780    21.4110     2.2260 
  139.7500    -7.3920    79.4900     8.8020     8.5190     6.2940    21.6070     2.2170 
  139.8750    -7.0820    77.1120     9.0650     8.7110     6.3300    21.7660     2.2120 
  140.0000    -6.6510    74.7410     9.7220     9.1880     6.5230    21.9600     2.2110 
  140.1250    -6.1270    72.6590    10.7060     9.9320     6.8260    22.0750     2.2150 
  140.2500    -5.5870    70.3420    11.9220    10.8920     7.2650    22.0060     2.2190 
  140.3750    -5.0750    67.3740    13.2160    11.9590     7.8590    21.7880     2.2170 
  140.5000    -4.5750    64.5420    14.3790    12.9630     8.6620    21.6620     2.2010 
  140.6250    -4.0750    63.8620    15.2980    13.7760     9.4590    21.8050     2.1760 
  140.7500    -3.6040    65.8950    15.9600    14.3510     9.9130    22.0910     2.1510 
  140.8750    -3.2120    68.5550    16.4390    14.7250    10.1160    22.3990     2.1330 
  141.0000    -2.9290    69.2400    16.8510    14.9740    10.3490    22.6850     2.1280 
  141.1250    -2.6980    68.3640    17.2730    15.1970    10.6280    22.8500     2.1300 
  141.2500    -2.4680    67.0570    17.6940    15.4190    10.8700    22.9090     2.1360 
  141.3750    -2.2350    65.6400    18.0720    15.6410    11.0250    22.9230     2.1420 
  141.5000    -2.0450    64.6990    18.3710    15.8570    11.0520    22.9190     2.1480 
  141.6250    -1.9060    64.6670    18.6330    16.0790    10.9470    22.9000     2.1550 
  141.7500    -1.7920    63.8410    18.9110    16.3210    10.9500    22.8940     2.1640 
  141.8750    -1.6680    61.7490    19.2500    16.5910    11.1530    22.8950     2.1750 
