~V
VERS. 2.00: Ver 2.00
~W
STRT.M 49.0000:
STOP.M 217.0000:
STEP.M 0.1250:
NULL. -999.2500:
UWI. F10685:
~C
DEPT.M :
SP.MV :
DEN.GM/CC :
GR.API :
RML.OHMM :
RI. :
RXO.OHMM :
CALI.CM :
~A
# ...
  127.7500   -10.6570     2.0680    62.4780    34.8750    24.4470    27.7150    24.3660 
  127.8750   -10.9310     2.0650    62.5350    42.6640    30.1240    38.9800    24.9750 
  128.0000   -11.1820     2.0770    63.5490    50.9630    37.2630    45.6280    25.2750 
  128.1250   -11.3970     2.0950    62.3650    56.5090    43.4800    43.0010    25.3860 
  128.2500   -11.6210     2.1140    59.0820    58.0620    46.9500    40.9620    25.3930 
  128.3750   -11.8360     2.1280    57.1740    56.6800    47.6890    40.5620    25.3990 
  128.5000   -12.0480     2.1380    56.8620    54.5050    46.8910    40.4000    25.3630 
  128.6250   -12.2880     2.1450    55.0070    53.2960    45.8030    39.2930    25.2750 
  128.7500   -12.5520     2.1510    52.9410    52.7570    44.7830    38.2820    25.1580 
  128.8750   -12.8620     2.1670    52.4050    51.8630    43.3570    37.5140    25.1240 
  129.0000   -13.2140     2.2020    51.6740    49.7520    41.0000    36.6040    25.1020 
  129.1250   -13.5740     2.2640    49.1660    46.3110    37.6130    34.8240    25.2190 
  129.2500   -13.9160     2.3350    48.9850    42.7430    34.0710    29.8380    25.2020 
  129.3750   -14.1890     2.3880    53.7700    40.0930    31.1740    22.1970    24.9340 
  129.5000   -14.3740     2.4000    58.6630    39.0030    29.4830    16.4550    24.8770 
  129.6250   -14.3910     2.3610    58.4440    39.8990    29.4430    18.4040    24.7180 
  129.7500   -14.3130     2.2980    57.8600    42.0960    30.6250    22.9780    24.7160 
  129.8750   -14.1110     2.2360    59.5200    44.9340    32.5440    28.6900    24.7800 
  130.0000   -13.8430     2.1950    60.3610    47.4980    34.5250    33.2280    25.0100 
  130.1250   -13.5070     2.1910    57.0020    48.8710    35.8910    35.3710    25.2270 
  130.2500   -13.1440     2.2230    51.8980    49.3770    36.7870    35.9830    25.4680 
  130.3750   -12.7810     2.2810    48.6270    49.9800    37.8260    37.0680    25.5580 
  130.5000   -12.4510     2.3450    48.5350    51.8020    39.7150    41.3700    25.0810 
  130.6250   -12.1430     2.3850    49.7670    55.6250    43.0070    51.3620    24.2250 
  130.7500   -11.8260     2.3890    49.6370    60.1070    47.0230    58.9610    24.0270 
  130.8750   -11.5040     2.3630    49.1630    63.1270    50.5940    60.6490    24.2680 
  131.0000   -11.1630     2.3190    52.0560    62.4520    52.2260    55.9310    24.9390 
  131.1250   -10.8400     2.2650    58.6620    56.8810    50.3990    49.9890    25.0120 
  131.2500   -10.5350     2.2070    63.3460    49.2510    46.1840    41.1380    24.9740 
  131.3750   -10.2430     2.1590    62.4150    42.2160    41.1250    35.7340    25.1820 
  131.5000    -9.9790     2.1410    56.9880    37.2530    36.5620    32.3950    25.4090 
  131.6250    -9.7990     2.1810    53.0060    34.6060    33.2550    27.5600    25.4640 
  131.7500    -9.7170     2.2700    51.8360    33.0640    30.9480    24.0950    25.4530 
  131.8750    -9.7030     2.3860    50.8730    31.8860    29.3870    24.3610    25.3600 
  132.0000    -9.7530     2.4950    48.7760    30.6090    28.3120    24.7300    25.1320 
  132.1250    -9.8620     2.5650    48.9120    29.2840    27.5670    21.3270    24.8840 
  132.2500   -10.0490     2.5970    50.5620    28.3810    27.0070    18.4560    24.8700 
  132.3750   -10.3420     2.6050    50.7050    28.2410    26.5880    20.9640    24.8430 
  132.5000   -10.7180     2.6020    49.0950    28.7970    26.2950    23.2180    24.7250 
  132.6250   -11.2300     2.5970    50.0870    29.7290    26.1660    23.8600    24.6880 
  132.7500   -11.8160     2.5980    54.1820    30.5240    26.1650    23.1700    24.6670 
  132.8750   -12.5350     2.6100    56.5170    30.8840    26.1980    23.5480    24.6770 
  133.0000   -13.3610     2.6330    53.0810    30.7080    26.1380    24.9180    24.4940 
  133.1250   -14.3040     2.6590    48.0120    30.0200    25.8790    25.1780    24.6620 
  133.2500   -15.2400     2.6750    47.6410    29.0390    25.4880    22.4670    24.7010 
  133.3750   -16.1040     2.6730    50.8990    27.9390    25.0320    19.7170    24.6990 
  133.5000   -16.8150     2.6520    52.5950    26.9060    24.5390    18.0530    24.6200 
  133.6250   -17.2790     2.6200    51.4250    26.2630    24.0170    25.5180    24.5560 
  133.7500   -17.5380     2.5920    49.4190    26.0710    23.5340    38.6370    24.5560 
  133.8750   -17.5280     2.5810    47.5720    26.3360    23.1860    53.9580    24.5760 
  134.0000   -17.2300     2.5900    45.9800    26.9960    23.0850    42.5020    24.6310 
  134.1250   -16.6530     2.6160    47.0850    28.0650    23.4390    25.3670    24.6210 
  134.2500   -15.9000     2.6450    51.3440    29.3590    24.2240    24.4510    24.6220 
  134.3750   -15.0770     2.6610    54.8140    30.6670    25.2790    27.7630    24.5040 
  134.5000   -14.2940     2.6580    53.1080    31.6080    26.2910    28.7800    24.1990 
  134.6250   -13.5700     2.6380    49.7810    31.6910    26.8530    27.6730    24.1240 
  134.7500   -12.9460     2.6130    51.2910    31.0590    26.9240    25.7810    24.0810 
  134.8750   -12.4450     2.5930    56.5750    30.2950    26.7240    23.2440    24.0290 
  135.0000   -12.1090     2.5830    58.6450    30.1400    26.6350    22.4990    23.9390 
  135.1250   -11.9130     2.5840    53.0840    31.1870    27.0330    25.0330    23.8900 
  135.2500   -11.8290     2.5910    46.1560    32.8910    27.8150    27.8680    23.8300 
  135.3750   -11.8360     2.5980    43.8650    34.4900    28.7540    28.2540    23.5200 
  135.5000   -11.8590     2.6020    46.0680    35.2790    29.5940    26.5820    22.8550 
  135.6250   -11.9540     2.6020    48.5160    35.0940    30.0970    24.2630    22.2650 
  135.7500   -12.0540     2.5980    48.5860    34.6680    30.3370    22.4850    22.1260 
  135.8750   -12.1690     2.5900    47.4600    34.5000    30.4410    21.8590    22.0610 
  136.0000   -12.3050     2.5790    46.0120    34.6040    30.4420    22.7740    22.1780 
  136.1250   -12.4420     2.5610    45.4170    34.4660    30.1970    23.2300    22.1250 
  136.2500   -12.6010     2.5400    47.7530    33.5570    29.6360    23.0310    22.0530 
  136.3750   -12.7460     2.5230    51.4290    31.9190    28.8280    21.3770    21.9920 
  136.5000   -12.9330     2.5170    53.0410    30.1340    28.0070    19.0800    22.0340 
  136.6250   -13.1330     2.5230    50.9000    29.0760    27.5340    18.7990    22.2590 
  136.7500   -13.3970     2.5280    48.6900    28.9620    27.5550    21.3480    22.5460 
  136.8750   -13.7020     2.5210    48.6010    29.6770    28.0780    24.8620    22.5450 
  137.0000   -14.0010     2.5000    49.4690    30.8550    28.9640    27.5750    22.3840 
  137.1250   -14.3550     2.4780    48.5660    32.2060    29.9830    27.4570    22.3790 
  137.2500   -14.7280     2.4740    48.0930    33.6530    30.9170    26.0440    22.4810 
  137.3750   -15.1500     2.4970    50.0870    35.2660    31.7340    25.7510    22.7130 
  137.5000   -15.6250     2.5410    52.8880    36.8390    32.4200    27.6180    23.1250 
  137.6250   -16.1100     2.5850    51.8790    37.7560    32.7350    28.2260    23.5230 
  137.7500   -16.5860     2.6120    47.9270    37.6320    32.4660    30.2100    24.1610 
  137.8750   -17.0940     2.6200    44.4720    36.4450    31.5260    31.7250    24.4560 
  138.0000   -17.6210     2.6200    44.1340    34.6260    30.1190    30.5340    24.5860 
  138.1250   -18.1440     2.6230    47.8050    33.0230    28.7490    26.8560    24.6420 
  138.2500   -18.6740     2.6250    51.0780    32.1540    27.8200    24.4110    24.6460 
  138.3750   -19.1300     2.6220    50.8350    32.1260    27.4490    24.9450    24.7080 
  138.5000   -19.5070     2.6100    48.7030    32.6430    27.5500    27.2810    24.6980 
  138.6250   -19.8610     2.5990    48.9700    33.0400    27.8540    27.5550    24.7070 
  138.7500   -20.1290     2.5940    49.9030    32.7890    27.9080    26.4250    24.7330 
  138.8750   -20.3060     2.5960    48.6610    31.8170    27.4120    26.4370    24.7720 
