~V
VERS. 2.00: Ver 2.00
~W
STRT.M 50.0000:
STOP.M 217.0000:
STEP.M 0.1250:
NULL. -999.2500:
UWI. F10606:
~C
DEPT.M :
DEN.GM/CC :
GR.API :
RML.OHMM :
RI. :
RXO.OHMM :
CALI.CM :
SP.MV :
~A
# ...
  196.2500     2.4190    46.4040     7.5680     6.0680     8.7370    24.4820   -21.8320 
  196.3750     2.4110    49.9050     7.6720     6.1680     8.9590    24.4240   -21.9920 
  196.5000     2.3960    52.2110     7.6890     6.2150     8.8000    24.3150   -22.1500 
  196.6250     2.3810    51.6780     7.5930     6.1760     8.4480    24.2620   -22.2700 
  196.7500     2.3770    50.9720     7.4270     6.0740     8.3220    24.2640   -22.3570 
  196.8750     2.3870    50.5190     7.2280     5.9380     8.2130    24.2960   -22.4580 
  197.0000     2.4050    50.1300     7.0400     5.8030     8.0460    24.3020   -22.5710 
  197.1250     2.4150    51.6980     6.9220     5.7180     7.8350    24.2780   -22.6930 
  197.2500     2.4070    55.7080     6.9090     5.7100     7.6230    24.2340   -22.8270 
  197.3750     2.3800    59.5830     7.0310     5.7960     7.5390    24.1860   -22.9840 
  197.5000     2.3430    61.8670     7.2760     5.9790     7.8250    24.1420   -23.0960 
  197.6250     2.3090    63.5530     7.5700     6.2220     8.2090    24.0870   -23.1440 
  197.7500     2.2880    65.1650     7.7830     6.4320     8.4310    24.0990   -23.1480 
  197.8750     2.2860    67.5330     7.8270     6.5320     8.6010    24.1300   -23.0360 
  198.0000     2.3000    72.0370     7.6820     6.4890     8.7570    24.1790   -22.8090 
  198.1250     2.3240    75.1670     7.3980     6.3160     8.1530    24.2000   -22.5280 
  198.2500     2.3450    72.8000     7.1010     6.1090     7.3590    24.1960   -22.2140 
  198.3750     2.3530    68.0950     6.8570     5.9230     7.0080    24.1570   -21.8810 
  198.5000     2.3470    66.6750     6.6780     5.7710     7.0410    24.0870   -21.5760 
  198.6250     2.3320    68.4610     6.5170     5.6270     7.2140    23.9750   -21.3360 
  198.7500     2.3200    67.3470     6.3140     5.4530     7.0630    23.8090   -21.1490 
  198.8750     2.3170    61.9210     6.0570     5.2400     6.4090    23.6290   -21.0660 
  199.0000     2.3240    53.7150     5.7820     5.0120     5.8520    23.5130   -21.0570 
  199.1250     2.3390    45.8760     5.5750     4.8270     5.5100    23.4440   -21.0920 
  199.2500     2.3580    41.8820     5.4830     4.7250     5.3120    23.3800   -21.1460 
  199.3750     2.3740    41.6320     5.5140     4.7190     5.2820    23.3050   -21.1940 
  199.5000     2.3810    42.4160     5.6370     4.7960     5.6350    23.3050   -21.2460 
  199.6250     2.3720    41.3560     5.7980     4.9170     6.1600    23.3950   -21.2770 
  199.7500     2.3570    39.3820     5.9360     5.0340     6.3210    23.3810   -21.3100 
  199.8750     2.3470    38.5740     6.0270     5.1220     6.3040    23.3050   -21.3440 
  200.0000     2.3500    39.6930     6.0740     5.1790     6.2690    23.3160   -21.3620 
  200.1250     2.3710    41.7590     6.1000     5.2160     6.3360    23.3040   -21.4020 
  200.2500     2.3950    43.9850     6.1280     5.2470     6.4750    23.3460   -21.4480 
  200.3750     2.4100    46.3340     6.1580     5.2760     6.7010    23.4940   -21.5160 
  200.5000     2.4130    48.8960     6.1820     5.2970     6.8960    23.7000   -21.5940 
  200.6250     2.4080    50.9290     6.1940     5.3070     6.9820    23.8330   -21.7030 
  200.7500     2.4010    50.9540     6.2030     5.3120     6.9730    23.8820   -21.8410 
  200.8750     2.3940    48.7640     6.2180     5.3210     6.8880    23.8820   -21.9940 
  201.0000     2.3880    47.0380     6.2410     5.3350     6.8860    23.8830   -22.1860 
  201.1250     2.3850    48.2700     6.2590     5.3510     7.0170    23.9000   -22.3630 
  201.2500     2.3880    48.8650     6.2580     5.3610     7.2420    23.8770   -22.5280 
  201.3750     2.4010    45.6530     6.2430     5.3670     7.2940    23.8050   -22.6380 
  201.5000     2.4240    40.9070     6.2310     5.3780     7.1170    23.7240   -22.7110 
  201.6250     2.4460    41.2290     6.2350     5.3990     7.0200    23.7000   -22.6590 
  201.7500     2.4550    46.3350     6.2350     5.4150     7.0100    23.7190   -22.4790 
  201.8750     2.4450    51.4040     6.2000     5.3990     7.2170    23.7140   -22.1530 
  202.0000     2.4170    52.7560     6.1040     5.3320     7.4680    23.6460   -21.6980 
  202.1250     2.3820    51.6340     5.9430     5.2070     7.3910    23.5370   -21.1880 
  202.2500     2.3550    49.8620     5.7700     5.0650     6.7470    23.3990   -20.7030 
  202.3750     2.3430    47.2280     5.6350     4.9460     6.1150    23.1980   -20.2500 
  202.5000     2.3470    44.0450     5.5760     4.8820     6.0070    22.9950   -19.8000 
  202.6250     2.3610    40.9540     5.6140     4.8980     6.1500    23.0380   -19.4180 
  202.7500     2.3750    39.0960     5.7120     4.9700     6.4470    23.3950   -19.0890 
  202.8750     2.3840    39.7030     5.8280     5.0680     6.5770    23.9190   -18.8460 
  203.0000     2.3880    42.2790     5.9190     5.1570     6.6480    24.2550   -18.6830 
  203.1250     2.3910    43.7970     5.9520     5.2030     6.8640    24.3160   -18.5320 
  203.2500     2.3950    43.3590     5.9370     5.2100     7.1260    24.2720   -18.3410 
  203.3750     2.3980    43.4080     5.8950     5.1890     7.0540    24.1490   -18.1230 
  203.5000     2.4000    45.0390     5.8610     5.1640     6.7650    23.8080   -17.9200 
  203.6250     2.4040    46.7200     5.9020     5.1780     6.7930    23.2720   -17.7600 
  203.7500     2.4150    47.0340     6.0560     5.2650     7.0170    23.1350   -17.6450 
  203.8750     2.4380    46.1510     6.3210     5.4370     7.2590    23.5060   -17.5540 
  204.0000     2.4670    46.0600     6.6340     5.6620     7.7760    24.0600   -17.4930 
  204.1250     2.4820    46.6740     6.8540     5.8490     9.2790    24.2830   -17.5200 
  204.2500     2.4770    46.0420     6.8800     5.9090    11.1240    24.2880   -17.5780 
  204.3750     2.4590    44.6600     6.7020     5.8100    11.4700    24.2520   -17.6910 
  204.5000     2.4400    43.4690     6.3990     5.5940     8.9980    24.2670   -17.8590 
  204.6250     2.4310    42.4150     6.1170     5.3540     7.2020    24.3060   -18.0970 
  204.7500     2.4290    41.3320     5.9680     5.1930     6.7190    24.3330   -18.3930 
  204.8750     2.4240    40.7510     6.0040     5.1730     7.1780    24.3450   -18.7620 
  205.0000     2.4110    40.9820     6.2390     5.3280     7.8370    24.3720   -19.1710 
  205.1250     2.3940    41.2280     6.6900     5.6930     8.2250    24.4760   -19.5820 
  205.2500     2.3760    42.0930     7.2900     6.2010     8.5970    24.5520   -20.0290 
  205.3750     2.3570    42.9890     7.9700     6.7890     9.8520    24.5370   -20.4710 
  205.5000     2.3370    42.8020     8.6000     7.3470    12.3160    24.4750   -20.8430 
  205.6250     2.3210    41.6910     8.9120     7.6650    13.9500    24.4720   -21.1010 
  205.7500     2.3140    41.4210     8.7680     7.6330    12.9570    24.5140   -21.2430 
  205.8750     2.3180    42.7570     8.1780     7.2420    11.4880    24.5280   -21.2430 
  206.0000     2.3280    44.6660     7.3320     6.6150    10.4060    24.5030   -21.1490 
  206.1250     2.3330    45.7410     6.5430     5.9660     8.4510    24.5000   -20.9690 
  206.2500     2.3300    45.9460     6.0270     5.4750     7.0300    24.5000   -20.7370 
  206.3750     2.3210    45.9460     5.8420     5.2180     6.5360    24.5030   -20.5320 
  206.5000     2.3130    45.9460     5.9550     5.2020     6.6470    24.4840   -20.3980 
  206.6250     2.3150    45.9460     6.2840     5.4070     7.0230    24.4060   -20.3290 
  206.7500     2.3250    45.9460     6.6400     5.6980     7.6110    24.3490   -20.2970 
  206.8750     2.3370    45.9460     6.8810     5.9520     8.3740    24.3070   -20.2470 
  207.0000     2.3410    45.9460     6.9150     6.0670     8.7560    24.2980   -20.1230 
  207.1250     2.3320    45.9460     6.7090     5.9810     8.0290    24.3210   -19.9570 
  207.2500     2.3230    45.9460     6.3960     5.7760     7.4480    24.3610   -19.7840 
  207.3750     2.3260    45.9460     6.0820     5.5400     6.9950    24.3730   -19.5660 
