~V
VERS. 2.00: Ver 2.00
~W
STRT.M 58.0000:
STOP.M 244.0000:
STEP.M 0.1250:
NULL. -999.2500:
UWI. F10638:
~C
DEPT.M :
SP.MV :
GR.API :
RML.OHMM :
RI. :
RXO.OHMM :
CALI.CM :
DEN.GM/CC :
~A
# ...
  226.7500   -15.9090    57.0530     5.6450     4.6410     5.4790    24.4100     2.3960 
  226.8750   -15.5030    54.3690     5.5010     4.4810     5.3820    24.4990     2.4030 
  227.0000   -15.2060    50.3450     5.4540     4.3860     5.4780    24.5900     2.4010 
  227.1250   -15.0290    46.4020     5.5140     4.3520     5.4720    24.6310     2.3920 
  227.2500   -14.9620    45.5820     5.6470     4.3740     5.4530    24.6310     2.3820 
  227.3750   -14.9860    47.8900     5.7790     4.4420     5.7450    24.6370     2.3780 
  227.5000   -15.0280    50.1330     5.8500     4.5240     5.9430    24.6310     2.3770 
  227.6250   -15.0710    51.9130     5.8640     4.6000     5.8830    24.5900     2.3720 
  227.7500   -15.1500    54.3770     5.8580     4.6590     6.0120    24.5830     2.3570 
  227.8750   -15.3040    58.7660     5.8570     4.6910     6.3640    24.6180     2.3350 
  228.0000   -15.4760    63.8670     5.8480     4.6990     6.5100    24.6350     2.3150 
  228.1250   -15.6390    67.0360     5.8320     4.6910     6.4470    24.6120     2.3050 
  228.2500   -15.7410    66.5840     5.8150     4.6880     6.3940    24.5530     2.3060 
  228.3750   -15.7810    64.8810     5.8100     4.7200     6.3560    24.4760     2.3140 
  228.5000   -15.8600    66.2350     5.8460     4.7970     6.4960    24.4260     2.3190 
  228.6250   -15.9980    69.6280     5.9490     4.9170     6.9300    24.4590     2.3180 
  228.7500   -16.1490    70.2960     6.1120     5.0640     7.3700    24.5450     2.3140 
  228.8750   -16.2630    66.1350     6.2650     5.1930     7.3410    24.6150     2.3120 
  229.0000   -16.3440    62.1320     6.3260     5.2530     6.8230    24.6410     2.3150 
  229.1250   -16.3930    60.0380     6.2630     5.2170     6.6620    24.6570     2.3240 
  229.2500   -16.4540    58.5530     6.1100     5.0920     7.1360    24.6520     2.3310 
  229.3750   -16.5160    57.2750     5.9600     4.9250     7.5830    24.6270     2.3270 
  229.5000   -16.5660    57.5150     5.8870     4.7940     6.6260    24.5840     2.3110 
  229.6250   -16.6300    59.5880     5.9280     4.7530     6.2610    24.5360     2.2940 
  229.7500   -16.7330    63.7850     6.0950     4.8440     6.5580    24.5070     2.2840 
  229.8750   -16.8800    68.7190     6.4300     5.1110     6.3920    24.5510     2.2900 
  230.0000   -17.0530    71.7930     6.9030     5.5110     6.6140    24.6150     2.3030 
  230.1250   -17.2550    73.1480     7.4520     5.9870     8.3040    24.6240     2.3140 
  230.2500   -17.4770    72.9500     7.9520     6.4390    10.2310    24.5310     2.3180 
  230.3750   -17.6920    70.0820     8.1910     6.6980     9.2590    24.4500     2.3170 
  230.5000   -17.8370    64.7170     8.0970     6.7070     7.4960    24.4460     2.3170 
  230.6250   -17.9080    58.4660     7.7130     6.4870     6.7280    24.5070     2.3180 
  230.7500   -17.9160    52.5800     7.1730     6.1200     6.3600    24.5590     2.3180 
  230.8750   -17.8390    49.6350     6.6310     5.6940     6.0450    24.5040     2.3160 
  231.0000   -17.6860    50.5110     6.1600     5.2790     6.0950    24.3650     2.3100 
  231.1250   -17.4330    51.7120     5.7510     4.8920     6.2690    24.2280     2.3010 
  231.2500   -17.0600    49.3410     5.3720     4.5330     6.1250    24.1230     2.2910 
  231.3750   -16.5810    43.5210     5.0270     4.2250     5.2550    23.9230     2.2880 
  231.5000   -16.0860    38.9130     4.7510     3.9920     4.6690    23.7780     2.2920 
  231.6250   -15.5600    36.0100     4.5850     3.8560     4.4650    23.7100     2.3030 
  231.7500   -15.0090    33.7930     4.5290     3.8150     4.5190    23.7940     2.3150 
  231.8750   -14.4510    33.1000     4.5380     3.8500     4.8410    23.9260     2.3260 
  232.0000   -13.9340    33.8680     4.5520     3.8950     5.1580    24.0930     2.3400 
  232.1250   -13.4990    34.3990     4.5490     3.9010     5.0520    24.2230     2.3560 
  232.2500   -13.1280    33.3120     4.5170     3.8450     4.7390    24.2550     2.3690 
  232.3750   -12.8710    31.9400     4.4470     3.7330     4.4620    24.2560     2.3710 
  232.5000   -12.6820    30.5550     4.3700     3.6070     4.2980    24.2950     2.3650 
  232.6250   -12.5470    29.2700     4.3230     3.5000     4.3490    24.3360     2.3610 
  232.7500   -12.4740    29.7250     4.3340     3.4350     4.4140    24.3720     2.3610 
  232.8750   -12.4650    31.4680     4.4150     3.4310     4.5520    24.3660     2.3610 
  233.0000   -12.5130    31.8470     4.5160     3.4810     4.7400    24.3170     2.3510 
  233.1250   -12.6350    31.3390     4.5970     3.5740     4.9190    24.2810     2.3300 
  233.2500   -12.8450    31.6770     4.6560     3.6960     5.2860    24.3140     2.3020 
  233.3750   -13.0680    32.7630     4.7140     3.8180     5.6670    24.3650     2.2800 
  233.5000   -13.2900    33.4510     4.7570     3.9030     5.6040    24.3970     2.2700 
  233.6250   -13.5360    34.0040     4.7500     3.9340     5.2810    24.4190     2.2710 
  233.7500   -13.7540    33.9610     4.6890     3.9160     5.2110    24.4070     2.2810 
  233.8750   -13.9550    32.3020     4.6130     3.8670     5.2500    24.3060     2.3000 
  234.0000   -14.1780    30.7100     4.5570     3.8120     5.1070    24.2150     2.3260 
  234.1250   -14.3820    30.3930     4.5360     3.7690     5.1470    24.1610     2.3490 
  234.2500   -14.5590    30.3930     4.5650     3.7620     5.4990    24.0540     2.3590 
  234.3750   -14.7770    30.3930     4.6840     3.8490     5.5290    23.8700     2.3470 
  234.5000   -15.0710    30.3930     4.9390     4.0580     5.4740    23.7040     2.3250 
  234.6250   -15.4020    30.3930     5.3820     4.4150     5.7550    23.7590     2.3070 
  234.7500   -15.7720    30.3930     6.0000     4.9120     6.8650    24.0410     2.3060 
  234.8750   -16.1340    30.3930     6.6490     5.4690     8.4810    24.2970     2.3290 
  235.0000   -16.3790    30.3930     7.0740     5.9010     8.4510    24.3850     2.3570 
  235.1250   -16.4600    30.3930     7.0970     6.0360     8.4930    24.4080     2.3710 
  235.2500   -16.3630    30.3930     6.6950     5.8050     8.4860    24.4310     2.3680 
  235.3750   -16.0550    30.3930     6.0260     5.2770     7.8830    24.4610     2.3560 
  235.5000   -15.5850    30.3930     5.3840     4.7000     6.7180    24.4380     2.3510 
  235.6250   -15.0090    30.3930     4.9050     4.2130     5.3280    24.3700     2.3560 
  235.7500   -14.3790    30.3930     4.6250     3.8810     4.6170    24.3250     2.3600 
  235.8750   -13.7820    30.3930     4.5380     3.7310     4.7140    24.3810     2.3450 
  236.0000   -13.3100    30.3930     4.5570     3.7070     5.0460    24.4300     2.3150 
  236.1250   -13.0310    30.3930     4.6380     3.7710     5.2780    24.4240     2.2850 
  236.2500   -12.9500    30.3930     4.7490     3.8860     5.4300    24.3840     2.2640 
  236.3750   -13.1010    30.3930     4.8780     4.0290     5.5560    24.3480     2.2600 
  236.5000   -13.4190    30.3930     5.0160     4.1860     5.5210    24.3420     2.2650 
  236.6250   -13.8250    30.3930     5.1470     4.3520     5.9440    24.4530     2.2720 
  236.7500   -14.2370    30.3930     5.2360     4.5010     6.6590    24.5620     2.2770 
  236.8750   -14.5950    30.3930     5.2310     4.5700     6.9050    24.6060     2.2770 
  237.0000   -14.8740    30.3930     5.1360     4.5230     6.6410    24.5170     2.2730 
  237.1250   -15.0710    30.3930     4.9690     4.3610     6.4150    24.3880     2.2680 
  237.2500   -15.2190    30.3930     4.7870     4.1380     5.5410    24.2430     2.2670 
  237.3750   -15.3390    30.3930     4.6970     3.9590     4.9330    24.1080     2.2720 
  237.5000   -15.4440    30.3930     4.7630     3.9050     5.0420    24.1240     2.2790 
  237.6250   -15.6220    30.3930     5.0010     4.0020     6.0090    24.2270     2.2820 
  237.7500   -15.9380    30.3930     5.3830     4.2400     7.4230    24.3500     2.2820 
  237.8750   -16.4210    30.3930     5.8380     4.5880     8.2770    24.4940     2.2800 
