~V
VERS. 2.00: Ver 2.00
~W
STRT.M 52.0000:
STOP.M 238.0000:
STEP.M 0.1250:
NULL. -999.2500:
UWI. F10653:
~C
DEPT.M :
GR.API :
RML.OHMM :
RI. :
RXO.OHMM :
CALI.CM :
DEN.GM/CC :
SP.MV :
~A
# ...
  130.7500    91.3340     8.5760     7.4660     6.1100    24.4400     2.2600    -8.0620 
  130.8750    89.6630     9.0920     7.2110     6.3930    24.4040     2.2870    -7.9740 
  131.0000    80.1250    11.0130     8.1220     8.5720    24.3970     2.2760    -7.8100 
  131.1250    69.3400    14.4760    10.5950    14.3100    24.3690     2.2350    -7.5850 
  131.2500    62.6770    18.7870    14.3420    23.6820    24.4080     2.1900    -7.3870 
  131.3750    60.6640    22.8700    18.5890    31.7370    24.5000     2.1560    -7.2120 
  131.5000    62.4490    25.4200    21.9610    33.1620    24.5110     2.1410    -7.0930 
  131.6250    62.3510    25.7090    23.2070    31.5540    24.4320     2.1460    -7.0760 
  131.7500    59.6170    24.9600    23.1720    30.4040    24.4090     2.1590    -7.1580 
  131.8750    58.5390    24.0580    22.7270    23.9220    24.3210     2.1680    -7.3490 
  132.0000    60.8820    23.2570    22.2120    17.1660    24.1710     2.1630    -7.6380 
  132.1250    64.2040    22.0240    21.1320    18.5830    23.9950     2.1350    -8.0220 
  132.2500    65.3590    19.8000    18.9750    19.5700    23.8130     2.0970    -8.4640 
  132.3750    66.5170    16.5520    15.7520    18.9580    23.6400     2.0670    -8.9140 
  132.5000    71.4800    12.8790    12.1390    14.9770    23.6760     2.0650    -9.3190 
  132.6250    79.3300     9.7230     9.1160    10.3820    23.6550     2.1130    -9.7260 
  132.7500    86.8270     7.4940     7.0110     6.9530    23.6410     2.1950   -10.0740 
  132.8750    92.6930     6.2570     5.7660     5.6260    23.5740     2.2830   -10.3310 
  133.0000    96.7640     5.9260     5.2400     5.4760    23.4590     2.3460   -10.5430 
  133.1250    97.8460     6.5430     5.4150     6.1340    23.4230     2.3600   -10.6240 
  133.2500    95.8810     7.8960     6.1800     7.8870    23.5120     2.3350   -10.6200 
  133.3750    90.0600     9.8550     7.6160    11.4860    23.7840     2.2860   -10.5570 
  133.5000    79.7520    12.1270     9.6960    16.1470    24.2240     2.2300   -10.4660 
  133.6250    67.4670    14.1250    12.0440    17.7760    24.5210     2.1880   -10.3350 
  133.7500    59.2580    15.4390    13.9100    17.8690    24.6120     2.1670   -10.1710 
  133.8750    56.2180    16.1170    14.9730    17.6770    24.5690     2.1610    -9.9980 
  134.0000    57.3670    16.6440    15.5170    17.5300    24.4750     2.1620    -9.8270 
  134.1250    59.2920    17.7490    16.2330    17.3150    24.4320     2.1620    -9.6880 
  134.2500    59.7270    19.5480    17.5070    18.3630    24.5660     2.1560    -9.5540 
  134.3750    58.3740    21.5230    19.0400    20.3630    24.7630     2.1400    -9.4940 
  134.5000    56.3980    22.5060    19.8750    23.1240    24.8970     2.1130    -9.4940 
  134.6250    54.6680    20.8210    18.5900    24.7800    24.9300     2.0860    -9.5180 
  134.7500    56.1170    17.0800    15.5920    22.3810    24.8150     2.0820    -9.6150 
  134.8750    65.0610    12.8320    12.0900    15.2440    24.4720     2.1150    -9.7890 
  135.0000    78.4260     9.4140     9.1690     8.6240    23.9660     2.1840    -9.9730 
  135.1250    84.2370     7.4920     7.3480     7.0370    23.6890     2.2560   -10.1840 
  135.2500    81.7480     6.7300     6.3720     7.1550    23.5910     2.2880   -10.4080 
  135.3750    78.0730     7.0180     6.1460     8.2220    23.6330     2.2770   -10.5810 
  135.5000    75.7410     8.4290     6.7700     9.3990    23.7670     2.2540   -10.6960 
  135.6250    71.1820    11.5030     8.7610    12.3530    23.9210     2.2790   -10.7940 
  135.7500    65.9350    16.3500    12.3740    20.2380    24.0030     2.3820   -10.8680 
  135.8750    63.2470    22.9500    17.8170    35.9370    24.0450     2.5440   -10.8780 
  136.0000    60.0550    30.3870    24.5290    57.8880    24.0830     2.6650   -10.8510 
  136.1250    52.7110    35.7440    30.1480    65.3090    24.0600     2.6370   -10.8120 
  136.2500    46.2520    36.9920    32.5140    60.1310    24.0250     2.5140   -10.7730 
  136.3750    46.6990    34.7270    31.6030    48.5060    24.1270     2.3610   -10.7430 
  136.5000    52.5100    31.1950    28.9970    35.6520    24.4290     2.2230   -10.7440 
  136.6250    56.1680    28.3000    26.3050    30.0210    24.7830     2.1320   -10.7410 
  136.7500    57.1900    26.3420    24.1330    28.0590    24.9010     2.0960   -10.7450 
  136.8750    58.2320    25.0080    22.3980    26.3280    24.8080     2.1050   -10.7850 
  137.0000    60.7040    23.8830    20.9040    23.8890    24.6770     2.1320   -10.8440 
  137.1250    61.4020    22.6680    19.5560    21.4560    24.6270     2.1470   -10.9010 
  137.2500    60.5750    21.3870    18.3640    20.3760    24.6320     2.1470   -10.9370 
  137.3750    60.8300    20.2500    17.3930    19.3040    24.5950     2.1410   -10.9540 
  137.5000    62.6550    19.4930    16.7160    17.6000    24.4530     2.1410   -10.9620 
  137.6250    64.9690    19.3880    16.4040    16.3620    24.3010     2.1520   -10.9490 
  137.7500    65.8630    19.8610    16.4190    16.5500    24.2900     2.1630   -10.9120 
  137.8750    66.0890    20.7990    16.8090    18.0780    24.3980     2.1660   -10.8740 
  138.0000    65.8430    21.9950    17.5870    20.3410    24.5430     2.1570   -10.8730 
  138.1250    64.3300    23.0970    18.6660    22.8360    24.6100     2.1400   -10.9040 
  138.2500    62.9370    23.8440    19.7170    23.7060    24.5810     2.1210   -10.9940 
  138.3750    62.3680    24.1540    20.5160    23.4110    24.4690     2.1040   -11.1190 
  138.5000    62.8530    24.1460    20.9500    23.5880    24.3960     2.0950   -11.2730 
  138.6250    63.1730    24.0590    21.0210    23.9190    24.3480     2.0990   -11.4720 
  138.7500    62.3250    24.0780    20.9600    23.5640    24.2790     2.1130   -11.6830 
  138.8750    60.0220    24.2450    20.9110    23.0110    24.2590     2.1310   -11.8940 
  139.0000    58.6970    24.4790    20.9820    23.3630    24.3010     2.1500   -12.0750 
  139.1250    59.4070    24.6470    21.2010    23.9130    24.3260     2.1630   -12.2430 
  139.2500    59.3680    24.6580    21.4340    23.7900    24.3210     2.1730   -12.3260 
  139.3750    58.9170    24.4910    21.5200    22.8590    24.3020     2.1790   -12.3540 
  139.5000    61.4490    24.1830    21.3050    21.2320    24.2460     2.1760   -12.3150 
  139.6250    66.4480    23.7960    20.8550    19.8360    24.2150     2.1660   -12.1650 
  139.7500    67.7110    23.4190    20.4500    19.1580    24.1820     2.1530   -11.9870 
  139.8750    65.2530    23.0930    20.2280    18.7320    24.1190     2.1440   -11.7590 
  140.0000    61.9740    22.8730    20.1830    18.5750    24.0460     2.1420   -11.4570 
  140.1250    60.2580    22.8720    20.2150    19.0790    24.0850     2.1470   -11.0900 
  140.2500    60.7820    23.2050    20.3840    19.7390    24.1150     2.1540   -10.7230 
  140.3750    61.1230    24.0540    20.8820    20.6980    24.1290     2.1640   -10.3290 
  140.5000    58.3600    25.5840    21.9260    22.1650    24.1570     2.1750    -9.9220 
  140.6250    53.7740    28.1030    23.8310    25.1580    24.2580     2.1750    -9.6140 
  140.7500    51.9450    31.4180    26.5270    30.8100    24.4060     2.1530    -9.3740 
  140.8750    52.9220    35.1330    29.7620    37.6880    24.4760     2.1160    -9.1880 
  141.0000    54.5780    38.4290    32.9100    41.5980    24.4880     2.0890    -9.1130 
  141.1250    55.9750    39.8660    34.7260    42.9190    24.4210     2.1050    -9.1910 
  141.2500    56.2890    39.1560    34.5640    41.1520    24.4420     2.1590    -9.3760 
  141.3750    54.9580    36.7700    32.5530    36.7260    24.4150     2.2150    -9.6620 
  141.5000    53.9930    33.8050    29.6310    31.1510    24.4870     2.2350   -10.0430 
  141.6250    54.2980    31.4670    27.1130    28.6730    24.5080     2.1990   -10.4620 
  141.7500    54.3920    30.2000    25.6770    28.2870    24.4530     2.1470   -10.8410 
  141.8750    54.8230    30.0920    25.3920    28.9210    24.3980     2.1150   -11.2060 
