~V
VERS. 2.00: Ver 2.00
~W
STRT.M 55.0000:
STOP.M 228.0000:
STEP.M 0.1250:
NULL. -999.2500:
UWI. F10621:
~C
DEPT.M :
GR.API :
RML.OHMM :
RI. :
RXO.OHMM :
CALI.CM :
DEN.GM/CC :
SP.MV :
~A
# ...
  167.5000    72.4300    14.8090    13.7560    13.6080    24.8900     2.3240    -2.7560 
  167.6250    72.0690    15.9480    14.7550    14.7040    24.9020     2.3170    -2.7740 
  167.7500    69.6900    17.4750    16.1490    16.2440    24.9340     2.3120    -2.7750 
  167.8750    67.0480    19.2860    17.8560    18.5110    24.9790     2.3060    -2.7560 
  168.0000    66.3340    21.2140    19.7250    21.1280    25.0240     2.2990    -2.7690 
  168.1250    65.7160    23.0030    21.5100    24.1720    25.0580     2.2920    -2.8330 
  168.2500    64.3960    24.4790    23.0050    26.2400    25.0890     2.2870    -2.8990 
  168.3750    63.1320    25.6020    24.1300    27.1390    25.1020     2.2830    -2.9800 
  168.5000    61.7730    26.4720    24.9470    27.6620    25.1040     2.2780    -3.0890 
  168.6250    63.1730    27.2780    25.6220    28.3730    25.1090     2.2730    -3.1830 
  168.7500    65.5590    28.1600    26.3330    29.5030    25.1320     2.2680    -3.3030 
  168.8750    65.9480    29.0980    27.1060    30.7250    25.1800     2.2640    -3.4110 
  169.0000    63.1600    29.9620    27.8580    31.8580    25.2220     2.2630    -3.4950 
  169.1250    60.9070    30.5320    28.4030    33.1500    25.2140     2.2670    -3.5900 
  169.2500    60.9230    30.7370    28.6490    33.2250    25.1560     2.2750    -3.6840 
  169.3750    60.8290    30.5650    28.5560    32.2950    25.0680     2.2880    -3.7370 
  169.5000    59.7270    30.0390    28.1270    31.2970    24.9480     2.3080    -3.8040 
  169.6250    59.0790    29.1490    27.3450    30.4750    24.9020     2.3300    -3.8770 
  169.7500    59.1790    28.0100    26.3190    29.2480    24.9610     2.3460    -3.9390 
  169.8750    61.1240    26.7370    25.1510    27.5820    25.0580     2.3500    -4.0200 
  170.0000    65.8950    25.5120    23.9960    24.8110    25.1150     2.3380    -4.1020 
  170.1250    70.9960    24.6620    23.1170    22.2880    25.1170     2.3170    -4.1630 
  170.2500    70.9700    24.3730    22.6710    21.7540    25.0740     2.2980    -4.2260 
  170.3750    65.1130    24.7330    22.7340    23.6590    25.0350     2.2880    -4.3260 
  170.5000    58.4160    25.6870    23.2780    26.3780    25.0520     2.2910    -4.4260 
  170.6250    57.1700    27.0840    24.2140    28.5340    25.1260     2.3010    -4.5260 
  170.7500    59.7950    28.5840    25.2930    29.5350    25.1370     2.3100    -4.6330 
  170.8750    61.4760    29.9710    26.3610    28.7990    25.0870     2.3150    -4.7420 
  171.0000    59.5060    31.1100    27.3230    27.5970    25.0150     2.3160    -4.8350 
  171.1250    56.2100    31.8930    28.1050    27.5650    24.8810     2.3150    -4.9000 
  171.2500    55.1800    32.3540    28.6930    28.4410    24.6450     2.3110    -4.9500 
  171.3750    55.6700    32.4780    29.0280    29.0090    24.3610     2.3040    -4.9730 
  171.5000    56.3810    32.2530    29.0480    28.7770    24.1260     2.2930    -4.9800 
  171.6250    58.7130    31.6990    28.7070    28.4190    24.0230     2.2840    -4.9690 
  171.7500    60.8050    31.0730    28.2120    27.7990    24.1640     2.2830    -4.9580 
  171.8750    59.8590    30.6520    27.8110    27.7150    24.4090     2.2920    -4.9470 
  172.0000    57.7490    30.6930    27.7550    27.9840    24.5320     2.3040    -4.9650 
  172.1250    58.1460    31.4210    28.2810    28.4210    24.4360     2.3070    -5.0270 
  172.2500    58.7780    32.6280    29.2560    29.5710    24.3150     2.2990    -5.0960 
  172.3750    57.4670    34.0170    30.4530    31.4200    24.2450     2.2870    -5.1840 
  172.5000    56.1930    35.2060    31.5350    32.4770    24.2160     2.2790    -5.2830 
  172.6250    57.5920    35.7390    32.0660    32.2130    24.2070     2.2820    -5.4000 
  172.7500    59.2390    35.5920    31.9620    31.3540    24.2070     2.2900    -5.5190 
  172.8750    59.9030    34.9180    31.3210    31.0000    24.1300     2.2950    -5.6410 
  173.0000    60.8240    34.0180    30.4020    31.0730    23.9870     2.2930    -5.7440 
  173.1250    61.5330    33.2350    29.5110    30.7620    23.8310     2.2860    -5.8090 
  173.2500    61.0460    32.7150    28.8140    30.0500    23.6600     2.2780    -5.8660 
  173.3750    59.9010    32.4360    28.3230    29.4140    23.4810     2.2700    -5.8900 
  173.5000    59.6070    32.2950    27.9770    28.7070    23.4420     2.2640    -5.8860 
  173.6250    61.3430    32.1540    27.6870    28.2900    23.5980     2.2650    -5.8550 
  173.7500    63.6340    31.9270    27.3770    28.0530    23.7860     2.2760    -5.7930 
  173.8750    64.4210    31.6090    27.0340    28.0270    23.7990     2.2910    -5.7010 
  174.0000    61.4550    31.2480    26.6890    27.7420    23.8010     2.3040    -5.6090 
  174.1250    57.1010    30.9010    26.3910    27.3600    24.0340     2.3070    -5.5070 
  174.2500    56.3680    30.5570    26.1330    27.1270    24.3280     2.3000    -5.3920 
  174.3750    58.3440    30.1540    25.8590    26.9310    24.5020     2.2900    -5.2830 
  174.5000    59.8210    29.6090    25.4950    26.7400    24.5900     2.2870    -5.1590 
  174.6250    59.7760    28.8450    24.9560    26.1700    24.7210     2.2920    -5.0050 
  174.7500    59.3460    27.9350    24.2740    25.0560    24.7990     2.3000    -4.8490 
  174.8750    57.5490    26.9870    23.5230    23.1060    24.8130     2.3050    -4.7030 
  175.0000    54.1010    26.1320    22.8050    21.2010    24.8210     2.3020    -4.5640 
  175.1250    54.3470    25.5050    22.2360    20.5670    24.7890     2.2950    -4.4470 
  175.2500    59.1270    25.0680    21.8120    20.8740    24.7580     2.2930    -4.3740 
  175.3750    63.0510    24.7260    21.4680    21.2520    24.7390     2.2990    -4.3240 
  175.5000    62.6100    24.3440    21.0970    21.3080    24.7270     2.3160    -4.3020 
  175.6250    62.5590    23.7700    20.5630    20.9550    24.6900     2.3400    -4.3220 
  175.7500    66.4640    23.0010    19.8490    20.2000    24.6190     2.3600    -4.3690 
  175.8750    68.8680    22.1270    19.0150    19.1090    24.4990     2.3690    -4.4470 
  176.0000    66.1660    21.3260    18.1980    18.1890    24.4390     2.3600    -4.5310 
  176.1250    62.4790    20.9080    17.6430    17.4890    24.5040     2.3370    -4.6380 
  176.2500    62.6180    21.0380    17.5040    16.9600    24.6380     2.3110    -4.7670 
  176.3750    64.4060    21.8140    17.8930    17.0640    24.7220     2.2920    -4.9330 
  176.5000    64.0950    23.2000    18.8330    18.2040    24.7470     2.2800    -5.1280 
  176.6250    62.2400    25.0660    20.3100    20.7070    24.7480     2.2810    -5.3470 
  176.7500    62.8240    27.0830    22.0730    23.6450    24.7550     2.2910    -5.5760 
  176.8750    64.7440    29.1140    23.9860    26.3660    24.7780     2.3120    -5.8160 
  177.0000    65.0800    31.2630    26.0560    28.9830    24.8040     2.3390    -6.0870 
  177.1250    63.9360    34.0510    28.6210    31.2640    24.7800     2.3610    -6.4030 
  177.2500    61.5270    37.7670    31.9120    34.8170    24.6850     2.3720    -6.7330 
  177.3750    58.1040    42.1560    35.7840    40.8010    24.5750     2.3820    -7.0580 
  177.5000    54.8860    46.0910    39.3910    49.6640    24.5190     2.4070    -7.3730 
  177.6250    53.3310    47.0570    40.6530    58.7070    24.6030     2.4640    -7.6520 
  177.7500    53.4510    43.7370    38.2530    62.5670    24.6030     2.5350    -7.8780 
  177.8750    54.8840    36.2170    32.0420    60.3200    24.5230     2.5820    -7.9980 
  178.0000    58.9830    26.4810    23.7090    48.6930    24.4490     2.5770    -7.9890 
  178.1250    63.2820    17.7560    16.1840    29.4490    24.3920     2.5160    -7.8230 
  178.2500    62.4570    11.6150    10.8060    14.0080    24.3430     2.4440    -7.5600 
  178.3750    56.5960     7.9810     7.4490     7.2400    24.3080     2.3880    -7.2400 
  178.5000    50.5880     6.1590     5.5710     4.9980    24.3440     2.3550    -6.9090 
  178.6250    50.0240     5.5510     4.7750     4.6670    24.4690     2.3390    -6.6150 
