~V
VERS. 2.00: Ver 2.00
~W
STRT.M 57.0000:
STOP.M 204.0000:
STEP.M 0.1250:
NULL. -999.2500:
UWI. F10604:
~C
DEPT.M :
SP.MV :
GR.API :
RML.OHMM :
RI. :
RXO.OHMM :
CALI.CM :
DEN.GM/CC :
~A
# ...
   68.2500   -13.1890    67.0650    13.9710    12.2250    14.4100    25.1590     2.1640 
   68.3750   -13.1520    67.9090    14.0720    12.2450    14.4190    25.1410     2.1640 
   68.5000   -13.1390    69.0800    14.4250    12.4910    14.7840    25.1830     2.1660 
   68.6250   -13.0600    69.1440    14.9520    12.9400    16.0520    25.2630     2.1640 
   68.7500   -12.8930    69.4440    15.4310    13.4210    17.6940    25.2580     2.1560 
   68.8750   -12.7650    69.0140    15.7070    13.7800    18.4670    25.2110     2.1460 
   69.0000   -12.7160    66.5550    15.7290    13.9380    17.5180    25.2480     2.1380 
   69.1250   -12.7340    64.5930    15.5730    13.9290    15.6490    25.3120     2.1350 
   69.2500   -12.7650    65.9590    15.4390    13.9180    14.8300    25.2780     2.1350 
   69.3750   -12.8020    67.3740    15.4250    13.9960    15.5310    25.2390     2.1310 
   69.5000   -12.8380    65.8970    15.5180    14.1650    16.9320    25.2560     2.1220 
   69.6250   -12.9160    64.9800    15.5920    14.3160    17.8390    25.2620     2.1120 
   69.7500   -13.0180    66.8430    15.5100    14.3050    17.8840    25.2740     2.1090 
   69.8750   -13.1230    67.5440    15.2290    14.0660    17.1520    25.2750     2.1120 
   70.0000   -13.2380    64.8030    14.8010    13.6430    15.9540    25.2640     2.1170 
   70.1250   -13.3310    61.1570    14.3090    13.1430    14.9230    25.3020     2.1170 
   70.2500   -13.3680    59.9350    13.7830    12.6230    14.3940    25.3270     2.1110 
   70.3750   -13.3540    60.6890    13.1590    12.0320    14.1780    25.3410     2.1030 
   70.5000   -13.3190    62.1950    12.3930    11.3230    13.8950    25.3770     2.0990 
   70.6250   -13.3370    64.1630    11.6000    10.5730    13.1790    25.3770     2.1060 
   70.7500   -13.3950    67.4330    11.1020    10.0440    12.1360    25.3340     2.1270 
   70.8750   -13.4350    72.2660    11.2390    10.0020    11.4900    25.2160     2.1770 
   71.0000   -13.4350    77.0430    12.2470    10.6450    13.2090    25.1480     2.2630 
   71.1250   -13.4220    76.3210    14.2010    12.1770    22.2550    25.1620     2.3780 
   71.2500   -13.4120    71.2760    16.4750    14.2710    36.3680    25.0900     2.4770 
   71.3750   -13.4190    65.9950    18.3590    16.3390    46.2280    24.9410     2.5200 
   71.5000   -13.4700    65.1930    19.2160    17.5360    43.5080    24.9100     2.4880 
   71.6250   -13.4480    67.1370    18.6950    17.2240    30.6620    25.1820     2.3920 
   71.7500   -13.3710    66.7600    17.4560    16.1130    20.4140    25.5350     2.2860 
   71.8750   -13.3250    65.5700    16.0570    14.8110    16.4670    25.6840     2.2060 
   72.0000   -13.3250    66.6340    14.8340    13.6310    16.1890    25.6610     2.1630 
   72.1250   -13.3530    68.7700    13.8650    12.6580    16.6300    25.5950     2.1610 
   72.2500   -13.3970    68.1880    13.0370    11.8170    16.4430    25.5100     2.1800 
   72.3750   -13.3900    67.4250    12.3700    11.1210    15.3390    25.4000     2.2050 
   72.5000   -13.3250    70.2110    12.0000    10.6720    14.0910    25.2650     2.2220 
   72.6250   -13.3060    73.2230    12.1850    10.6830    14.2280    25.3080     2.2200 
   72.7500   -13.3220    72.5260    12.9110    11.1670    15.5080    25.4860     2.2020 
   72.8750   -13.2990    68.5530    14.0700    12.0930    16.8640    25.6410     2.1780 
   73.0000   -13.2150    64.4400    15.4350    13.3340    17.8130    25.5460     2.1570 
   73.1250   -13.1020    61.9770    16.6570    14.6150    18.6560    25.2900     2.1440 
   73.2500   -13.0290    59.8140    17.5090    15.6060    19.3200    25.1540     2.1370 
   73.3750   -13.0310    58.8960    17.9510    16.1640    19.4230    25.1820     2.1330 
   73.5000   -13.0230    58.9940    18.0960    16.3570    19.0730    25.2550     2.1320 
   73.6250   -12.9390    59.4430    18.0880    16.3540    18.8020    25.2550     2.1300 
   73.7500   -12.8090    60.1850    17.9790    16.2740    18.7160    25.2440     2.1250 
   73.8750   -12.7090    62.1650    17.6480    16.0310    18.6760    25.2390     2.1200 
   74.0000   -12.6760    65.3280    16.9490    15.4720    18.6610    25.2780     2.1230 
   74.1250   -12.6610    67.2730    15.8110    14.5040    18.2680    25.2870     2.1440 
   74.2500   -12.6200    67.9870    14.5250    13.3900    16.8200    25.2210     2.1780 
   74.3750   -12.6060    69.1590    13.4180    12.4140    14.5330    25.0820     2.2120 
   74.5000   -12.6120    71.5560    12.7880    11.8130    12.9530    24.9920     2.2290 
   74.6250   -12.6440    72.0190    12.8850    11.7980    13.5300    25.0320     2.2170 
   74.7500   -12.7250    70.8390    13.4620    12.2410    14.8290    25.1420     2.1910 
   74.8750   -12.8060    70.9980    14.1340    12.8910    15.4160    25.2110     2.1630 
   75.0000   -12.8610    73.9470    14.3860    13.2770    15.2890    25.2190     2.1440 
   75.1250   -12.9420    76.7480    13.6530    12.7010    15.0690    25.1780     2.1450 
   75.2500   -13.0090    77.0970    12.1120    11.2580    14.1740    25.1490     2.1660 
   75.3750   -13.0410    80.3780    10.2000     9.4520    11.8990    25.0920     2.2030 
   75.5000   -13.0990    90.9530     8.4710     7.8360     8.8850    24.9920     2.2460 
   75.6250   -13.1830   101.5010     7.4910     6.8370     7.0210    24.9330     2.2770 
   75.7500   -13.2470   101.1420     7.3420     6.4650     6.8600    24.9200     2.2850 
   75.8750   -13.2930    91.4150     8.0010     6.7260     7.8360    24.9440     2.2680 
   76.0000   -13.3190    82.1830     9.3060     7.5930     9.3840    24.9690     2.2400 
   76.1250   -13.2960    78.0130    10.9280     8.9710    11.8140    24.9920     2.2250 
   76.2500   -13.2670    77.0460    12.3150    10.3770    14.8740    25.0320     2.2380 
   76.3750   -13.2250    79.4650    13.1080    11.3380    17.1380    25.0560     2.2750 
   76.5000   -13.1570    83.4770    13.2220    11.6100    17.1070    24.9900     2.3130 
   76.6250   -13.0730    83.0050    12.8820    11.3340    14.9890    24.9410     2.3240 
   76.7500   -13.0180    78.6590    12.6140    11.0160    13.3030    24.9780     2.3020 
   76.8750   -13.0060    73.5380    12.7150    10.9350    13.1930    25.1040     2.2560 
   77.0000   -12.9940    70.1820    13.2740    11.2130    14.3340    25.2480     2.2040 
   77.1250   -12.9450    70.2730    14.1840    11.8630    15.5860    25.3000     2.1670 
   77.2500   -12.9340    71.9660    15.0740    12.6310    16.1330    25.2960     2.1590 
   77.3750   -13.0130    72.6080    15.6450    13.2460    15.9610    25.2430     2.1930 
   77.5000   -13.1390    70.4690    15.7080    13.4700    15.6530    25.1490     2.2680 
   77.6250   -13.2540    67.4950    15.1870    13.1670    15.6650    24.8500     2.3580 
   77.7500   -13.3570    67.6900    14.3710    12.5570    15.3190    24.5140     2.4120 
   77.8750   -13.4290    70.8540    13.5150    11.8440    14.1040    24.3470     2.3990 
   78.0000   -13.4640    73.0120    12.8480    11.2170    12.6400    24.4870     2.3210 
   78.1250   -13.5530    70.7770    12.5970    10.8610    12.3090    24.8880     2.2200 
   78.2500   -13.6470    68.0750    12.7410    10.8000    12.8960    25.3230     2.1500 
   78.3750   -13.6450    67.5730    13.1740    11.0050    13.3650    25.5230     2.1240 
   78.5000   -13.5920    70.5590    13.6480    11.3410    13.2440    25.3910     2.1260 
   78.6250   -13.5830    76.7870    13.6880    11.4440    12.8610    25.2080     2.1310 
   78.7500   -13.6000    80.7770    13.0210    10.9710    12.4070    25.1550     2.1290 
   78.8750   -13.6310    79.6640    11.6430     9.8450    11.5120    25.0710     2.1380 
   79.0000   -13.6960    79.1740     9.8710     8.3620     9.9310    24.8550     2.1750 
   79.1250   -13.7150    89.7850     8.3190     7.0550     8.0050    24.5120     2.2460 
   79.2500   -13.6530   102.9570     7.4630     6.2570     6.5610    24.2360     2.3170 
   79.3750   -13.5550   105.9090     7.5270     6.0980     6.3500    24.0480     2.3570 
