~V
VERS. 2.00: Ver 2.00
~W
STRT.M 55.0000:
STOP.M 253.0000:
STEP.M 0.1250:
NULL. -999.2500:
UWI. F10665:
~C
DEPT.M :
SP.MV :
DEN.GM/CC :
GR.API :
RML.OHMM :
RI. :
RXO.OHMM :
CALI.CM :
~A
# ...
  122.5000    -8.9870     2.3070    77.4050    10.0010     7.7790     9.3210    24.0510 
  122.6250    -8.8690     2.3350    77.3230    10.1260     7.9740     9.8340    23.9950 
  122.7500    -8.7370     2.3490    73.4420     9.8650     7.8830    10.2280    23.9800 
  122.8750    -8.5810     2.3400    70.6440     9.4170     7.6070     9.4510    23.9820 
  123.0000    -8.3830     2.3120    72.1860     9.0980     7.3460     8.1140    23.9750 
  123.1250    -8.1800     2.2790    75.3980     9.2550     7.3410     7.5190    23.9540 
  123.2500    -7.9370     2.2470    76.9980     9.9140     7.6630     8.2590    23.8460 
  123.3750    -7.6490     2.2150    75.7940    10.9850     8.3140    10.0930    23.5970 
  123.5000    -7.3080     2.1850    72.3900    12.2600     9.2070    11.5110    23.3500 
  123.6250    -6.9240     2.1660    68.2320    13.4440    10.1720    12.3200    23.3480 
  123.7500    -6.5180     2.1580    64.7810    14.4300    11.0630    12.4790    23.5440 
  123.8750    -6.0940     2.1610    62.8010    15.3900    11.9160    12.9270    23.8530 
  124.0000    -5.6850     2.1650    62.7570    16.6510    12.9040    13.9800    24.1860 
  124.1250    -5.2880     2.1590    63.2190    18.6020    14.3040    16.5490    24.4480 
  124.2500    -4.9520     2.1370    62.3290    21.1450    16.1370    20.5220    24.6320 
  124.3750    -4.6900     2.1060    60.0990    23.9400    18.2460    24.1740    24.7970 
  124.5000    -4.5250     2.0780    56.9430    26.3560    20.2420    26.3390    24.8780 
  124.6250    -4.4410     2.0670    51.6080    27.3870    21.3920    26.1410    24.8530 
  124.7500    -4.4180     2.0740    48.3240    26.8690    21.4240    25.5420    24.7970 
  124.8750    -4.4410     2.0950    50.7540    25.1720    20.4910    24.5040    24.7350 
  125.0000    -4.4890     2.1190    56.4850    23.0640    19.0930    22.8610    24.6790 
  125.1250    -4.5720     2.1380    58.9070    21.4370    17.8550    20.6040    24.5520 
  125.2500    -4.6230     2.1510    59.0900    20.7140    17.1540    18.7200    24.3070 
  125.3750    -4.6590     2.1540    60.1030    21.0040    17.1500    19.3960    24.0840 
  125.5000    -4.6660     2.1460    60.2440    22.1480    17.8370    22.3780    24.1420 
  125.6250    -4.6560     2.1260    57.3480    23.7520    19.0680    23.1120    24.4250 
  125.7500    -4.6320     2.1060    54.3100    25.1620    20.3690    24.2480    24.6600 
  125.8750    -4.5980     2.0960    53.7960    26.0040    21.3930    24.9990    24.7590 
  126.0000    -4.5620     2.0970    55.3810    26.2100    21.9630    24.1800    24.6500 
  126.1250    -4.4890     2.1040    55.9320    25.9120    22.0460    22.7940    24.5100 
  126.2500    -4.4240     2.1080    55.3740    25.3440    21.7950    22.0490    24.4490 
  126.3750    -4.3420     2.1070    55.9450    24.4600    21.1910    22.9280    24.5120 
  126.5000    -4.2510     2.1100    58.3760    23.1470    20.1820    25.3120    24.6660 
  126.6250    -4.1250     2.1210    60.1750    21.4060    18.7800    22.8260    24.6440 
  126.7500    -3.9580     2.1370    59.7020    19.6540    17.3180    17.8940    24.3990 
  126.8750    -3.7760     2.1470    58.4860    18.3200    16.1170    14.7770    24.1610 
  127.0000    -3.5490     2.1430    57.8700    17.7450    15.4350    14.4520    24.0970 
  127.1250    -3.3370     2.1270    57.3670    18.2510    15.5490    15.8680    24.1510 
  127.2500    -3.0970     2.1120    57.6000    19.6330    16.3930    18.4230    24.2600 
  127.3750    -2.8760     2.1040    58.0560    21.6560    17.8810    21.8510    24.3520 
  127.5000    -2.6570     2.1070    58.0530    23.9290    19.7760    26.2560    24.5540 
  127.6250    -2.5000     2.1200    56.7490    25.8830    21.6510    28.3330    24.7240 
  127.7500    -2.3950     2.1380    54.3060    27.1820    23.1060    29.8800    24.8170 
  127.8750    -2.3490     2.1550    52.0780    27.7530    23.9710    30.9680    24.8520 
  128.0000    -2.3580     2.1650    51.6050    27.7560    24.2920    30.8710    24.8260 
  128.1250    -2.4090     2.1640    52.4210    27.4930    24.2650    29.2600    24.7380 
  128.2500    -2.5110     2.1550    51.2690    27.2750    24.1910    28.7340    24.7030 
  128.3750    -2.6320     2.1440    48.9780    27.1880    24.1760    29.8450    24.7230 
  128.5000    -2.7730     2.1340    49.0650    27.2130    24.2420    30.6900    24.7290 
  128.6250    -2.9120     2.1250    52.2470    27.2740    24.3560    31.0760    24.7120 
  128.7500    -3.0540     2.1190    55.6360    27.2560    24.4330    29.7450    24.7710 
  128.8750    -3.1780     2.1180    56.7430    27.0940    24.4050    28.0320    24.8050 
  129.0000    -3.2860     2.1280    56.3450    26.7550    24.2180    26.7750    24.8090 
  129.1250    -3.3870     2.1510    57.0980    26.1590    23.7830    27.2410    24.7900 
  129.2500    -3.4600     2.1750    57.6830    25.2780    23.0780    26.1450    24.7170 
  129.3750    -3.5150     2.1890    55.6520    24.0670    22.0630    24.2430    24.5620 
  129.5000    -3.5360     2.1860    52.0640    22.5530    20.7500    23.0010    24.4510 
  129.6250    -3.5410     2.1650    53.3630    20.9570    19.2890    20.6490    24.4260 
  129.7500    -3.5150     2.1450    58.8180    19.6870    18.0180    18.8520    24.4260 
  129.8750    -3.4520     2.1400    63.5850    19.0430    17.2000    17.1460    24.4160 
  130.0000    -3.3840     2.1550    65.8090    19.1590    16.9800    15.8010    24.3950 
  130.1250    -3.2890     2.1870    65.4500    20.1490    17.5150    16.5830    24.3480 
  130.2500    -3.2160     2.2150    63.6720    21.7970    18.6700    19.7570    24.3190 
  130.3750    -3.1520     2.2270    60.7600    24.0380    20.4060    22.7590    24.3780 
  130.5000    -3.1270     2.2230    58.1520    26.9470    22.7460    23.8780    24.4370 
  130.6250    -3.1030     2.2200    56.9490    31.0090    26.0280    24.5110    24.4660 
  130.7500    -3.1310     2.2370    57.6140    36.4460    30.4480    29.8320    24.4820 
  130.8750    -3.1990     2.2850    58.9600    43.3390    36.1860    37.9520    24.4260 
  131.0000    -3.3110     2.3640    59.1200    51.2600    43.0420    41.8980    24.2900 
  131.1250    -3.4600     2.4560    59.2580    58.8720    50.1010    46.4840    24.1170 
  131.2500    -3.5970     2.5330    60.1660    64.4370    55.8300    47.0890    24.0170 
  131.3750    -3.7160     2.5920    60.2950    66.7750    59.0400    43.9710    23.9530 
  131.5000    -3.7990     2.6330    57.7030    65.6810    59.2660    45.0970    23.9320 
  131.6250    -3.8480     2.6280    53.2460    61.4920    56.4980    52.2160    23.9360 
  131.7500    -3.8600     2.5750    50.6480    55.8080    52.1070    71.2550    23.9470 
  131.8750    -3.8400     2.4820    50.2270    49.6460    47.0250    78.6690    23.9460 
  132.0000    -3.7990     2.3700    51.2900    43.9070    42.1030    53.4890    23.9640 
  132.1250    -3.7270     2.2610    52.3120    39.3660    38.0840    38.7460    24.1170 
  132.2500    -3.6830     2.1730    52.7750    35.8470    34.9050    30.0080    24.3130 
  132.3750    -3.6620     2.1170    53.7480    32.9830    32.2780    25.6920    24.3860 
  132.5000    -3.6710     2.1020    56.0420    30.3410    29.8530    30.1290    24.3560 
  132.6250    -3.7160     2.1280    58.8040    27.5460    27.3400    33.2550    24.2830 
  132.7500    -3.7810     2.1610    60.3640    24.5240    24.6500    30.8590    24.1150 
  132.8750    -3.8720     2.1770    60.8550    21.3710    21.8180    24.6010    23.9890 
  133.0000    -3.9580     2.1720    62.2650    18.2490    18.9450    18.7490    23.9880 
  133.1250    -4.0810     2.1630    65.2610    15.4040    16.2330    17.8750    24.1590 
  133.2500    -4.1770     2.1650    69.3720    13.0300    13.8930    15.2820    24.2770 
  133.3750    -4.2690     2.1820    73.8200    11.3190    12.1150    12.1680    24.2500 
  133.5000    -4.3300     2.2050    77.6080    10.4090    11.0320    10.0120    24.1710 
  133.6250    -4.3950     2.2220    78.0590    10.5430    10.8680     9.5260    24.1050 
