~V
VERS. 2.00: Ver 2.00
~W
STRT.M 50.0000:
STOP.M 221.0000:
STEP.M 0.1250:
NULL. -999.2500:
UWI. F10611:
~C
DEPT.M :
SP.MV :
GR.API :
RML.OHMM :
RI. :
RXO.OHMM :
CALI.CM :
DEN.GM/CC :
~A
# ...
  140.0000   -26.9290    51.0000    17.5210    15.5380    17.3570    25.3700     2.4240 
  140.1250   -27.0310    54.8840    18.0400    16.0330    16.7850    25.2980     2.4350 
  140.2500   -27.0750    56.5630    18.2850    16.1820    17.5520    25.2560     2.4500 
  140.3750   -27.0920    54.5590    18.2200    16.0120    18.0360    25.2820     2.4600 
  140.5000   -27.0390    51.8710    17.8850    15.6350    17.7610    25.3350     2.4620 
  140.6250   -26.9530    52.6850    17.3990    15.1730    16.9610    25.3240     2.4600 
  140.7500   -26.8070    54.3370    16.9680    14.7450    16.2130    25.3310     2.4590 
  140.8750   -26.6280    53.0590    16.7410    14.4240    15.5660    25.2890     2.4590 
  141.0000   -26.4160    50.1280    16.8160    14.2700    14.7990    25.1520     2.4590 
  141.1250   -26.1610    50.1250    17.3000    14.4060    15.1920    24.8390     2.4660 
  141.2500   -25.9090    50.5680    18.1300    14.8640    16.5370    24.4950     2.4800 
  141.3750   -25.6480    48.6360    19.2630    15.6690    18.1860    24.3160     2.4860 
  141.5000   -25.4520    46.1190    20.5950    16.7530    18.4710    24.2980     2.4720 
  141.6250   -25.2730    45.7960    21.8700    17.8880    17.8070    24.1830     2.4410 
  141.7500   -25.1680    46.4990    22.7270    18.7180    17.3620    23.9150     2.4110 
  141.8750   -25.0950    46.8050    22.8420    18.9590    18.9700    23.7210     2.3920 
  142.0000   -25.0670    47.1870    22.0800    18.5050    20.5700    23.6470     2.3870 
  142.1250   -25.1300    47.8310    20.5710    17.4560    18.8910    23.7330     2.3880 
  142.2500   -25.2230    48.1300    18.9440    16.2690    16.0530    23.8750     2.3870 
  142.3750   -25.3840    48.6530    17.6240    15.2420    14.2350    24.0610     2.3840 
  142.5000   -25.5550    48.9940    16.8100    14.5310    13.7820    24.2300     2.3870 
  142.6250   -25.7770    47.4710    16.4920    14.1740    14.9180    24.6030     2.3990 
  142.7500   -26.0130    43.9990    16.3300    13.9770    15.6730    25.2050     2.4100 
  142.8750   -26.2360    40.8550    16.0830    13.7800    15.5960    25.7330     2.4130 
  143.0000   -26.4710    41.0810    15.6310    13.4880    14.3400    25.9120     2.4080 
  143.1250   -26.6310    46.3390    15.0300    13.1190    13.1450    25.9380     2.4060 
  143.2500   -26.7760    51.3040    14.4900    12.7830    12.3490    25.9850     2.4120 
  143.3750   -26.8570    53.1130    14.1540    12.5470    12.0750    26.0200     2.4240 
  143.5000   -26.9040    51.5760    14.0790    12.4360    12.9020    26.0120     2.4360 
  143.6250   -26.8710    50.3960    14.2570    12.4560    13.4430    26.0020     2.4420 
  143.7500   -26.7940    50.1290    14.5440    12.5580    13.8010    26.0250     2.4440 
  143.8750   -26.6860    48.5160    14.8400    12.7010    13.5530    26.0010     2.4430 
  144.0000   -26.5380    45.7050    15.0560    12.8210    13.1740    25.8290     2.4410 
  144.1250   -26.4160    43.9460    15.1250    12.8240    13.6300    25.5650     2.4370 
  144.2500   -26.2690    44.4810    15.0790    12.7020    14.0820    25.4440     2.4330 
  144.3750   -26.1600    45.8520    14.9790    12.4990    13.6940    25.4160     2.4340 
  144.5000   -26.0560    46.7130    14.9250    12.3060    12.6240    25.4260     2.4410 
  144.6250   -26.0050    46.7450    15.0740    12.2740    12.2560    25.4290     2.4530 
  144.7500   -26.0070    46.2790    15.4800    12.4920    13.2010    25.4270     2.4620 
  144.8750   -26.0540    46.4490    16.1510    13.0060    14.9320    25.4350     2.4680 
  145.0000   -26.1720    48.2900    17.0500    13.8120    16.2390    25.4720     2.4700 
  145.1250   -26.3410    51.3780    18.1200    14.8610    16.7350    25.5160     2.4680 
  145.2500   -26.5690    54.4210    19.1900    15.9480    17.6880    25.4950     2.4610 
  145.3750   -26.8280    56.7140    20.0460    16.8720    18.8670    25.4350     2.4500 
  145.5000   -27.1120    58.0680    20.4020    17.3940    19.3890    25.3750     2.4410 
  145.6250   -27.4400    58.3120    19.7530    17.0940    19.1840    25.3190     2.4390 
  145.7500   -27.7370    56.9670    18.1110    15.9290    18.0110    25.3000     2.4380 
  145.8750   -28.0530    53.8640    15.7480    14.0680    16.0420    25.3050     2.4280 
  146.0000   -28.3390    52.4070    13.1790    11.9180    12.9980    25.3130     2.4060 
  146.1250   -28.6160    54.6060    10.9930     9.9800     9.7700    25.3170     2.3800 
  146.2500   -28.8940    57.1570     9.4210     8.5090     7.0650    25.3030     2.3660 
  146.3750   -29.1720    58.8310     8.5170     7.5690     6.2590    25.3190     2.3710 
  146.5000   -29.4620    61.5690     8.2310     7.1210     6.7100    25.3350     2.3880 
  146.6250   -29.7380    67.8730     8.5030     7.1340     7.3850    25.2780     2.3970 
  146.7500   -30.0480    75.2960     9.0850     7.4360     8.0530    25.1290     2.3960 
  146.8750   -30.3390    80.5800     9.8260     7.9270     8.8870    24.8990     2.3940 
  147.0000   -30.6460    80.3530    10.6220     8.5200    10.0030    24.6900     2.3990 
  147.1250   -30.8990    74.5490    11.5040     9.2090    10.3370    24.6620     2.4070 
  147.2500   -31.1250    70.5120    12.6080    10.0400    10.4790    24.8680     2.4010 
  147.3750   -31.3000    69.6660    14.0840    11.1060    11.5730    25.3160     2.3770 
  147.5000   -31.4390    69.5150    16.0170    12.4920    14.2930    25.7690     2.3430 
  147.6250   -31.5630    69.0700    18.3840    14.2510    18.8360    26.0120     2.3170 
  147.7500   -31.6310    68.4050    20.8000    16.1370    22.4680    25.9500     2.3080 
  147.8750   -31.7050    66.3960    22.7890    17.8190    23.9480    25.7850     2.3160 
  148.0000   -31.7260    63.9610    23.8600    18.9150    23.8860    25.6740     2.3280 
  148.1250   -31.7280    65.6120    23.5390    18.9680    22.7390    25.7160     2.3300 
  148.2500   -31.7110    68.9770    22.1420    18.0790    21.7010    25.7620     2.3260 
  148.3750   -31.6480    71.6890    20.0080    16.4520    20.9940    25.7900     2.3250 
  148.5000   -31.5550    75.5030    17.5370    14.4210    19.1820    25.7840     2.3380 
  148.6250   -31.3510    80.5060    15.1360    12.3910    16.2210    25.7340     2.3700 
  148.7500   -31.1030    82.5210    13.0570    10.6510    13.3750    25.6580     2.4050 
  148.8750   -30.7600    81.2380    11.4030     9.2960    10.9250    25.5730     2.4240 
  149.0000   -30.3410    79.7100    10.1760     8.2990    10.3150    25.5380     2.4160 
  149.1250   -29.8160    78.1990     9.3180     7.6050    10.5900    25.5370     2.3850 
  149.2500   -29.1900    75.1550     8.6220     7.0640    10.1740    25.5160     2.3480 
  149.3750   -28.5050    71.0860     7.9820     6.6090     8.9150    25.4040     2.3180 
  149.5000   -27.7770    64.8600     7.3720     6.2080     7.3480    25.1010     2.3060 
  149.6250   -27.0550    55.5200     6.8760     5.8840     6.5510    24.6750     2.3150 
  149.7500   -26.3210    47.1040     6.5620     5.6520     5.9140    24.6200     2.3320 
  149.8750   -25.6240    42.1740     6.4500     5.5180     5.5800    24.7970     2.3470 
  150.0000   -24.9510    39.6680     6.4940     5.4710     5.6220    24.9380     2.3540 
  150.1250   -24.3790    37.9280     6.6000     5.4790     5.7350    24.9660     2.3570 
  150.2500   -23.8860    37.3700     6.6640     5.4880     5.7190    24.9630     2.3650 
  150.3750   -23.4890    37.9230     6.6380     5.4690     5.6260    24.9290     2.3790 
  150.5000   -23.2060    37.7550     6.5240     5.4150     5.5280    24.8420     2.3940 
  150.6250   -23.0180    36.1060     6.3580     5.3240     5.4230    24.6970     2.3960 
  150.7500   -22.9310    35.6550     6.2110     5.2130     5.3450    24.5940     2.3840 
  150.8750   -22.9130    38.0470     6.1170     5.0960     5.2310    24.5620     2.3670 
  151.0000   -22.9740    40.8990     6.0770     4.9910     5.1200    24.5940     2.3530 
  151.1250   -23.1090    40.3990     6.0660     4.9070     5.1320    24.7030     2.3510 
