~V
VERS. 2.00: Ver 2.00
~W
STRT.M 50.0000:
STOP.M 212.0000:
STEP.M 0.1250:
NULL. -999.2500:
UWI. F10691:
~C
DEPT.M :
GR.API :
RML.OHMM :
RI. :
RXO.OHMM :
CALI.CM :
SP.MV :
DEN.GM/CC :
~A
# ...
   83.7500    53.5280    22.7030    18.8930    12.1480    23.9410   -11.6170     2.0920 
   83.8750    56.2100    22.8880    19.3650    12.5910    23.9590   -11.6330     2.0900 
   84.0000    56.1590    23.6080    20.2520    13.4810    24.0790   -11.7160     2.0760 
   84.1250    54.3740    24.5780    21.4820    14.3230    24.2080   -11.8460     2.0540 
   84.2500    52.7550    25.0680    22.4930    14.5710    24.2040   -12.0190     2.0380 
   84.3750    51.4250    24.3780    22.5820    14.1150    24.1090   -12.2200     2.0480 
   84.5000    51.5590    22.1770    21.2360    13.2350    23.9810   -12.4390     2.0930 
   84.6250    53.5820    18.7110    18.4370    12.0670    23.7520   -12.6560     2.1670 
   84.7500    56.9920    15.0560    15.1760    10.3970    23.4750   -12.8430     2.2380 
   84.8750    61.6700    11.8650    12.1170     8.4610    23.2450   -12.9840     2.2870 
   85.0000    66.7990     9.4010     9.6010     7.1670    23.2920   -13.0640     2.3100 
   85.1250    71.5820     7.7020     7.7630     6.4950    23.4610   -13.0770     2.3150 
   85.2500    76.4620     6.5050     6.4180     5.9320    23.4960   -13.0290     2.3180 
   85.3750    82.2570     5.7470     5.5080     5.3900    23.4850   -12.9250     2.3240 
   85.5000    87.0160     5.4470     5.0200     4.9350    23.3930   -12.7670     2.3290 
   85.6250    87.5520     5.8410     5.0840     4.6970    23.3510   -12.5470     2.3240 
   85.7500    84.4870     7.0920     5.7690     5.1020    23.2610   -12.2870     2.3040 
   85.8750    79.1920     9.4800     7.2970     6.5810    23.1540   -12.0030     2.2630 
   86.0000    71.1450    13.2100     9.9410     9.8400    22.9720   -11.7140     2.2010 
   86.1250    61.9830    17.9540    14.0770    12.6640    23.0120   -11.4480     2.1250 
   86.2500    55.1930    22.0610    19.0250    13.7580    23.1570   -11.2240     2.0570 
   86.3750    51.7390    25.8400    23.5110    13.7730    23.4470   -11.0510     2.0110 
   86.5000    50.6210    27.4380    26.1450    13.7080    23.8500   -10.9420     1.9980 
   86.6250    50.1630    26.8140    26.3130    13.5540    24.0600   -10.9030     2.0230 
   86.7500    49.9210    25.3160    25.2010    13.1160    23.9490   -10.9370     2.0640 
   86.8750    49.4740    23.5610    23.4850    12.6020    23.8240   -11.0170     2.1060 
   87.0000    49.4470    21.8480    21.5780    12.1300    23.7610   -11.1150     2.1310 
   87.1250    51.4360    20.4990    19.8830    11.6030    23.5810   -11.1910     2.1300 
   87.2500    52.7400    19.7300    18.6710    11.0490    23.3090   -11.2110     2.1120 
   87.3750    51.2340    19.6990    18.1020    10.2500    23.2430   -11.1770     2.0890 
   87.5000    48.7220    20.4500    18.2410     9.7170    23.2260   -11.0930     2.0760 
   87.6250    48.0500    21.9510    19.1540    10.8330    23.1970   -10.9830     2.0790 
   87.7500    48.1310    23.7860    20.5540    12.6050    23.2640   -10.8510     2.0890 
   87.8750    46.9000    25.6160    22.1860    13.7980    23.4190   -10.7140     2.0940 
   88.0000    46.0700    27.1390    23.7600    13.7890    23.3160   -10.5830     2.0920 
   88.1250    47.9230    28.0830    24.9490    13.6650    23.3410   -10.4950     2.0840 
   88.2500    51.8100    28.5550    25.7030    13.8260    23.4530   -10.4720     2.0750 
   88.3750    54.0570    28.7210    26.1110    14.3790    23.4750   -10.5070     2.0650 
   88.5000    51.3860    28.7450    26.3160    14.9070    23.3090   -10.5800     2.0560 
   88.6250    46.5250    28.6960    26.3930    14.9900    23.2490   -10.6690     2.0540 
   88.7500    45.1780    28.5860    26.3820    14.7340    23.2690   -10.7920     2.0700 
   88.8750    47.4680    28.3490    26.2580    14.6030    23.2960   -10.9560     2.1030 
   89.0000    49.7970    27.8070    25.9020    14.9630    23.3010   -11.1500     2.1400 
   89.1250    51.9110    26.5920    24.9830    14.9640    23.3010   -11.3570     2.1530 
   89.2500    53.4040    24.7260    23.4590    14.2840    23.3010   -11.5600     2.1290 
   89.3750    53.1260    22.4770    21.5160    13.1840    23.3010   -11.7370     2.0740 
   89.5000    51.9920    20.3130    19.5400    11.8270    23.3010   -11.8730     2.0120 
   89.6250    50.6570    18.8230    18.0330    10.5700    23.3010   -11.9820     1.9810 
   89.7500    49.0500    18.1540    17.1830    10.2660    23.3030   -12.0420     1.9980 
   89.8750    48.5690    18.2910    17.0300    10.9810    23.3100   -12.0340     2.0540 
   90.0000    50.7570    19.1040    17.5130    12.1270    23.3470   -11.9790     2.1170 
   90.1250    52.8200    20.4710    18.5970    13.0850    23.2420   -11.8900     2.1390 
   90.2500    52.6670    22.0880    20.0300    13.3260    22.9860   -11.7670     2.1090 
   90.3750    52.5150    23.7290    21.6120    13.2250    22.8910   -11.6440     2.0470 
   90.5000    53.2610    25.1720    23.1170    13.6680    22.9890   -11.5610     1.9910 
   90.6250    53.0310    26.1310    24.2600    14.5850    23.2400   -11.5310     1.9840 
   90.7500    51.8900    26.5270    24.9040    14.8330    23.2500   -11.5440     2.0290 
   90.8750    53.1650    26.3450    24.9700    14.4200    23.2320   -11.5980     2.1070 
   91.0000    55.5760    25.7050    24.5160    14.1150    23.2150   -11.6920     2.1830 
   91.1250    55.9150    24.7830    23.6660    14.5790    23.1180   -11.8310     2.2220 
   91.2500    54.6540    23.7820    22.6590    15.0570    22.9780   -12.0230     2.2220 
   91.3750    54.1090    22.7730    21.6110    14.7720    23.0050   -12.2510     2.2020 
   91.5000    55.8350    21.7790    20.5910    13.7950    23.0510   -12.5000     2.1810 
   91.6250    58.8530    20.8030    19.6360    12.8530    23.0600   -12.7490     2.1670 
   91.7500    59.7220    19.8780    18.7580    12.0660    23.0580   -12.9830     2.1510 
   91.8750    56.2820    19.0770    18.0040    11.5830    23.0390   -13.1990     2.1240 
   92.0000    51.1390    18.5160    17.4540    11.4450    22.9320   -13.3880     2.0810 
   92.1250    49.5430    18.4190    17.2910    11.2200    22.7890   -13.5550     2.0330 
   92.2500    49.6400    18.8130    17.5660    11.1080    22.7500   -13.6640     1.9990 
   92.3750    49.1430    19.6190    18.2590    11.4390    22.8200   -13.7220     1.9930 
   92.5000    48.9400    20.5730    19.1920    12.9100    23.1360   -13.7380     2.0160 
   92.6250    49.8520    21.1650    19.9430    16.7330    23.2020   -13.7050     2.0600 
   92.7500    49.8080    21.0630    20.1220    20.0520    23.1850   -13.6540     2.1060 
   92.8750    48.4090    20.2390    19.6030    17.1630    23.0490   -13.5940     2.1470 
   93.0000    47.4220    19.0000    18.5860    13.0740    22.9610   -13.5330     2.1610 
   93.1250    47.8280    17.8540    17.4870    11.6470    23.0680   -13.4510     2.1460 
   93.2500    49.1830    17.0980    16.6410    11.4810    23.3150   -13.3820     2.1200 
   93.3750    49.2710    16.7670    16.1440    11.6640    23.6260   -13.3170     2.0930 
   93.5000    46.5000    16.7290    15.9500    11.8400    23.8220   -13.2490     2.0680 
   93.6250    43.1720    16.7840    15.9330    11.8840    23.8530   -13.1980     2.0490 
   93.7500    43.8990    16.7870    15.9240    11.7750    23.8570   -13.1590     2.0440 
   93.8750    46.8050    16.7670    15.9000    11.5430    23.8590   -13.1290     2.0660 
   94.0000    47.4280    16.8480    15.9360    11.3160    23.8690   -13.0930     2.1260 
   94.1250    44.7310    17.1810    16.1700    11.1500    23.9240   -13.0550     2.2260 
   94.2500    41.8870    17.7330    16.6110    11.0570    23.9440   -13.0270     2.3300 
   94.3750    41.8530    18.3950    17.1950    11.0320    23.7760   -13.0260     2.3920 
   94.5000    44.5760    19.0030    17.7820    11.0410    23.2550   -13.0410     2.3770 
   94.6250    46.9010    19.3770    18.1830    11.0000    22.9790   -13.0600     2.2820 
   94.7500    48.0060    19.5760    18.3910    11.0590    22.9370   -13.1150     2.1660 
   94.8750    50.1020    19.7640    18.5250    11.9640    22.9940   -13.2350     2.0730 
