~V
VERS. 2.00: Ver 2.00
~W
STRT.M 49.0000:
STOP.M 221.0000:
STEP.M 0.1250:
NULL. -999.2500:
UWI. F10615:
~C
DEPT.M :
DEN.GM/CC :
GR.API :
RML.OHMM :
RI. :
RXO.OHMM :
CALI.CM :
SP.MV :
~A
# ...
  116.5000     2.1710    59.6030    19.8480    16.2210    16.5160    24.8030    -3.7610 
  116.6250     2.1650    56.1890    21.4840    17.8020    20.6150    25.4720    -3.5490 
  116.7500     2.1730    55.0890    22.8330    19.3110    22.8000    25.8980    -3.3460 
  116.8750     2.1870    55.5680    23.6700    20.4840    22.3770    25.9540    -3.2230 
  117.0000     2.1910    56.2390    23.7280    21.0070    21.9500    25.9520    -3.2150 
  117.1250     2.1780    57.4010    22.8980    20.7170    21.5510    25.9450    -3.3050 
  117.2500     2.1550    59.6580    20.9810    19.3870    20.8000    25.9160    -3.5050 
  117.3750     2.1360    62.5650    18.0180    17.0190    20.0080    25.8380    -3.7900 
  117.5000     2.1480    66.1550    14.4860    14.0130    18.8510    25.5100    -4.1410 
  117.6250     2.1930    73.4950    11.2820    11.1730    15.2900    25.0390    -4.5350 
  117.7500     2.2570    83.5340     8.8980     8.9270     9.9060    24.7000    -4.9510 
  117.8750     2.3100    90.1810     7.4540     7.4140     7.1490    24.7110    -5.3470 
  118.0000     2.3300    88.4030     6.9020     6.6760     6.6650    24.7630    -5.7020 
  118.1250     2.3320    83.8950     6.8510     6.4570     6.9230    24.7430    -6.0300 
  118.2500     2.3330    82.2090     7.0870     6.6100     6.8940    24.6010    -6.3080 
  118.3750     2.3410    83.7760     7.4140     6.9650     6.7580    24.3680    -6.5430 
  118.5000     2.3490    85.2820     7.6750     7.3470     6.8940    24.1260    -6.6740 
  118.6250     2.3500    86.6010     7.8430     7.6440     7.2200    23.9240    -6.7050 
  118.7500     2.3420    89.4270     7.9390     7.8370     7.2560    23.7670    -6.7120 
  118.8750     2.3280    94.1720     7.9870     7.9420     7.2630    23.7120    -6.6770 
  119.0000     2.3170    97.7350     7.9890     7.9720     7.4360    23.7520    -6.5170 
  119.1250     2.3130    97.5120     7.9510     7.9500     7.8270    23.8060    -6.2900 
  119.2500     2.3140    93.8150     7.8650     7.8690     7.9700    23.9370    -6.0490 
  119.3750     2.3170    89.8980     7.7150     7.7070     7.9730    24.2190    -5.7620 
  119.5000     2.3160    89.1540     7.5310     7.4670     7.8370    24.4770    -5.4200 
  119.6250     2.3070    87.6210     7.4660     7.2670     8.0280    24.5460    -5.0900 
  119.7500     2.2990    84.2190     7.7330     7.2790     8.6470    24.4500    -4.7740 
  119.8750     2.3070    81.3550     8.5310     7.6710     9.2530    24.4030    -4.4920 
  120.0000     2.3520    78.5880    10.0100     8.6220     8.8480    24.4380    -4.2620 
  120.1250     2.4220    72.2860    11.7970     9.9460    11.3660    24.3670    -4.0740 
  120.2500     2.4880    64.4340    13.3290    11.2740    17.9590    24.2490    -3.9410 
  120.3750     2.5190    60.9320    13.9890    12.0790    20.0730    24.2160    -3.8640 
  120.5000     2.4940    65.4910    13.5070    11.9650    19.1770    24.3380    -3.8600 
  120.6250     2.4420    73.7990    12.7720    11.4710    13.5450    24.5870    -3.9310 
  120.7500     2.3940    79.0640    12.6840    11.2360    10.7830    24.7810    -4.0700 
  120.8750     2.3710    76.7170    13.9370    11.8080    11.9300    24.8050    -4.2540 
  121.0000     2.3880    69.0510    17.2850    13.9010    16.9460    24.6980    -4.4740 
  121.1250     2.4340    63.0770    22.5840    17.7110    23.9540    24.5570    -4.7240 
  121.2500     2.4930    59.0290    29.5170    23.3300    29.4080    24.3860    -4.9650 
  121.3750     2.5520    54.6800    37.0300    30.1420    38.9930    24.2270    -5.1510 
  121.5000     2.5930    51.5140    42.9080    36.2190    44.9750    24.1070    -5.3010 
  121.6250     2.6070    50.7000    45.8520    39.8780    45.7420    24.0510    -5.4080 
  121.7500     2.5900    51.1780    45.8980    40.8230    44.8070    24.1340    -5.4050 
  121.8750     2.5510    50.6300    44.0440    39.7770    41.3360    24.3000    -5.3280 
  122.0000     2.5080    49.1680    41.6440    37.8310    35.7490    24.4980    -5.2570 
  122.1250     2.4790    48.8150    39.8910    36.1300    32.7530    24.6850    -5.1510 
  122.2500     2.4720    49.6530    39.2560    35.1790    32.2310    24.7910    -5.0050 
  122.3750     2.4800    50.2440    39.7840    35.1260    33.9310    24.8350    -4.8950 
  122.5000     2.4920    50.1710    41.3410    35.9860    35.2070    24.8880    -4.8640 
  122.6250     2.5010    50.8190    43.3020    37.3430    37.0260    24.9500    -4.8770 
  122.7500     2.5070    52.2210    45.1870    38.8450    40.7790    24.9520    -4.9350 
  122.8750     2.5090    51.6860    46.6120    40.1470    42.1830    24.9900    -5.0540 
  123.0000     2.5090    48.3660    47.2600    40.9240    41.4290    24.9530    -5.2470 
  123.1250     2.5030    46.2220    47.3060    41.1970    41.1490    24.8580    -5.5050 
  123.2500     2.4860    47.2550    47.0130    41.1130    39.6630    24.6380    -5.8180 
  123.3750     2.4510    48.9020    46.7540    40.9430    36.7040    24.4890    -6.1520 
  123.5000     2.4030    46.7300    47.0110    41.0860    34.6010    24.5730    -6.5090 
  123.6250     2.3640    45.8700    47.9540    41.7570    34.9230    24.6890    -6.9090 
  123.7500     2.3560    48.5920    49.5740    43.0210    35.9030    24.6980    -7.3460 
  123.8750     2.3920    51.4600    51.6280    44.7630    37.1140    24.5780    -7.7510 
  124.0000     2.4650    51.0110    53.5650    46.6240    37.9300    24.4660    -8.1050 
  124.1250     2.5380    49.9600    54.8550    48.1040    39.4360    24.3890    -8.4200 
  124.2500     2.5870    49.9260    55.2110    48.8760    42.3920    24.3520    -8.6790 
  124.3750     2.6070    48.6710    54.6270    48.8160    43.6140    24.3430    -8.9170 
  124.5000     2.6030    47.1060    53.2750    47.9400    39.4330    24.3590    -9.0680 
  124.6250     2.5860    47.9550    51.6270    46.6430    38.7690    24.3310    -9.0880 
  124.7500     2.5560    50.1440    49.9290    45.1790    40.6430    24.2210    -9.0580 
  124.8750     2.5130    51.0340    48.3030    43.7240    42.1540    24.1160    -9.0330 
  125.0000     2.4690    49.9810    46.8170    42.4010    38.8430    24.2510    -8.9430 
  125.1250     2.4400    49.0750    45.5100    41.2530    35.5890    24.3900    -8.8040 
  125.2500     2.4330    48.5890    44.5260    40.3840    33.1850    24.4190    -8.7020 
  125.3750     2.4480    47.8720    44.0730    39.9570    29.4040    24.3090    -8.6240 
  125.5000     2.4810    47.4190    44.3560    40.1850    28.2690    24.1930    -8.5530 
  125.6250     2.5190    47.2810    45.0770    40.8640    31.0280    24.2830    -8.5080 
  125.7500     2.5480    48.1740    45.8260    41.6700    33.8570    24.3750    -8.4910 
  125.8750     2.5480    49.4850    46.0930    42.1600    35.8530    24.3750    -8.5200 
  126.0000     2.5150    49.5100    45.3130    41.7900    37.3990    24.3480    -8.5920 
  126.1250     2.4650    48.9920    43.6270    40.5880    35.8780    24.2820    -8.6850 
  126.2500     2.4230    49.2690    41.4220    38.8220    32.1570    24.1230    -8.8200 
  126.3750     2.4090    50.3200    39.2270    36.9230    29.9500    23.8800    -9.0090 
  126.5000     2.4320    49.6630    37.6060    35.3950    29.9930    23.7960    -9.2530 
  126.6250     2.4660    48.6910    36.7060    34.4470    30.1400    23.9900    -9.5490 
  126.7500     2.4860    48.6350    36.5520    34.1550    31.0160    24.3060    -9.9040 
  126.8750     2.4840    48.4730    37.0770    34.5050    34.0170    24.6070   -10.2840 
  127.0000     2.4730    46.5910    38.1780    35.4620    36.5150    24.6110   -10.6920 
  127.1250     2.4720    46.1410    39.4320    36.6750    37.2480    24.4420   -11.1570 
  127.2500     2.4880    48.1800    40.4480    37.7960    36.3690    24.2000   -11.6270 
  127.3750     2.5170    50.7390    40.8750    38.4640    38.4630    24.0820   -12.0300 
  127.5000     2.5540    50.4310    40.4130    38.3260    43.5890    23.9430   -12.3730 
  127.6250     2.5890    48.0660    39.3190    37.5430    43.1600    23.8250   -12.6980 
