~V
VERS. 2.00: Ver 2.00
~W
STRT.M 58.0000:
STOP.M 272.0000:
STEP.M 0.1250:
NULL. -999.2500:
UWI. F10670:
~C
DEPT.M :
DEN.GM/CC :
GR.API :
RML.OHMM :
RI. :
RXO.OHMM :
CALI.CM :
SP.MV :
~A
   58.0000     2.3400    45.3690     0.7440     0.2770     0.7360    24.2090    83.9610 
   58.1250     2.4150    47.6710     0.6180     0.2240     0.7570    24.1690    78.1460 
   58.2500     2.5090    51.4310     0.4380     0.1900     0.7280    24.1540    71.4700 
   58.3750     2.6060    55.2460     0.3180     0.1850     0.7660    24.1550    64.0140 
   58.5000     2.6570    59.9540     0.3250     0.2280     1.2180    24.1530    55.4590 
   58.6250     2.6370    65.5320     0.4520     0.3120     2.1380    24.1250    46.1790 
   58.7500     2.5500    68.8700     0.7580     0.4520     3.9100    24.0550    36.5740 
   58.8750     2.4290    68.7840     1.3520     0.7910     5.5520    23.9770    27.0320 
   59.0000     2.3230    66.5360     2.3450     1.4500     6.7010    24.0070    17.9850 
   59.1250     2.2490    63.9150     3.4920     2.3410     6.8860    24.2870     9.5310 
   59.2500     2.1970    62.6010     4.5770     3.2870     7.0250    24.8970     2.0550 
   59.3750     2.1520    63.6400     5.7220     4.5190     7.0170    25.5880    -4.4490 
   59.5000     2.1040    65.2500     6.5060     5.4850     7.0840    25.8290    -9.4850 
   59.6250     2.0620    64.5860     6.9000     6.0560     7.2310    25.7740   -13.2690 
   59.7500     2.0360    62.3650     7.0600     6.3650     7.2440    25.6180   -16.1330 
   59.8750     2.0310    60.2510     7.1890     6.5780     7.0300    25.3920   -18.3470 
   60.0000     2.0510    58.9490     7.3590     6.7320     6.7750    24.8910   -20.0970 
   60.1250     2.0820    57.1120     7.4430     6.8480     6.7090    24.3150   -21.5150 
   60.2500     2.1140    56.5510     7.4530     6.9350     6.8280    24.1200   -22.8130 
   60.3750     2.1350    58.7280     7.4280     7.0010     7.0090    24.3160   -23.8830 
   60.5000     2.1400    62.2240     7.4340     7.0430     7.0370    24.4700   -24.8380 
   60.6250     2.1340    64.2540     7.4640     7.0620     7.0850    24.4570   -25.7900 
   60.7500     2.1280    63.9700     7.4940     7.0660     7.1430    24.3460   -26.6740 
   60.8750     2.1270    63.1650     7.5260     7.0680     7.1720    24.2250   -27.5210 
   61.0000     2.1360    63.1590     7.5710     7.0830     7.0950    24.1420   -28.1800 
   61.1250     2.1510    62.7380     7.5940     7.1150     7.0340    24.1540   -28.7570 
   61.2500     2.1690    61.9300     7.6030     7.1610     7.0150    24.2070   -29.1640 
   61.3750     2.1850    61.3680     7.6030     7.2050     7.0830    24.2260   -29.5900 
   61.5000     2.1970    61.8790     7.5980     7.2310     7.1890    24.2200   -29.9860 
   61.6250     2.2020    63.1750     7.5760     7.2440     7.2250    24.2660   -30.2490 
   61.7500     2.2020    63.2120     7.5360     7.2480     7.1700    24.3540   -30.4290 
   61.8750     2.1960    61.7740     7.5040     7.2460     7.1210    24.4310   -30.5240 
   62.0000     2.1880    62.1990     7.4900     7.2350     7.1200    24.5490   -30.7480 
   62.1250     2.1810    66.1620     7.4880     7.2140     7.1260    24.6840   -30.9510 
   62.2500     2.1790    69.5160     7.4880     7.1800     7.1000    24.6460   -31.1720 
   62.3750     2.1790    68.6780     7.4880     7.1400     6.9390    24.3740   -31.4330 
   62.5000     2.1790    66.7080     7.4940     7.1240     7.2050    24.0820   -31.7350 
   62.6250     2.1780    65.7360     7.5170     7.1600     7.3440    23.9090   -32.1350 
   62.7500     2.1750    64.5350     7.5680     7.2610     7.0930    23.7710   -32.5670 
   62.8750     2.1710    62.7000     7.6310     7.4140     6.6360    23.6520   -32.9220 
   63.0000     2.1650    61.3030     7.7070     7.5790     6.6910    23.6930   -33.1880 
   63.1250     2.1590    59.6690     7.7710     7.7010     7.1010    23.8680   -33.4780 
   63.2500     2.1560    58.8110     7.8160     7.7530     7.4340    23.9550   -33.7220 
   63.3750     2.1570    60.4120     7.8320     7.7320     7.5680    23.8520   -33.8930 
   63.5000     2.1630    63.6210     7.7960     7.6560     7.3180    23.6390   -34.0250 
   63.6250     2.1680    64.5370     7.7190     7.5670     6.9150    23.6120   -34.0820 
   63.7500     2.1680    62.9920     7.6260     7.4850     6.7280    23.8320   -34.0650 
   63.8750     2.1640    62.5840     7.5410     7.4180     6.9250    24.1710   -34.0940 
   64.0000     2.1590    64.5550     7.4540     7.3580     7.2680    24.4740   -34.0320 
   64.1250     2.1590    66.5220     7.3820     7.2900     7.3730    24.6240   -33.8710 
   64.2500     2.1640    66.2690     7.2930     7.2040     7.3460    24.6680   -33.8440 
   64.3750     2.1750    64.5890     7.1540     7.1010     7.2310    24.6710   -33.7340 
   64.5000     2.1840    64.7430     7.0210     6.9940     7.0670    24.6680   -33.4650 
   64.6250     2.1890    66.1630     6.9540     6.9050     6.6990    24.6490   -33.2270 
   64.7500     2.1900    66.6620     6.9290     6.8470     6.1550    24.6070   -32.9990 
   64.8750     2.1880    66.0050     6.9180     6.8210     5.6380    24.5690   -32.7330 
   65.0000     2.1890    66.2600     6.9120     6.8110     5.7950    24.5810   -32.4450 
   65.1250     2.1960    67.5250     6.9110     6.7920     6.0760    24.6920   -32.2780 
   65.2500     2.2040    66.9150     6.8890     6.7610     6.5450    24.8520   -32.0070 
   65.3750     2.2070    63.8190     6.9000     6.7560     6.7260    24.7140   -31.6530 
   65.5000     2.1960    60.6540     7.0940     6.8910     6.8750    24.0570   -31.3950 
   65.6250     2.1780    59.2470     7.5350     7.2300     7.3240    23.3420   -31.0820 
   65.7500     2.1670    60.4540     8.1930     7.7650     7.7120    22.9160   -30.7050 
   65.8750     2.1830    63.1890     8.8980     8.3650     8.1750    22.6420   -30.2310 
   66.0000     2.2350    67.7420     9.2630     8.7210     9.9430    22.3740   -29.6770 
   66.1250     2.3030    78.0150     9.0500     8.6140    12.1540    22.2300   -29.0280 
   66.2500     2.3600    94.1510     8.2840     8.0120    10.7150    22.1270   -28.4210 
   66.3750     2.3880   110.7910     7.2480     7.1000     7.0520    22.1330   -27.8750 
   66.5000     2.3850   117.3750     6.3440     6.1910     5.3940    22.2780   -27.3600 
   66.6250     2.3710   114.4020     5.7680     5.5120     4.7060    22.3850   -26.9100 
   66.7500     2.3620   108.7560     5.5330     5.1250     4.3390    22.3800   -26.6110 
   66.8750     2.3570   106.4980     5.5570     5.0000     4.2880    22.3760   -26.4590 
   67.0000     2.3500   106.3800     5.7220     5.0630     4.4540    22.5390   -26.4170 
   67.1250     2.3320   102.2020     5.8800     5.1770     4.7610    22.8930   -26.4590 
   67.2500     2.3070    96.6960     5.9710     5.2790     4.9560    23.2620   -26.5500 
   67.3750     2.2810    95.7210     5.9880     5.3420     4.8780    23.3680   -26.8000 
   67.5000     2.2630    97.8870     5.9620     5.3700     4.7170    23.4390   -26.9850 
   67.6250     2.2530    97.5130     5.9500     5.3930     4.8030    23.6030   -27.1760 
   67.7500     2.2500    94.7630     5.9900     5.4340     5.0170    23.6980   -27.4120 
   67.8750     2.2490    91.9940     6.1110     5.5110     5.1140    23.4680   -27.6730 
   68.0000     2.2500    89.2890     6.3470     5.6510     5.1640    23.0470   -28.0640 
   68.1250     2.2510    84.8540     6.6760     5.8500     5.3710    22.8320   -28.4970 
   68.2500     2.2500    79.0190     7.0670     6.1040     5.9640    22.9470   -28.9120 
   68.3750     2.2430    72.3640     7.4650     6.3890     6.6640    23.3300   -29.2420 
   68.5000     2.2270    66.2340     7.7810     6.6440     7.4520    23.8140   -29.6400 
   68.6250     2.2060    64.3180     7.9510     6.8020     7.8380    24.0680   -30.0690 
   68.7500     2.1850    67.2980     7.9280     6.8120     7.9360    24.1130   -30.3920 
   68.8750     2.1700    72.9540     7.7200     6.6670     7.6290    24.0680   -30.6270 
   69.0000     2.1710    78.2170     7.3940     6.4080     7.0300    24.0590   -30.7080 
   69.1250     2.1840    82.0900     7.1000     6.1520     6.4570    24.0450   -30.7160 
