~V
VERS. 2.00: Ver 2.00
~W
STRT.M 52.0000:
STOP.M 238.0000:
STEP.M 0.1250:
NULL. -999.2500:
UWI. F10653:
~C
DEPT.M :
GR.API :
RML.OHMM :
RI. :
RXO.OHMM :
CALI.CM :
DEN.GM/CC :
SP.MV :
~A
# ...
  164.5000    47.5930    21.3100    18.5780    21.5220    23.3950     2.4690    -9.8680 
  164.6250    48.5620    21.3290    18.7490    22.0250    23.6050     2.4620    -9.8980 
  164.7500    50.4720    21.4530    18.7640    22.6300    23.6760     2.4490    -9.9790 
  164.8750    51.0270    21.7180    18.6500    22.1740    23.6540     2.4340   -10.0790 
  165.0000    48.7670    22.1140    18.5510    21.5480    23.5840     2.4240   -10.1450 
  165.1250    45.1210    22.5280    18.6930    21.4590    23.4760     2.4280   -10.2590 
  165.2500    43.8230    22.7940    19.0510    22.8690    23.4210     2.4430   -10.3850 
  165.3750    45.9880    22.8380    19.4390    23.7010    23.3780     2.4630   -10.4600 
  165.5000    49.7550    22.6620    19.6830    22.2180    23.3400     2.4810   -10.5450 
  165.6250    51.6370    22.3670    19.6810    20.8570    23.2960     2.4940   -10.6200 
  165.7500    52.4880    22.1140    19.5190    20.8220    23.2660     2.5030   -10.6590 
  165.8750    53.1440    21.9910    19.3180    21.6270    23.2930     2.5080   -10.6790 
  166.0000    52.8410    22.0170    19.1820    22.5610    23.3460     2.5080   -10.6750 
  166.1250    50.3500    22.1060    19.1510    22.3290    23.4000     2.5000   -10.6330 
  166.2500    47.4770    22.1190    19.1440    22.8080    23.4230     2.4870   -10.5760 
  166.3750    45.7130    21.9410    19.0370    23.2650    23.4240     2.4720   -10.4860 
  166.5000    45.8190    21.5510    18.7500    22.7580    23.4020     2.4580   -10.3600 
  166.6250    47.4820    21.0350    18.3010    21.2280    23.3570     2.4530   -10.2630 
  166.7500    48.9690    20.5530    17.8310    20.5710    23.3200     2.4570   -10.1360 
  166.8750    49.5850    20.1710    17.4090    20.2280    23.2870     2.4660   -10.0220 
  167.0000    48.6910    19.8760    17.0680    20.4630    23.2680     2.4710    -9.9720 
  167.1250    46.9500    19.6350    16.8420    21.0520    23.2820     2.4650    -9.9470 
  167.2500    46.1810    19.3900    16.7130    20.9220    23.2610     2.4530    -9.9250 
  167.3750    48.6480    19.1490    16.6750    19.1510    23.1670     2.4410    -9.9530 
  167.5000    53.3830    18.9370    16.7030    17.7510    23.0390     2.4360   -10.0300 
  167.6250    54.6830    18.7500    16.6780    17.8050    23.0820     2.4400   -10.1170 
  167.7500    53.2020    18.5460    16.4820    18.6810    23.2040     2.4470   -10.2330 
  167.8750    51.5000    18.3040    16.1380    18.6200    23.2950     2.4520   -10.3610 
  168.0000    50.0970    18.0750    15.7830    17.9970    23.3200     2.4520   -10.4960 
  168.1250    48.0460    17.9760    15.5900    17.3420    23.2410     2.4480   -10.6370 
  168.2500    47.6830    18.1110    15.6400    16.5290    22.9920     2.4410   -10.7630 
  168.3750    48.9580    18.5400    15.9680    16.0500    22.5750     2.4350   -10.8800 
  168.5000    49.3290    19.2220    16.5260    16.1910    22.1190     2.4340   -10.9380 
  168.6250    48.9290    20.0120    17.2070    15.8320    21.6510     2.4420   -10.9330 
  168.7500    50.0150    20.6500    17.8520    15.7240    21.2990     2.4550   -10.9330 
  168.8750    50.3820    20.9510    18.3050    16.0690    21.0890     2.4680   -10.8790 
  169.0000    48.2910    20.8120    18.3680    16.2210    20.9590     2.4770   -10.7460 
  169.1250    47.1850    20.2100    17.8550    15.5130    20.8400     2.4780   -10.5770 
  169.2500    48.5790    19.4070    16.9680    14.0410    20.7230     2.4730   -10.4020 
  169.3750    48.6290    18.5980    15.9260    12.8790    20.6350     2.4700   -10.2130 
  169.5000    45.9020    17.9360    14.9660    12.8670    20.5350     2.4740   -10.0650 
  169.6250    44.2370    17.5540    14.3420    12.7470    20.3510     2.4880    -9.9450 
  169.7500    45.1030    17.4750    14.0600    12.5410    20.1510     2.5060    -9.8220 
  169.8750    45.5620    17.7050    14.0750    12.5050    20.0110     2.5210    -9.7810 
  170.0000    44.1920    18.2020    14.3230    12.4020    19.9920     2.5290    -9.8350 
  170.1250    41.9580    18.9040    14.7430    12.1190    20.0540     2.5380    -9.9230 
  170.2500    40.6880    19.6010    15.2300    12.2480    20.0150     2.5580   -10.0500 
  170.3750    40.2300    20.1080    15.6720    12.0990    19.8660     2.5840   -10.2370 
  170.5000    39.6190    20.2540    15.9620    11.3950    19.7650     2.5990   -10.4600 
  170.6250    39.4690    19.9330    15.9820    11.1390    19.7370     2.5850   -10.7050 
  170.7500    40.3570    19.3260    15.7950    11.5280    19.7880     2.5520   -10.9500 
  170.8750    41.6680    18.6070    15.4640    11.8670    19.9340     2.5110   -11.1720 
  171.0000    42.5060    18.0090    15.0920    12.6240    20.1950     2.4770   -11.3600 
  171.1250    43.7250    17.7510    14.8730    13.5790    20.5920     2.4610   -11.4890 
  171.2500    45.2150    17.8320    14.9010    15.0440    21.2470     2.4640   -11.5780 
  171.3750    45.1660    18.1980    15.1920    16.3920    22.0720     2.4790   -11.6170 
  171.5000    43.8980    18.7280    15.6490    17.4340    22.6540     2.5000   -11.5700 
  171.6250    43.2280    19.2780    16.0290    18.0730    22.7360     2.5170   -11.5040 
  171.7500    43.8850    19.7040    16.1910    18.2050    22.5030     2.5240   -11.4340 
  171.8750    45.1640    19.9800    16.1730    17.8350    22.0760     2.5220   -11.3000 
  172.0000    44.7040    20.1660    16.1670    16.8420    21.6270     2.5170   -11.1150 
  172.1250    42.7260    20.3410    16.3270    16.0250    21.3630     2.5160   -10.9520 
  172.2500    43.7370    20.5780    16.5950    15.7910    21.2790     2.5170   -10.8050 
  172.3750    48.0530    20.8570    16.8810    16.1080    21.3030     2.5180   -10.6210 
  172.5000    50.0650    21.1080    17.0640    17.1720    21.4380     2.5160   -10.4090 
  172.6250    45.1850    21.1950    17.0210    18.2770    21.7710     2.5180   -10.2090 
  172.7500    41.1800    21.0540    16.8080    18.0520    22.1680     2.5270   -10.0540 
  172.8750    42.0760    20.7130    16.4800    17.5630    22.4490     2.5400    -9.9630 
  173.0000    43.9670    20.2340    16.1250    17.0180    22.3970     2.5510    -9.9110 
  173.1250    44.1510    19.7370    15.8550    17.3820    22.1270     2.5500    -9.9050 
  173.2500    45.8790    19.3470    15.7480    17.6300    22.1230     2.5370    -9.9590 
  173.3750    49.5320    19.1060    15.7610    17.7040    22.4360     2.5210   -10.0950 
  173.5000    50.8580    19.0200    15.8090    18.9970    22.8000     2.5050   -10.2990 
  173.6250    48.4600    19.0020    15.8650    20.7290    23.0120     2.4880   -10.5130 
  173.7500    46.5360    18.9220    15.9340    21.2320    23.2060     2.4690   -10.7450 
  173.8750    45.0270    18.7250    16.0110    20.2030    23.3140     2.4510   -10.9960 
  174.0000    42.7620    18.4300    16.1150    19.1160    23.3570     2.4400   -11.2410 
  174.1250    41.7700    18.2080    16.2240    18.5590    23.3890     2.4410   -11.4950 
  174.2500    42.8240    18.1870    16.2930    18.5360    23.4120     2.4520   -11.7030 
  174.3750    42.9030    18.4260    16.3010    19.0530    23.4480     2.4670   -11.8470 
  174.5000    41.1950    18.9190    16.3280    20.2650    23.5070     2.4790   -11.9880 
  174.6250    41.9160    19.6000    16.5340    21.1390    23.5150     2.4850   -12.0970 
  174.7500    44.1420    20.3650    17.0090    21.7350    23.5070     2.4890   -12.0840 
  174.8750    44.8350    21.1350    17.7430    21.8910    23.5360     2.4930   -11.9840 
  175.0000    43.6680    21.8470    18.5740    22.9970    23.5620     2.4960   -11.8500 
  175.1250    43.8130    22.4280    19.2380    24.2480    23.5770     2.4950   -11.6690 
  175.2500    45.0120    22.8320    19.6680    25.2420    23.5790     2.4910   -11.4670 
  175.3750    45.8430    23.0510    19.8980    25.2460    23.5930     2.4860   -11.2600 
  175.5000    46.1990    23.0840    19.9660    23.9650    23.5730     2.4850   -11.0600 
  175.6250    46.0880    22.9790    19.9000    23.7330    23.5570     2.4880   -10.8860 
