~V
VERS. 2.00: Ver 2.00
~W
STRT.M 49.0000:
STOP.M 221.0000:
STEP.M 0.1250:
NULL. -999.2500:
UWI. F10615:
~C
DEPT.M :
DEN.GM/CC :
GR.API :
RML.OHMM :
RI. :
RXO.OHMM :
CALI.CM :
SP.MV :
~A
# ...
  195.2500     2.4650    29.4890     6.9790     5.3070    13.3900    23.9270   -20.4270 
  195.3750     2.4090    27.0500     7.0020     5.5160    13.4590    23.8410   -20.6480 
  195.5000     2.3480    28.3800     6.2900     5.1820     8.3950    23.4780   -20.8190 
  195.6250     2.3020    31.3330     5.3670     4.5870     5.0160    23.1080   -20.8920 
  195.7500     2.2770    34.1720     4.6340     4.0020     3.9020    22.9090   -20.8370 
  195.8750     2.2690    36.2870     4.2590     3.5950     3.7370    22.8940   -20.7340 
  196.0000     2.2720    36.2600     4.2430     3.4400     3.8200    22.9350   -20.5830 
  196.1250     2.2830    34.2540     4.3670     3.4360     4.0160    22.9140   -20.3610 
  196.2500     2.3010    32.2200     4.4880     3.4900     4.0410    22.8680   -20.1220 
  196.3750     2.3220    31.7880     4.5330     3.5330     3.7290    22.9040   -19.8910 
  196.5000     2.3390    32.3640     4.4830     3.5380     3.3980    22.9490   -19.6590 
  196.6250     2.3450    32.2200     4.4000     3.5290     3.3910    23.0660   -19.4700 
  196.7500     2.3430    31.6250     4.3400     3.5260     3.5470    23.1810   -19.3360 
  196.8750     2.3400    31.3900     4.3380     3.5370     3.7200    23.3080   -19.2380 
  197.0000     2.3400    32.1680     4.4020     3.5530     3.8470    23.4010   -19.2260 
  197.1250     2.3420    32.7770     4.4560     3.5590     3.9270    23.4720   -19.2660 
  197.2500     2.3450    31.8150     4.4430     3.5420     3.9220    23.5760   -19.3470 
  197.3750     2.3480    28.2480     4.3500     3.5050     3.9210    23.7780   -19.4760 
  197.5000     2.3560    25.4220     4.2180     3.4510     3.9180    23.9630   -19.6490 
  197.6250     2.3700    26.3700     4.1250     3.3920     3.8890    24.0600   -19.8460 
  197.7500     2.3860    29.3760     4.1020     3.3310     3.8500    24.0800   -20.0650 
  197.8750     2.3990    31.3580     4.1410     3.2720     3.8470    24.0680   -20.2640 
  198.0000     2.4030    31.0940     4.2080     3.2250     3.8460    24.0120   -20.4310 
  198.1250     2.3960    30.0930     4.2570     3.1930     3.8500    23.8870   -20.6390 
  198.2500     2.3770    29.5120     4.2660     3.1740     3.8860    23.6750   -20.8240 
  198.3750     2.3470    30.8890     4.2460     3.1700     4.0120    23.5090   -20.9530 
  198.5000     2.3160    35.1760     4.2970     3.2240     4.2450    23.6030   -21.1040 
  198.6250     2.3070    39.1550     4.5510     3.3940     4.6050    23.9300   -21.2370 
  198.7500     2.3420    40.9640     5.1100     3.7510     4.9300    24.2060   -21.3650 
  198.8750     2.4210    41.1040     6.0030     4.3370     5.3880    24.2770   -21.5450 
  199.0000     2.5050    40.1800     7.1010     5.1220     7.4910    24.1490   -21.7240 
  199.1250     2.5420    38.8030     7.9860     5.8600    11.3620    23.9630   -21.8780 
  199.2500     2.5210    37.0790     8.2490     6.2550    13.3350    23.8730   -22.0050 
  199.3750     2.4650    35.7560     7.7260     6.1180    10.2480    23.8450   -22.1070 
  199.5000     2.4010    35.7760     6.6700     5.4950     6.9860    23.8020   -22.1360 
  199.6250     2.3440    35.8380     5.6660     4.7730     5.5090    23.7440   -22.0890 
  199.7500     2.3040    34.9270     4.9710     4.1710     5.0780    23.6980   -22.0090 
  199.8750     2.2810    33.7050     4.6220     3.7770     5.0980    23.7190   -21.8510 
  200.0000     2.2730    32.8920     4.5360     3.5950     4.9450    23.6700   -21.6770 
  200.1250     2.2670    31.2070     4.5240     3.5140     4.6100    23.5010   -21.4970 
  200.2500     2.2560    28.8320     4.4980     3.4680     4.2830    23.1930   -21.3120 
  200.3750     2.2390    28.3740     4.4270     3.4270     4.0840    22.9320   -21.1670 
  200.5000     2.2270    29.4260     4.3490     3.3880     3.9050    22.8210   -21.0630 
  200.6250     2.2300    28.0770     4.3160     3.3640     3.7860    22.8020   -21.0240 
  200.7500     2.2470    25.2780     4.3400     3.3660     3.7740    22.8170   -21.0250 
  200.8750     2.2720    23.9770     4.3970     3.3960     3.8860    22.7950   -21.0330 
  201.0000     2.2930    26.4770     4.4370     3.4450     4.0630    22.8020   -21.0160 
  201.1250     2.3060    28.6570     4.4400     3.4870     4.1730    22.8890   -20.9900 
  201.2500     2.3170    28.9150     4.4050     3.5050     4.1900    22.9770   -20.9550 
  201.3750     2.3310    28.7980     4.3480     3.4920     4.1080    22.9950   -20.8980 
  201.5000     2.3490    29.3050     4.2850     3.4490     4.0090    22.9390   -20.7820 
  201.6250     2.3630    28.8860     4.2260     3.4020     4.0230    22.8570   -20.6540 
  201.7500     2.3710    26.8030     4.1730     3.3630     4.1200    22.8000   -20.4890 
  201.8750     2.3740    25.2530     4.1290     3.3360     4.1530    22.7430   -20.3310 
  202.0000     2.3750    26.6810     4.1000     3.3160     4.0050    22.6580   -20.1810 
  202.1250     2.3770    28.6510     4.0820     3.2980     3.8800    22.5790   -19.9860 
  202.2500     2.3780    29.9640     4.0720     3.2830     3.8590    22.5490   -19.8130 
  202.3750     2.3740    30.7830     4.0700     3.2740     3.9100    22.5660   -19.6410 
  202.5000     2.3640    30.6540     4.0750     3.2760     3.9570    22.6240   -19.5210 
  202.6250     2.3540    29.0980     4.0840     3.2910     4.0040    22.6830   -19.4340 
  202.7500     2.3490    27.2640     4.0950     3.3180     4.0220    22.6720   -19.3650 
  202.8750     2.3520    27.8850     4.1150     3.3550     4.0010    22.6040   -19.3300 
  203.0000     2.3650    30.9290     4.1550     3.4000     4.0210    22.5870   -19.3100 
  203.1250     2.3830    32.5690     4.2030     3.4420     4.1270    22.6010   -19.3540 
  203.2500     2.4000    30.8450     4.2340     3.4710     4.1960    22.6100   -19.4490 
  203.3750     2.4090    27.4720     4.2270     3.4820     4.1770    22.5950   -19.5860 
  203.5000     2.4080    25.8560     4.1810     3.4690     4.1210    22.5600   -19.7140 
  203.6250     2.3990    26.3190     4.1300     3.4390     4.0700    22.5270   -19.8000 
  203.7500     2.3860    27.0050     4.0990     3.3980     4.0400    22.4750   -19.8850 
  203.8750     2.3690    27.5120     4.1010     3.3590     4.0010    22.4220   -19.9770 
  204.0000     2.3490    29.1900     4.1240     3.3380     3.9210    22.4040   -20.0300 
  204.1250     2.3280    31.1490     4.1390     3.3400     3.8470    22.4130   -20.0380 
  204.2500     2.3090    31.6790     4.1400     3.3610     3.8380    22.4220   -20.0090 
  204.3750     2.3000    30.2500     4.1350     3.3880     3.8900    22.4220   -19.9650 
  204.5000     2.3070    28.1620     4.1340     3.4080     3.9010    22.4070   -19.9080 
  204.6250     2.3240    27.0760     4.1420     3.4150     3.8630    22.3910   -19.8390 
  204.7500     2.3430    27.6500     4.1550     3.4100     3.8540    22.4080   -19.7620 
  204.8750     2.3560    28.6420     4.1610     3.3900     3.8990    22.4630   -19.6650 
  205.0000     2.3530    27.6210     4.1460     3.3540     3.9120    22.5150   -19.5950 
  205.1250     2.3400    24.8850     4.1210     3.3150     3.8910    22.5120   -19.5590 
  205.2500     2.3260    22.7510     4.1170     3.2940     3.8660    22.4670   -19.5450 
  205.3750     2.3250    22.6190     4.1740     3.3170     3.8650    22.4790   -19.5430 
  205.5000     2.3420    25.6630     4.3380     3.4210     3.9850    22.7520   -19.5920 
  205.6250     2.3660    30.3670     4.5990     3.6090     4.4500    23.1550   -19.7570 
  205.7500     2.3860    34.6550     4.9280     3.8750     5.2780    23.5180   -20.0090 
  205.8750     2.3950    36.9930     5.2760     4.1890     6.1000    23.7970   -20.3190 
  206.0000     2.3940    37.7760     5.5960     4.5050     6.5280    23.9450   -20.7120 
  206.1250     2.3960    38.5870     5.8800     4.7900     6.8340    24.0320   -21.1390 
  206.2500     2.4070    39.6640     6.1550     5.0450     7.1460    24.1100   -21.5900 
  206.3750     2.4300    39.9580     6.4490     5.2940     7.1880    24.1730   -22.0460 
