~V
VERS. 2.00: Ver 2.00
~W
STRT.M 50.0000:
STOP.M 217.0000:
STEP.M 0.1250:
NULL. -999.2500:
UWI. F10606:
~C
DEPT.M :
DEN.GM/CC :
GR.API :
RML.OHMM :
RI. :
RXO.OHMM :
CALI.CM :
SP.MV :
~A
# ...
  151.2500     2.2950    69.1690    14.9980    13.1030    15.7340    23.0470   -15.5120 
  151.3750     2.3020    69.4910    16.0240    13.7950    15.4300    22.9860   -15.6650 
  151.5000     2.2860    68.0520    17.6730    14.9520    18.0960    22.9700   -15.7650 
  151.6250     2.2470    65.5940    19.8180    16.6180    21.6580    23.0110   -15.8190 
  151.7500     2.2080    63.4220    21.8800    18.4200    23.5750    23.0120   -15.8450 
  151.8750     2.1830    61.9290    23.2910    19.8920    24.0440    22.9670   -15.8800 
  152.0000     2.1740    63.1210    23.6050    20.5480    24.0700    22.9060   -15.8750 
  152.1250     2.1730    67.3640    22.6070    20.0000    23.3840    22.8790   -15.8490 
  152.2500     2.1770    69.5920    21.0300    18.7720    22.0760    22.8560   -15.8390 
  152.3750     2.1960    67.3620    19.5510    17.4450    21.1360    22.8000   -15.8000 
  152.5000     2.2400    63.3290    18.6750    16.4880    19.8950    22.7310   -15.7040 
  152.6250     2.3080    63.3220    18.7970    16.2750    18.4510    22.6730   -15.5970 
  152.7500     2.3690    64.5550    19.7610    16.7680    18.7630    22.5710   -15.5030 
  152.8750     2.3930    63.4270    21.3260    17.8670    23.1890    22.4190   -15.3440 
  153.0000     2.3740    60.1930    23.0870    19.3230    26.6090    22.2550   -15.1920 
  153.1250     2.3270    58.4430    24.5870    20.7750    24.0320    22.1150   -15.0540 
  153.2500     2.2830    60.1800    25.7730    22.0350    20.8930    21.9560   -14.8860 
  153.3750     2.2570    63.8630    26.8790    23.1800    19.9580    21.6980   -14.7550 
  153.5000     2.2480    64.6610    28.2420    24.4380    20.2960    21.3070   -14.7160 
  153.6250     2.2460    60.5530    30.1160    26.0790    20.5470    20.8510   -14.7310 
  153.7500     2.2410    57.9750    32.1730    27.9620    20.9180    20.4200   -14.7700 
  153.8750     2.2310    59.1110    33.8640    29.6660    21.1440    20.0370   -14.8970 
  154.0000     2.2210    61.2430    34.7190    30.7200    20.7710    19.6210   -15.0450 
  154.1250     2.2140    61.0120    34.5580    30.8250    19.3810    19.1590   -15.1790 
  154.2500     2.2100    61.4070    33.9270    30.3760    17.7810    18.7880   -15.3900 
  154.3750     2.2060    63.5450    33.2550    29.7480    16.2520    18.5630   -15.6420 
  154.5000     2.2020    64.9280    32.8400    29.2470    15.0890    18.4590   -15.8630 
  154.6250     2.2010    63.2920    32.7680    29.0440    14.9610    18.4630   -16.0840 
  154.7500     2.2040    59.5910    32.7170    28.9570    15.6170    18.5640   -16.3240 
  154.8750     2.2110    57.1540    32.3020    28.6880    16.5110    18.7780   -16.5130 
  155.0000     2.2200    56.2510    31.2430    27.9530    17.7520    19.1870   -16.7050 
  155.1250     2.2290    55.7290    29.5680    26.6760    18.4010    19.9350   -16.8900 
  155.2500     2.2360    56.9460    27.8800    25.3010    19.7630    20.8610   -17.0040 
  155.3750     2.2410    60.8430    26.6800    24.2350    19.9590    21.4320   -17.0960 
  155.5000     2.2460    64.4910    26.2630    23.7570    20.2520    21.6330   -17.1690 
  155.6250     2.2500    64.0590    26.7480    24.0520    22.6390    21.7560   -17.1580 
  155.7500     2.2540    61.5060    27.7040    24.8500    26.9750    22.0180   -17.1110 
  155.8750     2.2530    58.9130    28.7460    25.8690    30.7060    22.3610   -17.0680 
  156.0000     2.2440    57.8270    29.5550    26.8090    31.6850    22.5890   -16.9620 
  156.1250     2.2250    58.4360    29.9470    27.4180    30.4440    22.6640   -16.8040 
  156.2500     2.2020    59.7580    30.0940    27.7410    30.0080    22.7220   -16.6560 
  156.3750     2.1820    60.3440    30.1630    27.8850    31.7090    22.8490   -16.4900 
  156.5000     2.1710    59.1140    30.2620    27.9640    33.6720    22.9910   -16.3020 
  156.6250     2.1710    56.8510    30.4300    28.0600    33.8780    23.0340   -16.1120 
  156.7500     2.1820    54.8970    30.6930    28.2330    32.5000    23.0620   -15.9270 
  156.8750     2.1960    55.3860    31.1670    28.5800    31.1190    23.1450   -15.7840 
  157.0000     2.2080    58.2610    31.9970    29.2210    31.4100    23.2600   -15.7100 
  157.1250     2.2090    60.6310    33.2970    30.2890    34.9410    23.4010   -15.7010 
  157.2500     2.2010    61.8780    34.8340    31.6340    39.6630    23.5900   -15.7290 
  157.3750     2.1920    60.8190    36.3180    33.0360    42.7490    23.8020   -15.7840 
  157.5000     2.1870    57.3410    37.4520    34.2290    43.4340    24.0230   -15.8570 
  157.6250     2.1890    55.2300    37.9380    34.9150    43.6910    24.1870   -15.9930 
  157.7500     2.1920    55.9920    37.8530    35.0900    44.4610    24.2610   -16.1320 
  157.8750     2.1930    57.1230    37.2790    34.7960    44.7950    24.2730   -16.2200 
  158.0000     2.1910    55.6350    36.3140    34.1050    44.3510    24.2900   -16.2960 
  158.1250     2.1900    55.1930    35.0160    33.0570    43.5100    24.3080   -16.3270 
  158.2500     2.1940    57.4540    33.5850    31.8340    41.2840    24.2740   -16.3180 
  158.3750     2.2050    58.2900    32.2240    30.6180    38.3570    24.2620   -16.2860 
  158.5000     2.2230    57.4850    31.1630    29.6280    35.6330    24.2960   -16.2290 
  158.6250     2.2420    57.2630    30.6290    29.1000    33.1920    24.3580   -16.1390 
  158.7500     2.2530    56.5130    30.5040    28.9730    31.6170    24.3830   -16.0670 
  158.8750     2.2510    55.4200    30.6110    29.1200    31.4410    24.3650   -15.9910 
  159.0000     2.2370    54.7910    30.7410    29.3580    33.3150    24.3340   -15.8810 
  159.1250     2.2160    56.0940    30.7180    29.5010    34.5000    24.3540   -15.8250 
  159.2500     2.1980    57.9630    30.5520    29.4980    34.0210    24.3940   -15.7740 
  159.3750     2.1870    59.5700    30.3090    29.3690    33.4620    24.4030   -15.7010 
  159.5000     2.1820    59.3780    30.0390    29.1460    34.8130    24.3980   -15.6800 
  159.6250     2.1790    56.2000    29.7140    28.8140    37.0780    24.4080   -15.7390 
  159.7500     2.1750    54.3150    29.2490    28.3390    37.8300    24.4350   -15.7900 
  159.8750     2.1700    54.5570    28.5440    27.6460    36.3010    24.4310   -15.8770 
  160.0000     2.1680    55.4760    27.5570    26.6950    33.6900    24.3960   -16.0340 
  160.1250     2.1730    57.3410    26.4060    25.5670    32.4500    24.3900   -16.1880 
  160.2500     2.1820    59.3360    25.4210    24.5460    31.9210    24.3940   -16.3700 
  160.3750     2.1920    60.5750    24.9060    23.9020    30.3400    24.3730   -16.6020 
  160.5000     2.1960    61.6870    25.0970    23.8560    28.9500    24.3440   -16.8210 
  160.6250     2.1940    61.5000    26.2480    24.6800    29.9020    24.3530   -17.0120 
  160.7500     2.1900    58.5610    28.1520    26.2620    33.6700    24.3970   -17.1970 
  160.8750     2.1900    55.8440    30.5680    28.4630    38.4740    24.4140   -17.3630 
  161.0000     2.1930    55.6230    33.1050    30.9760    41.3690    24.3760   -17.4990 
  161.1250     2.1930    54.6180    35.1770    33.2590    42.7860    24.3440   -17.5860 
  161.2500     2.1900    51.8730    36.4820    34.8890    44.4200    24.3430   -17.6450 
  161.3750     2.1830    50.5450    36.9490    35.6950    45.8820    24.3740   -17.6770 
  161.5000     2.1780    51.8620    36.6660    35.6990    45.3490    24.4130   -17.6640 
  161.6250     2.1810    53.8090    35.6340    34.8710    43.1160    24.4550   -17.5520 
  161.7500     2.1920    55.7610    33.9980    33.3820    41.2860    24.4930   -17.4250 
  161.8750     2.2060    57.9470    31.8090    31.3030    39.5690    24.5200   -17.2670 
  162.0000     2.2200    58.6580    29.2120    28.7880    35.6510    24.4800   -17.0650 
  162.1250     2.2290    58.0650    26.5140    26.1340    31.0180    24.4220   -16.9160 
  162.2500     2.2330    58.2470    24.1360    23.7480    27.3270    24.3930   -16.7630 
  162.3750     2.2360    59.3720    22.3970    21.9290    25.0850    24.4010   -16.5880 
