~V
VERS. 2.00: Ver 2.00
~W
STRT.M 54.0000:
STOP.M 246.0000:
STEP.M 0.1250:
NULL. -999.2500:
UWI. F10643:
~C
DEPT.M :
SP.MV :
GR.API :
RML.OHMM :
RI. :
RXO.OHMM :
CALI.CM :
DEN.GM/CC :
~A
# ...
  166.5000   -15.1640    44.6150    10.2160     8.5940     6.0100    18.0980     2.4560 
  166.6250   -14.9740    43.3680     8.7260     7.5470     5.4540    16.9850     2.4280 
  166.7500   -14.8150    43.5190     7.5180     6.6070     5.0050    16.8020     2.4070 
  166.8750   -14.6360    43.5630     6.7100     5.8920     4.7350    17.2750     2.3970 
  167.0000   -14.5140    43.3870     6.3370     5.4830     4.4790    18.2830     2.3970 
  167.1250   -14.4110    43.9320     6.2210     5.3010     4.4370    19.6050     2.3950 
  167.2500   -14.3760    45.8500     6.2530     5.2800     4.5000    20.9210     2.3860 
  167.3750   -14.3930    49.1350     6.3450     5.3520     4.6260    21.9730     2.3730 
  167.5000   -14.4670    53.4240     6.4540     5.4620     4.7700    22.2550     2.3700 
  167.6250   -14.6050    57.9550     6.5600     5.5700     4.8780    22.3410     2.3870 
  167.7500   -14.7660    61.0910     6.6490     5.6600     5.0240    22.4250     2.4220 
  167.8750   -14.9750    61.4860     6.6990     5.7210     5.2430    22.6280     2.4600 
  168.0000   -15.2380    60.3690     6.6790     5.7280     5.3550    22.8060     2.4760 
  168.1250   -15.5320    61.3060     6.6030     5.6820     5.4440    22.9330     2.4630 
  168.2500   -15.8660    63.6940     6.4950     5.5900     5.4370    23.0170     2.4300 
  168.3750   -16.2470    64.8860     6.3970     5.4810     5.3950    23.1130     2.3910 
  168.5000   -16.6700    64.9840     6.3590     5.3980     5.4530    23.1810     2.3620 
  168.6250   -17.1110    64.0740     6.3900     5.3640     5.4760    23.2620     2.3540 
  168.7500   -17.5570    62.6280     6.4870     5.3840     5.6050    23.2890     2.3700 
  168.8750   -18.0250    62.6560     6.6570     5.4630     6.1170    23.2770     2.3980 
  169.0000   -18.4550    64.9650     6.9890     5.6550     6.7590    23.2890     2.4160 
  169.1250   -18.8740    67.2790     7.5930     6.0310     7.3030    23.2750     2.4160 
  169.2500   -19.2420    67.9680     8.6070     6.6930     7.4870    23.2360     2.4100 
  169.3750   -19.5460    65.5890    10.1340     7.7330     8.4770    23.1640     2.4200 
  169.5000   -19.8090    58.7270    12.2650     9.2740    11.0510    23.0300     2.4550 
  169.6250   -19.9840    52.1040    14.7420    11.1830    14.8050    22.9260     2.4830 
  169.7500   -20.1310    50.4560    17.2600    13.2590    18.0220    22.8510     2.4710 
  169.8750   -20.1890    51.7110    19.4960    15.2110    19.0610    22.8610     2.4140 
  170.0000   -20.1770    52.6780    21.2510    16.7670    18.8070    22.9640     2.3340 
  170.1250   -20.1230    54.6710    22.8180    18.0640    19.6710    23.1450     2.2640 
  170.2500   -20.0140    56.7140    24.5530    19.3700    21.5290    23.2870     2.2240 
  170.3750   -19.8860    57.4100    26.7120    20.9380    24.2810    23.3980     2.2180 
  170.5000   -19.6940    57.0730    29.3510    22.8920    27.2190    23.5170     2.2350 
  170.6250   -19.4570    56.2640    32.1200    25.0110    28.4850    23.6440     2.2530 
  170.7500   -19.1780    53.1060    34.7560    27.0920    29.5840    23.6990     2.2600 
  170.8750   -18.8990    49.1570    37.1700    29.0410    30.4440    23.7240     2.2520 
  171.0000   -18.6650    48.8580    39.4380    30.9010    30.7920    23.7480     2.2320 
  171.1250   -18.4510    50.6010    41.6260    32.7340    31.4330    23.7880     2.2120 
  171.2500   -18.2790    51.3280    43.4570    34.3860    33.6990    23.8640     2.1980 
  171.3750   -18.1380    50.8940    44.2550    35.4060    38.0120    23.9340     2.1910 
  171.5000   -18.0290    50.7450    42.8000    34.8600    38.6490    23.8810     2.1920 
  171.6250   -17.9860    51.7170    39.2370    32.6370    35.1970    23.7400     2.1970 
  171.7500   -17.9620    54.0300    34.3870    29.1520    30.2240    23.6000     2.2040 
  171.8750   -17.9750    57.4190    29.4370    25.2580    24.9770    23.4920     2.2150 
  172.0000   -17.9590    59.1250    25.5100    21.8970    19.1160    23.3690     2.2370 
  172.1250   -17.9240    59.2220    22.7910    19.4100    16.4020    23.2290     2.2660 
  172.2500   -17.8760    59.7150    21.1920    17.8180    15.5250    23.0720     2.2920 
  172.3750   -17.7760    59.5490    20.5180    17.0060    15.7040    22.9860     2.3040 
  172.5000   -17.7090    58.0120    20.6890    16.9410    15.5760    22.9870     2.2960 
  172.6250   -17.6120    56.6610    21.4450    17.4100    15.7760    22.9970     2.2810 
  172.7500   -17.5190    56.9910    22.6630    18.3160    16.7850    22.9590     2.2660 
  172.8750   -17.4170    57.4230    24.1850    19.5370    18.6600    22.9490     2.2540 
  173.0000   -17.2940    55.1250    25.8240    20.9280    21.5520    23.0550     2.2390 
  173.1250   -17.1960    53.1200    27.3830    22.2900    24.0810    23.2720     2.2150 
  173.2500   -17.0830    53.0200    28.7450    23.4910    25.5600    23.4240     2.1920 
  173.3750   -16.9860    53.9880    29.7820    24.4150    25.5890    23.4380     2.1830 
  173.5000   -16.8930    54.0180    30.1490    24.8140    25.2300    23.4030     2.2070 
  173.6250   -16.8100    53.0600    29.6300    24.5520    26.8840    23.3950     2.2560 
  173.7500   -16.7490    52.8340    28.1100    23.5330    28.3540    23.3980     2.3040 
  173.8750   -16.6950    53.2990    25.8160    21.8850    27.6370    23.4150     2.3250 
  174.0000   -16.6590    53.7530    23.3080    19.9600    22.3160    23.4720     2.3050 
  174.1250   -16.6350    54.5420    21.1420    18.1940    17.6160    23.5810     2.2720 
  174.2500   -16.6160    55.7550    19.5250    16.7840    15.3410    23.7050     2.2500 
  174.3750   -16.6180    57.7510    18.4330    15.7700    15.2220    23.7360     2.2510 
  174.5000   -16.6320    58.4720    17.6560    15.0720    15.7030    23.5870     2.2720 
  174.6250   -16.6520    58.0520    16.7650    14.3800    15.0820    23.3540     2.2920 
  174.7500   -16.6630    57.4510    15.4770    13.4450    13.1950    23.2860     2.3050 
  174.8750   -16.6680    57.4430    13.7550    12.1660    11.6190    23.3760     2.3140 
  175.0000   -16.6870    57.7080    11.8480    10.6580    10.2860    23.5690     2.3260 
  175.1250   -16.6660    59.3370    10.1570     9.2330     8.3270    23.7540     2.3410 
  175.2500   -16.6640    63.3680     8.8920     8.0910     6.6910    23.8520     2.3520 
  175.3750   -16.6280    67.0740     8.1000     7.3160     5.9910    23.8650     2.3540 
  175.5000   -16.5880    67.4920     7.7680     6.9360     5.9950    23.8170     2.3460 
  175.6250   -16.5610    66.1960     7.6920     6.8000     6.1210    23.7950     2.3400 
  175.7500   -16.5070    64.9210     7.7380     6.7990     6.2560    23.7890     2.3410 
  175.8750   -16.4770    64.7910     7.7790     6.8170     6.4080    23.7790     2.3480 
  176.0000   -16.4240    65.9310     7.7090     6.7470     6.3950    23.7460     2.3610 
  176.1250   -16.3860    67.1250     7.5760     6.6020     6.0980    23.6810     2.3790 
  176.2500   -16.3620    67.1540     7.4970     6.4630     5.9290    23.5810     2.4010 
  176.3750   -16.3440    67.5270     7.6080     6.4350     5.8840    23.4740     2.4200 
  176.5000   -16.3370    68.1460     8.0650     6.6450     6.1090    23.3840     2.4230 
  176.6250   -16.3480    65.2680     8.8300     7.0970     7.0930    23.2620     2.4090 
  176.7500   -16.3960    59.7380     9.8260     7.7680     8.9590    23.1280     2.3840 
  176.8750   -16.4620    57.1600    10.9380     8.5910    10.4470    23.1380     2.3640 
  177.0000   -16.5420    58.7570    12.1200     9.5250    11.2270    23.3090     2.3550 
  177.1250   -16.6400    58.6960    13.5150    10.6090    11.9010    23.4150     2.3480 
  177.2500   -16.7340    57.4550    15.4620    12.0420    12.8460    23.5030     2.3400 
  177.3750   -16.8490    56.8270    18.3930    14.1380    15.3270    23.6410     2.3310 
  177.5000   -16.9360    54.7350    22.9560    17.4740    22.4480    23.6960     2.3330 
  177.6250   -16.9870    51.1780    28.8620    22.0010    34.2680    23.7130     2.3510 
