~V
VERS. 2.00: Ver 2.00
~W
STRT.M 58.0000:
STOP.M 221.0000:
STEP.M 0.1250:
NULL. -999.2500:
UWI. F10613:
~C
DEPT.M :
SP.MV :
GR.API :
RML.OHMM :
RI. :
RXO.OHMM :
CALI.CM :
DEN.GM/CC :
~A
# ...
  170.5000   -10.3270    64.2790    24.3200    20.7360    20.0230    22.8230     2.2360 
  170.6250   -10.3180    65.3150    24.5250    20.6040    18.6650    22.6890     2.2260 
  170.7500   -10.3230    64.7050    25.3720    20.9540    18.0420    22.6730     2.2220 
  170.8750   -10.3760    64.5780    26.8700    21.8300    18.6010    22.6520     2.2200 
  171.0000   -10.4220    62.7520    28.9340    23.2310    21.1430    22.5870     2.2200 
  171.1250   -10.4860    58.7590    31.1370    24.8670    25.6600    22.6020     2.2210 
  171.2500   -10.6050    56.4740    33.1390    26.4820    29.7800    22.7990     2.2210 
  171.3750   -10.7540    57.0150    34.7920    27.8900    31.0030    23.1560     2.2220 
  171.5000   -10.8960    57.9680    36.2730    29.0970    30.4840    23.4300     2.2270 
  171.6250   -11.0810    58.0030    37.9700    30.3410    31.1070    23.5290     2.2420 
  171.7500   -11.2930    58.5410    40.0360    31.7750    33.6550    23.5250     2.2660 
  171.8750   -11.4560    58.7160    42.3040    33.3640    36.6800    23.5150     2.2910 
  172.0000   -11.6350    56.3750    44.1630    34.7630    38.1620    23.5610     2.3070 
  172.1250   -11.8560    54.7150    45.0740    35.5580    41.7690    23.6720     2.3060 
  172.2500   -12.0540    55.4050    44.8660    35.5330    43.6330    23.8010     2.2860 
  172.3750   -12.2440    57.1740    43.9230    34.8480    40.1350    23.9120     2.2590 
  172.5000   -12.5010    58.2660    43.3180    34.1500    38.0000    23.9990     2.2460 
  172.6250   -12.7780    58.8870    44.2280    34.3130    37.7880    24.1200     2.2640 
  172.7500   -13.0580    59.1250    47.5040    36.0240    38.9980    24.2130     2.3220 
  172.8750   -13.3970    57.4500    53.4750    39.7040    42.4410    24.1990     2.4240 
  173.0000   -13.7450    53.7310    61.4850    45.3280    53.8650    24.0780     2.5350 
  173.1250   -14.0410    49.4870    68.2370    50.8780    80.0320    23.9380     2.5940 
  173.2500   -14.3280    46.7370    69.6670    53.4890   104.5140    23.8790     2.5820 
  173.3750   -14.5810    47.7670    63.3130    50.7730    87.8030    23.9560     2.5250 
  173.5000   -14.6880    52.1240    51.2820    43.1180    55.6650    24.0940     2.4770 
  173.6250   -14.6670    57.1250    40.0290    35.0630    37.4880    24.1980     2.4760 
  173.7500   -14.5450    60.4540    32.4230    29.0930    31.2130    24.2540     2.5230 
  173.8750   -14.3130    61.0860    28.8140    25.9280    28.2610    24.2680     2.5870 
  174.0000   -13.9140    61.2380    28.3090    25.3390    27.7860    24.2110     2.6150 
  174.1250   -13.4400    62.3630    28.3080    25.4850    35.8630    24.0850     2.6030 
  174.2500   -12.9240    64.4200    26.7400    24.5540    41.2690    23.9200     2.5660 
  174.3750   -12.3290    66.8580    22.5810    21.3520    34.1770    23.6040     2.5190 
  174.5000   -11.7450    69.1790    16.8930    16.5300    21.1580    23.4110     2.4710 
  174.6250   -11.2700    68.7310    12.0410    12.1590    11.2530    23.3660     2.4300 
  174.7500   -10.8690    62.7360     8.8040     9.0000     7.0000    23.4550     2.4040 
  174.8750   -10.5100    53.3870     6.9800     7.0180     5.5080    23.5230     2.3910 
  175.0000   -10.3100    47.1600     6.1580     5.9990     5.2410    23.5560     2.3870 
  175.1250   -10.2020    45.3370     5.7740     5.4930     5.2930    23.6130     2.3820 
  175.2500   -10.1300    45.9500     5.6320     5.3140     5.2490    23.6890     2.3780 
  175.3750   -10.1620    46.7330     5.6550     5.3520     5.1110    23.7300     2.3720 
  175.5000   -10.2660    47.2040     5.8690     5.5940     5.0990    23.7570     2.3650 
  175.6250   -10.3550    49.1120     6.2790     6.0250     5.7000    23.7540     2.3570 
  175.7500   -10.4710    54.6910     6.8800     6.6490     6.4810    23.7120     2.3510 
  175.8750   -10.6450    65.1780     7.6110     7.4230     7.3480    23.7490     2.3530 
  176.0000   -10.7740    76.5790     8.3350     8.2170     8.4360    23.9600     2.3700 
  176.1250   -10.8890    83.4930     8.8890     8.8380     9.4380    24.1690     2.3970 
  176.2500   -11.0310    85.2910     9.1870     9.1450     9.7760    24.2710     2.4240 
  176.3750   -11.1450    84.5950     9.2300     9.1060     9.5520    24.3060     2.4400 
  176.5000   -11.2490    86.3200     9.0900     8.7780     9.2480    24.3130     2.4370 
  176.6250   -11.3830    90.8710     8.9590     8.3890     9.0930    24.3180     2.4200 
  176.7500   -11.5360    97.0020     9.0380     8.1380     9.0180    24.3210     2.4040 
  176.8750   -11.6700   100.6770     9.5690     8.2310     9.0330    24.3170     2.4070 
  177.0000   -11.8450    98.8110    11.0020     8.9820     9.7120    24.2950     2.4360 
  177.1250   -12.1060    92.8470    13.5450    10.5250    11.9500    24.2550     2.4670 
  177.2500   -12.4180    85.2550    17.4130    13.0630    16.9200    24.1910     2.4730 
  177.3750   -12.7500    77.8980    22.5150    16.6870    25.1020    24.1070     2.4430 
  177.5000   -13.1450    72.2810    28.8950    21.1400    36.4100    24.0410     2.3920 
  177.6250   -13.5470    67.1410    36.0630    25.3060    39.1730    24.0570     2.3500 
  177.7500   -13.8980    62.3270    39.2250    28.2630    36.8160    24.0760     2.3300 
  177.8750   -14.2580    59.7150    40.5060    29.7570    34.9860    24.0060     2.3220 
  178.0000   -14.6000    61.7630    40.9030    30.2410    33.8600    23.9370     2.3140 
  178.1250   -14.8500    64.4190    41.6640    30.6660    32.6210    23.8600     2.2980 
  178.2500   -15.0590    63.2250    43.2410    31.4720    33.9890    23.7460     2.2820 
  178.3750   -15.2530    59.3970    45.6430    32.8090    38.4840    23.6140     2.2720 
  178.5000   -15.3660    58.3290    48.7410    34.7280    41.3730    23.5040     2.2740 
  178.6250   -15.4540    60.1850    52.1760    37.0500    39.7120    23.4260     2.2800 
  178.7500   -15.5750    61.1260    55.7330    39.6510    41.0190    23.3810     2.2830 
  178.8750   -15.6620    58.5960    59.1840    42.3560    46.2610    23.3240     2.2820 
  179.0000   -15.7130    55.5420    62.2330    44.9440    49.8040    23.3850     2.2790 
  179.1250   -15.7930    56.2050    64.6910    47.2440    51.2210    23.5160     2.2780 
  179.2500   -15.8580    59.0380    66.2000    48.9960    53.4770    23.6090     2.2790 
  179.3750   -15.8810    61.3740    66.3670    49.8390    55.5940    23.6290     2.2800 
  179.5000   -15.9230    62.1100    64.9890    49.4500    55.9620    23.6920     2.2770 
  179.6250   -16.0190    62.2510    62.9010    48.3580    56.0160    23.7560     2.2680 
  179.7500   -16.1330    62.8840    60.7420    47.0300    53.2150    23.7940     2.2540 
  179.8750   -16.2540    64.8800    58.9860    45.8300    46.0130    23.7940     2.2420 
  180.0000   -16.4320    66.7930    58.1240    45.1250    43.1960    23.7310     2.2380 
  180.1250   -16.6600    65.0740    58.2040    45.0280    51.8540    23.6170     2.2430 
  180.2500   -16.9100    60.4570    59.3130    45.6540    60.1680    23.4510     2.2500 
  180.3750   -17.2360    57.8940    61.6380    47.1970    47.9940    23.1970     2.2530 
  180.5000   -17.6470    58.9360    65.6210    50.0720    42.3760    22.9970     2.2430 
  180.6250   -18.0270    60.7700    70.9270    54.0590    48.7240    23.0440     2.2280 
  180.7500   -18.3650    62.2590    77.1880    58.8980    61.5860    23.3420     2.2150 
  180.8750   -18.7500    61.9700    83.8090    64.1880    85.3060    23.6980     2.2080 
  181.0000   -19.1180    57.6770    89.7800    69.2290    86.6880    23.9250     2.2080 
  181.1250   -19.4340    52.7540    94.6440    73.5130    77.9360    24.1000     2.2060 
  181.2500   -19.7630    52.4920    98.9720    77.2890    77.4920    24.1780     2.2000 
  181.3750   -20.0560    56.3400   104.1110    81.4790    92.9450    24.2100     2.1960 
  181.5000   -20.2680    58.3010   111.8930    87.4550   101.2840    24.2370     2.2090 
  181.6250   -20.4990    57.0600   122.7960    95.7050    99.0280    24.2440     2.2400 
