~V
VERS. 2.00: Ver 2.00
~W
STRT.M 49.0000:
STOP.M 254.0000:
STEP.M 0.1250:
NULL. -999.2500:
UWI. F10669:
~C
DEPT.M :
DEN.GM/CC :
GR.API :
RML.OHMM :
RI. :
RXO.OHMM :
CALI.CM :
SP.MV :
~A
# ...
   60.2500     2.3010    81.6360     4.3810     4.7080     6.0250    23.7520    -9.8270 
   60.3750     2.3060    78.5530     4.5820     4.9220     6.4210    23.7120   -10.2860 
   60.5000     2.3030    75.0700     4.7820     5.1200     6.4800    23.6770   -10.7640 
   60.6250     2.2860    72.9670     5.0610     5.3670     6.0810    23.6330   -11.2910 
   60.7500     2.2640    73.3580     5.4810     5.7240     5.9960    23.3890   -11.8710 
   60.8750     2.2640    72.7790     6.0370     6.1930     6.4430    22.7730   -12.4650 
   61.0000     2.2980    69.1430     6.5530     6.6370     7.8170    22.1460   -13.0490 
   61.1250     2.3520    67.2280     6.7960     6.8710     9.8410    21.7230   -13.6290 
   61.2500     2.3990    72.5830     6.5890     6.7310    11.9370    21.4420   -14.2030 
   61.3750     2.4070    82.6890     5.9640     6.1730     8.9630    21.4450   -14.7600 
   61.5000     2.3910    86.5570     5.3090     5.5000     6.6210    21.8520   -15.3260 
   61.6250     2.3750    84.6140     4.8970     4.9680     5.6220    22.2850   -15.9330 
   61.7500     2.3740    82.0620     4.8860     4.7460     5.5140    22.5230   -16.6140 
   61.8750     2.3860    79.8470     5.4050     4.9830     5.6650    22.6510   -17.4090 
   62.0000     2.3930    75.4020     6.3140     5.5900     6.9090    22.7950   -18.2920 
   62.1250     2.3840    69.1760     7.4270     6.4430    11.4670    22.9830   -19.2210 
   62.2500     2.3560    64.2230     8.4160     7.3100    18.5160    23.2040   -20.1720 
   62.3750     2.3150    62.1740     8.8570     7.8420    16.9690    23.3770   -21.1390 
   62.5000     2.2740    60.0470     8.7820     7.9440    10.9210    23.3360   -22.0760 
   62.6250     2.2400    57.2970     8.4090     7.7120     8.4950    23.2110   -22.9030 
   62.7500     2.2130    55.0220     7.9860     7.3450     8.1240    23.1470   -23.5720 
   62.8750     2.1930    55.9140     7.6960     7.0360     8.2430    23.3460   -24.0540 
   63.0000     2.1790    57.3020     7.5460     6.8470     8.1990    23.6600   -24.3770 
   63.1250     2.1690    57.9720     7.4940     6.7590     8.0440    23.8740   -24.5960 
   63.2500     2.1650    58.8380     7.4960     6.7340     7.8770    23.9130   -24.7190 
   63.3750     2.1700    59.9780     7.5400     6.7570     7.8190    23.8720   -24.7410 
   63.5000     2.1820    59.8960     7.6160     6.8100     7.8210    23.8810   -24.7160 
   63.6250     2.1970    58.8300     7.7150     6.8820     7.9590    23.9680   -24.6780 
   63.7500     2.2050    59.0240     7.8270     6.9580     8.2500    24.1260   -24.6400 
   63.8750     2.1980    61.0270     7.9450     7.0120     8.4380    24.3440   -24.6060 
   64.0000     2.1820    61.5830     8.0590     7.0280     8.4470    24.5140   -24.6000 
   64.1250     2.1680    61.0710     8.1590     6.9940     8.3650    24.5220   -24.6170 
   64.2500     2.1650    60.9260     8.2190     6.9040     8.3150    24.3460   -24.6520 
   64.3750     2.1780    61.4110     8.1690     6.7400     8.2780    24.1550   -24.6960 
   64.5000     2.1930    61.9110     7.9500     6.4910     8.3060    24.0820   -24.7280 
   64.6250     2.1930    62.0040     7.5430     6.1530     8.3290    24.0800   -24.7420 
   64.7500     2.1670    61.9970     7.0380     5.7750     8.1370    24.0870   -24.7440 
   64.8750     2.1210    61.2230     6.7210     5.5220     8.0650    24.1510   -24.7210 
   65.0000     2.0870    59.8870     6.9080     5.5900     8.1170    24.2350   -24.6430 
   65.1250     2.0950    57.1810     7.9180     6.2130     8.6310    24.2490   -24.4920 
   65.2500     2.1730    53.8270    10.0680     7.6830    10.7630    24.1240   -24.2980 
   65.3750     2.3390    53.1810    13.8950    10.5620    19.2410    23.8300   -24.1410 
   65.5000     2.5310    53.7600    18.9670    14.7020    38.9120    23.6890   -24.0080 
   65.6250     2.6740    53.0960    23.7400    19.1190    64.8170    23.6920   -23.9350 
   65.7500     2.7120    52.3410    25.2100    21.4810    72.7980    23.7230   -23.9320 
   65.8750     2.6330    54.2830    21.3980    19.4680    55.9220    23.7080   -24.0280 
   66.0000     2.5040    58.4210    16.0590    15.3990    35.3470    23.6850   -24.2130 
   66.1250     2.3690    60.7430    11.6590    11.4610    20.5180    23.6510   -24.5020 
   66.2500     2.2600    59.2190     8.8380     8.5830    11.4740    23.6720   -24.8470 
   66.3750     2.1980    56.7300     7.5240     6.9490     8.9210    23.7060   -25.1780 
   66.5000     2.1730    57.1380     7.0740     6.1130     8.1090    23.7210   -25.4850 
   66.6250     2.1700    59.6050     7.1640     5.8420     8.0570    23.7360   -25.7550 
   66.7500     2.1730    61.0670     7.5110     5.9290     8.0880    23.7500   -26.0010 
   66.8750     2.1740    60.7740     7.8740     6.1930     8.0840    23.7440   -26.1960 
   67.0000     2.1740    58.9770     8.1210     6.4630     8.0280    23.7180   -26.3730 
   67.1250     2.1740    56.0630     8.2420     6.6740     8.0480    23.6790   -26.5320 
   67.2500     2.1750    54.7140     8.2720     6.8070     8.2640    23.6570   -26.7090 
   67.3750     2.1740    56.1280     8.2360     6.8620     8.6040    23.6870   -26.8810 
   67.5000     2.1680    56.5010     8.1700     6.8640     8.6800    23.7280   -27.0720 
   67.6250     2.1560    54.2810     8.0980     6.8290     8.3960    23.7550   -27.2490 
   67.7500     2.1440    52.1690     8.0410     6.7730     8.1620    23.7680   -27.3800 
   67.8750     2.1410    52.3590     8.0200     6.7110     8.1500    23.7770   -27.4570 
   68.0000     2.1530    54.1720     8.0210     6.6550     8.1460    23.7680   -27.4810 
   68.1250     2.1760    57.1520     8.0230     6.6090     8.1300    23.7270   -27.4500 
   68.2500     2.1940    59.5350     8.0160     6.5730     8.1360    23.6270   -27.3440 
   68.3750     2.1760    58.9490     8.0520     6.5770     8.2430    23.4710   -27.1640 
   68.5000     2.1260    57.6140     8.2270     6.6750     8.4020    23.4290   -26.9260 
   68.6250     2.0730    57.8730     8.6400     6.9360     8.6140    23.3230   -26.6740 
   68.7500     2.0610    59.4430     9.3470     7.4110     8.9270    23.1700   -26.4280 
   68.8750     2.1540    59.8330    10.3360     8.1300     9.1890    23.2730   -26.2080 
   69.0000     2.3270    59.7480    11.3520     8.9420     9.2910    23.5840   -26.0380 
   69.1250     2.4820    60.6030    12.0890     9.6350     9.1660    23.8130   -25.8990 
   69.2500     2.5230    61.3500    12.2650     9.9660     8.9430    23.8320   -25.8120 
   69.3750     2.4450    60.3550    11.7220     9.7300     8.6780    23.7680   -25.7570 
   69.5000     2.3420    58.4810    10.8200     9.1310     8.6870    23.6880   -25.7230 
   69.6250     2.2550    57.6730     9.8730     8.3990     8.6420    23.5560   -25.6900 
   69.7500     2.1970    58.8960     9.1020     7.7330     8.4530    23.4000   -25.6590 
   69.8750     2.1690    60.7170     8.6450     7.2740     8.2750    23.2560   -25.6420 
   70.0000     2.1570    60.1790     8.4290     7.0040     8.2670    23.1860   -25.6040 
   70.1250     2.1550    57.5710     8.3720     6.8760     8.3070    23.2870   -25.5480 
   70.2500     2.1560    54.8270     8.3660     6.8220     8.2950    23.5090   -25.4640 
   70.3750     2.1640    53.9480     8.2980     6.7590     8.3230    23.6410   -25.3880 
   70.5000     2.1760    54.7560     8.1270     6.6380     8.2900    23.6440   -25.3140 
   70.6250     2.1880    57.9560     7.8770     6.4550     8.0720    23.5570   -25.2780 
   70.7500     2.1940    63.2520     7.6120     6.2430     7.8650    23.3820   -25.2990 
   70.8750     2.1860    66.1200     7.4310     6.0660     7.6870    23.1860   -25.3630 
   71.0000     2.1700    64.2960     7.3670     5.9600     8.0250    23.0330   -25.4700 
   71.1250     2.1520    59.9640     7.4160     5.9370     8.0690    23.0000   -25.6450 
   71.2500     2.1400    56.6330     7.5420     5.9830     7.9270    22.9350   -25.8730 
   71.3750     2.1350    57.0630     7.6970     6.0710     8.1270    23.0220   -26.1080 
