~V
VERS. 2.00: Ver 2.00
~W
STRT.M 55.0000:
STOP.M 226.0000:
STEP.M 0.1250:
NULL. -999.2500:
UWI. F10689:
~C
DEPT.M :
DEN.GM/CC :
GR.API :
RML.OHMM :
RI. :
RXO.OHMM :
CALI.CM :
SP.MV :
~A
# ...
  111.2500     2.1610    72.3750    10.9750     8.9280     7.3100    22.5480   -14.2720 
  111.3750     2.1660    66.1320    12.9900    10.4080     9.1240    22.5490   -14.4770 
  111.5000     2.1850    58.4500    15.2020    12.2310    11.5460    22.5580   -14.6810 
  111.6250     2.2060    52.2630    16.9640    13.9240    13.3690    22.5550   -14.8810 
  111.7500     2.2160    50.3130    18.0530    15.0840    12.8120    22.5610   -15.0930 
  111.8750     2.2090    52.8430    18.7780    15.7720    10.7320    22.5670   -15.3190 
  112.0000     2.1900    58.1800    19.6570    16.3690     9.6780    22.5940   -15.5180 
  112.1250     2.1660    61.5560    20.9270    17.2140    10.8350    22.7040   -15.6500 
  112.2500     2.1440    62.3660    22.0630    18.1060    13.9590    22.7800   -15.7560 
  112.3750     2.1210    61.7320    22.3640    18.5400    17.1690    22.8080   -15.8290 
  112.5000     2.0950    61.1770    21.4680    18.0970    16.6770    22.8680   -15.8900 
  112.6250     2.0640    60.6920    19.9280    16.9440    12.7470    22.9290   -15.9300 
  112.7500     2.0330    59.7250    19.1720    16.0670    10.0760    22.9850   -15.9750 
  112.8750     2.0140    58.4330    20.2160    16.2400     9.7210    23.0290   -15.9940 
  113.0000     2.0160    56.4790    23.6930    18.0990    11.9580    23.0720   -15.9750 
  113.1250     2.0440    54.0580    30.3920    22.6610    20.5350    23.3030   -15.9460 
  113.2500     2.0850    52.1300    39.5770    29.7980    34.7320    23.6930   -15.9230 
  113.3750     2.1250    50.7590    49.8930    38.7210    43.7130    24.1820   -15.9190 
  113.5000     2.1540    49.4090    58.8250    47.3190    43.1210    24.4480   -15.9200 
  113.6250     2.1670    47.9880    63.3360    52.5620    42.9100    24.5120   -15.9340 
  113.7500     2.1660    47.6230    64.4290    54.5870    44.6140    24.5200   -15.9390 
  113.8750     2.1570    48.6660    64.1340    54.8850    46.0770    24.5210   -15.9480 
  114.0000     2.1420    48.8750    63.9690    54.8730    47.1460    24.5210   -15.9630 
  114.1250     2.1250    46.9090    64.0780    54.9230    47.1460    24.5210   -15.9800 
  114.2500     2.1110    46.6780    63.7190    54.5830    46.0710    24.5210   -15.9630 
  114.3750     2.1040    49.4510    62.5140    53.5470    44.1350    24.5210   -15.9230 
  114.5000     2.1040    52.7210    60.5780    51.8840    42.1450    24.5210   -15.8840 
  114.6250     2.1120    53.1490    58.3420    49.9340    38.4820    24.5210   -15.8240 
  114.7500     2.1230    51.6610    56.3360    48.1510    34.0760    24.5250   -15.7770 
  114.8750     2.1340    48.8630    54.8500    46.8150    32.4130    24.5470   -15.7480 
  115.0000     2.1430    47.1730    53.9930    46.0690    34.9920    24.6510   -15.7250 
  115.1250     2.1500    50.4280    53.7560    45.9590    38.1730    24.6670   -15.7140 
  115.2500     2.1570    54.1540    53.8280    46.2020    37.2150    24.6610   -15.7280 
  115.3750     2.1620    53.3090    53.9450    46.5510    36.3670    24.6100   -15.7560 
  115.5000     2.1640    48.3990    53.8400    46.7450    38.9210    24.5800   -15.7680 
  115.6250     2.1600    46.4540    53.3620    46.5840    40.6910    24.5290   -15.7890 
  115.7500     2.1490    47.8440    52.7910    46.2500    38.8530    24.5220   -15.8010 
  115.8750     2.1330    49.0660    52.4790    46.0310    36.5990    24.5210   -15.8000 
  116.0000     2.1130    48.0360    52.7840    46.2410    35.5270    24.5210   -15.8110 
  116.1250     2.0940    47.1110    54.1400    47.2990    36.6140    24.5200   -15.8380 
  116.2500     2.0790    48.2580    56.3800    49.1790    39.1560    24.5140   -15.8590 
  116.3750     2.0710    49.6640    59.0720    51.6180    42.4170    24.5030   -15.8940 
  116.5000     2.0700    49.6780    61.4300    53.9970    45.1750    24.4940   -15.9450 
  116.6250     2.0730    48.0950    62.1850    55.2160    47.0570    24.4560   -16.0040 
  116.7500     2.0770    47.0440    60.9040    54.7380    44.7440    24.3590   -16.0880 
  116.8750     2.0780    47.6440    57.7130    52.5290    40.1370    24.2220   -16.1720 
  117.0000     2.0800    50.1310    53.3180    49.0970    34.8900    23.9680   -16.2500 
  117.1250     2.0840    53.3440    48.6160    45.1460    30.0270    23.7000   -16.3110 
  117.2500     2.0930    55.2200    44.2170    41.2720    26.2760    23.5980   -16.3600 
  117.3750     2.1040    56.5340    40.1900    37.5880    24.4680    23.5790   -16.3720 
  117.5000     2.1150    56.9090    36.4090    34.0450    23.8130    23.5620   -16.3600 
  117.6250     2.1240    56.4190    32.8220    30.6630    22.0330    23.5060   -16.3310 
  117.7500     2.1310    56.2840    29.5560    27.5960    18.8400    23.3790   -16.2770 
  117.8750     2.1350    56.9010    26.9010    25.0980    15.9490    23.2640   -16.2190 
  118.0000     2.1370    57.1990    25.1430    23.3930    13.8160    23.1770   -16.1460 
  118.1250     2.1380    56.8410    24.5910    22.7680    13.4300    23.1460   -16.0470 
  118.2500     2.1410    56.9870    24.9850    23.0550    14.1710    23.0730   -15.9420 
  118.3750     2.1500    56.6070    26.0720    24.1000    15.6310    23.0370   -15.8270 
  118.5000     2.1660    55.1810    27.4940    25.6180    17.0330    23.0250   -15.6950 
  118.6250     2.1830    55.0700    28.7620    27.1470    18.2000    23.0310   -15.5420 
  118.7500     2.1940    56.2890    29.4760    28.1820    18.4060    23.0310   -15.3800 
  118.8750     2.1950    57.7580    29.3810    28.3830    18.1680    23.0260   -15.2180 
  119.0000     2.1900    60.0470    28.3990    27.6140    17.7490    23.0310   -15.0600 
  119.1250     2.1890    63.4810    26.5670    25.8900    16.9240    23.0320   -14.9150 
  119.2500     2.1970    64.3750    24.3860    23.7370    15.2370    23.0320   -14.7790 
  119.3750     2.2140    60.8650    22.2820    21.5670    12.8610    23.0320   -14.6660 
  119.5000     2.2340    55.9420    20.6350    19.7370    10.7720    23.0310   -14.5900 
  119.6250     2.2500    53.8790    19.8050    18.5660    10.6710    23.0320   -14.5530 
  119.7500     2.2570    55.2720    19.7510    18.0430    11.9690    23.0640   -14.5290 
  119.8750     2.2560    57.4060    20.4770    18.1930    13.4780    23.0930   -14.5040 
  120.0000     2.2480    58.0850    21.9690    19.0410    14.2480    23.0980   -14.4920 
  120.1250     2.2300    57.2120    24.3170    20.7010    14.8130    23.1000   -14.4770 
  120.2500     2.2070    57.8780    27.3450    23.0190    15.9210    23.1100   -14.4620 
  120.3750     2.1820    60.2400    30.8680    25.8670    19.5550    23.1260   -14.4460 
  120.5000     2.1570    61.2320    34.4580    28.9390    26.7600    23.1640   -14.4190 
  120.6250     2.1400    56.7450    37.3660    31.6470    28.9810    23.2410   -14.3590 
  120.7500     2.1370    49.4280    39.3570    33.6810    28.1440    23.2590   -14.2760 
  120.8750     2.1590    44.4930    40.7790    35.1850    27.4370    23.2660   -14.1780 
  121.0000     2.2140    42.9080    42.4390    36.6880    27.4100    23.2800   -14.0470 
  121.1250     2.3060    42.2060    45.3580    39.0260    29.1360    23.3200   -13.9020 
  121.2500     2.4140    41.0290    49.2920    42.3410    34.1700    23.3250   -13.7170 
  121.3750     2.5120    41.5060    52.7500    45.7560    44.4950    23.3190   -13.5000 
  121.5000     2.5730    44.0470    52.9210    46.9790    56.1150    23.2680   -13.2840 
  121.6250     2.5740    47.2330    46.2520    42.3930    58.2610    23.2340   -13.0870 
  121.7500     2.5300    51.7980    35.2150    33.4190    46.9240    23.1710   -12.8990 
  121.8750     2.4620    57.5630    23.9540    23.6090    29.9310    23.1230   -12.7300 
  122.0000     2.3920    63.2500    17.4180    15.8340    16.8630    23.1100   -12.5940 
  122.1250     2.3370    68.3350    12.3280    11.2080     9.1230    23.1610   -12.4720 
  122.2500     2.3030    72.2010     9.4700     8.6090     6.7440    23.2620   -12.3960 
  122.3750     2.2890    72.5570     8.0950     7.3590     6.0840    23.5060   -12.3740 
