~V
VERS. 2.00: Ver 2.00
~W
STRT.M 50.0000:
STOP.M 209.0000:
STEP.M 0.1250:
NULL. -999.2500:
UWI. F10692:
~C
DEPT.M :
DEN.GM/CC :
GR.API :
RML.OHMM :
RI. :
RXO.OHMM :
CALI.CM :
SP.MV :
~A
# ...
  151.2500     2.3830    45.0690     8.6160     8.6930     8.9570    25.1270   -14.5930 
  151.3750     2.3680    40.3980     7.6020     7.7300     7.5540    25.0080   -14.5300 
  151.5000     2.3460    35.7170     7.1410     7.2170     7.0100    24.9260   -14.5800 
  151.6250     2.3310    34.6340     7.1630     7.1380     7.0050    24.9370   -14.7420 
  151.7500     2.3320    36.1350     7.4060     7.2980     7.1410    25.0350   -14.9930 
  151.8750     2.3490    36.4740     7.6920     7.5560     7.3490    25.1200   -15.3210 
  152.0000     2.3710    33.8080     7.8820     7.7820     7.4900    25.1430   -15.7120 
  152.1250     2.3900    30.9980     7.8860     7.8760     7.4600    25.1050   -16.1490 
  152.2500     2.4050    31.1490     7.7650     7.8570     7.3310    25.0650   -16.5880 
  152.3750     2.4170    32.2300     7.5890     7.7660     7.2100    25.0360   -16.9950 
  152.5000     2.4160    32.9250     7.4280     7.6530     7.1520    25.0250   -17.3370 
  152.6250     2.4010    34.5470     7.3630     7.5790     7.1490    25.0310   -17.5930 
  152.7500     2.3900    37.0670     7.4270     7.5850     7.2550    25.0650   -17.8000 
  152.8750     2.3970    39.2410     7.6380     7.6930     7.4900    25.1490   -18.0100 
  153.0000     2.4200    41.6430     7.9800     7.8930     7.9180    25.2540   -18.2840 
  153.1250     2.4430    44.3220     8.4060     8.1530     8.5180    25.3390   -18.7040 
  153.2500     2.4530    45.6470     8.8270     8.4020     8.9860    25.3850   -19.2830 
  153.3750     2.4510    48.3050     9.1730     8.5860     9.1610    25.4120   -20.0240 
  153.5000     2.4380    55.3940     9.3920     8.6710     9.0770    25.4470   -20.9060 
  153.6250     2.4150    63.9190     9.4460     8.6250     9.0030    25.4670   -21.8990 
  153.7500     2.3920    68.9560     9.4050     8.4990     9.0970    25.4950   -22.9280 
  153.8750     2.3800    71.0950     9.3560     8.3570     9.4800    25.5490   -23.9300 
  154.0000     2.3810    73.5870     9.4290     8.2950    10.1630    25.6170   -24.8430 
  154.1250     2.3900    75.9540     9.8530     8.4790    10.8520    25.6340   -25.5940 
  154.2500     2.3970    75.2060    10.7470     9.0110    12.0050    25.5560   -26.1950 
  154.3750     2.3990    71.3150    12.2210     9.9980    14.4060    25.4400   -26.6660 
  154.5000     2.3960    67.3190    14.3640    11.5410    17.4050    25.4190   -27.0450 
  154.6250     2.3860    64.2430    17.3810    13.8810    20.5850    25.4760   -27.3570 
  154.7500     2.3710    60.4950    21.1610    17.0030    25.4840    25.4730   -27.6340 
  154.8750     2.3530    55.7210    25.6110    20.9110    30.7540    25.4800   -27.8860 
  155.0000     2.3350    51.7310    30.5010    25.4630    35.1920    25.5140   -28.1200 
  155.1250     2.3260    51.1880    35.3430    30.2740    42.5760    25.5440   -28.3470 
  155.2500     2.3250    53.4290    39.4930    34.6540    49.3120    25.5740   -28.5820 
  155.3750     2.3250    56.4640    42.4630    38.0550    51.6310    25.6010   -28.8360 
  155.5000     2.3190    59.2350    44.1320    40.2480    51.5740    25.6130   -29.1040 
  155.6250     2.3040    60.6730    44.6780    41.2740    50.9750    25.6130   -29.3690 
  155.7500     2.2890    59.5170    44.7860    41.7610    50.6000    25.6130   -29.6070 
  155.8750     2.2800    56.1730    44.8780    42.1610    51.4800    25.6130   -29.7980 
  156.0000     2.2770    53.9780    45.2360    42.8220    52.9670    25.6130   -29.9180 
  156.1250     2.2740    54.3860    46.1610    44.0570    54.6320    25.6130   -29.9270 
  156.2500     2.2660    54.4620    47.8250    46.0050    56.3810    25.6110   -29.8170 
  156.3750     2.2560    54.1080    50.3990    48.8930    58.5810    25.6100   -29.5690 
  156.5000     2.2500    54.1790    53.5130    52.5720    61.4110    25.6110   -29.1700 
  156.6250     2.2510    54.9780    54.6540    54.9680    61.2620    25.6110   -28.5800 
  156.7500     2.2620    55.1900    50.5560    52.5610    61.0600    25.6090   -27.8230 
  156.8750     2.2820    55.2440    40.5830    43.7280    60.3280    25.6010   -26.9040 
  157.0000     2.3100    54.9940    28.2890    31.3790    54.5190    25.5540   -25.8450 
  157.1250     2.3370    54.2130    18.4840    20.8250    35.8640    25.4360   -24.6870 
  157.2500     2.3590    53.4570    12.0840    13.7310    18.7480    25.3130   -23.5300 
  157.3750     2.3750    52.0020     8.4330     9.5380    10.0470    25.2550   -22.4670 
  157.5000     2.3880    49.4300     6.6470     7.2950     7.5090    25.2450   -21.5800 
  157.6250     2.3950    44.8250     6.1520     6.3990     7.2550    25.2430   -20.9550 
  157.7500     2.3970    40.4270     6.2540     6.1950     7.2430    25.2280   -20.5450 
  157.8750     2.3980    38.9250     6.6220     6.4040     7.2740    25.1970   -20.2940 
  158.0000     2.4010    39.9170     6.9880     6.7730     7.2530    25.1760   -20.1370 
  158.1250     2.4030    40.7890     7.1530     7.0790     7.1990    25.1700   -20.0170 
  158.2500     2.3990    39.7470     7.1400     7.2400     7.1800    25.1690   -19.8990 
  158.3750     2.3890    37.6350     7.0250     7.2690     7.1390    25.1610   -19.7830 
  158.5000     2.3720    35.0520     6.8820     7.2140     7.0800    25.1170   -19.6720 
  158.6250     2.3580    34.0760     6.7560     7.1190     6.9740    24.9970   -19.5670 
  158.7500     2.3510    37.3840     6.6570     7.0170     6.8990    24.8500   -19.4530 
  158.8750     2.3470    42.5540     6.5950     6.9230     6.8590    24.7210   -19.3140 
  159.0000     2.3390    44.3670     6.5830     6.8510     6.9340    24.5660   -19.1380 
  159.1250     2.3310    43.3840     6.6310     6.8040     7.1240    24.3100   -18.9270 
  159.2500     2.3240    45.3310     6.7100     6.7670     7.2700    24.0310   -18.7060 
  159.3750     2.3200    49.4950     6.7820     6.7210     7.3060    23.9520   -18.4980 
  159.5000     2.3200    51.7060     6.7980     6.6380     7.2710    24.2430   -18.3320 
  159.6250     2.3280    53.3860     6.7170     6.4950     7.1410    24.7610   -18.2550 
  159.7500     2.3400    57.2950     6.5820     6.3230     7.0420    25.1600   -18.2870 
  159.8750     2.3520    61.2440     6.4530     6.1560     7.0250    25.3530   -18.4410 
  160.0000     2.3670    61.5000     6.3760     6.0250     7.1360    25.4180   -18.7070 
  160.1250     2.3920    57.0670     6.3800     5.9510     7.2690    25.4520   -19.0640 
  160.2500     2.4260    52.6930     6.4390     5.9250     7.5070    25.4700   -19.4570 
  160.3750     2.4630    50.4330     6.5480     5.9510     7.6640    25.4720   -19.8630 
  160.5000     2.4840    50.7030     6.7240     6.0480     7.6350    25.4670   -20.2730 
  160.6250     2.4770    53.3270     7.0320     6.2560     7.6950    25.4510   -20.6770 
  160.7500     2.4600    55.9370     7.4930     6.5810     8.1170    25.4080   -21.0580 
  160.8750     2.4470    57.3430     8.1030     7.0260     9.0960    25.3440   -21.3910 
  161.0000     2.4350    59.1220     8.8020     7.5620    10.2220    25.2960   -21.6530 
  161.1250     2.4170    60.8380     9.4400     8.1000    10.4540    25.2910   -21.8340 
  161.2500     2.4040    58.4250     9.8910     8.5320    10.6430    25.2470   -21.9690 
  161.3750     2.4070    51.5420    10.1290     8.8160    11.8690    25.1480   -22.0900 
  161.5000     2.4140    48.4450    10.2420     8.9940    13.3160    25.0680   -22.2240 
  161.6250     2.4010    54.2240    10.3940     9.1780    12.7800    25.0640   -22.3880 
  161.7500     2.3740    59.6240    10.6810     9.4430    11.0390    25.0950   -22.5660 
  161.8750     2.3520    58.5170    11.1000     9.7960    11.0380    25.1290   -22.7350 
  162.0000     2.3440    53.4960    11.5900    10.2040    12.3680    25.1420   -22.8670 
  162.1250     2.3470    51.5960    12.0440    10.6200    13.3250    25.1870   -22.9190 
  162.2500     2.3500    53.4710    12.3500    10.9700    12.9250    25.2200   -22.8770 
  162.3750     2.3530    55.4440    12.4110    11.1660    12.6540    25.1190   -22.7260 
