~V
VERS. 2.00: Ver 2.00
~W
STRT.M 52.0000:
STOP.M 260.0000:
STEP.M 0.1250:
NULL. -999.2500:
UWI. F10654:
~C
DEPT.M :
SP.MV :
GR.API :
RML.OHMM :
RI. :
RXO.OHMM :
CALI.CM :
DEN.GM/CC :
~A
# ...
  209.5000    -8.0070    52.1340     6.5530     6.3260     5.4610    22.0810     2.4640 
  209.6250    -7.8340    54.3690     6.7100     6.3260     5.6660    22.0010     2.4740 
  209.7500    -7.7060    55.0650     6.8920     6.4110     5.8010    22.0990     2.4810 
  209.8750    -7.6140    54.7870     6.9290     6.4240     5.8210    22.3240     2.4790 
  210.0000    -7.5520    55.4850     6.7450     6.2720     5.6610    22.5930     2.4700 
  210.1250    -7.5010    58.6550     6.4420     6.0080     5.4050    22.9760     2.4600 
  210.2500    -7.4670    63.2910     6.1130     5.6980     5.1640    23.4470     2.4500 
  210.3750    -7.4660    65.2100     5.8280     5.4000     4.9990    23.7470     2.4420 
  210.5000    -7.5250    61.9780     5.6180     5.1530     4.8910    23.5720     2.4330 
  210.6250    -7.6240    58.4360     5.4740     4.9600     4.8450    23.0610     2.4210 
  210.7500    -7.7550    58.6450     5.4100     4.8360     4.8520    22.2220     2.4120 
  210.8750    -7.9180    62.3040     5.4680     4.8120     4.8970    21.0020     2.4090 
  211.0000    -8.1090    67.5510     5.7360     4.9620     5.1120    19.6940     2.4190 
  211.1250    -8.3450    73.2150     6.2070     5.2870     5.5970    18.7730     2.4390 
  211.2500    -8.6130    79.3000     6.8310     5.7680     6.3960    18.3430     2.4600 
  211.3750    -8.8790    85.1720     7.4930     6.3360     7.2930    18.2430     2.4740 
  211.5000    -9.1330    88.3890     8.0050     6.8680     7.8130    18.3080     2.4740 
  211.6250    -9.4000    88.5540     8.2720     7.2540     7.9550    18.4760     2.4650 
  211.7500    -9.6570    86.7970     8.2960     7.4480     7.8960    18.8070     2.4530 
  211.8750    -9.9120    86.7050     8.1730     7.4740     7.8670    19.3780     2.4410 
  212.0000   -10.1490    89.7720     8.0490     7.4010     7.8730    20.2670     2.4290 
  212.1250   -10.3580    92.4130     8.0170     7.3290     7.8100    21.2770     2.4180 
  212.2500   -10.5430    92.4130     8.0810     7.2920     7.6930    22.2860     2.4060 
  212.3750   -10.7180    90.9960     8.1980     7.2890     7.6570    23.1660     2.3970 
  212.5000   -10.8650    93.1370     8.3100     7.3010     7.6690    23.6030     2.3930 
  212.6250   -10.9770    96.0770     8.3830     7.3030     7.7040    23.7670     2.3930 
  212.7500   -11.0660    96.9940     8.4140     7.2880     7.6710    23.8010     2.3940 
  212.8750   -11.1230    95.1700     8.4240     7.2690     7.6040    23.8100     2.3960 
  213.0000   -11.1730    92.9170     8.4740     7.2880     7.5960    23.8350     2.4010 
  213.1250   -11.2110    92.0310     8.6170     7.3930     7.7340    23.8890     2.4130 
  213.2500   -11.2300    92.8790     8.8880     7.6270     7.9690    23.9590     2.4330 
  213.3750   -11.2450    92.7500     9.2860     8.0110     8.2130    23.9980     2.4610 
  213.5000   -11.2480    89.2820     9.7750     8.5390     8.6720    24.0010     2.4920 
  213.6250   -11.2360    84.7390    10.2760     9.1310     9.3240    23.9930     2.5140 
  213.7500   -11.1980    80.6070    10.7730     9.7380    10.0200    23.9770     2.5190 
  213.8750   -11.1350    78.4750    11.3060    10.3570    10.7610    23.9540     2.5030 
  214.0000   -11.0280    80.2170    11.9890    11.0410    11.3720    23.9460     2.4720 
  214.1250   -10.9160    83.2490    12.8320    11.8110    11.3940    23.9510     2.4440 
  214.2500   -10.8100    82.7120    13.7150    12.5930    11.5350    23.9670     2.4300 
  214.3750   -10.7140    77.4640    14.3590    13.1800    12.6480    23.9910     2.4320 
  214.5000   -10.6410    73.4980    14.2900    13.1790    14.4290    24.0020     2.4430 
  214.6250   -10.5950    73.4720    13.4470    12.5020    15.2120    24.0060     2.4480 
  214.7500   -10.5710    75.0080    12.0520    11.2810    14.2620    24.0090     2.4430 
  214.8750   -10.5800    77.3200    10.5960     9.8920    11.5720    24.0230     2.4300 
  215.0000   -10.6190    83.2140     9.7030     8.9120     8.8860    24.0340     2.4190 
  215.1250   -10.6950    89.4240     9.8810     8.7030     7.8330    24.0260     2.4140 
  215.2500   -10.7980    90.4080    11.4360     9.5690     8.8260    24.0120     2.4080 
  215.3750   -10.9080    85.9900    15.0980    11.8780    11.5910    24.0080     2.3930 
  215.5000   -11.0490    79.2100    21.5970    16.5250    16.3980    24.0130     2.3610 
  215.6250   -11.2000    71.6540    31.4720    23.7260    22.9830    24.0270     2.3240 
  215.7500   -11.3590    64.7860    44.4930    33.5940    31.0630    24.0480     2.2950 
  215.8750   -11.5220    62.9420    58.5160    45.5170    40.1200    24.0610     2.2860 
  216.0000   -11.7040    65.0250    71.9030    57.6300    49.9680    24.0630     2.3010 
  216.1250   -11.8750    63.8060    81.8670    67.1910    60.2780    24.0570     2.3230 
  216.2500   -12.0370    59.9110    85.9380    72.0210    69.7610    24.0390     2.3340 
  216.3750   -12.2000    57.1520    83.1630    71.1220    74.8520    23.9960     2.3270 
  216.5000   -12.3610    58.8190    74.3420    64.7200    68.9070    23.9040     2.3050 
  216.6250   -12.5200    63.5180    63.7810    56.2110    55.7860    23.7320     2.2840 
  216.7500   -12.6840    68.2270    54.1850    47.9640    40.7660    23.4800     2.2740 
  216.8750   -12.8530    69.7400    46.9480    41.4450    30.5690    23.2010     2.2780 
  217.0000   -13.0140    67.4010    42.6990    37.4470    25.2960    22.9440     2.2880 
  217.1250   -13.1660    66.0220    40.5690    35.3430    22.4010    22.7540     2.2950 
  217.2500   -13.3230    67.3260    40.0280    34.7080    20.8840    22.6120     2.2960 
  217.3750   -13.4780    68.9030    40.5590    35.1080    20.3200    22.5320     2.2900 
  217.5000   -13.6230    68.7650    41.7290    36.1870    21.0290    22.5160     2.2810 
  217.6250   -13.7640    67.8840    43.0780    37.4930    22.4630    22.5360     2.2730 
  217.7500   -13.9210    66.7910    44.5540    38.9190    24.5580    22.6430     2.2680 
  217.8750   -14.0870    65.3150    46.5100    40.6810    27.4280    22.8870     2.2640 
  218.0000   -14.2590    64.2660    50.0910    43.6870    31.4770    23.3070     2.2590 
  218.1250   -14.4270    63.4780    55.9650    48.6150    36.0800    23.7390     2.2510 
  218.2500   -14.5860    61.7170    64.1040    55.6390    41.8830    24.0490     2.2390 
  218.3750   -14.7280    58.9980    73.1400    63.8140    51.9440    24.2040     2.2280 
  218.5000   -14.8400    57.3980    79.5270    70.2850    69.3480    24.2540     2.2230 
  218.6250   -14.9310    57.1290    80.2560    72.2090    87.3670    24.2830     2.2290 
  218.7500   -14.9820    56.8520    74.2140    68.2040    99.3160    24.2990     2.2470 
  218.8750   -14.9990    57.8930    63.3070    59.4060    95.6020    24.2890     2.2730 
  219.0000   -14.9990    61.5350    51.9490    49.3280    64.4250    24.2320     2.2960 
  219.1250   -14.9870    65.4280    43.5850    41.4450    38.4810    24.1660     2.3100 
  219.2500   -14.9610    67.5820    39.1120    36.9050    28.7330    24.1470     2.3120 
  219.3750   -14.9430    68.3330    38.4340    35.8350    27.5790    24.1660     2.3020 
  219.5000   -14.9290    68.8780    41.7570    38.6540    30.4240    24.1990     2.2860 
  219.6250   -14.9140    66.5990    47.9860    44.5690    35.7540    24.2130     2.2750 
  219.7500   -14.9080    61.7130    56.1550    52.8730    43.5490    24.2180     2.2810 
  219.8750   -14.8930    57.3070    64.5620    62.0090    53.3510    24.2200     2.3090 
  220.0000   -14.8550    57.5850    70.1450    68.9040    62.6950    24.2010     2.3560 
  220.1250   -14.8090    59.7810    70.9590    71.1670    67.7680    24.1360     2.3950 
  220.2500   -14.7740    60.5050    66.4920    67.8510    67.6890    24.0500     2.4100 
  220.3750   -14.7320    60.6890    58.2030    60.0710    62.3170    24.0070     2.3930 
  220.5000   -14.6780    62.8850    48.9790    50.6100    51.2320    23.9960     2.3590 
  220.6250   -14.6310    66.5890    41.3650    42.4310    37.3120    23.9900     2.3280 
