~V
VERS. 2.00: Ver 2.00
~W
STRT.M 59.0000:
STOP.M 270.0000:
STEP.M 0.1250:
NULL. -999.2500:
UWI. F10667:
~C
DEPT.M :
GR.API :
RML.OHMM :
RI. :
RXO.OHMM :
CALI.CM :
DEN.GM/CC :
SP.MV :
~A
# ...
  137.7500    62.0870    20.9740    19.9870    24.9670    24.3490     2.1960    -8.1600 
  137.8750    62.0630    21.9750    20.6980    38.6910    24.1420     2.1940    -7.9180 
  138.0000    64.6820    22.9840    21.4900    44.3290    23.9780     2.1910    -7.6660 
  138.1250    67.4280    23.6360    22.1770    28.6600    23.9340     2.1860    -7.4580 
  138.2500    69.2120    23.8650    22.6890    21.9440    24.0660     2.1820    -7.2660 
  138.3750    69.2160    23.7350    23.0150    21.0000    24.3260     2.1790    -7.0690 
  138.5000    66.2540    23.3690    23.1570    22.5800    24.6330     2.1760    -6.9340 
  138.6250    63.1820    22.8720    23.0730    23.3430    24.7310     2.1660    -6.8190 
  138.7500    62.8530    22.3410    22.7890    22.5240    24.6850     2.1510    -6.7350 
  138.8750    64.2910    21.8230    22.3260    21.3280    24.5100     2.1380    -6.7430 
  139.0000    66.0910    21.3650    21.7510    20.1310    24.2260     2.1340    -6.8050 
  139.1250    67.3550    21.0220    21.1890    19.2760    23.9430     2.1420    -6.8920 
  139.2500    67.3610    20.7770    20.7520    18.4320    23.9490     2.1560    -6.9980 
  139.3750    64.4460    20.5980    20.4960    18.0070    24.2240     2.1680    -7.1030 
  139.5000    60.3020    20.4540    20.4260    17.6790    24.5350     2.1730    -7.1660 
  139.6250    59.0220    20.3600    20.5340    17.6810    24.7010     2.1630    -7.1990 
  139.7500    60.1330    20.4110    20.7940    18.1950    24.7730     2.1350    -7.1960 
  139.8750    61.5580    20.7820    21.2950    18.4570    24.7910     2.0920    -7.1560 
  140.0000    61.6280    21.6770    22.2020    18.7780    24.7840     2.0580    -7.0980 
  140.1250    61.1320    23.3320    23.7450    18.4200    24.8000     2.0710    -6.9930 
  140.2500    60.8780    25.5190    25.7520    18.4250    24.7600     2.1360    -6.8660 
  140.3750    61.1080    27.8250    27.8760    21.4500    24.3980     2.2250    -6.7540 
  140.5000    61.9990    29.6100    29.5690    29.1900    23.8210     2.2970    -6.6220 
  140.6250    62.1450    30.0430    30.0960    42.3400    23.4670     2.3090    -6.4990 
  140.7500    61.4810    29.2550    29.5110    33.3260    23.4110     2.2750    -6.4000 
  140.8750    60.3160    27.7500    28.1970    25.1410    23.6350     2.2220    -6.3000 
  141.0000    58.7370    26.2040    26.7330    22.0760    24.1310     2.1770    -6.2070 
  141.1250    57.2360    25.2410    25.7020    22.0290    24.5030     2.1520    -6.1580 
  141.2500    57.4910    24.9250    25.2400    22.3240    24.6600     2.1440    -6.1190 
  141.3750    58.5750    25.1040    25.2470    22.5880    24.6310     2.1460    -6.0560 
  141.5000    59.3450    25.5160    25.5040    22.8020    24.5490     2.1550    -6.0180 
  141.6250    60.4060    25.8870    25.7820    22.6900    24.4870     2.1630    -5.9860 
  141.7500    61.9400    26.0590    25.9530    22.3770    24.3730     2.1670    -5.9570 
  141.8750    62.1980    25.9650    25.9770    21.5370    24.1660     2.1650    -5.9330 
  142.0000    60.8630    25.6810    25.8430    21.2900    24.0090     2.1590    -5.9140 
  142.1250    60.4960    25.4070    25.5470    20.4640    24.0710     2.1520    -5.9250 
  142.2500    60.3240    25.2270    25.1710    20.1030    24.2810     2.1500    -5.9080 
  142.3750    60.4430    24.8690    24.7870    19.5970    24.4690     2.1530    -5.8960 
  142.5000    62.5690    24.3980    24.4690    18.7850    24.5530     2.1600    -5.9260 
  142.6250    66.1230    24.1460    24.3020    18.1870    24.5650     2.1650    -5.9540 
  142.7500    66.2700    24.0760    24.2780    18.4550    24.5650     2.1650    -5.9720 
  142.8750    63.0940    24.0870    24.3550    18.8630    24.5650     2.1580    -6.0090 
  143.0000    60.9980    24.1160    24.4530    18.9390    24.5650     2.1470    -6.0670 
  143.1250    61.8040    24.0330    24.4580    19.0870    24.5570     2.1370    -6.1280 
  143.2500    63.3910    23.7780    24.3120    19.2950    24.5210     2.1330    -6.2010 
  143.3750    65.2150    23.3360    24.0110    19.4650    24.4530     2.1340    -6.3160 
  143.5000    67.0730    22.9570    23.5900    19.2120    24.3990     2.1400    -6.4450 
  143.6250    66.8190    22.7120    23.1160    19.1720    24.3720     2.1490    -6.5830 
  143.7500    64.7440    22.5620    22.6730    19.1320    24.3400     2.1560    -6.7140 
  143.8750    62.6320    22.4160    22.3260    18.9850    24.2970     2.1610    -6.8400 
  144.0000    60.6610    22.3150    22.1220    18.3240    24.2740     2.1610    -6.9580 
  144.1250    60.3900    22.2870    22.1130    17.7980    24.3270     2.1550    -7.0420 
  144.2500    62.2760    22.3660    22.2560    17.3680    24.4280     2.1470    -7.1290 
  144.3750    63.8400    22.6480    22.5070    17.0880    24.5150     2.1390    -7.2250 
  144.5000    62.3470    23.2100    22.8100    17.4160    24.5530     2.1340    -7.3300 
  144.6250    59.4180    23.7260    23.1270    18.5000    24.5590     2.1350    -7.4310 
  144.7500    58.7690    23.9780    23.4600    19.5030    24.5590     2.1410    -7.5440 
  144.8750    59.4100    24.0850    23.8530    20.4150    24.5590     2.1480    -7.6710 
  145.0000    60.0710    24.2550    24.3480    21.2940    24.5510     2.1530    -7.8120 
  145.1250    61.2440    24.7420    24.9290    21.9140    24.5040     2.1520    -7.9760 
  145.2500    62.7460    25.1760    25.4330    22.2040    24.3840     2.1460    -8.1630 
  145.3750    64.8220    25.2420    25.6460    22.5920    24.2190     2.1410    -8.3740 
  145.5000    68.9040    24.7500    25.3680    23.5100    24.1170     2.1390    -8.5750 
  145.6250    73.3940    23.6770    24.4410    23.4880    24.0830     2.1450    -8.7940 
  145.7500    74.6360    22.3640    23.1220    20.5910    24.0690     2.1540    -9.0240 
  145.8750    73.0040    21.0980    21.6920    17.5550    24.0400     2.1640    -9.2450 
  146.0000    71.3920    20.0970    20.4310    16.4960    23.9940     2.1710    -9.4670 
  146.1250    71.0950    19.5290    19.6080    16.4880    23.8700     2.1740    -9.6450 
  146.2500    70.0560    19.3100    19.2150    16.2710    23.7310     2.1740    -9.7810 
  146.3750    67.8860    19.3650    19.1880    15.8930    23.5820     2.1710    -9.8480 
  146.5000    65.7430    19.6110    19.4140    15.9870    23.3940     2.1650    -9.8630 
  146.6250    66.8700    19.9910    19.7660    16.8870    23.1300     2.1570    -9.8050 
  146.7500    71.4690    20.4250    20.1180    17.2540    23.1120     2.1490    -9.7320 
  146.8750    74.4580    20.8680    20.4230    18.0210    23.2750     2.1420    -9.6540 
  147.0000    73.4040    21.2820    20.6770    18.8390    23.4700     2.1360    -9.5460 
  147.1250    69.8260    21.6370    20.9080    19.3490    23.5400     2.1340    -9.4380 
  147.2500    66.6690    21.9520    21.1640    19.6780    23.5410     2.1340    -9.3290 
  147.3750    64.5030    22.2680    21.4740    20.0800    23.5070     2.1380    -9.2250 
  147.5000    64.4610    22.6400    21.8440    20.1760    23.4620     2.1440    -9.1130 
  147.6250    65.8120    23.1210    22.2510    20.0420    23.3960     2.1520    -9.0740 
  147.7500    64.8000    23.6680    22.6350    20.0160    23.3280     2.1610    -9.0610 
  147.8750    62.6270    24.2030    22.9430    20.9500    23.3000     2.1700    -9.0190 
  148.0000    62.7870    24.6300    23.1380    21.8750    23.2970     2.1780    -8.9780 
  148.1250    64.7810    24.8300    23.1990    21.9750    23.3220     2.1850    -8.9870 
  148.2500    64.9940    24.8100    23.1740    21.6050    23.3900     2.1880    -9.0360 
  148.3750    64.1090    24.6010    23.1000    21.3370    23.4790     2.1880    -9.1130 
  148.5000    64.0610    24.2690    23.0050    21.8000    23.5340     2.1840    -9.2350 
  148.6250    63.7170    23.9060    22.8950    22.3470    23.5580     2.1770    -9.3600 
  148.7500    61.3950    23.6040    22.7780    22.2910    23.5910     2.1690    -9.4940 
  148.8750    59.8410    23.4210    22.6740    22.0050    23.7040     2.1630    -9.6420 
