~V
VERS. 2.00: Ver 2.00
~W
STRT.M 54.0000:
STOP.M 246.0000:
STEP.M 0.1250:
NULL. -999.2500:
UWI. F10643:
~C
DEPT.M :
SP.MV :
GR.API :
RML.OHMM :
RI. :
RXO.OHMM :
CALI.CM :
DEN.GM/CC :
~A
# ...
  121.5000    -2.5070    46.6770    27.4320    24.0860    21.2320    24.7470     2.1370 
  121.6250    -2.5540    45.8390    26.5050    23.3240    19.3770    24.6030     2.1410 
  121.7500    -2.5590    47.1680    25.8650    22.7430    18.7610    24.5680     2.1370 
  121.8750    -2.5000    49.0100    25.6970    22.5180    18.8150    24.5740     2.1290 
  122.0000    -2.3480    50.4460    26.1410    22.8110    18.8230    24.5470     2.1260 
  122.1250    -2.1440    50.5180    26.9920    23.4970    19.0150    24.5820     2.1290 
  122.2500    -1.9350    48.0590    28.0240    24.4110    20.0600    24.7260     2.1370 
  122.3750    -1.6710    44.8030    28.9580    25.3190    21.0010    24.8360     2.1430 
  122.5000    -1.4260    46.5840    29.5070    25.9480    20.2670    24.7820     2.1420 
  122.6250    -1.2120    50.0980    29.6990    26.2600    19.2510    24.7340     2.1370 
  122.7500    -1.0200    49.3790    29.6940    26.3450    19.4630    24.7530     2.1360 
  122.8750    -0.8740    45.7140    29.7080    26.3690    20.1480    24.9440     2.1390 
  123.0000    -0.8100    45.5960    29.9210    26.4950    19.3850    25.2890     2.1480 
  123.1250    -0.8110    46.9050    30.3090    26.7460    17.9890    25.3510     2.1570 
  123.2500    -0.8660    45.6340    30.8050    27.0870    17.9020    25.2090     2.1620 
  123.3750    -1.0220    43.1480    31.3460    27.4770    19.7550    25.4620     2.1620 
  123.5000    -1.2930    44.4320    31.8770    27.8840    20.4960    26.4330     2.1570 
  123.6250    -1.6820    46.6110    32.3050    28.2400    21.5020    27.3150     2.1500 
  123.7500    -2.2000    46.9480    32.4690    28.4270    23.2070    27.6120     2.1380 
  123.8750    -2.8610    47.3240    32.1680    28.2870    25.4400    27.0550     2.1250 
  124.0000    -3.6380    50.2850    31.1640    27.6040    25.2560    26.4150     2.1120 
  124.1250    -4.5130    52.9490    29.6680    26.4780    22.5980    25.9060     2.1030 
  124.2500    -5.4700    52.9710    27.9940    25.1160    20.0580    25.2790     2.1030 
  124.3750    -6.4580    52.4220    26.5480    23.8350    18.1300    24.6690     2.1100 
  124.5000    -7.4610    51.8120    25.7620    23.0230    17.1400    24.5560     2.1140 
  124.6250    -8.4430    50.5250    25.5300    22.6920    15.8600    24.6140     2.1100 
  124.7500    -9.4010    49.2480    25.5140    22.6380    14.6100    24.6350     2.1100 
  124.8750   -10.2930    49.6660    25.2650    22.5120    14.8220    24.5760     2.1300 
  125.0000   -11.1020    51.6370    24.4050    21.9490    17.4880    24.4090     2.1830 
  125.1250   -11.8350    52.7200    23.1570    21.0240    20.7340    24.2190     2.2540 
  125.2500   -12.4030    52.7900    21.9190    20.0030    19.5280    24.1970     2.3180 
  125.3750   -12.8580    51.8600    21.0860    19.2120    15.2730    24.2200     2.3560 
  125.5000   -13.1340    49.4350    20.8990    18.9020    13.5490    24.2100     2.3700 
  125.6250   -13.2620    48.5920    21.0740    18.9180    13.3890    24.2310     2.3800 
  125.7500   -13.2580    50.0870    21.2670    19.0080    13.4520    24.2840     2.3810 
  125.8750   -13.0980    51.5800    21.1410    18.8840    15.7460    24.4100     2.3610 
  126.0000   -12.8350    50.8550    20.4730    18.3110    16.4960    24.5820     2.3210 
  126.1250   -12.4710    51.3960    19.5480    17.4730    15.2440    24.6790     2.2780 
  126.2500   -12.0380    55.4710    18.7070    16.6420    13.1710    24.6060     2.2450 
  126.3750   -11.5620    57.9250    18.1930    16.0380    12.5130    24.3290     2.2240 
  126.5000   -11.1110    55.0620    18.1500    15.8080    13.0240    24.1120     2.2090 
  126.6250   -10.6510    51.4630    18.5010    15.9100    13.5660    24.2160     2.1930 
  126.7500   -10.2130    50.1880    19.2530    16.3580    13.7300    24.5890     2.1800 
  126.8750    -9.8550    50.8890    20.4440    17.1860    13.9900    25.0190     2.1750 
  127.0000    -9.5250    51.4240    22.2040    18.5170    14.3980    25.2380     2.1740 
  127.1250    -9.2730    51.4200    24.4290    20.3090    16.0450    25.3540     2.1660 
  127.2500    -9.2000    50.9540    26.8950    22.4470    19.7600    25.5590     2.1530 
  127.3750    -9.2650    50.3400    29.1470    24.5950    24.5370    25.5820     2.1520 
  127.5000    -9.4810    50.1890    30.4530    26.1110    26.9180    25.4240     2.1810 
  127.6250    -9.8430    49.5020    30.7150    26.7130    26.4260    24.9620     2.2240 
  127.7500   -10.3280    47.8880    30.2220    26.4890    23.8390    24.2130     2.2540 
  127.8750   -10.8900    47.3710    29.4110    25.7790    21.4670    23.6950     2.2520 
  128.0000   -11.5410    48.4990    28.3020    24.7200    18.0470    23.7070     2.2250 
  128.1250   -12.2560    49.3600    26.4150    23.0840    17.1730    23.9770     2.2010 
  128.2500   -12.9150    49.0980    23.3080    20.5290    17.9120    24.1600     2.1990 
  128.3750   -13.5410    50.2140    19.1830    17.1470    18.7850    24.2400     2.2150 
  128.5000   -14.0560    56.8620    14.9720    13.5980    15.1390    24.2590     2.2370 
  128.6250   -14.4360    66.9510    11.5460    10.5910     9.5050    24.2370     2.2540 
  128.7500   -14.6980    75.7270     9.1730     8.3800     6.2710    24.1410     2.2660 
  128.8750   -14.8130    78.5370     7.8050     6.9660     5.3200    24.0760     2.2760 
  129.0000   -14.7980    75.5720     7.4330     6.3670     5.5320    24.0180     2.2850 
  129.1250   -14.6580    71.8110     7.8230     6.3980     5.5550    23.8960     2.2920 
  129.2500   -14.4270    68.5260     8.9370     7.0310     5.8040    23.8030     2.2930 
  129.3750   -14.1370    66.1970    10.7150     8.2370     6.9030    23.8470     2.2840 
  129.5000   -13.8130    63.9070    13.0190     9.9840    11.1410    23.9610     2.2610 
  129.6250   -13.5190    61.2940    15.3390    11.9140    15.7940    23.8770     2.2280 
  129.7500   -13.2480    58.8400    17.1720    13.6280    16.3920    23.7550     2.1920 
  129.8750   -12.9980    57.8200    18.1640    14.7600    13.5850    23.7390     2.1590 
  130.0000   -12.7880    57.6190    18.3010    15.1400    11.9110    23.9860     2.1350 
  130.1250   -12.6050    56.3490    18.2090    15.1860    11.4810    24.5020     2.1230 
  130.2500   -12.4500    55.5320    18.3180    15.2330    12.1060    24.9790     2.1240 
  130.3750   -12.3280    55.0170    18.8750    15.4950    13.4040    24.9380     2.1370 
  130.5000   -12.2830    53.0780    19.9950    16.0860    14.7320    24.7870     2.1540 
  130.6250   -12.3230    49.9080    21.3300    16.8420    15.9090    24.6910     2.1620 
  130.7500   -12.4320    48.9120    22.2300    17.3940    16.5310    24.7530     2.1610 
  130.8750   -12.6720    51.0740    21.8120    17.1650    16.3210    25.0990     2.1620 
  131.0000   -12.9960    54.5210    19.3670    15.5930    15.3470    25.3610     2.1770 
  131.1250   -13.3720    59.2100    15.9960    13.2720    13.2390    25.0530     2.2080 
  131.2500   -13.8030    64.6490    12.8930    10.9580     9.9740    24.3340     2.2390 
  131.3750   -14.1940    68.6540    10.8580     9.2340     6.9530    23.8990     2.2560 
  131.5000   -14.5600    68.5010    10.3180     8.4900     6.2620    23.8050     2.2570 
  131.6250   -14.8320    65.1140    10.8520     8.5630     7.0210    23.5260     2.2630 
  131.7500   -15.0180    62.2520    12.0720     9.2870     8.3230    23.1110     2.2920 
  131.8750   -15.1290    62.0720    13.3840    10.3240     9.7270    22.7730     2.3390 
  132.0000   -15.1510    63.8190    13.7650    10.9500    11.7110    22.6690     2.3850 
  132.1250   -15.1430    64.8140    12.8130    10.6240    12.3800    22.8030     2.4080 
  132.2500   -15.1520    65.8460    10.8690     9.3990    11.3940    22.8850     2.4060 
  132.3750   -15.1800    69.9760     8.6970     7.7870     9.8920    22.8220     2.3900 
  132.5000   -15.2360    77.6990     6.9670     6.3400     8.4140    22.6660     2.3710 
  132.6250   -15.3460    84.1190     5.7830     5.2540     5.8620    22.6720     2.3530 
