~V
VERS. 2.00: Ver 2.00
~W
STRT.M 52.0000:
STOP.M 260.0000:
STEP.M 0.1250:
NULL. -999.2500:
UWI. F10654:
~C
DEPT.M :
SP.MV :
GR.API :
RML.OHMM :
RI. :
RXO.OHMM :
CALI.CM :
DEN.GM/CC :
~A
# ...
  164.5000    -9.4820    51.1340    15.0550    14.1820    13.3580    24.4980     2.4770 
  164.6250    -9.4900    54.2560    15.6670    14.9310    14.8430    24.5300     2.4890 
  164.7500    -9.5170    55.2720    15.8760    15.3170    16.2370    24.5850     2.4890 
  164.8750    -9.5020    54.6340    15.6140    15.2240    16.4880    24.5990     2.4790 
  165.0000    -9.4860    54.3280    14.9640    14.6850    15.2500    24.5860     2.4640 
  165.1250    -9.4910    53.5890    14.2840    14.0450    13.0330    24.5800     2.4540 
  165.2500    -9.4590    52.0810    13.8550    13.5830    11.5110    24.5870     2.4520 
  165.3750    -9.3770    51.5720    13.8520    13.4860    11.2000    24.5740     2.4560 
  165.5000    -9.3150    54.6840    14.3330    13.8440    11.7950    24.5510     2.4600 
  165.6250    -9.2560    57.6210    15.0310    14.4400    12.7170    24.5390     2.4630 
  165.7500    -9.1510    56.6200    15.6970    15.0510    13.6210    24.5310     2.4650 
  165.8750    -9.0390    52.5880    16.1230    15.4670    14.3020    24.4990     2.4680 
  166.0000    -8.9870    49.4850    16.1560    15.5160    14.5630    24.4540     2.4690 
  166.1250    -8.9220    48.3550    15.9240    15.2940    14.2140    24.4150     2.4660 
  166.2500    -8.8620    48.8340    15.5860    14.9250    13.5260    24.3670     2.4550 
  166.3750    -8.8600    51.7990    15.2990    14.5460    12.9180    24.3300     2.4390 
  166.5000    -8.8410    55.3010    15.1930    14.2830    12.7980    24.3340     2.4260 
  166.6250    -8.7770    55.6260    15.2620    14.1820    12.7060    24.3730     2.4220 
  166.7500    -8.7470    53.4360    15.4920    14.2730    12.6370    24.3680     2.4320 
  166.8750    -8.7470    51.6840    15.8820    14.5690    12.4590    24.3190     2.4540 
  167.0000    -8.7070    52.7140    16.4640    15.0880    12.6980    24.2470     2.4810 
  167.1250    -8.7000    54.0600    17.1640    15.7350    13.5930    24.2070     2.5050 
  167.2500    -8.7290    53.7850    17.8570    16.4080    15.1170    24.1710     2.5180 
  167.3750    -8.7360    51.3590    18.3780    16.9760    16.8040    24.0440     2.5200 
  167.5000    -8.7420    48.8250    18.5690    17.3020    17.8330    23.8440     2.5130 
  167.6250    -8.7990    49.4760    18.5420    17.4270    17.8730    23.6730     2.5050 
  167.7500    -8.8640    51.8860    18.4910    17.4730    17.2480    23.6890     2.5010 
  167.8750    -8.9150    53.9210    18.6250    17.6050    16.7680    23.9060     2.5000 
  168.0000    -8.9970    53.4740    19.0880    17.9760    17.0960    24.1730     2.4990 
  168.1250    -9.0710    50.7080    19.7240    18.5090    18.2560    24.1700     2.4930 
  168.2500    -9.1080    48.1570    20.2990    19.0220    19.6600    23.9360     2.4830 
  168.3750    -9.1510    47.6210    20.5530    19.2780    20.5320    23.6020     2.4720 
  168.5000    -9.2410    48.6090    20.2120    19.0110    20.0790    23.2940     2.4650 
  168.6250    -9.2960    50.0380    19.3790    18.3040    18.5250    23.0850     2.4650 
  168.7500    -9.3390    51.0040    18.2580    17.3430    16.8220    22.9450     2.4700 
  168.8750    -9.4430    51.4770    17.1340    16.3790    15.6320    22.8560     2.4760 
  169.0000    -9.5620    51.9010    16.3370    15.6850    15.0370    22.8840     2.4780 
  169.1250    -9.6480    52.8950    15.9690    15.3330    14.7430    23.0470     2.4760 
  169.2500    -9.7610    52.9760    16.0180    15.3120    14.7850    23.3520     2.4710 
  169.3750    -9.8840    51.7830    16.3720    15.5420    15.1300    23.7720     2.4670 
  169.5000    -9.9580    52.6020    16.8510    15.8990    15.3670    24.1690     2.4680 
  169.6250   -10.0550    54.3530    17.2500    16.2150    15.4510    24.4420     2.4710 
  169.7500   -10.1670    54.3650    17.4690    16.4040    15.3090    24.5590     2.4740 
  169.8750   -10.2070    52.4040    17.4900    16.4490    15.1370    24.5790     2.4750 
  170.0000   -10.2130    50.3170    17.3560    16.3940    14.9770    24.5600     2.4750 
  170.1250   -10.2400    48.8540    17.1850    16.3380    14.8830    24.5380     2.4760 
  170.2500   -10.2190    48.8300    17.0490    16.3360    14.8130    24.5170     2.4780 
  170.3750   -10.1920    50.8140    16.9970    16.4040    14.6750    24.4680     2.4810 
  170.5000   -10.2160    53.7790    17.0710    16.5350    14.5080    24.3260     2.4830 
  170.6250   -10.2230    54.6860    17.2470    16.6770    14.2710    24.0610     2.4870 
  170.7500   -10.2100    53.5050    17.4810    16.7920    14.0300    23.7060     2.4940 
  170.8750   -10.2460    52.1350    17.7120    16.8520    13.9090    23.3890     2.5040 
  171.0000   -10.3340    51.9530    17.8740    16.8380    14.1160    23.3480     2.5150 
  171.1250   -10.4290    51.6370    17.9520    16.7750    14.2500    23.4800     2.5220 
  171.2500   -10.5350    49.5890    17.9530    16.6970    14.1380    23.6700     2.5220 
  171.3750   -10.6430    46.7900    17.8950    16.6360    13.8040    23.8550     2.5180 
  171.5000   -10.7430    47.2400    17.7950    16.6100    13.6060    23.9140     2.5150 
  171.6250   -10.8210    49.8910    17.6880    16.6090    13.7340    23.8420     2.5130 
  171.7500   -10.8830    51.4900    17.6250    16.6280    14.1670    23.7530     2.5120 
  171.8750   -10.9440    50.5860    17.6710    16.6870    14.7760    23.8260     2.5080 
  172.0000   -10.9490    50.4430    17.9270    16.8720    15.1510    24.0600     2.5030 
  172.1250   -10.9230    50.6360    18.3980    17.2390    15.4780    24.2740     2.4990 
  172.2500   -10.9320    50.1540    19.0550    17.8010    15.8870    24.3660     2.5000 
  172.3750   -10.9200    51.9020    19.7900    18.4840    16.6510    24.3420     2.5050 
  172.5000   -10.8570    56.4980    20.3810    19.0980    17.7900    24.2650     2.5100 
  172.6250   -10.8400    58.3340    20.6420    19.4510    18.8900    24.1850     2.5150 
  172.7500   -10.8350    54.8440    20.4910    19.4470    19.0570    24.1250     2.5180 
  172.8750   -10.7890    50.6660    20.0060    19.1310    17.8570    24.1330     2.5200 
  173.0000   -10.7760    50.6640    19.4420    18.6940    16.5050    24.1930     2.5210 
  173.1250   -10.7890    51.1440    19.0950    18.3830    15.8830    24.2690     2.5200 
  173.2500   -10.7510    49.4980    19.0770    18.3090    16.0990    24.3480     2.5160 
  173.3750   -10.7090    47.4980    19.3150    18.4470    16.8740    24.3760     2.5100 
  173.5000   -10.7110    47.9960    19.5690    18.6570    17.7140    24.3620     2.5050 
  173.6250   -10.6710    48.6810    19.5980    18.7470    18.1060    24.3270     2.5040 
  173.7500   -10.5970    49.0220    19.3080    18.6160    17.9570    24.2830     2.5090 
  173.8750   -10.5560    50.5880    18.7390    18.2590    17.4250    24.2480     2.5180 
  174.0000   -10.5060    52.3810    18.0060    17.7330    16.6330    24.2120     2.5260 
  174.1250   -10.4100    53.2550    17.2710    17.1780    15.9380    24.1920     2.5270 
  174.2500   -10.3440    54.9510    16.6290    16.6790    15.5340    24.1530     2.5200 
  174.3750   -10.3090    57.1610    16.1590    16.3010    15.5720    24.1130     2.5040 
  174.5000   -10.2210    57.3190    15.9750    16.1100    15.6830    24.0460     2.4870 
  174.6250   -10.1350    56.9280    16.0470    16.0960    15.4080    23.9720     2.4750 
  174.7500   -10.0920    59.0880    16.3220    16.2500    14.9810    23.8850     2.4710 
  174.8750   -10.0270    62.4440    16.7210    16.5530    14.6780    23.7680     2.4760 
  175.0000    -9.9290    62.3520    17.1960    16.9950    14.8070    23.6100     2.4870 
  175.1250    -9.8790    60.4230    17.7330    17.5200    15.1080    23.4400     2.4990 
  175.2500    -9.8430    58.4950    18.3410    18.0830    15.2710    23.2770     2.5080 
  175.3750    -9.7750    57.0360    18.9920    18.6300    15.3620    23.1410     2.5140 
  175.5000    -9.7430    54.0430    19.5710    19.0840    15.7640    22.9560     2.5130 
  175.6250    -9.7610    51.1920    19.9580    19.4060    15.8480    22.6220     2.5060 
