~V
VERS. 2.00: Ver 2.00
~W
STRT.M 58.0000:
STOP.M 244.0000:
STEP.M 0.1250:
NULL. -999.2500:
UWI. F10638:
~C
DEPT.M :
SP.MV :
GR.API :
RML.OHMM :
RI. :
RXO.OHMM :
CALI.CM :
DEN.GM/CC :
~A
# ...
  238.0000   -17.0090    30.3930     6.2620     4.9720     7.7530    24.6040     2.2760 
  238.1250   -17.6460    30.3930     6.6150     5.3490     7.4130    24.6690     2.2710 
  238.2500   -18.3720    30.3930     6.9160     5.7070     8.2710    24.6790     2.2680 
  238.3750   -19.2430    30.3930     7.2140     6.0510    10.5260    24.6480     2.2730 
  238.5000   -20.1570    30.3930     7.5310     6.3830    11.5810    24.6310     2.2900 
  238.6250   -21.0070    30.3930     7.8580     6.6850    11.9070    24.6400     2.3130 
  238.7500   -21.7280    30.3930     8.1600     6.9260    12.2560    24.6260     2.3310 
  238.8750   -22.2680    30.3930     8.3900     7.0690    13.3290    24.6010     2.3310 
  239.0000   -22.6560    30.3930     8.5510     7.1330    14.6220    24.5410     2.3170 
  239.1250   -22.8960    30.3930     8.6420     7.1520    15.6410    24.4800     2.2960 
  239.2500   -22.8630    30.3930     8.6590     7.1570    15.1750    24.4330     2.2820 
  239.3750   -22.3800    30.3930     8.5900     7.1600    12.1670    24.4600     2.3010 
  239.5000   -21.5680    30.3930     8.4790     7.1600     8.1300    24.5760     2.3570 
  239.6250   -20.5230    30.3930     8.3720     7.1580     6.0270    24.6530     2.4290 
  239.7500   -19.3400    30.3930     8.3030     7.1570     5.2960    24.5710     2.4810 
  239.8750   -18.1390    30.3930     8.2860     7.1580     5.3020    24.4310     2.4780 
  240.0000   -16.9780    30.3930     8.2850     7.1580     6.0750    24.3770     2.4380 
  240.1250   -15.8800    30.3930     8.2850     7.1580     7.0460    24.3780     2.3800 
  240.2500   -14.9320    30.3930     8.2850     7.1580     6.6970    24.3720     2.3230 
  240.3750   -14.2580    30.3930     8.2850     7.1580     4.8970    24.3710     2.2830 
  240.5000   -13.7970    30.3930     8.2850     7.1580     4.1720    24.4490     2.2690 
  240.6250   -13.4960    30.3930     8.2850     7.1580     4.2160    24.5260     2.2790 
  240.7500   -13.2900    30.3930     8.2850     7.1580     4.5500    24.4430     2.2950 
  240.8750   -13.1650    30.3930     8.2850     7.1580     4.4230    24.3860     2.2920 
  241.0000   -12.9640    30.3930     8.2850     7.1580     4.0250    24.3810     2.2690 
  241.1250   -12.8700    30.3930     8.2850     7.1580     3.7360    24.3380     2.2460 
  241.2500   -12.8050    30.3930     8.2850     7.1580     3.8480    24.3970     2.2460 
  241.3750   -12.7680    30.3930     8.2850     7.1580     4.3780    24.4680     2.2770 
  241.5000   -12.6890    30.3930     8.2850     7.1580     4.9020    24.2860     2.3100 
  241.6250   -12.5180    30.3930     8.2850     7.1580     4.7920    23.9650     2.3270 
  241.7500   -12.3680    30.3930     8.2850     7.1580     4.5350    23.6320     2.3290 
  241.8750   -12.1910    30.3930     8.2850     7.1580     4.5490    23.4400     2.3270 
  242.0000   -12.0410    30.3930     8.2850     7.1580     4.4780    23.3590     2.3280 
  242.1250   -11.9170    30.3930     8.2850     7.1580     4.5620    23.3480     2.3280 
  242.2500   -11.7900    30.3930     8.2850     7.1580     5.0630    23.3950     2.3240 
  242.3750   -11.6040    30.3930     8.2850     7.1580     5.7290    23.4150     2.3110 
  242.5000   -11.5760    30.3930     8.2850     7.1580     6.2340    23.4020     2.2890 
  242.6250   -11.5960    30.3930     8.2850     7.1580     5.2790    23.3040     2.2630 
  242.7500  -999.2500    30.3930     8.2850     7.1580     4.7240    23.0510     2.2360 
  242.8750  -999.2500    30.3930     8.2850     7.1580     4.5610    22.5800     2.2160 
  243.0000  -999.2500    30.3930     8.2850     7.1580     4.8520    21.7610     2.2030 
  243.1250  -999.2500    30.3930     8.2850     7.1580     5.3960    20.7260     2.1970 
  243.2500  -999.2500    30.3930     8.2850     7.1580     6.1380    19.4750     2.1940 
  243.3750  -999.2500    30.3930     8.2850     7.1580     7.0190    17.6530     2.1910 
  243.5000  -999.2500    30.3930     8.2850     7.1580     7.5820    15.5540     2.1880 
  243.6250  -999.2500    30.3930     8.2850     7.1580     7.7400    14.5700     2.1870 
  243.7500  -999.2500    30.3930     8.2850     7.1580     7.7260    14.2880     2.1850 
  243.8750  -999.2500    30.3930     8.2850     7.1580     7.7270    14.2710     2.1830 
  244.0000  -999.2500    30.3930     8.2850     7.1580     7.7290    14.2630     2.1820 
