~V
VERS. 2.00: Ver 2.00
~W
STRT.M 52.0000:
STOP.M 238.0000:
STEP.M 0.1250:
NULL. -999.2500:
UWI. F10653:
~C
DEPT.M :
GR.API :
RML.OHMM :
RI. :
RXO.OHMM :
CALI.CM :
DEN.GM/CC :
SP.MV :
~A
# ...
  232.0000    71.3790     8.2430     7.2430    16.6030    22.6210     2.4320    -7.5760 
  232.1250    71.3790     8.1390     7.1390    18.8740    22.6150     2.4620    -7.1600 
  232.2500    71.3790     8.0530     7.0530    15.0550    22.6130     2.4550    -6.7380 
  232.3750    71.3790     8.0010     7.0010     8.9460    22.6190     2.4220    -6.3800 
  232.5000    71.3790     8.0340     7.0340     5.5820    22.6390     2.3900    -6.1570 
  232.6250    71.3790     8.1670     7.1670     5.0430    22.6590     2.3850    -6.0520 
  232.7500    71.3790     8.2980     7.2980     5.7980    22.6340     2.4010    -5.9660 
  232.8750    71.3790     8.3460     7.3460     6.4220    22.5860     2.4250    -5.9210 
  233.0000    71.3790     8.3000     7.3000     6.1650    22.5680     2.4380    -5.9030 
  233.1250    71.3790     8.2400     7.2400     5.2820    22.5990     2.4350    -5.9190 
  233.2500    71.3790     8.2400     7.2400     4.6200    22.6480     2.4220    -5.9840 
  233.3750    71.3790     8.2400     7.2400     4.2240    22.6800     2.4010    -6.0480 
  233.5000    71.3790     8.2400     7.2400     4.0760    22.6900     2.3750    -6.0580 
  233.6250    71.3790     8.2400     7.2400     4.0300    22.6770     2.3470    -6.0300 
  233.7500    71.3790     8.2400     7.2400     4.0180    22.6370     2.3200    -6.0170 
  233.8750    71.3790     8.2400     7.2400     4.0010    22.5760     2.2990    -5.9760 
  234.0000    71.3790     8.2400     7.2400     3.9740    22.5250     2.2860    -5.9080 
  234.1250    71.3790     8.2400     7.2400     3.9420    22.4720     2.2830    -5.8550 
  234.2500    71.3790     8.2400     7.2400     3.9320    22.4260     2.2860    -5.7570 
  234.3750    71.3790     8.2400     7.2400     3.9380    22.3750     2.2930    -5.6400 
  234.5000    71.3790     8.2400     7.2400     3.9440    22.3380     2.3050    -5.5570 
  234.6250    71.3790     8.2400     7.2400     3.9280    22.3050     2.3230    -5.4820 
  234.7500    71.3790     8.2400     7.2400     3.9370    22.2640     2.3430    -5.3930 
  234.8750    71.3790     8.2400     7.2400     3.9190    22.1900     2.3570    -5.3360 
  235.0000    71.3790     8.2400     7.2400     3.8610    22.0670     2.3580    -5.2910 
  235.1250    71.3790     8.2400     7.2400     3.8410    21.9190     2.3510    -5.2260 
  235.2500    71.3790     8.2400     7.2400     3.8280    21.7680     2.3480    -5.2000 
  235.3750    71.3790     8.2400     7.2400     3.8580    21.6010     2.3610    -5.2300 
  235.5000    71.3790     8.2400     7.2400     3.9440    21.4090     2.3890    -5.2930 
  235.6250    71.3790     8.2400     7.2400     4.0430    21.2540     2.4150    -5.3670 
  235.7500    71.3790     8.2400     7.2400     4.0680    21.1350     2.4150    -5.4190 
  235.8750    71.3790     8.2400     7.2400     4.0350    20.7970     2.3720    -5.4260 
  236.0000    71.3790     8.2400     7.2400     4.0090    19.8570     2.2800    -5.4360 
  236.1250    71.3790     8.2400     7.2400     4.1530    18.3830     2.1860    -5.4660 
  236.2500    71.3790     8.2400     7.2400     4.2600    17.1640     2.0140    -5.4650 
  236.3750    71.3790     8.2400     7.2400     4.3300    16.5290     1.9450    -5.4460 
  236.5000    71.3790     8.2400     7.2400     4.3400    16.4070     1.9030    -5.3710 
  236.6250    71.3790     8.2400     7.2400     4.3390    16.4070     1.8850    -5.3110 
  236.7500    71.3790     8.2400     7.2400     4.3390    16.4090     1.8780    -5.3180 
  236.8750    71.3790     8.2400     7.2400     4.3380    16.4070     1.8760    -5.3250 
  237.0000    71.3790     8.2400     7.2400     4.3380    16.4040     1.8750    -5.3260 
  237.1250    71.3790     8.2400     7.2400     4.3370    16.4020     1.8730  -999.2500 
  237.2500    71.3790     8.2400     7.2400     4.3370    16.4020     1.8700  -999.2500 
  237.3750    71.3790     8.2400     7.2400     4.3370    16.4020     1.8670  -999.2500 
  237.5000    71.3790     8.2400     7.2400     4.3380    16.4000     1.8650  -999.2500 
  237.6250    71.3790     8.2400     7.2400     4.3420    16.3960     1.8670  -999.2500 
  237.7500    71.3790     8.2400     7.2400     4.3420    16.3930     1.8700  -999.2500 
  237.8750    71.3790     8.2400     7.2400     4.3420    16.3920     1.8750  -999.2500 
  238.0000  -999.2500  -999.2500  -999.2500  -999.2500  -999.2500     1.8800  -999.2500 
