~V
VERS. 2.00: Ver 2.00
~W
STRT.M 50.0000:
STOP.M 216.0000:
STEP.M 0.1250:
NULL. -999.2500:
UWI. F10607:
~C
DEPT.M :
GR.API :
RML.OHMM :
RI. :
RXO.OHMM :
CALI.CM :
DEN.GM/CC :
SP.MV :
~A
# ...
  106.2500    55.8710    53.2820    40.8910    55.1980    24.1300     2.1630    -3.1140 
  106.3750    50.6150    60.1920    46.9820    65.2090    24.2770     2.1500    -2.8560 
  106.5000    47.2020    63.7540    50.5960    67.2520    24.4380     2.1350    -2.6340 
  106.6250    49.0690    62.4650    50.4000    64.5770    24.6040     2.1250    -2.5000 
  106.7500    52.8380    57.8500    47.4230    59.6450    24.7230     2.1230    -2.4140 
  106.8750    55.6450    51.7060    42.9780    52.5530    24.8050     2.1300    -2.3380 
  107.0000    56.8330    45.8850    38.5270    44.5410    24.8230     2.1390    -2.2850 
  107.1250    56.5730    41.9470    35.3700    37.7940    24.7160     2.1450    -2.2410 
  107.2500    55.8690    40.0300    33.7410    34.3250    24.5180     2.1430    -2.2240 
  107.3750    55.7670    40.0180    33.6160    34.9650    24.4060     2.1340    -2.2300 
  107.5000    56.1940    41.5810    34.8080    37.6290    24.5350     2.1260    -2.2540 
  107.6250    56.8740    44.0410    36.9640    41.7240    24.6760     2.1210    -2.3000 
  107.7500    57.5040    45.6990    38.7960    43.8020    24.7100     2.1200    -2.3360 
  107.8750    57.5480    44.7240    38.6880    42.5810    24.6610     2.1220    -2.4280 
  108.0000    57.1770    40.0050    35.3960    41.4510    24.5630     2.1320    -2.5280 
  108.1250    59.6150    32.2330    29.1670    39.3530    24.3730     2.1600    -2.6870 
  108.2500    66.0490    24.5020    22.6630    30.9900    24.0930     2.1990    -2.8360 
  108.3750    73.5360    18.5550    17.4410    18.9610    23.9250     2.2380    -2.9940 
  108.5000    78.0910    14.9150    14.0140    11.8090    24.0320     2.2600    -3.0890 
  108.6250    76.5810    13.5500    12.4340    10.6800    24.3490     2.2530    -3.0950 
  108.7500    70.9860    13.5670    12.0510    12.0100    24.6690     2.2330    -3.0400 
  108.8750    66.0550    14.5210    12.5840    14.1150    24.8540     2.2130    -2.9340 
  109.0000    67.0970    15.9710    13.7450    16.1230    24.9150     2.2030    -2.7890 
  109.1250    70.2100    17.4390    15.1650    16.8690    24.9020     2.2020    -2.5840 
  109.2500    68.5320    18.6150    16.4350    17.1270    24.9110     2.2090    -2.3400 
  109.3750    63.1410    19.5050    17.4370    17.7400    24.9330     2.2190    -2.0320 
  109.5000    59.2530    20.2960    18.2550    18.9170    24.9180     2.2220    -1.6840 
  109.6250    60.9270    21.2450    19.0780    20.1630    24.8340     2.2060    -1.3190 
  109.7500    63.7970    22.4620    20.0430    20.9860    24.7610     2.1710    -0.9290 
  109.8750    65.2930    23.9290    21.1690    22.1190    24.8390     2.1270    -0.5540 
  110.0000    64.0380    25.5150    22.3780    23.7770    25.0200     2.0900    -0.1870 
  110.1250    60.8730    26.9810    23.4850    25.6510    25.0380     2.0830     0.1610 
  110.2500    59.1140    28.1650    24.3580    26.7610    25.0160     2.1020     0.4570 
  110.3750    59.3640    29.0410    24.9700    26.8430    24.9570     2.1300     0.6940 
  110.5000    58.0830    29.7230    25.4040    26.3170    24.8130     2.1510     0.8510 
  110.6250    54.2360    30.4200    25.8340    26.0610    24.6290     2.1530     0.9270 
  110.7500    52.2840    31.2560    26.3930    26.5400    24.5310     2.1440     0.8970 
  110.8750    52.6300    32.1660    27.0700    27.3990    24.5830     2.1330     0.8160 
  111.0000    52.2590    32.9300    27.7170    28.1580    24.7010     2.1260     0.6500 
  111.1250    50.6220    33.1890    28.0260    29.3930    24.7980     2.1280     0.4140 
  111.2500    51.1840    32.9260    27.8940    29.2700    24.8660     2.1340     0.1290 
  111.3750    52.6720    32.3620    27.4250    28.9160    24.9160     2.1360    -0.1790 
  111.5000    53.5620    31.9120    26.9200    27.1930    24.8020     2.1330    -0.4780 
  111.6250    54.3660    32.1320    26.8390    25.4260    24.6140     2.1370    -0.7500 
  111.7500    53.2890    33.1320    27.3870    25.4500    24.5270     2.1630    -0.9750 
  111.8750    50.5940    34.7880    28.5920    28.1750    24.4920     2.2200    -1.1690 
  112.0000    48.8510    36.7380    30.2930    34.0090    24.3830     2.3000    -1.3260 
  112.1250    47.7450    38.4680    32.1730    40.5750    24.2160     2.3610    -1.4830 
  112.2500    46.0050    39.8800    33.9800    40.7680    24.0850     2.3830    -1.6670 
  112.3750    46.0800    41.3580    35.8540    38.0610    23.9920     2.3840    -1.8840 
  112.5000    48.1550    43.5250    38.1800    38.0540    23.9430     2.4050    -2.1310 
  112.6250    48.0260    47.1220    41.5420    43.3520    23.9620     2.4870    -2.4040 
  112.7500    46.6150    51.8460    45.8600    57.7280    23.9620     2.5850    -2.7010 
  112.8750    47.0750    56.5320    50.3830    84.2590    23.9180     2.6250    -3.0030 
  113.0000    48.8460    58.6390    53.0460    91.1300    23.9020     2.5790    -3.2770 
  113.1250    47.9370    53.7220    49.5900    63.8090    24.0570     2.4730    -3.4890 
  113.2500    46.3880    42.6120    40.2450    42.1250    24.2050     2.3670    -3.6070 
  113.3750    48.8950    29.4440    28.7120    32.9440    24.2840     2.2970    -3.6370 
  113.5000    57.8830    18.6560    19.0340    23.7890    24.2700     2.2850    -3.5820 
  113.6250    69.9020    12.6000    13.2690    13.7990    24.1950     2.3260    -3.4490 
  113.7500    76.5310     9.8940    10.3040     7.9520    24.1640     2.3810    -3.2550 
  113.8750    75.2880     9.6800     9.4400     7.7350    24.1980     2.4230    -3.0150 
  114.0000    69.5730    11.5930    10.3850    11.7500    24.2790     2.4390    -2.7940 
  114.1250    64.7090    16.0360    13.6800    22.1890    24.3590     2.4260    -2.6060 
  114.2500    61.3110    22.4220    19.2450    32.2640    24.2870     2.4060    -2.4790 
  114.3750    57.0850    29.3190    26.2880    35.0760    24.2140     2.3950    -2.4070 
  114.5000    50.8260    33.7650    31.9800    35.7600    24.2370     2.4070    -2.4020 
  114.6250    46.6420    32.0150    31.6240    39.4050    24.3010     2.4350    -2.4570 
  114.7500    48.5990    26.0030    26.4760    41.8530    24.3040     2.4510    -2.5670 
  114.8750    56.5730    19.1110    20.0380    32.9110    24.2810     2.4370    -2.7220 
  115.0000    68.6300    13.8270    14.8710    17.5740    24.3000     2.4000    -2.8780 
  115.1250    79.8070    11.3120    12.0490    10.5240    24.3540     2.3800    -3.0060 
  115.2500    82.8570    11.0370    11.0920     9.4840    24.3960     2.4000    -3.0760 
  115.3750    76.2110    12.8680    11.9080    13.3060    24.3940     2.4570    -3.0910 
  115.5000    65.1590    16.6550    14.5630    23.3810    24.3420     2.5260    -3.0540 
  115.6250    56.7710    21.7860    19.0610    33.2060    24.2970     2.5740    -2.9620 
  115.7500    51.5890    25.9720    23.5770    37.9520    24.2680     2.5860    -2.8310 
  115.8750    49.6480    26.9840    25.6650    40.9760    24.2420     2.5570    -2.6760 
  116.0000    50.8680    24.4100    24.1980    37.3820    24.2200     2.4910    -2.5160 
  116.1250    55.8590    20.2640    20.6790    24.8160    24.2730     2.4060    -2.3710 
  116.2500    63.9970    16.9290    17.5360    15.4850    24.3400     2.3330    -2.2780 
  116.3750    70.6720    14.9700    15.4350    13.6580    24.3140     2.2970    -2.2390 
  116.5000    70.7830    14.2950    14.4010    15.5220    24.2140     2.3070    -2.2470 
  116.6250    67.1970    14.8380    14.4630    18.3550    24.1340     2.3630    -2.3170 
  116.7500    67.9710    16.1190    15.2810    19.3830    24.1030     2.4410    -2.4480 
  116.8750    71.4400    17.7050    16.5240    17.4320    24.1240     2.5180    -2.6430 
  117.0000    70.1890    19.0810    17.7270    20.6180    24.1680     2.5710    -2.8810 
  117.1250    63.0920    19.7430    18.3910    32.4350    24.1800     2.5840    -3.1550 
  117.2500    59.6020    19.8350    18.5480    36.7160    24.1940     2.5670    -3.4270 
  117.3750    61.7600    19.8220    18.5200    27.7060    24.2390     2.5420    -3.6980 
