~V
VERS. 2.00: Ver 2.00
~W
STRT.M 50.0000:
STOP.M 212.0000:
STEP.M 0.1250:
NULL. -999.2500:
UWI. F10691:
~C
DEPT.M :
GR.API :
RML.OHMM :
RI. :
RXO.OHMM :
CALI.CM :
SP.MV :
DEN.GM/CC :
~A
# ...
  151.2500    63.3820    18.6220    15.8850    15.6240    24.6390   -16.2870     2.3290 
  151.3750    63.3460    16.3790    14.2630    14.2390    24.4470   -16.2280     2.3410 
  151.5000    61.1120    13.7040    12.2330    12.5230    24.1930   -16.1420     2.3570 
  151.6250    56.0900    11.1650    10.1830     9.7580    24.1270   -16.0340     2.3730 
  151.7500    49.6570     9.1840     8.4790     6.9830    24.0110   -15.9210     2.3850 
  151.8750    43.9700     7.8730     7.2560     5.7830    23.8350   -15.8070     2.3920 
  152.0000    41.2530     7.1430     6.5040     5.4620    23.6160   -15.7110     2.3930 
  152.1250    40.5190     6.8720     6.1800     5.2780    23.3560   -15.6450     2.3900 
  152.2500    38.6390     6.8080     6.0960     5.0930    22.9620   -15.5910     2.3850 
  152.3750    36.0340     6.8220     6.1400     5.0340    22.4840   -15.5640     2.3790 
  152.5000    35.1670     6.8340     6.2250     5.0810    22.5970   -15.5740     2.3750 
  152.6250    35.9270     6.8140     6.2920     5.1840    22.7730   -15.6190     2.3740 
  152.7500    36.0580     6.7850     6.3290     5.2320    22.9020   -15.7000     2.3750 
  152.8750    35.4830     6.7680     6.3500     5.2220    23.0600   -15.8180     2.3770 
  153.0000    34.5600     6.7750     6.3690     5.2230    23.2620   -15.9730     2.3830 
  153.1250    33.7880     6.8030     6.3950     5.3440    23.6670   -16.1610     2.3950 
  153.2500    33.5150     6.8330     6.4170     5.5650    23.7480   -16.3710     2.4110 
  153.3750    34.2730     6.8510     6.4170     5.7890    23.7430   -16.6080     2.4230 
  153.5000    35.3420     6.8600     6.3880     5.7940    23.3760   -16.8910     2.4240 
  153.6250    34.2440     6.8960     6.3490     5.4870    23.4970   -17.2120     2.4080 
  153.7500    33.3140     7.0060     6.3460     5.2270    23.3700   -17.5820     2.3860 
  153.8750    35.9030     7.2270     6.4160     5.1870    23.1670   -17.9980     2.3720 
  154.0000    42.2740     7.5660     6.5770     5.2960    23.2670   -18.4380     2.3780 
  154.1250    47.7050     8.0020     6.8230     5.5770    23.5630   -18.9070     2.4070 
  154.2500    49.6660     8.4430     7.0840     5.9180    24.0360   -19.4010     2.4390 
  154.3750    50.9730     8.8080     7.2920     6.2390    24.1820   -19.9170     2.4600 
  154.5000    54.5120     9.0400     7.3930     6.3770    24.2210   -20.4300     2.4570 
  154.6250    60.2460     9.1150     7.3550     6.3200    23.8930   -20.9540     2.4300 
  154.7500    65.8420     9.1320     7.2430     6.3750    23.9630   -21.4480     2.3960 
  154.8750    70.7130     9.2230     7.1440     6.7760    24.4430   -21.8910     2.3710 
  155.0000    75.0060     9.5840     7.1810     7.3450    25.2900   -22.3070     2.3640 
  155.1250    78.4410    10.5810     7.5780     7.9450    25.8940   -22.7030     2.3770 
  155.2500    78.5600    12.3720     8.4650     8.8510    25.8630   -23.0920     2.4000 
  155.3750    76.6940    15.0860     9.9870    11.0760    25.6920   -23.4730     2.4200 
  155.5000    75.8800    18.6790    12.2300    15.4380    25.5370   -23.8410     2.4270 
  155.6250    75.6190    22.8560    15.1940    23.7870    25.4050   -24.1900     2.4160 
  155.7500    72.9830    26.8550    18.3710    31.2980    25.4210   -24.5320     2.3940 
  155.8750    67.2990    30.1770    21.2750    31.5530    25.5530   -24.8930     2.3690 
  156.0000    63.1620    32.8570    23.6900    29.9400    25.6770   -25.2540     2.3470 
  156.1250    62.4760    35.5770    25.9000    31.6760    25.7330   -25.6060     2.3320 
  156.2500    62.5940    39.0010    28.4570    36.1450    25.6870   -25.9510     2.3210 
  156.3750    62.4150    43.2280    31.5970    40.3930    25.6230   -26.2780     2.3100 
  156.5000    60.8080    47.7990    35.1650    42.2800    25.4520   -26.5870     2.2990 
  156.6250    57.8350    51.6890    38.5520    40.5760    25.3170   -26.8850     2.2920 
  156.7500    54.5160    54.3570    41.2190    36.3500    25.4460   -27.1770     2.2930 
  156.8750    51.5890    55.9820    43.1190    33.6260    25.6770   -27.4470     2.3000 
  157.0000    51.1120    57.1560    44.5980    36.6760    25.8810   -27.6940     2.3100 
  157.1250    55.5010    58.3120    46.0750    44.9460    25.9120   -27.9260     2.3140 
  157.2500    60.7850    59.3780    47.6530    50.9510    25.9190   -28.1170     2.3090 
  157.3750    61.5050    60.1600    49.1950    53.4890    25.9190   -28.2720     2.2970 
  157.5000    57.9580    60.7410    50.5990    53.4500    25.9160   -28.4050     2.2830 
  157.6250    56.8510    61.6250    52.0140    54.4060    25.8980   -28.4880     2.2740 
  157.7500    57.1250    62.8360    53.5720    56.4560    25.8650   -28.5130     2.2650 
  157.8750    55.5360    63.0390    54.5480    57.5890    25.8870   -28.4790     2.2470 
  158.0000    53.7150    59.4320    52.8530    57.0710    26.0110   -28.3830     2.2070 
  158.1250    53.6440    48.8420    45.1780    56.5530    26.1920   -28.1780     2.1380 
  158.2500    53.6210    34.9400    33.6960    54.8070    26.2500   -27.8810     2.0600 
  158.3750    53.3600    22.3810    22.4470    43.8300    26.3740   -27.5060     2.0030 
  158.5000    51.8650    13.6490    14.1250    24.2800    26.7920   -27.0860     1.9920 
  158.6250    46.3180     9.0790     9.4130    11.2150    28.9000   -26.6460     2.0350 
  158.7500    39.0530     6.7870     6.8000     6.4350    31.8270   -26.2110     2.0880 
  158.8750    34.3680     5.8290     5.4840     5.2030    32.7450   -25.7730     2.1170 
  159.0000    35.0200     5.6000     4.9540     5.1500    31.6460   -25.3550     2.1180 
  159.1250    37.4220     5.7040     4.9150     5.1970    32.4330   -25.0190     2.1350 
  159.2500    36.9220     5.8110     5.0350     5.0840    34.3190   -24.7640     2.2030 
  159.3750    34.0090     5.8100     5.1590     4.7730    36.3730   -24.5650     2.3130 
  159.5000    32.0910     5.7130     5.2190     4.4390    36.6540   -24.3570     2.4110 
  159.6250    32.8770     5.5970     5.2190     4.2920    33.7120   -24.1100     2.4160 
  159.7500    33.4320     5.5080     5.2040     4.3710    29.1900   -23.8520     2.3320 
  159.8750    32.5320     5.4540     5.1920     4.5860    27.9740   -23.5930     2.2160 
  160.0000    30.1790     5.4330     5.1910     4.6780    28.5540   -23.3280     2.1360 
  160.1250    27.1260     5.4520     5.1970     4.5780    29.0360   -23.0550     2.1650 
  160.2500    26.1640     5.5010     5.1950     4.4530    31.0020   -22.7950     2.2890 
  160.3750    28.3050     5.5730     5.1760     4.4970    34.3790   -22.5620     2.4490 
  160.5000    31.8760     5.6530     5.1330     4.6350    36.7160   -22.3850     2.5650 
  160.6250    38.7630     5.7140     5.0650     4.7110    34.5130   -22.2630     2.5740 
  160.7500    49.0450     5.7380     4.9760     4.6820    29.3630   -22.1360     2.5180 
  160.8750    57.9180     5.7260     4.8680     4.6200    26.4380   -21.9940     2.4440 
  161.0000    61.4040     5.6970     4.7540     4.6440    25.8060   -21.8320     2.3860 
  161.1250    61.8250     5.6930     4.6560     4.7620    25.7420   -21.6330     2.3660 
  161.2500    61.4670     5.7430     4.5950     4.7630    25.6950   -21.4300     2.3720 
  161.3750    59.4980     5.8750     4.5920     4.8060    25.6910   -21.2460     2.3870 
  161.5000    57.6210     6.1150     4.6710     4.9350    25.6460   -21.0960     2.3990 
  161.6250    60.2830     6.4910     4.8640     5.3470    25.5530   -20.9840     2.4070 
  161.7500    63.9690     6.9720     5.1510     5.8710    25.5230   -20.9350     2.4150 
  161.8750    64.3610     7.5230     5.5090     6.5240    25.4940   -20.9600     2.4250 
  162.0000    63.8180     8.0820     5.8950     7.5220    25.4390   -21.0370     2.4330 
  162.1250    64.2750     8.5640     6.2510     8.2150    25.3520   -21.1420     2.4300 
  162.2500    64.1670     8.9460     6.5470     8.1260    25.4210   -21.2280     2.4170 
  162.3750    64.3480     9.2510     6.7860     7.7640    25.5050   -21.2910     2.3980 
