~V
VERS. 2.00: Ver 2.00
~W
STRT.M 50.0000:
STOP.M 217.0000:
STEP.M 0.1250:
NULL. -999.2500:
UWI. F10606:
~C
DEPT.M :
DEN.GM/CC :
GR.API :
RML.OHMM :
RI. :
RXO.OHMM :
CALI.CM :
SP.MV :
~A
# ...
  185.0000     2.4700    79.5170    23.8360    23.0300    44.6250    24.2890   -20.4890 
  185.1250     2.4440    73.0170    16.1990    15.6240    19.6500    24.2240   -20.1900 
  185.2500     2.4170    61.8700    11.4330    10.8210     8.8670    24.2140   -19.8910 
  185.3750     2.4010    51.4180     8.7950     7.9850     6.8460    24.2040   -19.5970 
  185.5000     2.3960    45.1940     7.5090     6.4360     6.9370    24.1770   -19.2990 
  185.6250     2.3970    44.5800     7.1190     5.8030     7.1980    24.2120   -19.0920 
  185.7500     2.4060    46.5000     7.1590     5.6610     7.4660    24.2850   -18.9390 
  185.8750     2.4300    48.0290     7.4560     5.8370     7.3400    24.3180   -18.8140 
  186.0000     2.4690    47.6250     7.9120     6.2080     7.1020    24.3130   -18.7990 
  186.1250     2.5080    45.1390     8.4520     6.6890     7.3940    24.3150   -18.8340 
  186.2500     2.5250    43.6930     8.9270     7.1390     8.1190    24.3470   -18.8750 
  186.3750     2.5090    44.3370     9.1690     7.4060     8.8930    24.3470   -18.9760 
  186.5000     2.4660    44.5240     9.0480     7.3620     9.6670    24.3080   -19.0920 
  186.6250     2.4310    40.1900     8.5280     6.9510     9.3580    24.2870   -19.1890 
  186.7500     2.4240    34.1010     7.8510     6.3600     7.4610    24.3030   -19.3210 
  186.8750     2.4390    29.7280     7.2160     5.7530     6.5290    24.3170   -19.4470 
  187.0000     2.4530    27.2100     5.8380     5.2420     7.6590    24.2870   -19.5370 
  187.1250     2.4400    26.4190     5.2460     4.8760     9.4270    24.2090   -19.5940 
  187.2500     2.4040    27.3950     4.8240     4.6070     7.6680    24.1030   -19.6200 
  187.3750     2.3630    29.2910     4.5800     4.3980     5.6010    23.9920   -19.6040 
  187.5000     2.3310    31.0380     4.4730     4.2270     4.7680    23.9400   -19.5620 
  187.6250     2.3130    31.7660     4.4320     4.0900     4.6820    23.9340   -19.5080 
  187.7500     2.3000    31.4860     4.3600     3.9890     4.7740    23.9020   -19.4120 
  187.8750     2.2940    30.7240     4.3220     3.9260     4.9210    23.8600   -19.3070 
  188.0000     2.2960    31.6360     4.3030     3.8890     4.7650    23.8020   -19.2080 
  188.1250     2.3090    33.7460     4.2960     3.8600     4.6190    23.7710   -19.1100 
  188.2500     2.3280    34.1390     4.2990     3.8290     4.5810    23.7580   -19.0250 
  188.3750     2.3450    32.9240     4.3100     3.7960     4.6220    23.7450   -18.9620 
  188.5000     2.3590    31.5500     4.3250     3.7600     4.6320    23.7470   -18.9030 
  188.6250     2.3700    30.9680     4.3420     3.7310     4.6200    23.8510   -18.8260 
  188.7500     2.3760    31.1450     4.3700     3.7190     4.6370    23.9740   -18.8080 
  188.8750     2.3770    32.1020     4.4270     3.7360     4.6550    23.9570   -18.8310 
  189.0000     2.3720    33.2410     4.5260     3.7910     4.7170    23.8060   -18.8600 
  189.1250     2.3640    34.2010     4.6750     3.8940     4.9430    23.7090   -18.9770 
  189.2500     2.3580    35.1340     4.8470     4.0240     5.2690    23.7660   -19.1310 
  189.3750     2.3540    34.9730     5.0190     4.1590     5.5030    23.9050   -19.2760 
  189.5000     2.3550    34.1200     5.1670     4.2730     5.6280    23.9880   -19.4580 
  189.6250     2.3580    33.9660     5.2610     4.3380     5.6080    23.8010   -19.6330 
  189.7500     2.3620    33.2340     5.2930     4.3540     5.3990    23.3810   -19.7270 
  189.8750     2.3690    29.6680     5.2570     4.3210     5.2360    22.9410   -19.7830 
  190.0000     2.3760    25.3980     5.1640     4.2490     5.2660    22.7370   -19.7940 
  190.1250     2.3830    24.5170     5.0410     4.1510     5.2320    23.0550   -19.7330 
  190.2500     2.3870    25.4820     4.9380     4.0560     5.0560    23.5740   -19.6260 
  190.3750     2.3900    26.0330     4.8880     3.9870     4.9690    23.9190   -19.4920 
  190.5000     2.3920    26.1450     4.9050     3.9610     5.3070    24.0700   -19.3540 
  190.6250     2.3940    27.8150     4.9800     3.9880     5.8330    24.1140   -19.2120 
  190.7500     2.3960    30.7430     5.0660     4.0430     6.0330    24.1730   -19.0920 
  190.8750     2.3960    33.2450     5.1230     4.0950     5.7320    24.2320   -18.9800 
  191.0000     2.3940    34.6100     5.1220     4.1120     5.3150    24.2730   -18.8540 
  191.1250     2.3950    35.6150     5.0420     4.0610     4.9940    24.2640   -18.7060 
  191.2500     2.4040    36.8360     4.9120     3.9540     4.7920    24.2430   -18.5940 
  191.3750     2.4220    36.6920     4.7560     3.8130     4.6040    24.2350   -18.4920 
  191.5000     2.4460    34.4620     4.6040     3.6650     4.4350    24.2540   -18.3470 
  191.6250     2.4640    30.8000     4.5000     3.5500     4.3000    24.2520   -18.2510 
  191.7500     2.4660    28.4530     4.4820     3.4990     4.2630    24.2140   -18.1980 
  191.8750     2.4470    29.2590     4.5790     3.5330     4.2550    24.2090   -18.1720 
  192.0000     2.4130    32.3260     4.7960     3.6630     4.2850    24.2430   -18.2430 
  192.1250     2.3780    36.4330     5.1010     3.8850     4.5430    24.2610   -18.3680 
  192.2500     2.3520    39.7220     5.3940     4.1340     4.9950    24.1790   -18.4750 
  192.3750     2.3380    41.5220     5.5850     4.3430     5.2390    24.0510   -18.6140 
  192.5000     2.3300    41.6620     5.6090     4.4480     5.3290    23.9440   -18.7990 
  192.6250     2.3270    40.3130     5.4570     4.4070     5.1310    23.9160   -18.9650 
  192.7500     2.3300    38.7710     5.2370     4.2770     5.0630    23.9170   -19.1190 
  192.8750     2.3400    38.0950     5.0330     4.1180     4.8030    23.9010   -19.2370 
  193.0000     2.3550    38.0130     4.8950     3.9810     4.5730    23.9010   -19.3110 
  193.1250     2.3640    36.7620     4.8390     3.8960     4.4980    23.9750   -19.3450 
  193.2500     2.3660    33.7220     4.8260     3.8510     4.5040    24.0870   -19.3630 
  193.3750     2.3650    31.3230     4.8300     3.8310     4.4410    24.1370   -19.3730 
  193.5000     2.3680    30.5730     4.8340     3.8240     4.3370    24.1260   -19.3480 
  193.6250     2.3730    29.5950     4.8290     3.8180     4.3590    24.1010   -19.3150 
  193.7500     2.3740    28.2860     4.8100     3.8030     4.5230    24.1170   -19.2690 
  193.8750     2.3680    28.1070     4.7770     3.7750     4.6050    24.1280   -19.2280 
  194.0000     2.3560    30.7460     4.7440     3.7430     4.5120    24.0770   -19.1830 
  194.1250     2.3410    33.9260     4.7520     3.7340     4.4050    23.9630   -19.1970 
  194.2500     2.3290    34.8270     4.8440     3.7820     4.4670    23.9680   -19.2200 
  194.3750     2.3250    34.4770     5.0580     3.9180     4.8470    24.1040   -19.2340 
  194.5000     2.3330    36.5010     5.4130     4.1590     5.5910    24.2590   -19.2990 
  194.6250     2.3520    41.0960     5.9010     4.5130     6.5110    24.2970   -19.3760 
  194.7500     2.3700    45.2340     6.4250     4.9200     7.3700    24.2720   -19.4670 
  194.8750     2.3830    46.2110     6.8930     5.3180     8.1550    24.2650   -19.6040 
  195.0000     2.3890    44.6880     7.2280     5.6470     8.8330    24.3030   -19.7510 
  195.1250     2.3930    44.0920     7.3780     5.8470     9.0100    24.3390   -19.8560 
  195.2500     2.3970    44.7090     7.4030     5.9410     8.6810    24.3320   -20.0190 
  195.3750     2.3990    45.7970     7.3530     5.9540     8.4530    24.3100   -20.2330 
  195.5000     2.3970    46.0780     7.2740     5.9180     8.5650    24.3210   -20.4280 
  195.6250     2.3960    45.7420     7.2040     5.8620     8.8950    24.3740   -20.6690 
  195.7500     2.3990    46.1630     7.1720     5.8190     8.8390    24.4000   -20.9140 
  195.8750     2.4060    46.6500     7.1940     5.8130     8.3570    24.4100   -21.1300 
  196.0000     2.4140    46.6270     7.2800     5.8560     8.1200    24.4100   -21.3680 
  196.1250     2.4190    45.3680     7.4210     5.9520     8.3580    24.4590   -21.6170 
