~V
VERS. 2.00: Ver 2.00
~W
STRT.M 55.0000:
STOP.M 192.0000:
STEP.M 0.1250:
NULL. -999.2500:
UWI. F10682:
~C
DEPT.M :
DEN.GM/CC :
GR.API :
RML.OHMM :
RI. :
RXO.OHMM :
CALI.CM :
SP.MV :
~A
# ...
  100.0000     2.4290    72.5670     7.3230     6.3490     6.1320    24.5390   -12.6830 
  100.1250     2.4410    72.6110     7.6420     6.3790     6.5620    24.4940   -12.6800 
  100.2500     2.4320    68.1260     8.1360     6.5220     7.0090    24.4950   -12.6800 
  100.3750     2.4000    63.6910     8.8280     6.8050     7.1200    24.6220   -12.6980 
  100.5000     2.3530    65.2940     9.6940     7.2510     7.2470    24.8290   -12.7010 
  100.6250     2.3080    67.6850    10.6670     7.8700     8.2480    25.0530   -12.7440 
  100.7500     2.2810    63.3500    11.6630     8.6060    10.8770    25.1260   -12.7720 
  100.8750     2.2800    56.7190    12.7320     9.4610    15.6850    25.1360   -12.8170 
  101.0000     2.3120    54.8830    14.1020    10.5150    17.4280    24.9940   -12.8540 
  101.1250     2.3710    56.3580    16.3810    12.0840    14.8780    24.8290   -12.8980 
  101.2500     2.4250    54.9970    19.9320    14.4720    16.0770    24.7480   -12.9550 
  101.3750     2.4390    52.0680    24.9600    18.0400    25.3400    24.6780   -13.0110 
  101.5000     2.3990    50.4130    31.2840    23.0140    38.0590    24.5980   -13.1290 
  101.6250     2.3130    48.2880    38.1160    29.3270    44.9390    25.0650   -13.2260 
  101.7500     2.2240    44.4660    43.9620    35.7280    43.2710    25.4140   -13.3300 
  101.8750     2.1540    42.7100    47.5840    40.8200    43.6270    25.6630   -13.4380 
  102.0000     2.1120    44.0500    48.2480    43.4310    44.1000    25.7700   -13.5190 
  102.1250     2.1030    45.4460    45.0890    42.2210    43.7570    25.7840   -13.5880 
  102.2500     2.1200    47.7120    38.7260    37.4480    41.2160    25.7780   -13.6570 
  102.3750     2.1620    52.0830    30.2280    30.0230    36.4890    25.7310   -13.7160 
  102.5000     2.2220    56.1420    21.6610    22.0400    27.5740    25.5510   -13.7570 
  102.6250     2.2840    58.7960    15.2720    15.7690    16.8990    25.3010   -13.7740 
  102.7500     2.3310    63.1830    11.2630    11.5560     9.7780    25.1330   -13.7970 
  102.8750     2.3530    69.7800     9.2210     9.0880     7.2950    25.1530   -13.8060 
  103.0000     2.3530    72.3180     8.5960     7.9230     7.0010    25.1960   -13.8430 
  103.1250     2.3350    67.6470     9.1260     7.8720     7.3690    25.2430   -13.8980 
  103.2500     2.3120    61.8890    10.4240     8.5960     8.2570    25.2640   -13.9400 
  103.3750     2.2860    59.1820    12.3770    10.0110    10.3570    25.3450   -13.9920 
  103.5000     2.2610    58.4720    14.8480    12.0290    13.5350    25.4560   -14.0010 
  103.6250     2.2360    58.2690    17.6540    14.5440    15.7490    25.4770   -14.0700 
  103.7500     2.2140    57.7980    20.4830    17.2310    17.6330    25.4980   -14.1540 
  103.8750     2.1970    56.5400    23.1150    19.8250    20.5950    25.5750   -14.2290 
  104.0000     2.1870    54.8020    25.3620    22.0870    24.3070    25.7660   -14.3250 
  104.1250     2.1850    52.8330    27.1040    23.8020    27.0030    25.9180   -14.4100 
  104.2500     2.1910    50.9200    28.5460    25.0630    27.1580    25.9280   -14.5020 
  104.3750     2.2050    48.5570    29.8600    25.9580    26.6200    25.8290   -14.5930 
  104.5000     2.2260    45.8840    31.1690    26.6030    27.3290    25.5390   -14.6730 
  104.6250     2.2510    45.4320    32.4650    27.0970    28.4590    25.0620   -14.7050 
  104.7500     2.2680    47.2960    33.6020    27.5170    29.7600    24.5650   -14.7030 
  104.8750     2.2690    48.7930    34.4390    27.8540    30.5930    24.3150   -14.6790 
  105.0000     2.2530    47.1480    34.9850    28.1230    29.5460    24.1700   -14.6420 
  105.1250     2.2260    43.5890    35.4850    28.4460    28.2330    24.1490   -14.5830 
  105.2500     2.1970    41.8100    36.2600    29.0090    28.2200    24.1450   -14.5170 
  105.3750     2.1670    42.7160    37.4770    29.9450    29.3830    24.1450   -14.4200 
  105.5000     2.1300    44.3500    39.1360    31.2880    30.1340    24.1520   -14.3490 
  105.6250     2.0800    44.7210    41.0790    32.9830    30.9300    24.1980   -14.2590 
  105.7500     2.0270    45.3060    42.9670    34.7510    32.3500    24.3140   -14.1690 
  105.8750     1.9840    47.0020    44.5460    36.3470    33.8510    24.4840   -14.1200 
  106.0000     1.9700    48.7690    45.5680    37.5350    35.5970    24.8520   -14.0440 
  106.1250     2.0010    47.4730    45.6380    37.9820    38.1710    25.3380   -14.0150 
  106.2500     2.0770    45.4560    44.8020    37.6810    40.1720    25.6510   -13.9890 
  106.3750     2.1890    45.3200    43.2390    36.7140    40.2490    25.6980   -13.9910 
  106.5000     2.3160    47.5690    41.3250    35.3250    38.8890    25.7030   -14.0260 
  106.6250     2.4120    48.6380    39.5490    33.8660    36.1520    25.6500   -14.0790 
  106.7500     2.4410    47.2410    38.1510    32.6100    33.8110    25.4640   -14.1600 
  106.8750     2.3960    46.7330    37.0460    31.6100    33.9140    25.1640   -14.2180 
  107.0000     2.3110    49.1700    35.9770    30.7750    33.9480    25.1410   -14.2760 
  107.1250     2.2390    52.1930    34.7240    29.9860    32.4980    25.4230   -14.3070 
  107.2500     2.2010    52.9190    33.3790    29.2100    32.6650    25.6820   -14.3190 
  107.3750     2.1880    52.3240    32.1860    28.5210    31.2950    25.7700   -14.3450 
  107.5000     2.1800    51.5130    31.4140    28.0430    28.1710    25.7860   -14.3310 
  107.6250     2.1620    50.0660    31.2410    27.9090    27.4110    25.7900   -14.3420 
  107.7500     2.1450    48.9430    31.3560    27.9810    28.3600    25.8130   -14.3550 
  107.8750     2.1450    49.2750    31.3830    28.0290    29.1990    25.8550   -14.3740 
  108.0000     2.1760    50.9330    30.9950    27.7950    28.6610    25.8530   -14.4350 
  108.1250     2.2300    52.9880    30.0210    27.0840    25.9690    25.7060   -14.5100 
  108.2500     2.2800    53.6000    28.7540    26.0780    24.1300    25.2740   -14.6120 
  108.3750     2.3060    53.5980    27.4830    25.0040    24.1010    24.9580   -14.6960 
  108.5000     2.3000    54.9660    26.4190    24.0600    24.3540    24.8050   -14.7830 
  108.6250     2.2740    55.3900    25.6630    23.3650    23.2640    24.8200   -14.8640 
  108.7500     2.2490    53.6930    25.1270    22.8510    22.0130    24.9640   -14.9050 
  108.8750     2.2310    52.1280    24.7570    22.4660    21.5590    25.0580   -14.9640 
  109.0000     2.2230    52.2380    24.5090    22.1750    21.4800    25.0810   -14.9900 
  109.1250     2.2210    51.6760    24.3100    21.9580    21.2720    25.1280   -15.0090 
  109.2500     2.2200    49.7600    23.9970    21.7270    21.0880    25.2520   -15.0270 
  109.3750     2.2160    50.6310    23.4040    21.3680    21.0450    25.3880   -15.0500 
  109.5000     2.2060    53.4060    22.4500    20.7720    21.1740    25.4430   -15.0940 
  109.6250     2.1960    53.0380    21.2240    19.8800    21.4660    25.4170   -15.1050 
  109.7500     2.2020    50.2270    20.0660    18.8850    20.8000    25.3170   -15.1340 
  109.8750     2.2420    48.1800    19.2410    17.9960    18.6860    25.1960   -15.1670 
  110.0000     2.3170    48.7950    18.8850    17.3730    16.9110    25.1580   -15.2040 
  110.1250     2.3960    49.3320    19.0070    17.1190    16.5100    25.1110   -15.2480 
  110.2500     2.4320    48.1150    19.3430    17.1080    17.7250    25.0580   -15.2680 
  110.3750     2.4060    47.7920    19.7030    17.2190    19.8570    25.1220   -15.2280 
  110.5000     2.3330    50.5330    19.9710    17.3480    17.7630    25.0170   -15.1790 
  110.6250     2.2530    53.9840    20.1830    17.4870    16.0730    24.7690   -15.1500 
  110.7500     2.1940    52.9750    20.5730    17.7490    15.7880    24.7080   -15.1310 
  110.8750     2.1640    49.3380    21.3850    18.2830    16.9460    24.7240   -15.1020 
  111.0000     2.1590    48.8890    22.7440    19.1960    18.9950    24.8430   -15.0880 
  111.1250     2.1730    52.1670    24.5750    20.5210    21.4760    25.1180   -15.0820 
