~V
VERS. 2.00: Ver 2.00
~W
STRT.M 54.0000:
STOP.M 246.0000:
STEP.M 0.1250:
NULL. -999.2500:
UWI. F10643:
~C
DEPT.M :
SP.MV :
GR.API :
RML.OHMM :
RI. :
RXO.OHMM :
CALI.CM :
DEN.GM/CC :
~A
# ...
   65.2500   -24.9970    60.8840    11.8440    10.0110     9.0130    23.2760     2.1420 
   65.3750   -25.1410    57.5250    11.9380    10.2260     9.3340    23.6250     2.1370 
   65.5000   -25.2950    56.2400    11.8260    10.1790     9.7400    24.0070     2.1390 
   65.6250   -25.4220    55.6300    11.7970    10.1130    10.0300    24.2160     2.1430 
   65.7500   -25.5360    55.0080    11.8790    10.0910    10.2410    24.3060     2.1450 
   65.8750   -25.6490    56.1410    11.9840    10.0790    10.4360    24.3350     2.1460 
   66.0000   -25.7430    58.0240    11.9840     9.9980    10.4440    24.3270     2.1460 
   66.1250   -25.8390    58.0350    11.8590     9.8280    10.2470    24.3240     2.1470 
   66.2500   -25.9040    57.0780    11.6570     9.5910     9.8800    24.2670     2.1520 
   66.3750   -25.9380    56.7820    11.4500     9.3390     9.2450    24.1240     2.1610 
   66.5000   -25.9230    54.8490    11.3120     9.1360     8.8790    23.9310     2.1720 
   66.6250   -25.8690    53.7890    11.2530     9.0030     8.8530    23.8370     2.1780 
   66.7500   -25.7690    58.4960    11.2460     8.9250     9.0800    23.8740     2.1790 
   66.8750   -25.6290    66.7570    11.2420     8.8690     9.2150    24.0430     2.1760 
   67.0000   -25.4740    69.9590    11.1910     8.7940     9.0810    24.1640     2.1750 
   67.1250   -25.2790    66.9110    11.0960     8.6890     8.9420    24.1650     2.1750 
   67.2500   -25.0790    63.8240    10.9850     8.5680     8.8130    24.0520     2.1760 
   67.3750   -24.8800    65.2610    10.8950     8.4580     8.5340    23.9080     2.1720 
   67.5000   -24.7110    68.2270    10.8580     8.3870     8.5150    23.8390     2.1590 
   67.6250   -24.5570    68.3400    10.8550     8.3500     8.7550    23.8280     2.1420 
   67.7500   -24.4490    65.6320    10.8550     8.3320     8.9810    23.8310     2.1270 
   67.8750   -24.3570    63.3380    10.8390     8.3160     8.8950    23.8280     2.1190 
   68.0000   -24.2990    62.3850    10.8120     8.2990     8.6120    23.8170     2.1200 
   68.1250   -24.2600    61.3020    10.8080     8.2980     8.4320    23.7990     2.1240 
   68.2500   -24.2390    60.6760    10.8540     8.3330     8.2520    23.7750     2.1280 
   68.3750   -24.2180    60.7770    10.9560     8.4130     8.2200    23.7270     2.1270 
   68.5000   -24.2130    61.3050    11.0960     8.5350     8.3480    23.7440     2.1190 
   68.6250   -24.2100    60.5260    11.2510     8.6770     8.7840    23.7980     2.1100 
   68.7500   -24.1850    58.1320    11.4270     8.8390     9.0410    23.8270     2.1020 
   68.8750   -24.1470    55.8040    11.6300     9.0200     9.0110    23.8310     2.1000 
   69.0000   -24.0670    54.9230    11.8180     9.1950     8.9110    23.8380     2.1020 
   69.1250   -23.9740    54.8690    11.8750     9.2900     9.0770    23.8680     2.1070 
   69.2500   -23.8490    55.3040    11.6760     9.2170     9.3820    23.9330     2.1170 
   69.3750   -23.7030    57.3150    11.1530     8.9140     9.1430    23.9500     2.1370 
   69.5000   -23.5030    61.4360    10.3270     8.3660     7.9320    23.7580     2.1700 
   69.6250   -23.2590    66.0840     9.4230     7.7110     6.6720    23.4350     2.2070 
   69.7500   -22.9970    72.0330     8.6100     7.0670     5.9710    23.2230     2.2410 
   69.8750   -22.7350    77.6110     7.9970     6.5260     5.5850    23.1860     2.2650 
   70.0000   -22.4850    80.6510     7.6480     6.1600     5.3810    23.2780     2.2740 
   70.1250   -22.2600    83.0360     7.4720     5.9310     5.3610    23.3980     2.2730 
   70.2500   -22.0760    85.2530     7.3800     5.7940     5.3450    23.4100     2.2650 
   70.3750   -21.9190    83.9620     7.2810     5.6860     5.4110    23.3270     2.2520 
   70.5000   -21.8610    80.0790     7.1370     5.5690     5.4930    23.2000     2.2380 
   70.6250   -21.8590    79.8370     7.0110     5.4640     5.4560    23.1720     2.2320 
   70.7500   -21.9160    81.9160     6.9990     5.4260     5.2850    23.2420     2.2450 
   70.8750   -22.0310    80.2230     7.1770     5.5120     4.9920    23.3370     2.2780 
   71.0000   -22.1990    73.8680     7.5780     5.7650     5.6040    23.3840     2.3110 
   71.1250   -22.4010    69.8760     8.0770     6.1210     6.8920    23.4040     2.3160 
   71.2500   -22.6300    68.4550     8.5450     6.4980     8.0920    23.4520     2.2880 
   71.3750   -22.9050    67.1720     8.8830     6.8140     8.2000    23.5670     2.2420 
   71.5000   -23.1710    67.4630     9.0560     7.0130     7.6010    23.6690     2.2030 
   71.6250   -23.4310    69.6470     9.1820     7.1430     7.0940    23.6900     2.1790 
   71.7500   -23.6680    70.1220     9.3670     7.2750     7.4650    23.6320     2.1690 
   71.8750   -23.8840    66.2730     9.6790     7.4700     8.4130    23.6100     2.1660 
   72.0000   -24.0660    61.5950    10.1320     7.7600     8.9170    23.6920     2.1620 
   72.1250   -24.2080    60.5060    10.6370     8.1000     8.8910    23.7710     2.1570 
   72.2500   -24.3100    60.4290    11.1190     8.4370     8.8820    23.8060     2.1470 
   72.3750   -24.3440    58.8830    11.5220     8.7250     9.2400    23.8660     2.1320 
   72.5000   -24.3320    57.3920    11.8110     8.9300     9.6580    23.9690     2.1180 
   72.6250   -24.2960    57.3380    12.0220     9.0700     9.9010    24.0290     2.1110 
   72.7500   -24.2230    58.1530    12.1720     9.1600     9.8240    24.0120     2.1140 
   72.8750   -24.1380    57.4250    12.2750     9.2100     9.7430    23.9180     2.1220 
   73.0000   -24.0090    55.1250    12.3400     9.2330     9.7060    23.8070     2.1320 
   73.1250   -23.8890    53.8750    12.3910     9.2480     9.5300    23.7250     2.1390 
   73.2500   -23.7690    54.6300    12.4400     9.2680     9.3840    23.6340     2.1400 
   73.3750   -23.6760    57.0750    12.4930     9.2990     9.3950    23.5840     2.1370 
   73.5000   -23.5790    57.9130    12.5420     9.3400     9.5220    23.6740     2.1320 
   73.6250   -23.5090    57.0480    12.5710     9.3820     9.6890    23.8650     2.1290 
   73.7500   -23.4530    55.8020    12.5720     9.4170     9.8020    23.9830     2.1290 
   73.8750   -23.4090    54.0920    12.5590     9.4460     9.9020    23.9800     2.1330 
   74.0000   -23.4190    53.5700    12.5720     9.4850     9.8870    23.9140     2.1380 
   74.1250   -23.4160    55.3550    12.6450     9.5490     9.7630    23.9140     2.1440 
   74.2500   -23.4180    59.8720    12.7680     9.6370     9.6570    23.9270     2.1460 
   74.3750   -23.4050    63.9350    12.8580     9.7070     9.6660    23.8870     2.1450 
   74.5000   -23.4040    64.7340    12.7050     9.6310     9.5300    23.7770     2.1410 
   74.6250   -23.3760    64.4810    12.1700     9.3100     9.0070    23.5390     2.1400 
   74.7500   -23.3520    64.0900    11.2300     8.7050     8.1780    23.1080     2.1460 
   74.8750   -23.2910    65.6930    10.0260     7.8800     7.4030    22.5790     2.1620 
   75.0000   -23.1710    72.0830     8.8490     7.0020     6.3480    22.5470     2.1880 
   75.1250   -23.0210    80.9650     7.9390     6.2530     5.6610    22.8800     2.2180 
   75.2500   -22.8330    87.1000     7.3830     5.7210     5.3460    23.2440     2.2470 
   75.3750   -22.6280    87.0690     7.1610     5.4250     5.3520    23.3880     2.2680 
   75.5000   -22.3810    83.2380     7.2090     5.3510     5.5640    23.3290     2.2740 
   75.6250   -22.1250    80.6310     7.3490     5.3880     5.8920    23.1730     2.2710 
   75.7500   -21.8560    80.5660     7.4720     5.4590     6.0610    22.9400     2.2660 
   75.8750   -21.5860    81.9870     7.5170     5.5060     5.9760    22.7190     2.2640 
   76.0000   -21.3700    83.1640     7.4900     5.5070     5.8090    22.7580     2.2630 
   76.1250   -21.1870    81.5190     7.4990     5.5080     5.8720    22.9420     2.2600 
   76.2500   -21.0550    76.7010     7.6510     5.5700     6.0950    23.2210     2.2520 
   76.3750   -20.9590    71.9560     8.0220     5.7520     6.3080    23.4390     2.2410 
