~V
VERS. 2.00: Ver 2.00
~W
STRT.M 55.0000:
STOP.M 253.0000:
STEP.M 0.1250:
NULL. -999.2500:
UWI. F10665:
~C
DEPT.M :
SP.MV :
DEN.GM/CC :
GR.API :
RML.OHMM :
RI. :
RXO.OHMM :
CALI.CM :
~A
   55.0000    57.0230     1.4180    58.1440     1.0720     0.9440     2.4430    25.2420 
   55.1250    54.9750     1.5200    53.7220     1.0270     0.9490     2.4370    25.2860 
   55.2500    52.2340     1.6730    47.3540     1.0160     0.9530     2.5520    25.2960 
   55.3750    48.8940     1.8060    42.3380     1.0260     0.9560     2.6640    25.3020 
   55.5000    45.2370     1.8740    40.4240     1.0340     0.9580     3.1880    25.3060 
   55.6250    41.7780     1.8860    40.4960     1.0150     0.9580     4.2990    25.3070 
   55.7500    38.9350     1.8850    39.9800     0.9780     0.9560     5.4490    25.3030 
   55.8750    36.8790     1.8860    39.5200     0.9430     0.9540     5.9720    25.2920 
   56.0000    35.5020     1.8960    39.8410     0.9230     0.9500     7.2840    25.2800 
   56.1250    34.6820     1.9190    39.3280     0.9260     0.9470     7.6310    25.2750 
   56.2500    34.2470     1.9520    39.1110     0.9400     0.9450     7.1200    25.2740 
   56.3750    34.1560     1.9820    40.5160     0.9570     0.9440     7.5290    25.2730 
   56.5000    34.3300     1.9870    41.9620     0.9710     0.9420     7.6600    25.2710 
   56.6250    34.7040     1.9330    41.3720     0.9810     0.9390     8.0040    25.2670 
   56.7500    35.2180     1.8340    39.8140     0.9960     0.9350     7.5350    25.2650 
   56.8750    35.8690     1.7150    39.1040     1.0250     0.9300     8.2090    25.2640 
   57.0000    36.6430     1.5990    40.0800     1.0630     0.9240    11.8900    25.2640 
   57.1250    37.5800     1.5040    42.4570     1.0520     0.8950    17.7450    25.2640 
   57.2500    38.5590     1.4440    45.1270     0.9110     0.8180    15.3410    25.2640 
   57.3750    39.4930     1.4510    45.5810     0.6440     0.6910     7.1990    25.2610 
   57.5000    40.3110     1.5660    43.4850     0.3700     0.5500     4.0780    25.2420 
   57.6250    40.7320     1.7970    40.5030     0.2160     0.4460     3.1270    25.1780 
   57.7500    40.4000     2.0460    39.2330     0.1820     0.3950     2.4710    25.0310 
   57.8750    38.8260     2.2320    41.8240     0.2740     0.4000     2.1090    24.7440 
   58.0000    35.9470     2.3110    48.0570     0.5360     0.4790     2.9060    24.3000 
   58.1250    31.8640     2.2800    54.3500     1.1320     0.6960     4.2600    23.9970 
   58.2500    27.1150     2.2080    58.5100     2.1570     1.1160     6.5840    23.8990 
   58.3750    21.8820     2.1350    59.9520     3.6090     1.8290     8.1290    23.9970 
   58.5000    16.3120     2.0860    59.9910     5.1600     2.8400     8.5480    24.1610 
   58.6250    10.7030     2.0670    58.7090     6.1590     3.9540     8.6370    24.2030 
   58.7500     5.4820     2.0730    56.6810     6.5930     4.8810     8.4220    24.0950 
   58.8750     1.1430     2.1010    54.9090     6.7960     5.5570     8.0740    23.8270 
   59.0000    -2.2490     2.1390    53.6730     7.0330     6.0420     7.9910    23.4700 
   59.1250    -4.8410     2.1590    54.0880     7.3580     6.3740     8.6590    23.2990 
   59.2500    -6.9540     2.1530    55.2620     7.6840     6.6000     9.3520    23.3970 
   59.3750    -8.6790     2.1280    55.5900     7.9460     6.7450     9.1970    23.7430 
   59.5000   -10.0790     2.1010    54.3780     8.1210     6.8350     8.7570    24.0190 
   59.6250   -11.1460     2.0880    53.0920     8.2130     6.8940     8.5720    23.9560 
   59.7500   -11.9530     2.0910    55.0530     8.2540     6.9390     8.7780    23.6950 
   59.8750   -12.5730     2.1020    58.0310     8.2550     6.9680     8.4400    23.4900 
   60.0000   -13.0030     2.1150    59.1420     8.2330     6.9670     7.8440    23.3460 
   60.1250   -13.2490     2.1290    60.0740     8.1820     6.9100     7.5550    23.2230 
   60.2500   -13.4360     2.1450    61.3370     8.0900     6.7920     7.5220    23.0560 
   60.3750   -13.6470     2.1600    61.1540     7.9470     6.6170     7.4210    22.9460 
   60.5000   -13.9370     2.1710    59.0000     7.7630     6.4070     7.2590    23.0340 
   60.6250   -14.3850     2.1820    57.5910     7.5690     6.1960     7.1430    23.2280 
   60.7500   -15.0050     2.1960    58.7010     7.4020     6.0180     7.1870    23.3690 
   60.8750   -15.7800     2.2120    61.1650     7.2910     5.8990     7.2160    23.4590 
   61.0000   -16.6830     2.2200    64.1020     7.2530     5.8570     7.2290    23.5330 
   61.1250   -17.6800     2.2100    66.2570     7.3120     5.9110     7.3470    23.6120 
   61.2500   -18.7430     2.1820    67.5590     7.4440     6.0310     7.9260    23.7750 
   61.3750   -19.8110     2.1510    68.6140     7.6160     6.1910     8.5280    23.9070 
   61.5000   -20.8220     2.1320    69.2150     7.7870     6.3530     9.0080    23.9080 
   61.6250   -21.7260     2.1370    67.6850     7.9160     6.4770     9.4290    23.8120 
   61.7500   -22.4880     2.1550    65.2430     8.0110     6.5550     9.3950    23.8250 
   61.8750   -23.1210     2.1700    64.2250     8.0920     6.5950     9.4340    23.9460 
   62.0000   -23.6350     2.1670    64.7520     8.1780     6.6150     9.3900    24.0750 
   62.1250   -24.0930     2.1440    63.1800     8.2720     6.6270     9.2840    24.2440 
   62.2500   -24.4620     2.1110    60.8960     8.3570     6.6310     9.2020    24.4020 
   62.3750   -24.7900     2.0730    61.2050     8.4130     6.6210     8.8650    24.5570 
   62.5000   -25.0820     2.0350    63.3400     8.4300     6.5960     8.2170    24.5680 
   62.6250   -25.3370     2.0100    62.4670     8.4070     6.5640     7.7790    24.4200 
   62.7500   -25.5880     2.0060    58.4890     8.3780     6.5450     7.6220    24.1720 
   62.8750   -25.8260     2.0330    54.8750     8.3730     6.5480     7.6820    23.9820 
   63.0000   -26.0770     2.0870    53.9250     8.4080     6.5760     7.8240    23.9400 
   63.1250   -26.3210     2.1470    56.8080     8.4710     6.6180     8.1250    23.9190 
   63.2500   -26.5890     2.1800    59.7750     8.5270     6.6590     8.4650    23.8310 
   63.3750   -26.8400     2.1740    60.2900     8.5520     6.6860     8.7740    23.6830 
   63.5000   -27.0840     2.1370    59.5980     8.5430     6.7010     9.0790    23.5230 
   63.6250   -27.3080     2.0910    60.1390     8.5180     6.7040     9.0930    23.4110 
   63.7500   -27.5140     2.0600    60.4310     8.5080     6.7040     9.0030    23.4040 
   63.8750   -27.7060     2.0540    58.9990     8.5300     6.7050     9.0360    23.5360 
   64.0000   -27.8770     2.0720    58.3910     8.5830     6.7110     9.1590    23.7760 
   64.1250   -27.9990     2.1050    60.3420     8.6640     6.7310     9.1910    23.9270 
   64.2500   -28.0540     2.1440    61.2540     8.7640     6.7700     9.0970    24.0040 
   64.3750   -28.0630     2.1800    59.5760     8.8840     6.8330     9.4150    24.0090 
   64.5000   -28.0360     2.2060    55.8890     9.0280     6.9260     9.7700    23.8670 
   64.6250   -28.0050     2.2100    52.6030     9.1910     7.0540    10.1830    23.6710 
   64.7500   -27.9410     2.1930    52.4620     9.3520     7.1980    10.5870    23.6700 
   64.8750   -27.8680     2.1600    55.8660     9.4920     7.3400    11.1350    23.8290 
   65.0000   -27.7730     2.1220    60.6470     9.5950     7.4580    11.5450    23.9610 
   65.1250   -27.6850     2.0980    62.8500     9.6390     7.5220    11.5630    24.0170 
   65.2500   -27.6020     2.0920    62.7590     9.6250     7.5290    11.1180    24.0590 
   65.3750   -27.5340     2.1020    60.8990     9.5570     7.4830    10.6030    24.0550 
   65.5000   -27.4680     2.1170    59.4640     9.4450     7.3990    10.8390    24.0430 
   65.6250   -27.3660     2.1260    61.0640     9.3090     7.2950    11.3120    23.9450 
   65.7500   -27.2640     2.1330    62.8170     9.1720     7.1890    11.2260    23.7210 
   65.8750   -27.1200     2.1400    62.4630     9.0410     7.0890    10.9260    23.4940 
   66.0000   -26.9560     2.1430    60.4380     8.9160     6.9960    10.8760    23.5580 
   66.1250   -26.7010     2.1390    57.8770     8.7910     6.9170    10.7980    23.8820 
