~V
VERS. 2.00: Ver 2.00
~W
STRT.M 50.0000:
STOP.M 265.0000:
STEP.M 0.1250:
NULL. -999.2500:
UWI. F10671:
~C
DEPT.M :
GR.API :
RML.OHMM :
RI. :
RXO.OHMM :
CALI.CM :
DEN.GM/CC :
SP.MV :
~A
# ...
  140.0000    59.6170    24.3300    21.3420    23.8590    25.0420     2.1140    -3.5170 
  140.1250    61.5410    24.3860    21.5870    24.3520    25.1150     2.1240    -3.4480 
  140.2500    63.8610    23.9280    21.2840    23.6200    25.1520     2.1370    -3.3940 
  140.3750    64.6040    23.2270    20.6750    22.0570    25.1550     2.1510    -3.3450 
  140.5000    66.0120    22.5850    20.0390    20.2870    25.1330     2.1640    -3.3080 
  140.6250    68.8170    22.3220    19.6750    19.0760    25.1360     2.1720    -3.2900 
  140.7500    69.7870    22.4750    19.6640    19.1090    25.2000     2.1730    -3.2830 
  140.8750    67.9520    22.9770    19.9890    19.5530    25.3270     2.1700    -3.3040 
  141.0000    64.5440    23.6850    20.5600    19.9870    25.4720     2.1670    -3.3070 
  141.1250    60.4300    24.4280    21.2560    20.6330    25.5120     2.1640    -3.2960 
  141.2500    55.6580    25.0690    21.9370    21.3180    25.4080     2.1640    -3.2660 
  141.3750    52.2320    25.5480    22.5240    22.1350    25.1760     2.1660    -3.1820 
  141.5000    52.4800    25.8470    22.9730    23.1720    24.8980     2.1700    -3.1100 
  141.6250    55.4790    25.9590    23.2420    24.0680    24.7240     2.1760    -3.1100 
  141.7500    57.7210    25.9620    23.3740    24.4620    24.6390     2.1800    -3.1060 
  141.8750    58.6900    25.9220    23.4150    24.0240    24.5750     2.1800    -3.0520 
  142.0000    60.3610    25.8830    23.4070    23.6170    24.5260     2.1760    -2.9740 
  142.1250    64.4500    25.8320    23.3560    24.6550    24.5390     2.1670    -2.9840 
  142.2500    66.3810    25.6820    23.2180    26.6110    24.5800     2.1540    -3.0470 
  142.3750    63.8350    25.3390    22.9250    28.1910    24.6220     2.1390    -3.1180 
  142.5000    58.9320    24.7730    22.4450    27.4660    24.6680     2.1220    -3.1800 
  142.6250    57.8290    24.0940    21.8420    24.7090    24.7400     2.1090    -3.2330 
  142.7500    60.3470    23.5930    21.3430    22.8470    24.8120     2.1050    -3.3110 
  142.8750    62.1800    23.5450    21.1830    21.9440    24.8440     2.1160    -3.3380 
  143.0000    61.1360    24.1420    21.5520    22.0040    24.8100     2.1410    -3.3440 
  143.1250    57.5810    25.5060    22.6240    23.4020    24.7250     2.1710    -3.2680 
  143.2500    55.1590    27.3190    24.1840    25.8400    24.6720     2.1940    -3.1930 
  143.3750    54.7360    29.2500    25.9810    28.7200    24.6460     2.2010    -3.1410 
  143.5000    54.5160    30.9410    27.6890    31.0360    24.6190     2.1880    -3.1160 
  143.6250    54.7100    31.9880    28.8990    32.0400    24.5600     2.1600    -3.0410 
  143.7500    55.2530    32.3660    29.5020    32.8150    24.4780     2.1320    -2.9660 
  143.8750    55.6510    32.1460    29.5190    33.1110    24.3950     2.1130    -3.0100 
  144.0000    54.1450    31.4950    29.0860    31.5590    24.2500     2.1090    -3.1390 
  144.1250    51.4920    30.5780    28.3600    29.8470    23.9080     2.1180    -3.3170 
  144.2500    51.4780    29.6110    27.5660    28.6380    23.4570     2.1310    -3.5200 
  144.3750    53.4650    28.7340    26.8400    27.7630    23.1160     2.1400    -3.7870 
  144.5000    55.2100    28.0650    26.2940    26.7810    23.0090     2.1430    -4.0650 
  144.6250    56.4980    27.7020    26.0220    25.7090    23.2150     2.1390    -4.4240 
  144.7500    57.6890    27.5220    25.9260    24.9950    23.6370     2.1360    -4.8280 
  144.8750    57.6310    27.3430    25.8500    24.7940    24.0310     2.1360    -5.2640 
  145.0000    56.2220    26.9360    25.5840    24.9430    24.1830     2.1370    -5.7490 
  145.1250    58.2300    26.0400    24.8740    24.6810    24.1230     2.1390    -6.2060 
  145.2500    63.7480    24.7240    23.7480    23.3350    24.0210     2.1400    -6.4890 
  145.3750    68.4440    23.1630    22.3430    21.0670    23.9400     2.1410    -6.5300 
  145.5000    69.8790    21.6210    20.8900    18.6950    23.9300     2.1430    -6.4490 
  145.6250    69.1580    20.4120    19.6720    16.9900    23.9780     2.1470    -6.3460 
  145.7500    67.2840    19.6450    18.8230    15.9830    24.0250     2.1530    -6.2010 
  145.8750    64.3070    19.3600    18.4130    15.6590    24.0400     2.1610    -5.9090 
  146.0000    62.0140    19.5460    18.4610    15.8450    24.0350     2.1710    -5.5200 
  146.1250    63.8140    20.2160    19.0150    16.4830    24.0180     2.1800    -5.1500 
  146.2500    67.8420    21.2040    19.9200    16.9320    23.9810     2.1860    -4.8600 
  146.3750    69.7180    22.3750    21.0440    17.8620    23.9190     2.1870    -4.7480 
  146.5000    67.7820    23.5590    22.2110    19.7400    23.8610     2.1850    -4.7740 
  146.6250    66.6740    24.5330    23.1910    21.5330    23.8330     2.1900    -4.7580 
  146.7500    67.9500    25.1930    23.8590    22.8690    23.8140     2.2050    -4.7580 
  146.8750    69.5090    25.4970    24.1650    23.3330    23.7910     2.2280    -4.8170 
  147.0000    68.4300    25.4730    24.1240    22.7600    23.7850     2.2520    -4.8330 
  147.1250    62.9800    25.1470    23.7610    22.9230    23.8290     2.2660    -4.8590 
  147.2500    57.4980    24.6520    23.2130    23.6600    23.9080     2.2680    -4.9450 
  147.3750    56.1770    24.1010    22.5930    23.9420    23.9960     2.2590    -5.0180 
  147.5000    60.4480    23.6860    22.0690    23.3070    24.0690     2.2430    -5.0510 
  147.6250    65.6370    23.7640    21.9530    22.4680    24.1400     2.2270    -5.0890 
  147.7500    66.5280    24.5070    22.4120    21.6990    24.2390     2.2220    -5.0810 
  147.8750    64.6790    25.9330    23.5060    22.1000    24.3550     2.2320    -5.0410 
  148.0000    64.1470    27.8090    25.0890    23.8260    24.3690     2.2570    -5.0620 
  148.1250    67.5690    29.5800    26.7480    26.7120    24.2310     2.2870    -5.0850 
  148.2500    69.1220    30.6960    27.9540    28.9710    24.0800     2.3090    -5.0550 
  148.3750    66.2900    30.9140    28.4090    28.9940    23.9990     2.3160    -5.0260 
  148.5000    64.0140    30.3410    28.1100    26.3490    24.0040     2.3070    -4.9810 
  148.6250    68.3660    29.3260    27.2820    22.1260    23.9890     2.2870    -4.8770 
  148.7500    73.7610    28.2620    26.2910    18.9690    23.9390     2.2620    -4.7980 
  148.8750    73.2800    27.1560    25.1840    18.5300    23.9030     2.2380    -4.7910 
  149.0000    66.8990    25.8180    23.8400    20.8230    23.9550     2.2180    -4.7720 
  149.1250    62.5520    24.0280    22.0960    21.9580    24.0870     2.2070    -4.7340 
  149.2500    63.7860    21.9760    20.1210    20.9060    24.2370     2.2030    -4.7660 
  149.3750    67.0680    20.0080    18.1990    18.1190    24.2960     2.2030    -4.8570 
  149.5000    70.0930    18.5200    16.6510    15.2720    24.2460     2.2020    -4.9230 
  149.6250    73.6610    17.9400    15.8360    14.3250    24.1260     2.1990    -4.9980 
  149.7500    74.6940    18.1820    15.7330    14.9950    24.0460     2.1960    -5.0940 
  149.8750    69.4930    19.0970    16.2740    15.5590    24.0410     2.1950    -5.1070 
  150.0000    61.8920    20.4450    17.3060    16.1670    24.1000     2.1960    -5.0560 
  150.1250    59.9200    21.9390    18.6300    17.7350    24.2920     2.2000    -5.0280 
  150.2500    61.7740    23.3030    19.9650    20.0640    24.5890     2.2030    -4.9610 
  150.3750    62.3660    24.4180    21.1600    22.1570    24.8500     2.2050    -4.8110 
  150.5000    59.5560    25.2510    22.1390    23.4800    24.9300     2.2030    -4.7130 
  150.6250    56.4370    25.7420    22.8110    23.7290    24.9160     2.1970    -4.6650 
  150.7500    56.4920    25.8710    23.1330    23.5670    24.9160     2.1860    -4.6150 
  150.8750    58.8400    25.5120    22.9770    23.2620    24.9320     2.1720    -4.6690 
  151.0000    60.9080    24.5350    22.2190    22.7310    24.9380     2.1590    -4.8030 
  151.1250    61.7780    22.8300    20.7340    21.4810    24.9150     2.1550    -4.9430 
