~V
VERS. 2.00: Ver 2.00
~W
STRT.M 55.0000:
STOP.M 242.0000:
STEP.M 0.1250:
NULL. -999.2500:
UWI. F10652:
~C
DEPT.M :
SP.MV :
GR.API :
RML.OHMM :
RI. :
RXO.OHMM :
CALI.CM :
DEN.GM/CC :
~A
# ...
  190.0000    -4.4310    50.0960    34.0590    29.2900    29.6170    24.2300     2.3050 
  190.1250    -4.5870    49.3110    33.9400    29.2150    30.4180    24.1890     2.2890 
  190.2500    -4.7360    49.1140    33.3170    28.8730    31.5240    24.2040     2.2760 
  190.3750    -4.8220    49.8910    32.1410    28.1870    31.3850    24.1930     2.2710 
  190.5000    -4.8950    50.4520    30.6240    27.2300    31.1030    24.1580     2.2710 
  190.6250    -4.8950    51.9670    29.2550    26.3210    30.4160    24.1270     2.2690 
  190.7500    -4.8430    55.4820    28.5500    25.8890    28.6500    24.1190     2.2530 
  190.8750    -4.7820    58.0460    28.9020    26.2880    26.4750    24.1410     2.2200 
  191.0000    -4.6450    58.2190    30.4220    27.6650    26.4990    24.1600     2.1780 
  191.1250    -4.4940    55.5860    32.5590    29.6520    31.6990    24.1630     2.1610 
  191.2500    -4.2940    51.4200    33.4870    30.8360    38.6170    24.1690     2.2010 
  191.3750    -4.0620    46.6790    31.3090    29.6150    43.2940    24.1870     2.3140 
  191.5000    -3.8090    43.6820    25.5930    25.2350    44.2280    24.2200     2.4860 
  191.6250    -3.5060    44.9640    18.4150    18.9020    39.0660    24.1790     2.6340 
  191.7500    -3.2100    50.4130    12.4550    13.1630    27.2050    23.9580     2.6800 
  191.8750    -2.8870    59.2920     8.3370     8.9210    14.8110    23.5350     2.6280 
  192.0000    -2.5630    66.3170     5.7980     6.1390     6.0290    23.1320     2.5290 
  192.1250    -2.2810    65.4820     4.5130     4.5960     4.1310    22.9410     2.4300 
  192.2500    -2.0510    60.0570     3.9210     3.7700     3.7510    22.8860     2.3510 
  192.3750    -1.8940    54.9800     3.8290     3.4660     3.9320    22.9690     2.3000 
  192.5000    -1.8250    53.5660     4.1230     3.5620     4.0480    23.2280     2.2750 
  192.6250    -1.8810    56.8030     4.7710     4.0260     4.3450    23.4820     2.2790 
  192.7500    -2.0390    62.8080     5.6380     4.7300     5.0960    23.7190     2.3020 
  192.8750    -2.2690    68.2200     6.5880     5.5670     6.7700    23.8760     2.3380 
  193.0000    -2.5700    70.4170     7.4360     6.3780     8.5680    23.9450     2.3740 
  193.1250    -2.8700    68.7230     7.9250     6.9320     8.6770    23.9110     2.3930 
  193.2500    -3.1680    65.8200     8.0420     7.1660     8.0160    23.8260     2.3970 
  193.3750    -3.4560    64.7820     7.8940     7.1480     7.6250    23.7390     2.3930 
  193.5000    -3.6870    68.5920     7.6600     7.0260     7.5730    23.6710     2.3890 
  193.6250    -3.8820    76.5680     7.5390     6.9500     7.7250    23.6540     2.3890 
  193.7500    -3.9830    82.8510     7.5990     6.9660     7.8820    23.6960     2.3930 
  193.8750    -4.0560    84.5270     7.8170     7.0450     8.0640    23.8140     2.3980 
  194.0000    -4.0830    84.6090     8.1130     7.1410     8.2560    23.9090     2.4050 
  194.1250    -4.0980    88.2140     8.3610     7.2090     8.3970    23.9580     2.4120 
  194.2500    -4.1230    93.1370     8.4810     7.2350     8.4160    23.9890     2.4190 
  194.3750    -4.1200    95.0170     8.4770     7.2220     8.4990    24.0010     2.4210 
  194.5000    -4.1440    93.9020     8.4090     7.1870     8.5810    24.0030     2.4170 
  194.6250    -4.1820    93.9670     8.3530     7.1580     8.6160    24.0020     2.4020 
  194.7500    -4.2630    95.5440     8.3380     7.1500     8.4860    24.0000     2.3850 
  194.8750    -4.3670    94.7600     8.3660     7.1630     8.3240    24.0000     2.3700 
  195.0000    -4.4980    91.7530     8.4330     7.1930     8.4160    23.9980     2.3620 
  195.1250    -4.6650    92.1340     8.5340     7.2330     8.4560    23.9970     2.3620 
  195.2500    -4.8370    94.9200     8.6640     7.2860     8.5050    23.9950     2.3640 
  195.3750    -5.0550    97.1090     8.8180     7.3620     8.5930    23.9820     2.3620 
  195.5000    -5.2800    98.5820     8.9820     7.4610     8.7870    23.9480     2.3550 
  195.6250    -5.5010   100.9560     9.1450     7.5770     8.9760    23.9000     2.3440 
  195.7500    -5.7430   102.6270     9.3060     7.7060     9.1720    23.8790     2.3350 
  195.8750    -5.9630   101.8980     9.4980     7.8740     9.1970    23.8760     2.3280 
  196.0000    -6.2010    99.7620     9.7860     8.1350     9.0910    23.8740     2.3270 
  196.1250    -6.3890    97.4480    10.3010     8.5900     9.4930    23.8740     2.3380 
  196.2500    -6.5670    94.3770    11.1090     9.2590    10.4020    23.8630     2.3570 
  196.3750    -6.7140    90.9930    12.2260    10.1460    12.1270    23.8330     2.3790 
  196.5000    -6.8360    88.2830    13.5710    11.2070    14.3270    23.7470     2.3940 
  196.6250    -6.9350    87.1070    15.0300    12.3840    15.0920    23.6420     2.3910 
  196.7500    -6.9700    85.9590    16.5540    13.6320    15.7170    23.5390     2.3790 
  196.8750    -6.9960    84.1900    18.2560    14.9970    16.4690    23.4830     2.3730 
  197.0000    -6.9760    81.4400    20.3000    16.5720    17.1960    23.4730     2.3880 
  197.1250    -6.9870    79.0010    22.7860    18.4700    18.6460    23.4960     2.4200 
  197.2500    -6.9980    77.6060    25.4000    20.5600    22.1630    23.5050     2.4380 
  197.3750    -7.0130    77.0690    27.6890    22.5690    27.0760    23.4290     2.4270 
  197.5000    -7.0370    75.5470    29.2490    24.1500    28.8220    23.2570     2.3850 
  197.6250    -7.0690    72.1870    30.0170    25.1070    28.6300    23.1590     2.3300 
  197.7500    -7.1870    68.9340    30.6880    25.8890    26.2780    23.1110     2.2890 
  197.8750    -7.3410    67.1850    31.9720    27.0740    24.6240    23.1070     2.2760 
  198.0000    -7.5500    67.2370    34.5900    29.3160    24.5050    23.1300     2.2870 
  198.1250    -7.8110    66.0370    39.6680    33.6120    29.6860    23.1360     2.3020 
  198.2500    -8.0960    62.0220    47.3870    40.0320    39.9980    23.1150     2.3010 
  198.3750    -8.4370    58.1150    57.5340    48.2460    50.0520    23.0660     2.2780 
  198.5000    -8.8130    58.1150    68.8760    57.2120    56.0050    22.9940     2.2430 
  198.6250    -9.2070    60.4700    78.9460    65.2540    59.9480    22.8990     2.2140 
  198.7500    -9.5730    60.6340    86.3930    71.5380    63.8040    22.8690     2.1990 
  198.8750    -9.9080    59.5650    91.5330    76.2090    64.6790    22.9110     2.1950 
  199.0000   -10.2290    58.8230    95.4380    79.9890    60.5020    23.0520     2.1980 
  199.1250   -10.4670    58.1840    98.3650    83.1810    63.6820    23.2240     2.2010 
  199.2500   -10.6720    56.0330    99.8160    85.4690    69.0990    23.3430     2.2040 
  199.3750   -10.8030    54.3720    99.4440    86.4870    68.1880    23.3900     2.2050 
  199.5000   -10.8700    54.0580    97.4990    86.2520    63.9020    23.4100     2.2050 
  199.6250   -10.8930    53.6520    94.3610    84.8020    62.2120    23.4180     2.2020 
  199.7500   -10.8520    54.1950    90.8270    82.6500    53.3540    23.3770     2.2010 
  199.8750   -10.8020    56.3060    87.3260    80.2270    49.0180    23.3010     2.2030 
  200.0000   -10.6870    58.2940    83.8830    77.7880    53.5790    23.2690     2.2110 
  200.1250   -10.5830    57.3790    80.2460    75.3110    54.7540    23.3300     2.2200 
  200.2500   -10.4710    55.9510    76.5880    72.9290    53.3550    23.3700     2.2250 
  200.3750   -10.3390    56.8530    73.2250    70.8630    54.7790    23.3710     2.2240 
  200.5000   -10.2290    59.0120    70.2900    69.1560    56.8030    23.3510     2.2200 
  200.6250   -10.1300    60.6700    67.7110    67.6240    56.9920    23.3850     2.2160 
  200.7500   -10.0770    60.7410    65.2440    65.9980    59.7630    23.5260     2.2180 
  200.8750   -10.0560    60.4180    62.8880    64.2250    62.3690    23.7640     2.2240 
  201.0000   -10.0650    60.4640    60.8980    62.5460    62.1890    23.9490     2.2340 
  201.1250   -10.1100    61.6310    59.8760    61.6260    54.2910    24.0260     2.2460 
