~V
VERS. 2.00: Ver 2.00
~W
STRT.M 50.0000:
STOP.M 221.0000:
STEP.M 0.1250:
NULL. -999.2500:
UWI. F10611:
~C
DEPT.M :
SP.MV :
GR.API :
RML.OHMM :
RI. :
RXO.OHMM :
CALI.CM :
DEN.GM/CC :
~A
# ...
  185.0000   -29.1930    45.1590    80.5520    80.0970    63.8510    25.5960     2.1600 
  185.1250   -28.7840    47.2520    78.1320    78.2290    59.1360    25.6740     2.2050 
  185.2500   -28.3870    49.6490    77.4450    77.5880    54.0680    25.7230     2.2530 
  185.3750   -27.9630    50.8980    79.3840    79.1960    52.3140    25.6570     2.2990 
  185.5000   -27.5450    50.7890    83.1550    82.8130    57.1430    25.4330     2.3440 
  185.6250   -27.0870    50.7220    83.6150    84.1420    70.4520    25.1100     2.3830 
  185.7500   -26.6200    51.3740    74.4490    76.5470    85.3470    25.0250     2.3960 
  185.8750   -26.1760    51.0790    55.4630    58.5490    89.2030    25.0350     2.3720 
  186.0000   -25.7510    49.5000    43.1610    37.2700    79.2890    25.0200     2.3170 
  186.1250   -25.4410    48.4520    25.3510    21.7840    37.8730    24.7920     2.2510 
  186.2500   -25.1620    46.3760    14.7600    12.5740    14.2170    24.3220     2.1960 
  186.3750   -24.9790    41.5100     9.1920     7.7320     5.5490    23.7130     2.1660 
  186.5000   -24.8780    35.8010     6.5020     5.3930     3.6250    23.1810     2.1650 
  186.6250   -24.8760    34.4070     5.4590     4.4860     3.7290    22.9420     2.1880 
  186.7500   -24.9600    36.3790     5.1400     4.2080     4.0100    22.9200     2.2150 
  186.8750   -25.0580    38.1180     5.2320     4.2890     3.9550    23.1390     2.2360 
  187.0000   -25.2260    37.9750     5.4910     4.5140     3.9750    23.5640     2.2470 
  187.1250   -25.3800    35.9360     5.7140     4.7080     4.4480    23.8880     2.2500 
  187.2500   -25.5490    33.7800     5.7980     4.7810     5.0500    23.9640     2.2500 
  187.3750   -25.6870    33.1590     5.7170     4.7110     5.1000    24.1030     2.2500 
  187.5000   -25.7750    32.6370     5.4920     4.5150     4.3820    24.3020     2.2530 
  187.6250   -25.8380    29.5110     5.1850     4.2480     3.8390    24.3360     2.2640 
  187.7500   -25.8820    25.9570     4.9010     4.0010     3.4500    24.0500     2.2780 
  187.8750   -25.9220    24.7210     4.6990     3.8250     3.2910    23.5950     2.2940 
  188.0000   -25.9150    25.3660     4.6090     3.7470     3.2910    23.2880     2.3100 
  188.1250   -25.8740    25.5610     4.6390     3.7730     3.3800    23.2760     2.3240 
  188.2500   -25.7780    26.5290     4.7220     3.8450     3.4170    23.3810     2.3420 
  188.3750   -25.6770    28.7540     4.8120     3.9230     3.5550    23.4850     2.3660 
  188.5000   -25.5550    30.4640     4.8820     3.9850     3.8210    23.5280     2.3900 
  188.6250   -25.4360    29.3610     4.9190     4.0160     3.9540    23.6530     2.3940 
  188.7500   -25.3200    27.5220     4.9250     4.0210     4.0390    23.8660     2.3720 
  188.8750   -25.2230    27.1080     4.8970     3.9970     4.0180    24.1200     2.3380 
  189.0000   -25.1710    27.2320     4.8280     3.9380     3.9440    24.3010     2.3020 
  189.1250   -25.1300    25.9000     4.7000     3.8260     3.8700    24.2900     2.2740 
  189.2500   -25.1460    24.7960     4.5260     3.6750     3.7470    23.9900     2.2540 
  189.3750   -25.1540    25.9270     4.3400     3.5130     3.6620    23.6880     2.2410 
  189.5000   -25.1890    27.6180     4.1870     3.3800     3.6310    23.7210     2.2370 
  189.6250   -25.2530    26.9330     4.1110     3.3140     3.6030    24.0820     2.2620 
  189.7500   -25.3230    26.1270     4.1130     3.3160     3.5780    24.4870     2.3140 
  189.8750   -25.4260    27.1250     4.1930     3.3850     3.6520    24.5470     2.3680 
  190.0000   -25.5000    27.8190     4.3320     3.5060     3.9220    24.4560     2.3970 
  190.1250   -25.6090    26.0300     4.4930     3.6460     4.2320    24.5790     2.3940 
  190.2500   -25.6900    24.5270     4.6290     3.7640     4.3570    24.6650     2.3830 
  190.3750   -25.7890    26.0360     4.7140     3.8390     4.3010    24.3460     2.3730 
  190.5000   -25.8850    28.3940     4.7330     3.8550     4.2490    23.6790     2.3560 
  190.6250   -25.9610    27.7440     4.6830     3.8120     4.1280    23.5810     2.3170 
  190.7500   -25.9830    26.5200     4.6070     3.7450     3.9300    24.0820     2.2650 
  190.8750   -25.9540    28.0950     4.5290     3.6770     3.8780    24.6810     2.2220 
  191.0000   -25.8790    30.9390     4.4550     3.6130     3.9970    24.9700     2.2050 
  191.1250   -25.7670    30.3640     4.3910     3.5570     4.1270    25.0140     2.2180 
  191.2500   -25.6500    27.7460     4.3370     3.5100     4.0800    25.0220     2.2400 
  191.3750   -25.4960    26.8960     4.2870     3.4670     3.9440    25.0320     2.2580 
  191.5000   -25.3300    29.1700     4.2330     3.4200     3.8890    25.0420     2.2670 
  191.6250   -25.1280    31.4410     4.1770     3.3710     3.7480    25.0180     2.2620 
  191.7500   -24.9880    31.9570     4.1260     3.3270     3.6230    24.9910     2.2470 
  191.8750   -24.8570    30.7350     4.0780     3.2850     3.5790    24.9320     2.2300 
  192.0000   -24.7620    28.8580     4.0400     3.2520     3.6170    24.7580     2.2210 
  192.1250   -24.6830    27.5580     4.0200     3.2350     3.6670    24.4520     2.2320 
  192.2500   -24.6180    26.7850     4.0170     3.2320     3.6800    24.3020     2.2540 
  192.3750   -24.6140    25.7460     4.0270     3.2410     3.5730    24.1820     2.2730 
  192.5000   -24.6340    24.2210     4.0470     3.2580     3.4490    23.8110     2.2770 
  192.6250   -24.7240    24.1380     4.0560     3.2660     3.4250    23.1790     2.2660 
  192.7500   -24.7990    25.5360     4.0390     3.2520     3.4370    22.9460     2.2520 
  192.8750   -24.8920    26.8680     4.0010     3.2180     3.4220    23.2340     2.2430 
  193.0000   -25.0000    26.9950     3.9530     3.1770     3.3850    23.5420     2.2390 
  193.1250   -25.0960    25.9940     3.9160     3.1440     3.3790    23.7640     2.2380 
  193.2500   -25.1920    25.3450     3.8990     3.1300     3.3920    24.0350     2.2380 
  193.3750   -25.2520    26.1630     3.9010     3.1310     3.4030    24.2720     2.2410 
  193.5000   -25.2870    27.5640     3.9060     3.1360     3.4120    24.2090     2.2470 
  193.6250   -25.2680    27.4810     3.9090     3.1390     3.4790    23.7850     2.2550 
  193.7500   -25.2290    26.4860     3.9250     3.1520     3.5750    23.5220     2.2600 
  193.8750   -25.1710    26.2940     3.9690     3.1910     3.6380    23.6180     2.2570 
  194.0000   -25.1160    28.1490     4.0470     3.2590     3.6720    23.8630     2.2450 
  194.1250   -25.0560    31.2790     4.1330     3.3330     3.6880    24.3330     2.2350 
  194.2500   -25.0030    33.0120     4.1880     3.3800     3.7470    24.6290     2.2350 
  194.3750   -24.9310    33.1710     4.1980     3.3900     3.7980    24.7300     2.2440 
  194.5000   -24.8660    31.9850     4.1780     3.3720     3.7380    24.6960     2.2580 
  194.6250   -24.7950    30.4240     4.1500     3.3480     3.5840    24.6430     2.2730 
  194.7500   -24.7470    29.7210     4.1320     3.3320     3.5150    24.6700     2.2820 
  194.8750   -24.7390    30.0590     4.1200     3.3220     3.7030    24.7710     2.2810 
  195.0000   -24.7310    30.5500     4.1140     3.3160     4.0920    24.7780     2.2700 
  195.1250   -24.7940    31.1230     4.1260     3.3270     4.2080    24.6120     2.2550 
  195.2500   -24.8750    32.3580     4.1660     3.3620     3.9140    24.2330     2.2510 
  195.3750   -25.0110    33.0450     4.2370     3.4240     3.6810    23.7430     2.2660 
  195.5000   -25.1650    32.5920     4.3250     3.5000     3.7180    23.1160     2.3030 
  195.6250   -25.3450    32.9090     4.4100     3.5740     3.9680    23.2660     2.3470 
  195.7500   -25.5250    34.6300     4.4860     3.6400     4.2960    23.9500     2.3770 
  195.8750   -25.6770    35.9780     4.5510     3.6970     4.6210    24.5650     2.3860 
  196.0000   -25.8300    36.2750     4.6060     3.7440     4.8130    24.8700     2.3760 
  196.1250   -25.9230    35.8180     4.6300     3.7650     4.8680    24.9720     2.3520 
