~V
VERS. 2.00: Ver 2.00
~W
STRT.M 51.0000:
STOP.M 221.0000:
STEP.M 0.1250:
NULL. -999.2500:
UWI. F10616:
~C
DEPT.M :
GR.API :
RML.OHMM :
RI. :
RXO.OHMM :
CALI.CM :
DEN.GM/CC :
SP.MV :
~A
# ...
  118.5000    53.1940    20.5200    18.1690    20.0580    26.5530     2.0670     1.2510 
  118.6250    55.8850    17.7060    16.1550    20.1790    26.4800     2.0730     1.1290 
  118.7500    63.2510    14.4930    13.6630    18.0010    26.0310     2.1160     0.9970 
  118.8750    68.5750    11.6220    11.2870    14.2240    25.4510     2.1830     0.8650 
  119.0000    71.0670     9.4370     9.3610     9.8840    25.1090     2.2430     0.7000 
  119.1250    75.7300     7.9880     7.9740     8.2300    25.0180     2.2830     0.5250 
  119.2500    84.1070     7.1940     7.1060     7.2280    25.0280     2.3090     0.3410 
  119.3750    89.6430     7.0180     6.7700     6.4270    25.0210     2.3320     0.1670 
  119.5000    89.9870     7.2590     6.8210     6.2590    24.9980     2.3540     0.0080 
  119.6250    87.3790     7.8090     7.1850     6.7000    24.9590     2.3670    -0.1520 
  119.7500    84.3900     8.5220     7.7590     7.7560    24.8710     2.3700    -0.3080 
  119.8750    82.7440     9.1570     8.3660     8.7930    24.7480     2.3630    -0.4630 
  120.0000    83.6820     9.4690     8.7650     9.0450    24.7540     2.3440    -0.6080 
  120.1250    85.0360     9.3160     8.7730     8.7660    24.8410     2.3150    -0.7400 
  120.2500    83.9690     8.7640     8.3730     8.5430    24.8550     2.2820    -0.8350 
  120.3750    81.9330     8.1760     7.8040     8.4100    24.8760     2.2600    -0.9150 
  120.5000    83.1510     8.0490     7.4810     8.0380    24.9020     2.2620    -0.9950 
  120.6250    86.1950     8.8170     7.7300     7.6910    24.9170     2.2960    -1.0610 
  120.7500    83.7510    10.9590     8.8840     8.5620    24.8880     2.3660    -1.0880 
  120.8750    73.7920    15.2880    11.6150    15.0940    24.8120     2.4610    -1.0820 
  121.0000    64.7090    21.5160    16.0230    31.2780    24.7190     2.5450    -1.0340 
  121.1250    60.8740    28.4900    21.6730    46.3290    24.6650     2.5850    -0.9490 
  121.2500    59.8820    33.5110    26.6440    44.7410    24.6350     2.5720    -0.8220 
  121.3750    58.8470    32.8550    27.3660    35.0990    24.5790     2.5160    -0.6480 
  121.5000    60.6160    28.2350    24.4450    26.5440    24.5170     2.4470    -0.4260 
  121.6250    65.1020    22.9630    20.4500    21.6380    24.5390     2.3790    -0.1720 
  121.7500    68.9430    19.3960    17.3720    19.0410    24.6290     2.3230     0.0920 
  121.8750    69.3590    18.7610    16.2260    14.6340    24.6610     2.2980     0.3570 
  122.0000    66.1130    20.7600    16.9070    14.6560    24.5540     2.3130     0.5910 
  122.1250    61.3980    25.3760    19.5740    21.1220    24.4640     2.3660     0.7800 
  122.2500    57.2320    32.2930    24.3050    31.3870    24.3890     2.4410     0.8770 
  122.3750    54.7430    40.2730    30.7060    41.7250    24.4670     2.5110     0.8910 
  122.5000    52.8590    46.5470    36.6210    45.8910    24.5590     2.5570     0.8360 
  122.6250    51.4470    49.1440    40.0450    45.5510    24.6490     2.5720     0.7070 
  122.7500    51.1760    48.2540    40.4890    41.9220    24.7670     2.5630     0.5140 
  122.8750    52.2390    46.0450    39.2220    37.9880    24.8870     2.5440     0.2420 
  123.0000    53.2690    44.6480    38.1180    34.1290    24.9500     2.5300    -0.0790 
  123.1250    52.8640    44.5140    37.7690    37.2600    24.9030     2.5220    -0.4410 
  123.2500    50.4500    45.3630    38.1640    44.3140    24.7320     2.5190    -0.7940 
  123.3750    47.8210    46.4840    38.8950    46.1560    24.5950     2.5170    -1.1550 
  123.5000    47.3840    47.1070    39.3510    39.4870    24.5690     2.5130    -1.5070 
  123.6250    49.9160    46.9970    39.2820    35.9220    24.5960     2.5090    -1.8540 
  123.7500    53.5830    46.4090    38.8040    33.8920    24.5580     2.5060    -2.1880 
  123.8750    54.8160    46.0450    38.4090    31.3960    24.5590     2.5010    -2.5120 
  124.0000    53.4640    46.4460    38.5770    30.0400    24.6290     2.4940    -2.7880 
  124.1250    51.8530    47.6950    39.4610    30.1010    24.6460     2.4840    -3.0030 
  124.2500    51.3620    49.4470    40.8660    32.2450    24.5620     2.4730    -3.1730 
  124.3750    50.7530    50.9320    42.2420    33.5540    24.3040     2.4630    -3.3050 
  124.5000    48.9110    51.5040    43.0040    34.3180    24.1470     2.4540    -3.4190 
  124.6250    46.1870    50.9490    42.8880    33.1990    24.1570     2.4510    -3.4950 
  124.7500    45.4470    49.5380    42.0090    31.4420    24.2460     2.4600    -3.5480 
  124.8750    48.0700    47.9530    40.8230    31.3640    24.3630     2.4810    -3.5880 
  125.0000    50.6760    46.8950    39.9320    34.4910    24.4620     2.5020    -3.6410 
  125.1250    50.9190    46.6560    39.6400    38.0070    24.5210     2.5150    -3.7440 
  125.2500    50.4540    47.2080    40.0120    38.7000    24.5550     2.5170    -3.8800 
  125.3750    51.5100    48.3510    40.9550    36.5010    24.5640     2.5120    -4.0770 
  125.5000    52.0530    49.6850    42.1290    39.1420    24.5820     2.5120    -4.3020 
  125.6250    50.1210    50.9840    43.3370    45.1490    24.5710     2.5240    -4.5640 
  125.7500    47.1580    52.0000    44.3840    50.9850    24.5310     2.5470    -4.8590 
  125.8750    46.7430    52.1990    44.8490    50.5480    24.4940     2.5790    -5.1650 
  126.0000    48.6180    51.3130    44.4410    46.6370    24.4770     2.6090    -5.4830 
  126.1250    50.6850    49.3520    43.0690    45.9130    24.4510     2.6220    -5.7730 
  126.2500    52.2100    46.7840    41.0260    45.3890    24.4040     2.6070    -6.0700 
  126.3750    53.8520    44.5320    39.0170    39.1460    24.4070     2.5650    -6.3390 
  126.5000    55.0810    43.3110    37.7180    31.4890    24.4820     2.5170    -6.6050 
  126.6250    53.3060    43.4150    37.4470    29.4110    24.5860     2.4830    -6.8660 
  126.7500    48.0420    44.7560    38.2320    31.3410    24.4920     2.4750    -7.1100 
  126.8750    44.5350    46.8260    39.8180    32.2660    24.1980     2.4960    -7.3270 
  127.0000    45.5870    48.4910    41.3470    31.0850    23.8970     2.5310    -7.5070 
  127.1250    47.8600    48.8390    42.0370    31.0230    23.8110     2.5640    -7.6520 
  127.2500    46.2170    47.5090    41.4250    31.7650    23.9160     2.5860    -7.7410 
  127.3750    42.4390    44.9450    39.6220    31.3660    24.0900     2.5870    -7.7850 
  127.5000    42.5140    42.4800    37.6460    29.7720    24.2000     2.5690    -7.7940 
  127.6250    46.4430    40.9360    36.2240    29.7440    24.3010     2.5420    -7.7700 
  127.7500    49.3410    40.6200    35.7330    31.7130    24.4070     2.5180    -7.7430 
  127.8750    48.5520    41.3970    36.2170    31.8610    24.5410     2.5150    -7.7110 
  128.0000    46.9240    42.4130    37.0550    34.1790    24.5590     2.5310    -7.7290 
  128.1250    45.9900    42.9680    37.6810    37.3990    24.5490     2.5500    -7.7920 
  128.2500    45.5380    42.5890    37.6530    39.7980    24.5470     2.5540    -7.9100 
  128.3750    46.0810    41.0890    36.7090    35.1400    24.5810     2.5410    -8.0850 
  128.5000    47.4250    39.0260    35.2060    29.9490    24.6820     2.5280    -8.3230 
  128.6250    48.0780    36.8480    33.4680    29.5490    24.7800     2.5240    -8.6210 
  128.7500    47.3650    34.8960    31.7860    33.8120    24.8020     2.5270    -8.9440 
  128.8750    47.4780    33.4890    30.4600    35.4320    24.7680     2.5270    -9.3200 
  129.0000    48.7980    32.6960    29.6080    31.3300    24.7080     2.5200    -9.7020 
  129.1250    48.7900    32.5870    29.3160    26.6930    24.6690     2.5130   -10.1250 
  129.2500    46.4340    33.1440    29.5950    25.3520    24.6770     2.5160   -10.5580 
  129.3750    44.9800    34.2470    30.3980    28.4720    24.6250     2.5330   -10.9580 
  129.5000    47.3150    35.4510    31.3840    29.6700    24.5980     2.5560   -11.3130 
  129.6250    50.9890    36.3620    32.2260    29.8090    24.5560     2.5820   -11.6170 
