~V
VERS. 2.00: Ver 2.00
~W
STRT.M 50.0000:
STOP.M 221.0000:
STEP.M 0.1250:
NULL. -999.2500:
UWI. F10611:
~C
DEPT.M :
SP.MV :
GR.API :
RML.OHMM :
RI. :
RXO.OHMM :
CALI.CM :
DEN.GM/CC :
~A
# ...
  207.5000   -24.7370    58.9800     6.5090     5.3990     7.2030    25.4380     2.3280 
  207.6250   -24.9220    60.5470     6.5150     5.4040     7.1340    25.4990     2.3130 
  207.7500   -25.0580    57.9310     6.2530     5.1760     6.8460    25.6910     2.3050 
  207.8750   -25.1390    53.2770     5.8460     4.8230     5.5840    25.9120     2.3030 
  208.0000   -25.1710    49.3420     5.4240     4.4560     4.2280    26.1210     2.3000 
  208.1250   -25.1390    47.5150     5.0820     4.1590     4.3920    25.9050     2.2870 
  208.2500   -25.0820    47.0620     4.8210     3.9310     5.5950    25.8290     2.2620 
  208.3750   -24.9530    47.5930     4.6150     3.7520     5.9200    26.2520     2.2270 
  208.5000   -24.7620    48.4690     4.4460     3.6050     4.7460    26.6480     2.1970 
  208.6250   -24.5180    48.2960     4.3160     3.4920     3.9850    26.8650     2.1850 
  208.7500   -24.2400    47.1200     4.2430     3.4290     3.9200    27.0460     2.1740 
  208.8750   -23.9210    46.8260     4.2480     3.4330     3.8370    27.0380     2.1540 
  209.0000   -23.5600    47.7740     4.3140     3.4900     3.5850    26.7920     2.1200 
  209.1250   -23.1670    48.9410     4.3750     3.5430     3.3650    27.2100     2.0880 
  209.2500   -22.7750    49.6470     4.3720     3.5410     3.2780    28.1850     2.0790 
  209.3750   -22.4110    49.7740     4.2960     3.4750     3.3000    29.1760     2.1060 
  209.5000   -22.0700    49.2900     4.1730     3.3680     3.4030    29.1260     2.1450 
  209.6250   -21.7890    47.7330     4.0500     3.2610     3.4720    28.1680     2.1590 
  209.7500   -21.5610    45.1220     3.9690     3.1900     3.4780    28.3460     2.1480 
  209.8750   -21.3870    42.2130     3.9440     3.1690     3.3110    29.6090     2.1440 
  210.0000   -21.2710    40.9780     3.9750     3.1960     3.1390    30.7710     2.1700 
  210.1250   -21.2250    42.6610     4.0590     3.2690     3.0830    30.6040     2.2180 
  210.2500   -21.2280    45.0240     4.1670     3.3620     3.0920    29.5610     2.2440 
  210.3750   -21.2770    46.9670     4.2720     3.4540     3.1120    28.6960     2.2250 
  210.5000   -21.3440    48.5330     4.3590     3.5290     3.1780    28.3700     2.1790 
  210.6250   -21.4130    48.8640     4.4270     3.5890     3.2990    28.7120     2.1370 
  210.7500   -21.4780    46.8630     4.4850     3.6390     3.3730    29.4950     2.1340 
  210.8750   -21.5300    44.0280     4.5310     3.6790     3.5050    29.8400     2.1640 
  211.0000   -21.5580    43.5150     4.5560     3.7000     3.5060    29.4530     2.1930 
  211.1250   -21.5620    46.0810     4.5350     3.6830     3.4660    28.6010     2.1830 
  211.2500   -21.5450    46.0810     4.4740     3.6300     3.5010    28.2470     2.1490 
  211.3750   -21.4920    46.0810     4.3940     3.5600     3.6550    28.1420     2.1150 
  211.5000   -21.4230    46.0810     4.3250     3.5000     3.7560    27.9730     2.0920 
  211.6250   -21.3330    46.0810     4.2900     3.4700     3.7140    27.5170     2.0720 
  211.7500   -21.2190    46.0810     4.2890     3.4690     3.7590    27.1790     2.0430 
  211.8750   -21.1090    46.0810     4.3320     3.5060     3.8540    27.3410     2.0140 
  212.0000   -21.0080    46.0810     4.4500     3.6090     3.9260    27.8330     2.0120 
  212.1250   -20.9260    46.0810     4.7320     3.8540     3.9230    27.8670     2.0730 
  212.2500   -20.8830    46.0810     5.2220     4.2800     4.2390    27.2450     2.1810 
  212.3750   -20.8680    46.0810     5.9460     4.9100     5.2440    26.2300     2.2930 
  212.5000   -20.9040    46.0810     6.3130     5.7060     7.1990    25.5330     2.3680 
  212.6250   -20.9700    46.0810     7.3750     6.5750     9.1150    25.3750     2.3990 
  212.7500   -21.0570    46.0810     8.3070     7.3800    10.2590    25.3740     2.4200 
  212.8750   -21.1530    46.0810     9.0390     8.0350    10.7210    25.3820     2.4460 
  213.0000   -21.2580    46.0810     9.5620     8.4910    10.7150    25.3580     2.4760 
  213.1250   -21.3560    46.0810     9.8370     8.7220    11.2550    25.2900     2.4940 
  213.2500   -21.4140    46.0810     9.8930     8.7880    11.9950    25.2240     2.4880 
  213.3750   -21.4810    46.0810     9.7570     8.7190    12.1660    25.2170     2.4650 
  213.5000   -21.5390    46.0810     9.5220     8.5560    11.2190    25.2580     2.4370 
  213.6250   -21.6020    46.0810     9.3280     8.3860    10.5270    25.3250     2.4190 
  213.7500   -21.6740    46.0810     9.2610     8.2920    10.2900    25.3440     2.4130 
  213.8750   -21.7730    46.0810     9.3480     8.3110    10.3850    25.3190     2.4120 
  214.0000   -21.9180    46.0810     9.5640     8.4380    10.3120    25.2390     2.4090 
  214.1250   -22.0320    46.0810     9.8420     8.6290    10.6680    25.2440     2.3990 
  214.2500   -22.1100    46.0810    10.1140     8.8060    11.3860    25.2820     2.3890 
  214.3750   -22.1560    46.0810    10.3570     8.9310    11.5260    25.2860     2.3840 
  214.5000   -22.1680    46.0810    10.5700     9.0000    11.5140    25.1850     2.3860 
  214.6250   -22.1180    46.0810    10.7260     9.0210    11.3510    25.0210     2.3950 
  214.7500   -22.0150    46.0810    10.8180     9.0190    11.3270    24.9470     2.4050 
  214.8750   -21.8810    46.0810    10.8450     9.0080    11.3940    24.9310     2.4170 
  215.0000   -21.6860    46.0810    10.8080     8.9980    11.8510    24.9220     2.4290 
  215.1250   -21.5040    46.0810    10.7190     8.9910    12.0690    24.9000     2.4340 
  215.2500   -21.3260    46.0810    10.6310     8.9840    11.7900    24.8740     2.4280 
  215.3750   -21.0970    46.0810    10.5790     8.9770    11.9330    24.8770     2.4130 
  215.5000   -20.7520    46.0810    10.5730     8.9750    12.4130    24.9020     2.3980 
  215.6250   -20.4310    46.0810    10.5820     8.9730    12.4440    24.8900     2.3930 
  215.7500   -20.1320    46.0810    10.5550     8.9660    11.8840    24.8140     2.3940 
  215.8750   -19.8150    46.0810    10.4640     8.9600    11.5170    24.6960     2.3940 
  216.0000   -19.4820    46.0810    10.3060     8.9810    11.5600    24.6110     2.3860 
  216.1250   -19.1540    46.0810    10.1210     9.0570    12.0850    24.5560     2.3710 
  216.2500   -18.8260    46.0810     9.9810     9.1560    11.9510    24.5130     2.3630 
  216.3750   -18.6950    46.0810     9.9350     9.2320    11.5650    24.4390     2.3660 
  216.5000   -18.6950    46.0810     9.9930     9.2460    11.4420    24.3340     2.3780 
  216.6250  -999.2500    46.0810    10.1300     9.1920    11.7960    24.2850     2.3890 
  216.7500  -999.2500    46.0810    10.2730     9.1170    12.4090    24.2680     2.3950 
  216.8750  -999.2500    46.0810    10.3730     9.0500    12.5930    24.2470     2.3940 
  217.0000  -999.2500    46.0810    10.4180     9.0090    11.9320    24.1910     2.3920 
  217.1250  -999.2500    46.0810    10.4180     9.0090    11.1050    24.1410     2.3960 
  217.2500  -999.2500    46.0810    10.4180     9.0090    11.6130    24.1130     2.4070 
  217.3750  -999.2500    46.0810    10.4180     9.0090    11.5550    24.1040     2.4230 
  217.5000  -999.2500    46.0810    10.4180     9.0090    11.2140    24.0990     2.4280 
  217.6250  -999.2500    46.0810    10.4180     9.0090    11.3060    24.0260     2.4040 
  217.7500  -999.2500    46.0810    10.4180     9.0090    10.8890    23.9280     2.3570 
  217.8750  -999.2500    46.0810    10.4180     9.0090     9.2490    23.9970     2.2950 
  218.0000  -999.2500    46.0810    10.4180     9.0090     6.8790    24.5550     2.2270 
  218.1250  -999.2500    46.0810    10.4180     9.0090     5.1230    25.6200     2.1830 
  218.2500  -999.2500    46.0810    10.4180     9.0090     4.5500    26.4360     2.1580 
  218.3750  -999.2500    46.0810    10.4180     9.0090     4.2770    26.3180     2.1450 
  218.5000  -999.2500    46.0810    10.4180     9.0090     4.1220    25.3900     2.1220 
  218.6250  -999.2500    46.0810    10.4180     9.0090     4.4200    24.5780     2.0640 
