~V
VERS. 2.00: Ver 2.00
~W
STRT.M 49.0000:
STOP.M 254.0000:
STEP.M 0.1250:
NULL. -999.2500:
UWI. F10669:
~C
DEPT.M :
DEN.GM/CC :
GR.API :
RML.OHMM :
RI. :
RXO.OHMM :
CALI.CM :
SP.MV :
~A
# ...
  161.5000     2.5440    50.4300    28.1850    26.5290    26.1170    23.7690   -15.3500 
  161.6250     2.5500    47.4880    27.8160    26.0990    25.6870    23.7490   -15.2740 
  161.7500     2.5650    44.8400    27.5850    25.8620    25.2260    23.7350   -15.2400 
  161.8750     2.5770    45.4060    27.1690    25.5350    23.7670    23.7370   -15.2180 
  162.0000     2.5790    46.2620    26.4010    24.9170    23.3480    23.7460   -15.2470 
  162.1250     2.5720    46.0990    25.3260    23.9950    23.3580    23.7450   -15.3030 
  162.2500     2.5600    45.5530    24.1830    22.9440    23.8060    23.7490   -15.3930 
  162.3750     2.5580    46.8250    23.3680    22.0910    20.7360    23.7600   -15.5320 
  162.5000     2.5720    48.4320    23.0500    21.6200    18.3170    23.7670   -15.6860 
  162.6250     2.5900    48.6780    23.2480    21.5810    18.5500    23.7600   -15.8490 
  162.7500     2.5900    48.3270    23.8710    21.9370    22.6720    23.7650   -15.9910 
  162.8750     2.5610    49.2080    24.7440    22.5880    27.3000    23.7770   -16.0840 
  163.0000     2.5260    51.5460    25.5130    23.2260    27.3940    23.7720   -16.1380 
  163.1250     2.5080    53.3330    25.8650    23.5490    24.9440    23.7570   -16.1640 
  163.2500     2.5200    52.8870    25.5840    23.3290    25.3900    23.7430   -16.1740 
  163.3750     2.5570    50.4420    24.5780    22.4540    27.3620    23.7350   -16.1330 
  163.5000     2.5870    48.0460    23.2400    21.2550    25.6280    23.7440   -16.0740 
  163.6250     2.5900    47.5790    21.9600    20.0470    21.5150    23.7600   -15.9910 
  163.7500     2.5690    49.1770    21.1170    19.1330    19.5350    23.7570   -15.9060 
  163.8750     2.5420    51.3090    21.1620    18.8730    20.8800    23.7510   -15.8570 
  164.0000     2.5280    50.9100    22.0990    19.3430    21.7180    23.7400   -15.8420 
  164.1250     2.5380    48.4890    23.7540    20.5030    24.0410    23.7090   -15.8490 
  164.2500     2.5700    46.2020    25.6540    22.0550    24.3050    23.6550   -15.8690 
  164.3750     2.6080    46.5830    26.9310    23.3380    25.5560    23.5780   -15.9470 
  164.5000     2.6350    49.5720    27.0370    23.7830    29.0070    23.4760   -16.0430 
  164.6250     2.6400    52.7960    25.8790    23.1870    30.2920    23.3440   -16.1670 
  164.7500     2.6220    52.9420    23.8590    21.7680    26.4660    23.2290   -16.3020 
  164.8750     2.5830    50.2620    21.6750    20.0280    22.0950    23.1370   -16.4630 
  165.0000     2.5380    48.8890    19.8610    18.4700    20.7800    23.0960   -16.5950 
  165.1250     2.4960    48.7460    18.5360    17.2520    19.2670    23.0780   -16.7420 
  165.2500     2.4650    47.6480    17.6120    16.3520    17.7160    23.1140   -16.8520 
  165.3750     2.4500    45.5770    16.8990    15.6510    18.0130    23.2610   -16.9280 
  165.5000     2.4460    45.3850    16.1950    14.9750    17.8710    23.4470   -16.9650 
  165.6250     2.4460    46.8310    15.4970    14.3070    16.4600    23.6230   -16.9920 
  165.7500     2.4490    47.6370    14.9130    13.7330    13.9570    23.7230   -16.9980 
  165.8750     2.4550    46.5360    14.6010    13.3950    13.3800    23.7500   -16.9600 
  166.0000     2.4610    44.9170    14.5740    13.3130    13.9760    23.7500   -16.9160 
  166.1250     2.4630    44.7390    14.7880    13.4570    15.4510    23.7340   -16.8440 
  166.2500     2.4560    47.1640    15.1090    13.7250    16.8780    23.7430   -16.7720 
  166.3750     2.4410    49.3510    15.3400    13.9500    16.6220    23.7790   -16.6920 
  166.5000     2.4280    50.1130    15.4100    14.0340    16.4250    23.8040   -16.6260 
  166.6250     2.4250    51.8270    15.3720    13.9950    15.8970    23.7930   -16.5470 
  166.7500     2.4370    56.0700    15.3460    13.9200    15.0260    23.7580   -16.4670 
  166.8750     2.4600    60.0790    15.4950    13.9400    14.2780    23.7430   -16.4350 
  167.0000     2.4760    59.8080    15.8620    14.1170    15.4880    23.7370   -16.3970 
  167.1250     2.4770    56.2540    16.4160    14.4510    16.7660    23.7200   -16.3910 
  167.2500     2.4640    52.2830    17.0670    14.8820    16.7580    23.6970   -16.4060 
  167.3750     2.4470    48.7840    17.6860    15.3250    17.3000    23.6950   -16.4630 
  167.5000     2.4370    47.3830    18.1880    15.7170    19.0860    23.6050   -16.5250 
  167.6250     2.4380    48.3470    18.5490    16.0380    21.3030    23.3740   -16.6200 
  167.7500     2.4460    50.0120    18.7810    16.2840    21.2220    23.1020   -16.7360 
  167.8750     2.4580    50.1040    18.8800    16.4190    19.2510    22.9800   -16.8360 
  168.0000     2.4680    50.3680    18.8820    16.4480    19.7660    22.8830   -16.9650 
  168.1250     2.4750    51.9910    18.8490    16.4160    21.0420    22.7300   -17.0750 
  168.2500     2.4760    53.9640    18.8840    16.4190    21.1480    22.6390   -17.1870 
  168.3750     2.4710    54.7910    19.1030    16.5610    19.3650    22.6050   -17.2710 
  168.5000     2.4660    55.0600    19.4910    16.8270    18.8520    22.5490   -17.3550 
  168.6250     2.4650    55.2260    19.9590    17.1490    20.3380    22.4600   -17.4250 
  168.7500     2.4680    55.1620    20.3420    17.4190    22.4330    22.3750   -17.4800 
  168.8750     2.4710    53.4290    20.4070    17.4890    21.8540    22.3080   -17.5290 
  169.0000     2.4740    50.8570    20.1120    17.3250    21.1800    22.2250   -17.5570 
  169.1250     2.4770    50.0470    19.5310    16.9560    20.4490    22.1590   -17.5700 
  169.2500     2.4770    51.9900    18.8270    16.4750    18.9360    22.1450   -17.5540 
  169.3750     2.4720    51.4420    18.2100    16.0160    17.5640    22.1750   -17.5120 
  169.5000     2.4630    47.8640    17.7990    15.6780    17.1740    22.1820   -17.4470 
  169.6250     2.4540    46.3680    17.6340    15.5060    17.2050    22.1670   -17.3630 
  169.7500     2.4490    48.6350    17.7210    15.5220    17.1110    22.1810   -17.2790 
  169.8750     2.4530    50.5350    18.0640    15.7440    17.2700    22.2880   -17.1550 
  170.0000     2.4620    50.9720    18.5160    16.0780    17.6130    22.3890   -17.0200 
  170.1250     2.4750    51.6620    18.9310    16.4120    18.7880    22.5310   -16.8750 
  170.2500     2.4860    52.7060    19.1570    16.6210    19.9860    22.8310   -16.7600 
  170.3750     2.4890    52.1630    19.0350    16.5680    19.9360    23.1830   -16.6580 
  170.5000     2.4800    50.0960    18.6130    16.2740    19.4090    23.3840   -16.5830 
  170.6250     2.4620    47.8250    17.9760    15.7910    18.3790    23.3100   -16.5080 
  170.7500     2.4430    46.2270    17.2500    15.2110    17.2180    23.0330   -16.4610 
  170.8750     2.4360    46.5330    16.5860    14.6460    16.4540    22.8420   -16.4580 
  171.0000     2.4420    47.7290    16.0940    14.1960    15.9180    22.8810   -16.5010 
  171.1250     2.4560    48.2440    15.8720    13.9480    15.3820    23.0850   -16.5800 
  171.2500     2.4700    47.4370    16.0070    13.9770    15.3980    23.4670   -16.6690 
  171.3750     2.4770    45.1970    16.5990    14.3750    15.6730    23.6630   -16.7920 
  171.5000     2.4750    43.1750    17.5100    15.0480    16.7160    23.7280   -16.9340 
  171.6250     2.4670    42.9080    18.5680    15.8790    18.9240    23.7230   -17.1040 
  171.7500     2.4580    43.7760    19.5190    16.6950    20.7400    23.7120   -17.2610 
  171.8750     2.4560    44.5800    20.0360    17.2500    21.3530    23.7330   -17.3960 
  172.0000     2.4610    44.3220    20.0730    17.4640    20.3230    23.7630   -17.5050 
  172.1250     2.4720    44.4110    19.7210    17.3610    19.6010    23.7770   -17.5770 
  172.2500     2.4840    45.8210    19.2000    17.0650    19.2190    23.7560   -17.6270 
  172.3750     2.4900    46.3400    18.7920    16.7600    19.2840    23.7410   -17.6330 
  172.5000     2.4920    46.0450    18.6350    16.5820    19.2670    23.7310   -17.6270 
  172.6250     2.4890    47.0200    18.7350    16.5590    19.1350    23.7190   -17.5980 
