~V
VERS. 2.00: Ver 2.00
~W
STRT.M 50.0000:
STOP.M 212.0000:
STEP.M 0.1250:
NULL. -999.2500:
UWI. F10691:
~C
DEPT.M :
GR.API :
RML.OHMM :
RI. :
RXO.OHMM :
CALI.CM :
SP.MV :
DEN.GM/CC :
~A
# ...
  117.5000    48.6230    33.3690    31.5120    16.9950    23.1400   -13.2900     2.0470 
  117.6250    50.2470    32.0520    29.9380    16.6560    23.2010   -12.9650     2.0570 
  117.7500    50.7100    31.1400    29.0100    16.0760    23.2200   -12.6230     2.0620 
  117.8750    49.4930    30.1160    28.1970    15.4300    23.2650   -12.2850     2.0610 
  118.0000    49.9760    28.8780    27.2740    14.5800    23.2860   -11.9620     2.0580 
  118.1250    53.1910    27.7530    26.3840    13.4010    23.2900   -11.6700     2.0620 
  118.2500    55.6760    27.1100    25.8240    12.2840    23.2900   -11.4020     2.0750 
  118.3750    55.3830    27.0920    25.7560    11.7150    23.2900   -11.1520     2.0870 
  118.5000    53.2610    27.6190    26.1640    11.8830    23.2900   -10.9390     2.0920 
  118.6250    51.7170    28.4570    26.8820    12.5280    23.2900   -10.8130     2.0830 
  118.7500    50.2070    29.2270    27.5620    13.0290    23.2900   -10.7940     2.0640 
  118.8750    48.6340    29.6940    27.9630    13.0890    23.2760   -10.8660     2.0440 
  119.0000    46.9930    29.7370    27.9430    12.9500    23.2240   -11.0090     2.0380 
  119.1250    46.9840    29.3340    27.4470    12.8850    22.9660   -11.2160     2.0550 
  119.2500    48.3260    28.7380    26.7120    12.8230    22.9100   -11.4650     2.0900 
  119.3750    49.8410    28.1690    25.9460    12.6920    22.8970   -11.7460     2.1320 
  119.5000    51.2710    27.8400    25.3330    12.5290    22.8930   -12.0490     2.1710 
  119.6250    52.1210    28.0810    25.1190    12.2520    22.8710   -12.3570     2.2070 
  119.7500    52.0550    29.0250    25.4390    12.4680    22.8450   -12.6330     2.2490 
  119.8750    51.1980    30.7330    26.3850    13.6400    22.8770   -12.8960     2.3000 
  120.0000    49.9010    33.0830    27.9070    15.7600    22.8940   -13.1500     2.3510 
  120.1250    48.1410    35.7940    29.8250    16.8470    22.8770   -13.4010     2.3700 
  120.2500    46.5010    38.3340    31.7100    17.3410    22.7750   -13.6430     2.3420 
  120.3750    46.4020    40.2250    33.1700    18.2100    22.6180   -13.8850     2.2740 
  120.5000    47.6530    41.1190    33.8810    18.6250    22.4590   -14.1300     2.1930 
  120.6250    47.8460    40.9530    33.6980    19.8730    22.4210   -14.3500     2.1440 
  120.7500    48.7960    40.6290    33.2310    26.7890    22.3600   -14.5550     2.1560 
  120.8750    51.9090    41.2640    33.2840    40.5040    22.3600   -14.7280     2.2350 
  121.0000    53.3540    44.0480    34.8030    42.5770    22.6070   -14.8830     2.3620 
  121.1250    48.7350    50.3730    39.1630    30.2830    23.1560   -15.0070     2.4980 
  121.2500    43.5190    59.5430    46.3220    26.8740    23.4510   -15.0980     2.6050 
  121.3750    41.3680    69.7570    55.2980    34.7530    23.8140   -15.1570     2.6660 
  121.5000    41.6730    77.3520    63.3850    63.6090    24.1740   -15.1970     2.6820 
  121.6250    43.6000    76.8190    65.7760    88.0300    24.2510   -15.2510     2.6630 
  121.7500    47.3860    69.2200    61.8770    72.8180    24.2230   -15.3080     2.6330 
  121.8750    50.5930    58.2430    53.8170    45.6330    24.1630   -15.3830     2.6050 
  122.0000    50.4420    47.1410    44.3940    33.3310    24.0250   -15.4740     2.5830 
  122.1250    48.8670    37.2620    35.3650    32.9900    24.0300   -15.5760     2.5620 
  122.2500    50.1930    28.4180    27.1650    39.6340    24.0770   -15.6860     2.5290 
  122.3750    54.7160    21.7230    20.1330    37.9550    24.1280   -15.8010     2.4780 
  122.5000    60.1630    15.8950    14.6670    24.6880    24.2740   -15.9100     2.4090 
  122.6250    66.5260    12.0130    11.1350    13.1630    24.2500   -16.0080     2.3330 
  122.7500    72.6160     9.8170     8.9910     8.0770    24.1470   -16.0980     2.2700 
  122.8750    74.9590     8.8570     7.9030     6.7950    24.0270   -16.1640     2.2290 
  123.0000    71.9230     8.7080     7.5820     6.7630    23.7570   -16.1810     2.2120 
  123.1250    69.3050     9.0120     7.8080     6.7420    23.6840   -16.1650     2.2150 
  123.2500    70.0510     9.3610     8.2190     6.7810    23.6070   -16.1340     2.2180 
  123.3750    70.3060     9.5840     8.6140     6.8850    23.5700   -16.0840     2.2130 
  123.5000    66.7190     9.6370     8.8830     6.9650    23.6950   -16.0250     2.1970 
  123.6250    62.4120     9.5280     8.9690     6.9230    23.8690   -15.9500     2.1770 
  123.7500    60.6960     9.2800     8.8800     6.7810    23.8550   -15.8710     2.1630 
  123.8750    62.4720     8.8720     8.5920     6.5890    23.7520   -15.7830     2.1590 
  124.0000    67.6370     8.3160     8.1110     6.4940    23.5400   -15.6980     2.1630 
  124.1250    72.7900     7.6930     7.4920     6.1270    23.3490   -15.6230     2.1700 
  124.2500    75.5100     7.1590     6.8810     5.5800    23.4170   -15.5500     2.1800 
  124.3750    76.5800     6.8340     6.3960     5.2150    23.6420   -15.4730     2.1960 
  124.5000    76.2710     6.7880     6.1170     5.2530    23.6740   -15.3650     2.2230 
  124.6250    73.3260     7.0670     6.1130     5.4380    23.6020   -15.2350     2.2600 
  124.7500    67.5220     7.5560     6.3150     5.6310    23.3060   -15.1010     2.2940 
  124.8750    62.6880     8.1420     6.6540     6.0010    23.0410   -14.9810     2.3140 
  125.0000    61.5700     8.7040     7.0360     6.3380    22.8010   -14.8610     2.3110 
  125.1250    63.1520     9.1920     7.3930     6.4810    22.6850   -14.7170     2.2860 
  125.2500    64.8090     9.7330     7.7800     6.6020    22.6310   -14.5700     2.2550 
  125.3750    65.3020    10.5160     8.3200     6.8490    22.6490   -14.4130     2.2270 
  125.5000    65.3560    11.6940     9.1390     7.4930    22.8750   -14.2660     2.2050 
  125.6250    66.7960    13.3740    10.3720     9.1230    23.8390   -14.1380     2.1850 
  125.7500    67.3760    15.3370    11.8970    11.6270    24.3810   -14.0170     2.1630 
  125.8750    63.9410    17.3270    13.5150    14.1490    24.5810   -13.9000     2.1390 
  126.0000    56.9620    19.0770    14.9690    15.0150    24.6100   -13.8050     2.1150 
  126.1250    53.2820    20.3190    15.9760    13.9090    24.6070   -13.7370     2.0880 
  126.2500    56.4080    20.9790    16.4850    13.3720    24.5720   -13.6720     2.0590 
  126.3750    61.4780    20.8470    16.3760    14.1270    24.4290   -13.6250     2.0320 
  126.5000    63.2930    19.6850    15.5010    15.8520    23.9840   -13.5940     2.0240 
  126.6250    60.0230    17.4150    13.7920    16.6800    23.9520   -13.5510     2.0550 
  126.7500    56.1920    14.8920    11.8370    15.8570    24.3190   -13.4820     2.1100 
  126.8750    55.8770    13.0160    10.2130    12.3800    24.4800   -13.3800     2.1620 
  127.0000    57.9210    12.5330     9.3600     8.8520    24.3470   -13.2480     2.1830 
  127.1250    57.3550    14.3610     9.8090     7.6070    24.3640   -13.1120     2.1650 
  127.2500    53.6510    18.6550    11.8020     9.3180    24.5680   -12.9750     2.1420 
  127.3750    49.4980    25.7290    15.8560    14.8490    24.8760   -12.8340     2.1390 
  127.5000    46.4480    33.4160    22.3720    26.2440    25.0710   -12.6890     2.1640 
  127.6250    43.0870    43.3490    30.9280    35.9900    25.0760   -12.5650     2.1990 
  127.7500    40.8830    50.2870    38.3900    40.0390    25.1160   -12.4650     2.2200 
  127.8750    41.4340    51.8600    41.9320    38.9630    25.0170   -12.3880     2.2180 
  128.0000    43.8440    49.1520    41.3420    35.2060    25.0360   -12.3440     2.2000 
  128.1250    44.5190    45.5490    38.8450    31.1680    25.0460   -12.3160     2.1810 
  128.2500    44.5750    43.3610    36.8190    29.3350    24.9320   -12.2970     2.1690 
  128.3750    46.4690    42.8950    35.8710    29.1400    24.7470   -12.2820     2.1650 
  128.5000    49.5400    43.8530    36.0120    29.4130    24.4350   -12.2610     2.1630 
  128.6250    50.4520    45.7060    37.0310    30.1440    23.8860   -12.2330     2.1640 
