~V
VERS. 2.00: Ver 2.00
~W
STRT.M 54.0000:
STOP.M 246.0000:
STEP.M 0.1250:
NULL. -999.2500:
UWI. F10643:
~C
DEPT.M :
SP.MV :
GR.API :
RML.OHMM :
RI. :
RXO.OHMM :
CALI.CM :
DEN.GM/CC :
~A
# ...
   99.0000   -22.0960    68.8570     9.2780     6.9680     8.7720    23.6210     2.4180 
   99.1250   -22.0260    68.2790     9.5230     7.2470    12.0280    23.4180     2.4330 
   99.2500   -21.9240    72.1950     9.0070     7.0330    11.1020    23.2670     2.4140 
   99.3750   -21.7920    74.3090     7.9820     6.4110     7.4450    23.2210     2.3720 
   99.5000   -21.6520    73.8930     6.9690     5.6760     5.4590    23.2720     2.3380 
   99.6250   -21.5310    76.4120     6.2860     5.1000     4.9700    23.3770     2.3220 
   99.7500   -21.4180    80.9490     5.9750     4.7710     4.8020    23.5330     2.3180 
   99.8750   -21.3610    82.5580     5.9720     4.6820     4.7940    23.6530     2.3180 
  100.0000   -21.2950    79.5710     6.1740     4.7870     4.9290    23.6780     2.3210 
  100.1250   -21.2670    77.7300     6.4260     4.9630     5.0460    23.6350     2.3250 
  100.2500   -21.2800    77.9190     6.6560     5.1470     5.1200    23.5920     2.3240 
  100.3750   -21.3140    78.7530     6.8120     5.2920     5.1780    23.5510     2.3150 
  100.5000   -21.3680    78.7270     6.8490     5.3570     5.3540    23.4610     2.2990 
  100.6250   -21.4820    76.4310     6.7920     5.3460     5.3760    23.3160     2.2840 
  100.7500   -21.6290    74.5390     6.6870     5.2790     5.2570    23.1370     2.2770 
  100.8750   -21.7610    74.6670     6.5870     5.1910     5.1390    23.0920     2.2780 
  101.0000   -21.9710    76.5990     6.5450     5.1210     5.0650    23.2330     2.2830 
  101.1250   -22.1770    79.5390     6.5710     5.0860     5.2400    23.3960     2.2900 
  101.2500   -22.3610    82.6890     6.6520     5.0870     5.5120    23.4640     2.2970 
  101.3750   -22.5690    85.0380     6.7570     5.1120     5.5530    23.4480     2.3050 
  101.5000   -22.7600    85.7530     6.8530     5.1500     5.3890    23.3510     2.3080 
  101.6250   -22.9080    86.7760     6.9200     5.1890     5.2290    23.1680     2.3020 
  101.7500   -23.0160    86.7620     6.9470     5.2160     5.2430    23.0010     2.2850 
  101.8750   -23.1140    84.0320     6.9630     5.2370     5.5210    22.9550     2.2570 
  102.0000   -23.1400    79.6910     7.0850     5.3100     5.7310    22.9620     2.2280 
  102.1250   -23.1300    76.3500     7.4300     5.5160     5.7450    22.8870     2.2210 
  102.2500   -23.1020    74.0190     8.0540     5.9110     5.5560    22.6770     2.2590 
  102.3750   -23.0300    72.2220     8.8920     6.4820     5.4780    22.2960     2.3490 
  102.5000   -22.9420    71.8930     9.6560     7.0770     6.1350    21.8030     2.4540 
  102.6250   -22.7930    73.4470     9.9530     7.4290     7.6050    21.2010     2.5080 
  102.7500   -22.6210    75.6070     9.5580     7.3390     8.1880    20.8890     2.4910 
  102.8750   -22.4590    77.6170     8.5920     6.8130     6.7030    21.0930     2.4290 
  103.0000   -22.2990    81.0560     7.4940     6.0710     5.3440    21.6330     2.3700 
  103.1250   -22.1880    85.3550     6.6840     5.4290     4.8590    22.3300     2.3390 
  103.2500   -22.0950    85.5550     6.3110     5.0390     4.8890    22.8420     2.3250 
  103.3750   -22.0270    80.1560     6.3760     4.9520     5.1260    23.1860     2.3130 
  103.5000   -21.9990    74.5890     6.7940     5.1580     5.5130    23.3270     2.2870 
  103.6250   -22.0010    73.0940     7.2900     5.4760     5.9190    23.3910     2.2560 
  103.7500   -22.0570    73.9270     7.6550     5.7550     6.3130    23.4180     2.2280 
  103.8750   -22.1270    74.7230     7.7420     5.8740     6.4230    23.4280     2.2140 
  104.0000   -22.2170    76.8720     7.4790     5.7520     6.1380    23.4260     2.2210 
  104.1250   -22.3380    79.9050     7.0350     5.4740     5.6560    23.4090     2.2420 
  104.2500   -22.4870    82.4610     6.5880     5.1490     5.2250    23.3600     2.2660 
  104.3750   -22.7020    83.1570     6.3130     4.8990     5.2930    23.2620     2.2810 
  104.5000   -22.9510    82.4420     6.3880     4.8610     5.5100    23.1420     2.2850 
  104.6250   -23.2460    80.8770     6.8160     5.0660     5.4870    23.0000     2.2900 
  104.7500   -23.5640    76.4720     7.6050     5.5390     5.7390    22.8930     2.3020 
  104.8750   -23.8700    70.4330     8.7430     6.2870     6.8730    22.8020     2.3200 
  105.0000   -24.1920    66.0640    10.2110     7.3300     8.4420    22.7400     2.3450 
  105.1250   -24.4540    64.5870    11.8200     8.5380     9.5370    22.8240     2.3860 
  105.2500   -24.6970    63.9750    13.3550     9.7580    10.2920    23.0280     2.4460 
  105.3750   -24.8730    61.7970    14.5240    10.7770    13.0130    23.2190     2.5020 
  105.5000   -24.9620    57.3980    14.9210    11.2850    16.4150    23.3080     2.5000 
  105.6250   -25.0360    51.9410    14.5990    11.2630    16.1060    23.3920     2.4320 
  105.7500   -25.0860    49.2010    13.7670    10.8110    12.3000    23.5730     2.3300 
  105.8750   -25.1130    50.7180    12.7520    10.1320     9.6930    23.9060     2.2300 
  106.0000   -25.1270    53.3860    11.9070     9.4680     9.0420    24.0580     2.1680 
  106.1250   -25.1630    53.9700    11.3710     8.9720     9.1050    24.0530     2.1390 
  106.2500   -25.1520    53.9100    11.1290     8.6760     9.1230    23.9850     2.1340 
  106.3750   -25.1450    55.2230    11.0660     8.5300     8.9760    23.8920     2.1380 
  106.5000   -25.1850    55.5290    11.0290     8.4490     8.7860    23.7570     2.1440 
  106.6250   -25.1830    53.7050    10.9170     8.3530     8.6940    23.6570     2.1490 
  106.7500   -25.1390    52.5950    10.7130     8.2240     8.6460    23.5840     2.1520 
  106.8750   -25.1230    54.9890    10.4370     8.0690     8.5120    23.5210     2.1540 
  107.0000   -25.0520    60.5900    10.1200     7.9060     8.3420    23.4750     2.1580 
  107.1250   -24.9130    65.1400     9.8350     7.7630     8.2610    23.4630     2.1600 
  107.2500   -24.7560    65.1120     9.7140     7.7040     8.2720    23.5240     2.1590 
  107.3750   -24.5270    60.7480     9.9660     7.8490     8.3990    23.6520     2.1550 
  107.5000   -24.2170    58.0870    10.9320     8.4440     8.7190    23.7430     2.1610 
  107.6250   -23.8560    59.8550    12.5450     9.5240     9.4790    23.7700     2.1930 
  107.7500   -23.4490    60.5930    14.4320    10.9220    11.2600    23.7230     2.2640 
  107.8750   -22.9350    56.5620    15.7220    12.1050    14.9270    23.5800     2.3660 
  108.0000   -22.3850    54.8290    15.0440    12.0740    19.3100    23.5180     2.4540 
  108.1250   -21.8620    59.8020    12.7370    10.7760    19.1470    23.5470     2.4910 
  108.2500   -21.3350    69.3170     9.9510     8.8300    12.5590    23.6670     2.4730 
  108.3750   -20.8130    79.7980     7.6870     6.9820     6.4980    23.7510     2.4280 
  108.5000   -20.3190    90.1060     6.3810     5.7070     4.9350    23.7490     2.3920 
  108.6250   -19.8740    96.3610     5.7100     4.9210     4.9020    23.6430     2.3790 
  108.7500   -19.4570    97.2800     5.4270     4.4970     5.1090    23.3890     2.3840 
  108.8750   -19.1490    94.5800     5.3120     4.2940     5.1310    23.1040     2.3940 
  109.0000   -18.9530    92.3860     5.1970     4.1900     4.8660    22.9690     2.3960 
  109.1250   -18.7840    91.7440     5.0590     4.1080     4.8160    22.8730     2.3950 
  109.2500   -18.6970    91.3840     4.9960     4.0780     4.8070    22.7390     2.3950 
  109.3750   -18.7180    90.2110     5.1240     4.1690     4.8410    22.6280     2.3940 
  109.5000   -18.7880    87.2660     5.5280     4.4600     5.0240    22.6120     2.3820 
  109.6250   -18.9440    83.1050     6.1070     4.9040     5.4380    22.5630     2.3560 
  109.7500   -19.1920    79.1540     6.7240     5.4130     6.1640    22.4300     2.3230 
  109.8750   -19.4210    79.0830     7.1950     5.8480     7.1940    22.3560     2.2930 
  110.0000   -19.6570    82.8860     7.2760     5.9960     7.1230    22.4070     2.2810 
  110.1250   -19.9170    84.2900     7.0010     5.8370     5.8620    22.4590     2.2880 
