~V
VERS. 2.00: Ver 2.00
~W
STRT.M 55.0000:
STOP.M 253.0000:
STEP.M 0.1250:
NULL. -999.2500:
UWI. F10665:
~C
DEPT.M :
SP.MV :
DEN.GM/CC :
GR.API :
RML.OHMM :
RI. :
RXO.OHMM :
CALI.CM :
~A
# ...
  212.5000   -16.4820     2.2190    59.7020    63.8030    63.5080    48.6500    24.0540 
  212.6250   -16.4500     2.2270    61.9040    53.6050    52.6870    42.0810    24.0540 
  212.7500   -16.4970     2.2270    63.2990    48.8440    47.1930    41.6470    24.0520 
  212.8750   -16.6450     2.2240    62.3110    48.4080    45.8360    43.3250    24.0460 
  213.0000   -16.8730     2.2230    60.3160    51.8770    48.1320    44.9490    24.0320 
  213.1250   -17.1900     2.2240    59.9140    60.1890    54.8760    48.5590    24.0030 
  213.2500   -17.5530     2.2220    59.7720    73.4790    66.1770    63.5700    23.9870 
  213.3750   -17.9070     2.2130    58.3160    92.4750    82.7330    96.0870    23.9780 
  213.5000   -18.2520     2.1990    54.3210   117.0860   104.4290   139.0490    23.9730 
  213.6250   -18.5510     2.1880    51.3050   145.3760   129.3260   173.0330    23.9920 
  213.7500   -18.8100     2.1820    51.9700   171.5720   152.1260   200.9040    24.0350 
  213.8750   -19.0060     2.1810    55.3070   190.6980   168.3680   218.9200    24.0590 
  214.0000   -19.1430     2.1820    57.9980   200.9420   176.3200   214.0360    24.0100 
  214.1250   -19.1710     2.1820    56.7870   204.2660   177.4170   189.2260    23.9530 
  214.2500   -19.1520     2.1800    53.5700   205.7580   176.3540   172.5250    23.9010 
  214.3750   -19.0930     2.1760    50.8360   207.2290   175.1000   167.0850    23.8880 
  214.5000   -18.9970     2.1730    49.1210   209.0160   174.3800   185.5760    23.9330 
  214.6250   -18.8680     2.1730    47.2430   210.4060   174.0800   212.4090    24.0150 
  214.7500   -18.7160     2.1760    45.1280   210.3730   173.4340   223.5740    24.0860 
  214.8750   -18.5590     2.1800    44.0360   208.3360   171.9420   216.4570    24.1440 
  215.0000   -18.3920     2.1820    43.4160   204.3420   169.4970   210.8140    24.2190 
  215.1250   -18.2550     2.1860    43.2640   198.5080   166.0640   206.5310    24.2640 
  215.2500   -18.1180     2.1950    43.4450   191.2830   161.7300   195.2960    24.2270 
  215.3750   -18.0080     2.2080    44.4620   182.6420   156.3170   182.0510    24.1600 
  215.5000   -17.9100     2.2190    45.2020   172.6980   149.7740   172.6910    24.1150 
  215.6250   -17.8480     2.2210    44.6090   162.0100   142.3830   165.1030    24.0820 
  215.7500   -17.8030     2.2160    44.1090   151.5160   134.8980   153.7890    24.0500 
  215.8750   -17.7820     2.2090    45.8400   141.2700   127.4110   136.7990    24.0640 
  216.0000   -17.7940     2.2040    50.7970   130.3980   119.2030   122.4830    24.1010 
  216.1250   -17.8280     2.2070    54.7890   117.3700   108.7500   121.3150    24.1100 
  216.2500   -17.8980     2.2170    55.6140   102.6600    96.2790   114.0120    24.0810 
  216.3750   -17.9640     2.2310    56.7090    88.0460    83.3050    93.8630    24.0300 
  216.5000   -18.0510     2.2450    61.6590    75.6990    71.9160    72.5560    24.0160 
  216.6250   -18.0870     2.2570    69.2710    67.7730    64.2510    54.4050    24.0660 
  216.7500   -18.1150     2.2670    73.7330    63.9020    60.1730    46.2550    24.1290 
  216.8750   -18.1100     2.2790    73.1560    63.5490    59.2830    45.0290    24.1640 
  217.0000   -18.0630     2.2970    69.8320    65.7820    60.8100    51.6370    24.1030 
  217.1250   -17.9420     2.3290    68.2510    69.4850    63.8260    61.0170    24.0130 
  217.2500   -17.7390     2.3740    67.8400    73.1910    66.9720    68.0050    23.9840 
  217.3750   -17.4580     2.4240    64.3190    76.1810    69.5210    72.2660    23.9940 
  217.5000   -17.1230     2.4610    57.8120    78.2720    71.1980    75.2190    23.9860 
  217.6250   -16.7470     2.4630    54.6840    79.6970    72.1100    72.9040    23.9080 
  217.7500   -16.3720     2.4370    57.7850    80.9120    72.7190    69.0470    23.8470 
  217.8750   -15.9970     2.4080    64.0100    81.8600    73.0460    69.9060    23.8210 
  218.0000   -15.6520     2.4040    68.3370    82.2040    72.8400    69.8700    23.8080 
  218.1250   -15.3650     2.4370    67.1340    81.5300    71.7370    69.9840    23.7850 
  218.2500   -15.1270     2.4770    63.1600    80.2270    70.0350    70.9400    23.8010 
  218.3750   -14.9850     2.4950    60.5720    79.0460    68.3400    72.7000    23.8350 
  218.5000   -14.8890     2.4830    60.2500    79.0020    67.5100    69.9990    23.8590 
  218.6250   -14.8800     2.4690    58.2570    81.3330    68.6040    78.2050    23.8280 
  218.7500   -14.8980     2.4840    53.0500    85.9510    71.6120    98.1990    23.7610 
  218.8750   -14.9620     2.5380    47.6120    92.3040    76.2030   133.8040    23.7490 
  219.0000   -15.0410     2.6110    46.8180    98.8040    81.2660   183.0480    23.7930 
  219.1250   -15.1160     2.6640    49.8270   102.1010    84.3390   182.6090    23.8270 
  219.2500   -15.1940     2.6810    50.9550   100.7650    84.0300   144.7130    23.8270 
  219.3750   -15.2220     2.6640    49.8270    95.9000    80.7740   127.1440    23.8590 
  219.5000   -15.2310     2.6270    49.4910    90.2990    76.4610   110.7710    23.8950 
  219.6250   -15.1850     2.5940    50.9980    86.5820    73.2230    82.1150    23.9050 
  219.7500   -15.0930     2.5860    51.6000    84.4330    71.2420    71.4300    23.8860 
  219.8750   -14.9420     2.6050    52.4100    81.7820    69.1110    78.8120    23.8470 
  220.0000   -14.7240     2.6240    56.4500    75.9540    64.6710    96.9930    23.7970 
  220.1250   -14.4490     2.6040    63.0690    65.3430    56.2850   102.2700    23.7710 
  220.2500   -14.1290     2.5440    67.5690    52.9370    46.0740    75.1280    23.7770 
  220.3750   -13.7540     2.4650    67.5190    41.6230    36.4250    44.5230    23.8090 
  220.5000   -13.3450     2.3970    64.8250    33.1550    28.9560    25.3450    23.7800 
  220.6250   -12.8920     2.3700    63.5360    28.4410    24.5480    18.4780    23.6210 
  220.7500   -12.4320     2.3790    63.5640    26.5280    22.4780    18.3340    23.4810 
  220.8750   -11.9680     2.4040    64.3470    26.9990    22.4330    19.6760    23.4120 
  221.0000   -11.5440     2.4270    65.7090    29.7090    24.2980    21.4010    23.4000 
  221.1250   -11.1900     2.4430    66.5340    35.4660    28.7530    25.7720    23.4990 
  221.2500   -10.8970     2.4650    65.0750    44.6880    36.3000    36.5360    23.5770 
  221.3750   -10.7190     2.5040    60.4290    57.8720    47.6870    59.5000    23.6180 
  221.5000   -10.5980     2.5680    50.8180    73.4150    61.8890    95.1920    23.6060 
  221.6250   -10.5750     2.6540    35.4790    81.6570    71.0670   119.4000    23.5830 
  221.7500   -10.5860     2.7220    21.3600    72.7390    65.8000   150.7300    23.5200 
  221.8750   -10.6380     2.7360    14.6470    50.7840    47.8460   141.1070    23.4720 
  222.0000   -10.7020     2.6880    14.0610    29.4080    28.6620    63.1700    23.4230 
  222.1250   -10.7450     2.6030    15.2250    16.7330    16.4790    21.3870    23.3370 
  222.2500   -10.7840     2.5170    17.5890    10.0470     9.7400     8.2080    23.2360 
  222.3750   -10.7780     2.4390    21.5950     6.8390     6.3050     5.6200    23.1320 
  222.5000   -10.7750     2.3720    25.0240     4.6880     4.6230     5.5540    23.0030 
  222.6250   -10.7450     2.3160    25.6140     4.3140     3.9460     4.9030    22.8860 
  222.7500   -10.7140     2.2760    25.3200     4.2350     3.7030     4.4060    22.9620 
  222.8750   -10.6740     2.2600    25.4620     4.2540     3.6710     4.0760    23.1520 
  223.0000   -10.6160     2.2720    25.4790     4.2680     3.7100     3.9200    23.2800 
  223.1250   -10.5220     2.3030    25.4720     4.2540     3.7510     3.8870    23.3070 
  223.2500   -10.4150     2.3270    26.2280     4.2370     3.7850     3.9600    23.2420 
  223.3750   -10.2990     2.3320    27.2000     4.2330     3.8190     4.1210    23.0520 
  223.5000   -10.1830     2.3190    27.0250     4.2480     3.8610     4.2730    22.8030 
  223.6250   -10.0690     2.3040    26.2870     4.2920     3.9140     4.2800    22.8590 
