~V
VERS. 2.00: Ver 2.00
~W
STRT.M 50.0000:
STOP.M 265.0000:
STEP.M 0.1250:
NULL. -999.2500:
UWI. F10671:
~C
DEPT.M :
GR.API :
RML.OHMM :
RI. :
RXO.OHMM :
CALI.CM :
DEN.GM/CC :
SP.MV :
~A
# ...
  252.5000    25.1260     3.7660     3.4170     3.8980    23.8410     2.3210    -5.7430 
  252.6250    24.9430     3.8590     3.5010     4.0650    23.7850     2.3560    -5.7560 
  252.7500    25.4980     3.9190     3.5640     4.1950    23.7560     2.3800    -5.7110 
  252.8750    26.8050     3.9330     3.5920     4.1750    23.7280     2.3850    -5.6620 
  253.0000    27.8700     3.9060     3.5850     4.0660    23.6700     2.3730    -5.5640 
  253.1250    28.5230     3.8540     3.5540     3.9570    23.5870     2.3530    -5.3930 
  253.2500    28.6990     3.8060     3.5230     3.8730    23.5540     2.3320    -5.1700 
  253.3750    28.0880     3.7770     3.5040     3.8370    23.6640     2.3150    -4.9010 
  253.5000    27.1800     3.7710     3.4990     3.8700    23.8430     2.3030    -4.6350 
  253.6250    26.4970     3.7820     3.5070     3.9280    24.0580     2.3020    -4.3960 
  253.7500    25.7230     3.7960     3.5170     3.9700    24.2100     2.3170    -4.1670 
  253.8750    25.4560     3.8050     3.5230     3.9890    24.2900     2.3420    -3.9560 
  254.0000    26.2000     3.8040     3.5240     4.0200    24.3180     2.3650    -3.8220 
  254.1250    27.6700     3.7920     3.5190     4.0480    24.3320     2.3660    -3.7540 
  254.2500    28.2580     3.7690     3.5100     4.0220    24.3540     2.3450    -3.6770 
  254.3750    28.2580     3.7390     3.4950     3.9280    24.3890     2.3170    -3.6150 
  254.5000    28.2580     3.7030     3.4730     3.8260    24.4240     2.2990    -3.5390 
  254.6250    28.2580     3.6590     3.4370     3.7160    24.4450     2.3070    -3.5010 
  254.7500    28.2580     3.6090     3.3880     3.6160    24.4540     2.3310    -3.5050 
  254.8750    28.2580     3.5550     3.3260     3.5390    24.4590     2.3540    -3.4960 
  255.0000    28.2580     3.5000     3.2570     3.4590    24.4630     2.3610    -3.4650 
  255.1250    28.2580     3.4490     3.1870     3.3400    24.4670     2.3460    -3.4490 
  255.2500    28.2580     3.4040     3.1230     3.2790    24.4710     2.3200    -3.4330 
  255.3750    28.2580     3.3680     3.0730     3.2710    24.4700     2.2980    -3.3770 
  255.5000    28.2580     3.3460     3.0440     3.2840    24.4610     2.2850    -3.3660 
  255.6250    28.2580     3.3590     3.0500     3.2650    24.4280     2.2860    -3.3770 
  255.7500    28.2580     3.4250     3.0990     3.2820    24.3970     2.2930    -3.3710 
  255.8750    28.2580     3.5590     3.1970     3.3610    24.3850     2.3030    -3.3780 
  256.0000    28.2580     3.7580     3.3440     3.5320    24.3830     2.3140    -3.3580 
  256.1250    28.2580     3.9870     3.5240     3.9880    24.3830     2.3280    -3.3100 
  256.2500    28.2580     4.1790     3.6940     4.5840    24.3830     2.3430    -3.2810 
  256.3750    28.2580     4.2830     3.8130     5.0570    24.3820     2.3580    -3.3020 
  256.5000    28.2580     4.2830     3.8610     5.1870    24.3790     2.3690    -3.3080 
  256.6250    28.2580     4.2050     3.8390     4.8240    24.3710     2.3710    -3.2980 
  256.7500    28.2580     4.1350     3.7980     4.3860    24.3540     2.3680    -3.2610 
  256.8750    28.2580     4.1250     3.7780     4.1300    24.3240     2.3640    -3.1970 
  257.0000    28.2580     4.1860     3.8010     4.1860    24.2960     2.3620    -3.1720 
  257.1250    28.2580     4.2920     3.8670     4.4680    24.2700     2.3630    -3.1430 
  257.2500    28.2580     4.3910     3.9460     4.6850    24.2550     2.3630    -3.1470 
  257.3750    28.2580     4.4580     4.0190     4.7170    24.2490     2.3590    -3.1510 
  257.5000    28.2580     4.4900     4.0760     4.5560    24.2480     2.3510    -3.1520 
  257.6250    28.2580     4.5000     4.1140     4.3250    24.2480     2.3430    -3.1530 
  257.7500    28.2580     4.5030     4.1420     4.0750    24.2480     2.3370    -3.1730 
  257.8750    28.2580     4.5030     4.1620     3.9720    24.2480     2.3380    -3.1990 
  258.0000    28.2580     4.4990     4.1760     4.0590    24.2460     2.3420    -3.3280 
  258.1250    28.2580     4.4920     4.1810     4.1790    24.2390     2.3460    -3.3880 
  258.2500    28.2580     4.4890     4.1810     4.2870    24.2230     2.3470    -3.3850 
  258.3750    28.2580     4.4950     4.1780     4.3450    24.1940     2.3420    -3.3770 
  258.5000    28.2580     4.5110     4.1750     4.3300    24.1470     2.3340    -3.3570 
  258.6250    28.2580     4.5350     4.1720     4.3490    24.1180     2.3300    -3.2860 
  258.7500    28.2580     4.5600     4.1690     4.3170    24.1000     2.3340    -3.2250 
  258.8750    28.2580     4.5790     4.1690     4.2350    24.0760     2.3480    -3.1630 
  259.0000    28.2580     4.5860     4.1690     4.2030    24.0260     2.3670    -3.0680 
  259.1250    28.2580     4.5760     4.1710     4.3460    23.9280     2.3820    -2.9920 
  259.2500    28.2580     4.5550     4.1740     4.4170    23.8090     2.3880    -2.9490 
  259.3750    28.2580     4.5310     4.1780     4.4140    23.6670     2.3810    -2.9380 
  259.5000    28.2580     4.5160     4.1820     4.4130    23.4770     2.3640    -2.9020 
  259.6250    28.2580     4.5150     4.1860     4.5190    23.2600     2.3390    -2.9020 
  259.7500    28.2580     4.5230     4.1890     4.6210    22.9790     2.3070    -2.9110 
  259.8750    28.2580     4.5330     4.1920     4.5830    22.5070     2.2690    -2.9100 
  260.0000    28.2580     4.5380     4.1940     4.4460    21.6710     2.2300    -2.9070 
  260.1250    28.2580     4.5390     4.1950     4.3550    20.2400     2.1970    -2.9230 
  260.2500    28.2580     4.5390     4.1950     4.2930    18.4260     2.1780    -2.9000 
  260.3750    28.2580     4.5390     4.1950     4.3130    16.8020     2.1740    -2.8450 
  260.5000    28.2580     4.5390     4.1950     4.4050    15.6550     2.1820    -2.8320 
  260.6250    28.2580     4.5390     4.1950     4.4800    15.0920     2.1940    -2.8700 
  260.7500    28.2580     4.5390     4.1950     4.5200    14.7670     2.2030    -2.8950 
  260.8750    28.2580     4.5390     4.1950     4.5450    14.5520     2.2060    -2.8710 
  261.0000    28.2580     4.5390     4.1950     4.5380    14.3990     2.2050    -2.8610 
  261.1250    28.2580     4.5390     4.1950     4.5100    14.3100     2.2030    -2.8700 
  261.2500    28.2580     4.5390     4.1950     4.5280    14.2650     2.2060    -2.8910 
  261.3750    28.2580     4.5390     4.1950     4.5960    14.2270     2.2200    -2.9030 
  261.5000    28.2580     4.5390     4.1950     4.6460    14.1690     2.2440    -2.9210 
  261.6250    28.2580     4.5390     4.1950     4.6730    14.1000     2.2740    -2.9050 
  261.7500    28.2580     4.5390     4.1950     4.6050    14.0420     2.3020    -2.8860 
  261.8750    28.2580     4.5390     4.1950     4.5150    13.9640     2.3230    -2.9090 
  262.0000    28.2580     4.5390     4.1950     4.4720    13.8490     2.3360    -2.9310 
  262.1250    28.2580     4.5390     4.1950     4.4350    13.6620     2.3390    -2.9290 
  262.2500    28.2580     4.5390     4.1950     4.3730    13.4040     2.3360    -2.9340 
  262.3750    28.2580     4.5390     4.1950     4.3030    13.1380     2.3280    -2.9380 
  262.5000    28.2580     4.5390     4.1950     4.2390    12.9590     2.3200  -999.2500 
  262.6250    28.2580     4.5390     4.1950     4.2170    12.8930     2.3120  -999.2500 
  262.7500    28.2580     4.5390     4.1950     4.2100    12.8760     2.3060  -999.2500 
  262.8750    28.2580     4.5390     4.1950     4.2100    12.8730     2.3020  -999.2500 
  263.0000    28.2580     4.5390     4.1950     4.2100    12.8730     2.3000  -999.2500 
  263.1250    28.2580     4.5390     4.1950     4.2100    12.8730     2.3000  -999.2500 
  263.2500    28.2580     4.5390     4.1950     4.2100    12.8730     2.3030  -999.2500 
  263.3750    28.2580     4.5390     4.1950     4.2090    12.8730     2.3070  -999.2500 
  263.5000    28.2580     4.5390     4.1950     4.2090    12.8730     2.3120  -999.2500 
  263.6250    28.2580     4.5390     4.1950     4.2080    12.8730     2.3150  -999.2500 
