~V
VERS. 2.00: Ver 2.00
~W
STRT.M 55.0000:
STOP.M 228.0000:
STEP.M 0.1250:
NULL. -999.2500:
UWI. F10621:
~C
DEPT.M :
GR.API :
RML.OHMM :
RI. :
RXO.OHMM :
CALI.CM :
DEN.GM/CC :
SP.MV :
~A
# ...
  133.7500    61.1500    48.3140    45.9550    45.3700    23.5410     2.2520    -2.7320 
  133.8750    60.9590    51.1490    48.8910    51.2020    23.6180     2.3250    -2.8310 
  134.0000    60.4460    53.2490    51.3180    54.0280    23.7300     2.3980    -2.9480 
  134.1250    59.3630    53.9320    52.4770    53.4310    23.7690     2.4420    -3.0270 
  134.2500    57.3970    53.6300    52.6140    51.3510    23.7840     2.4600    -3.1170 
  134.3750    55.6650    52.9600    52.2440    50.4380    23.8440     2.4690    -3.2290 
  134.5000    54.6490    52.4200    51.8560    49.6780    23.9910     2.4870    -3.3220 
  134.6250    52.7000    51.9510    51.4800    49.3750    24.1230     2.5220    -3.4520 
  134.7500    50.4990    50.8900    50.5740    50.5500    24.1520     2.5590    -3.5570 
  134.8750    49.6840    48.6510    48.5810    52.5940    24.1050     2.5870    -3.6380 
  135.0000    50.3600    45.1520    45.3560    52.1900    24.0190     2.5990    -3.7380 
  135.1250    48.6060    41.0210    41.3990    48.2470    23.9750     2.5980    -3.8260 
  135.2500    47.2850    37.4540    37.8280    40.7040    23.9490     2.5940    -3.8990 
  135.3750    50.2760    35.1890    35.3570    34.7070    23.9190     2.5930    -3.9940 
  135.5000    54.3920    34.4330    34.2390    32.9870    23.8910     2.5980    -4.0960 
  135.6250    53.9950    34.9700    34.3950    35.0970    23.7850     2.6060    -4.1930 
  135.7500    51.9290    35.8660    35.0360    36.5580    23.5680     2.6100    -4.3170 
  135.8750    51.6140    36.4790    35.5700    36.6980    23.4490     2.6070    -4.4440 
  136.0000    53.3040    36.4430    35.5820    36.1960    23.5750     2.5960    -4.5640 
  136.1250    55.3190    35.7390    34.9420    35.3760    23.8460     2.5800    -4.6980 
  136.2500    57.3610    34.9210    34.1030    34.2340    24.0010     2.5640    -4.8560 
  136.3750    58.0960    34.4540    33.4960    33.1110    24.0080     2.5530    -4.9830 
  136.5000    58.7380    34.6430    33.4380    33.0230    24.0090     2.5510    -5.0710 
  136.6250    61.8610    35.6660    34.1470    34.8830    24.0680     2.5620    -5.1700 
  136.7500    63.3160    37.2070    35.3860    36.8460    24.1400     2.5800    -5.2730 
  136.8750    60.0400    38.9390    36.8780    38.5220    24.2450     2.6010    -5.3820 
  137.0000    55.2220    40.4570    38.2540    40.3720    24.4240     2.6210    -5.4830 
  137.1250    53.3540    41.1870    38.9760    41.2370    24.4930     2.6340    -5.6130 
  137.2500    52.3860    40.9260    38.8110    40.5100    24.4970     2.6380    -5.7480 
  137.3750    50.3080    39.6350    37.6920    39.0310    24.4910     2.6330    -5.8980 
  137.5000    49.1470    37.5080    35.7790    37.8890    24.5130     2.6180    -6.0640 
  137.6250    50.7670    34.8810    33.3570    36.3020    24.5660     2.5960    -6.1960 
  137.7500    52.1750    32.2700    30.9040    33.3160    24.6080     2.5740    -6.3310 
  137.8750    53.1670    29.9950    28.7160    28.6060    24.6180     2.5540    -6.4790 
  138.0000    54.7800    28.2620    26.9960    25.5000    24.5890     2.5350    -6.6230 
  138.1250    57.9380    27.2550    25.9370    24.4890    24.5360     2.5100    -6.7300 
  138.2500    61.6790    26.8010    25.4090    23.6420    24.5250     2.4830    -6.7760 
  138.3750    63.3170    26.7210    25.2740    23.1970    24.5480     2.4590    -6.7870 
  138.5000    60.9270    26.7860    25.3300    23.4020    24.5080     2.4500    -6.8030 
  138.6250    56.8250    26.7480    25.3440    23.9330    24.4180     2.4640    -6.7930 
  138.7500    56.5490    26.5090    25.1820    24.3250    24.3810     2.4940    -6.7480 
  138.8750    59.1340    26.0900    24.8310    23.9430    24.3790     2.5270    -6.7090 
  139.0000    59.9840    25.5660    24.3380    22.8300    24.3530     2.5500    -6.6920 
  139.1250    57.1520    24.9720    23.7270    22.4400    24.3150     2.5530    -6.6740 
  139.2500    53.0960    24.2920    23.0050    22.4790    24.3370     2.5400    -6.6990 
  139.3750    48.8010    23.4690    22.1420    22.5590    24.4130     2.5180    -6.7800 
  139.5000    47.2500    22.4830    21.1400    22.3460    24.5220     2.4920    -6.8680 
  139.6250    50.9720    21.4100    20.0740    20.6730    24.6320     2.4690    -7.0010 
  139.7500    54.8720    20.4620    19.1230    18.0900    24.6740     2.4540    -7.1890 
  139.8750    56.1540    19.8360    18.4530    16.8070    24.6720     2.4470    -7.3480 
  140.0000    55.1380    19.6890    18.1950    16.9890    24.6370     2.4500    -7.4530 
  140.1250    53.7340    20.2040    18.5210    17.8120    24.6020     2.4620    -7.5560 
  140.2500    51.5090    21.2790    19.3670    18.7360    24.5760     2.4830    -7.6550 
  140.3750    51.7350    22.7980    20.6550    19.7630    24.5900     2.5110    -7.6900 
  140.5000    55.4770    24.5180    22.1900    21.5880    24.6490     2.5450    -7.6700 
  140.6250    56.8830    25.9700    23.5760    24.5170    24.6810     2.5780    -7.6550 
  140.7500    54.1470    26.7100    24.3760    27.0760    24.6960     2.6030    -7.5840 
  140.8750    50.7700    26.4240    24.2690    27.8610    24.6990     2.6130    -7.4490 
  141.0000    50.1310    25.0590    23.1760    25.9850    24.7000     2.6040    -7.2850 
  141.1250    49.0460    22.8640    21.2960    22.2650    24.6900     2.5770    -7.0830 
  141.2500    46.2340    20.4920    19.2730    18.6420    24.6370     2.5420    -6.8020 
  141.3750    45.6420    18.3680    17.4900    15.8770    24.4680     2.5100    -6.4690 
  141.5000    49.8020    16.7130    16.1240    13.9990    24.1490     2.4850    -6.1520 
  141.6250    56.0800    15.6200    15.2370    12.9190    23.8370     2.4700    -5.8140 
  141.7500    60.6350    15.0950    14.6580    12.7990    23.6640     2.4590    -5.4440 
  141.8750    61.0590    14.7820    14.2920    12.7860    23.5810     2.4510    -5.1250 
  142.0000    57.3160    14.6060    14.0710    12.4980    23.5830     2.4450    -4.8620 
  142.1250    51.7960    14.5440    13.9690    12.3020    23.6350     2.4440    -4.6400 
  142.2500    49.4400    14.5570    13.9450    12.4100    23.5740     2.4440    -4.4970 
  142.3750    51.3900    14.6290    13.9840    12.5920    23.4070     2.4410    -4.4100 
  142.5000    54.1160    14.7470    14.0740    12.7150    23.2690     2.4330    -4.3610 
  142.6250    54.9770    14.9140    14.2120    12.5810    23.1690     2.4210    -4.3370 
  142.7500    54.8480    15.1460    14.4020    12.4970    23.1040     2.4140    -4.3730 
  142.8750    55.7950    15.4870    14.6760    12.9000    23.1990     2.4130    -4.4370 
  143.0000    57.8530    15.9800    15.0740    13.8890    23.4940     2.4190    -4.4790 
  143.1250    58.9950    16.6630    15.6400    14.9440    23.8980     2.4260    -4.4970 
  143.2500    60.9040    17.4570    16.3200    15.9790    24.2320     2.4290    -4.5080 
  143.3750    64.1020    18.2690    17.0370    16.9460    24.4950     2.4250    -4.5190 
  143.5000    65.0710    18.9860    17.6870    17.8680    24.6660     2.4150    -4.4840 
  143.6250    61.4870    19.4670    18.1380    18.6590    24.7410     2.4040    -4.4090 
  143.7500    58.5920    19.6960    18.3600    18.6810    24.7480     2.3960    -4.3170 
  143.8750    59.4160    19.6970    18.3630    18.0030    24.7280     2.3940    -4.1910 
  144.0000    60.9310    19.5460    18.2120    17.4990    24.7150     2.3990    -4.0660 
  144.1250    56.9450    19.3570    18.0050    17.3540    24.7290     2.4110    -3.9820 
  144.2500    51.5990    19.2600    17.8650    17.1560    24.7320     2.4280    -3.8950 
  144.3750    50.2480    19.3410    17.8760    17.0690    24.7190     2.4460    -3.8340 
  144.5000    51.4090    19.6480    18.0930    17.1150    24.7210     2.4640    -3.7960 
  144.6250    49.8070    20.1970    18.5490    17.6890    24.7310     2.4750    -3.7700 
  144.7500    48.2610    20.8520    19.1410    18.6170    24.7090     2.4800    -3.7670 
  144.8750    50.0660    21.4520    19.7390    19.8280    24.6420     2.4760    -3.7900 
