~V
VERS. 2.00: Ver 2.00
~W
STRT.M 58.0000:
STOP.M 221.0000:
STEP.M 0.1250:
NULL. -999.2500:
UWI. F10613:
~C
DEPT.M :
SP.MV :
GR.API :
RML.OHMM :
RI. :
RXO.OHMM :
CALI.CM :
DEN.GM/CC :
~A
# ...
   80.5000   -12.9090    62.9550    12.7680    10.8770    13.1400    25.2010     2.1700 
   80.6250   -12.8840    61.6530    12.7360    10.8650    12.8690    25.1930     2.1760 
   80.7500   -12.8280    60.0970    12.7960    10.8950    12.1760    25.2740     2.1810 
   80.8750   -12.7140    59.4110    12.9840    11.0100    11.7910    25.3740     2.1780 
   81.0000   -12.5880    58.2930    13.1650    11.1500    11.9050    25.4110     2.1610 
   81.1250   -12.3990    57.7370    13.0750    11.1270    12.2570    25.4460     2.1440 
   81.2500   -12.1690    59.1050    12.5610    10.8020    12.6720    25.5140     2.1400 
   81.3750   -11.9260    60.9390    11.7200    10.2060    12.7220    25.4300     2.1580 
   81.5000   -11.6850    64.0660    10.9170     9.5770    11.0270    24.9680     2.1880 
   81.6250   -11.4200    67.9200    10.4670     9.1690     8.8240    24.2980     2.2090 
   81.7500   -11.1680    69.5720    10.4490     9.0730     8.3030    23.8630     2.2160 
   81.8750   -10.9440    68.9710    10.7570     9.2470     9.9060    23.7290     2.2210 
   82.0000   -10.7330    68.8510    11.1160     9.5210    12.4250    23.7070     2.2340 
   82.1250   -10.5900    70.4990    11.1790     9.6110    12.4250    23.6880     2.2540 
   82.2500   -10.4920    72.9460    10.7640     9.3340    10.0440    23.6690     2.2700 
   82.3750   -10.4060    74.0280     9.9140     8.6710     8.7580    23.6140     2.2800 
   82.5000   -10.3870    75.0890     8.8550     7.7660     7.8220    23.5520     2.2880 
   82.6250   -10.4060    78.7450     7.8600     6.8680     6.7750    23.5890     2.3030 
   82.7500   -10.4310    84.3790     7.0560     6.1050     5.6450    23.7560     2.3220 
   82.8750   -10.4920    87.6570     6.5200     5.5510     5.3690    23.9480     2.3380 
   83.0000   -10.5480    88.3220     6.4020     5.3200     5.5110    24.1050     2.3380 
   83.1250   -10.5900    88.5610     6.7630     5.4460     5.5970    24.1600     2.3190 
   83.2500   -10.6350    85.5920     7.7390     6.0200     6.1260    24.1080     2.2850 
   83.3750   -10.6810    78.1040     9.4650     7.1490     8.1550    23.9330     2.2430 
   83.5000   -10.7150    71.8570    12.0920     9.0330    12.4540    23.8010     2.2030 
   83.6250   -10.7420    69.1510    15.1730    11.4880    15.8670    23.8070     2.1690 
   83.7500   -10.7970    66.2310    17.9520    14.0680    17.4390    23.9010     2.1430 
   83.8750   -10.8460    62.2170    19.3530    15.8800    18.3790    24.0000     2.1320 
   84.0000   -10.9280    61.6890    18.2920    15.7140    18.7160    24.2100     2.1410 
   84.1250   -11.0260    65.7620    15.7140    14.0090    17.4880    24.4080     2.1690 
   84.2500   -11.1100    73.3630    12.7760    11.6640    14.3800    24.4870     2.2080 
   84.3750   -11.2120    81.5050    10.2870     9.4400    10.4280    24.4270     2.2490 
   84.5000   -11.3270    84.3380     8.6100     7.7710     8.0050    24.3720     2.2830 
   84.6250   -11.4230    81.9510     7.5100     6.5940     7.0460    24.3420     2.3140 
   84.7500   -11.4730    80.7310     6.8270     5.8210     6.5300    24.3400     2.3410 
   84.8750   -11.5230    83.5910     6.4440     5.3600     6.0730    24.3450     2.3550 
   85.0000   -11.5400    84.8350     6.3260     5.1690     5.8400    24.3460     2.3500 
   85.1250   -11.5540    82.0840     6.4090     5.1610     5.7720    24.3230     2.3390 
   85.2500   -11.6130    78.4500     6.7040     5.3270     5.7050    24.2810     2.3390 
   85.3750   -11.6270    75.9350     7.1990     5.6690     6.0880    24.2490     2.3660 
   85.5000   -11.6160    73.8930     7.8020     6.1550     7.0010    24.2740     2.4200 
   85.6250   -11.6640    71.9160     8.3060     6.6260     7.6510    24.3060     2.4700 
   85.7500   -11.7160    71.4640     8.5330     6.9270     8.4450    24.3230     2.4880 
   85.8750   -11.7800    72.7830     8.3860     6.9370     9.6980    24.3280     2.4640 
   86.0000   -11.8710    76.1550     7.9050     6.6180     9.0570    24.3400     2.4140 
   86.1250   -11.9570    79.5640     7.3900     6.1830     7.0650    24.3520     2.3640 
   86.2500   -12.0190    80.6730     7.0430     5.8090     6.3320    24.3610     2.3240 
   86.3750   -12.1030    80.6850     6.9530     5.6070     6.3350    24.3630     2.2910 
   86.5000   -12.2040    81.5340     7.1390     5.6410     6.4820    24.3630     2.2620 
   86.6250   -12.2470    83.1130     7.4510     5.8270     6.8100    24.3620     2.2360 
   86.7500   -12.3030    83.5960     7.7310     6.0560     7.5660    24.3620     2.2190 
   86.8750   -12.3170    81.2480     7.8280     6.1960     7.8850    24.3610     2.2170 
   87.0000   -12.2790    76.6670     7.6570     6.1390     7.3720    24.3630     2.2320 
   87.1250   -12.2160    74.9780     7.3430     5.9430     6.8370    24.3610     2.2520 
   87.2500   -12.0940    77.4220     7.0100     5.6930     6.3670    24.3570     2.2700 
   87.3750   -11.9380    80.6810     6.7630     5.4740     5.8780    24.3570     2.2790 
   87.5000   -11.7460    81.9120     6.6730     5.3600     6.0500    24.3610     2.2810 
   87.6250   -11.5390    83.0870     6.6840     5.3360     6.3230    24.3620     2.2820 
   87.7500   -11.3130    85.3570     6.7260     5.3560     6.2170    24.3620     2.2870 
   87.8750   -11.1140    86.6480     6.7230     5.3580     6.0500    24.3620     2.2990 
   88.0000   -10.9250    86.2520     6.6060     5.2710     6.0290    24.3590     2.3160 
   88.1250   -10.7670    87.9660     6.3790     5.0850     5.7990    24.3580     2.3280 
   88.2500   -10.6720    91.4660     6.0790     4.8250     5.4100    24.3600     2.3350 
   88.3750   -10.6260    92.9610     5.7690     4.5430     5.1380    24.3670     2.3390 
   88.5000   -10.6430    90.5620     5.5370     4.3140     4.9800    24.3750     2.3470 
   88.6250   -10.7090    87.9860     5.4330     4.1830     4.8970    24.3790     2.3570 
   88.7500   -10.8060    86.5910     5.4890     4.1770     4.7320    24.3740     2.3620 
   88.8750   -10.9440    85.8420     5.7180     4.3150     4.8930    24.3670     2.3530 
   89.0000   -11.1220    86.5210     6.1500     4.6280     5.5680    24.3650     2.3220 
   89.1250   -11.3100    86.8130     6.7290     5.0770     6.1550    24.3520     2.2780 
   89.2500   -11.4930    83.7630     7.3990     5.6240     6.5000    24.2840     2.2310 
   89.3750   -11.6760    77.4990     8.0680     6.1980     7.1540    24.0920     2.1950 
   89.5000   -11.7900    70.3930     8.5570     6.6680     8.0660    23.8180     2.1880 
   89.6250   -11.8770    65.7360     8.7600     6.9290     8.3890    23.6490     2.2090 
   89.7500   -11.9190    65.5610     8.6480     6.9290     8.3850    23.5900     2.2480 
   89.8750   -11.8410    69.7050     8.2860     6.6950     8.4350    23.6210     2.2860 
   90.0000   -11.7140    74.9110     7.7960     6.3070     8.4180    23.7870     2.3030 
   90.1250   -11.5170    79.8750     7.3190     5.8930     7.2400    24.0550     2.3040 
   90.2500   -11.2980    84.2830     6.9140     5.5090     6.4450    24.2460     2.2980 
   90.3750   -11.0530    86.8270     6.6180     5.1930     6.3960    24.3200     2.2920 
   90.5000   -10.7830    88.0610     6.5270     5.0220     6.5470    24.3350     2.2990 
   90.6250   -10.5410    88.0910     6.7040     5.0550     6.4980    24.3360     2.3280 
   90.7500   -10.3480    86.3240     7.2000     5.3440     6.3170    24.3290     2.3810 
   90.8750   -10.2050    82.7600     7.9940     5.8920     7.1100    24.3040     2.4400 
   91.0000   -10.0890    77.6420     8.9330     6.6250    10.7030    24.2150     2.4650 
   91.1250   -10.0400    71.8940     9.6680     7.2920    16.7620    24.0960     2.4420 
   91.2500   -10.0100    67.3220     9.9240     7.6550    17.2290    24.0360     2.3840 
   91.3750   -10.0280    67.5680     9.6420     7.6010    12.0120    24.0990     2.3210 
   91.5000   -10.1100    74.0540     8.9900     7.1860     9.9930    24.2830     2.2820 
   91.6250   -10.1840    78.6120     8.3000     6.6670     8.5650    24.3900     2.2680 
