~V
VERS. 2.00: Ver 2.00
~W
STRT.M 51.0000:
STOP.M 221.0000:
STEP.M 0.1250:
NULL. -999.2500:
UWI. F10616:
~C
DEPT.M :
GR.API :
RML.OHMM :
RI. :
RXO.OHMM :
CALI.CM :
DEN.GM/CC :
SP.MV :
~A
   51.0000  -999.2500  -999.2500  -999.2500  -999.2500  -999.2500  -999.2500   105.5500 
   51.1250  -999.2500  -999.2500  -999.2500  -999.2500  -999.2500     1.9530   105.6060 
   51.2500    43.8220     1.1950     0.1740     0.4020    25.5190     1.9530   105.7450 
   51.3750    43.8220     1.1950     0.1740     0.4020    25.5190     1.9500   106.0220 
   51.5000    41.0130     1.2670     0.1570     0.3810    25.4960     1.9460   106.4210 
   51.6250    41.8760     1.2620     0.1410     0.3590    25.4660     1.9450   106.9390 
   51.7500    45.7130     1.2160     0.1320     0.3490    25.4130     1.9510   107.5610 
   51.8750    48.8910     1.1880     0.1360     0.3220    25.3260     1.9700   108.2700 
   52.0000    47.9380     1.1730     0.1460     0.2940    25.2660     1.9920   109.0920 
   52.1250    44.7270     1.1540     0.1550     0.2890    25.2490     2.0080   110.0010 
   52.2500    43.0690     1.1340     0.1590     0.3110    25.2490     2.0100   110.9100 
   52.3750    45.9750     1.1270     0.1570     0.3130    25.2470     1.9970   111.7730 
   52.5000    49.8330     1.1290     0.1540     0.3180    25.2390     1.9790   112.5750 
   52.6250    50.3370     1.1240     0.1520     0.3270    25.2120     1.9660   113.3450 
   52.7500    47.4520     1.1030     0.1500     0.3230    25.1460     1.9620   114.1120 
   52.8750    46.0490     1.0660     0.1470     0.3260    25.0580     1.9650   114.8460 
   53.0000    46.3160     1.0140     0.1450     0.3600    24.9720     1.9760   115.5110 
   53.1250    45.7470     0.9450     0.1450     0.4370    24.8190     1.9980   116.0480 
   53.2500    45.3490     0.8720     0.1440     0.5770    24.5500     2.0330   116.3920 
   53.3750    47.3760     0.8180     0.1450     0.7480    24.2050     2.0750   116.3490 
   53.5000    49.2820     0.7930     0.1460     0.8970    23.9550     2.1080   115.8510 
   53.6250    48.8360     0.7880     0.1490     0.9590    23.8570     2.1240   114.7480 
   53.7500    47.4500     0.7960     0.1540     0.9310    23.9200     2.1220   112.9110 
   53.8750    46.5470     0.8130     0.1560     0.8390    24.1730     2.1000   110.1770 
   54.0000    45.3940     0.8480     0.1550     0.7190    24.5200     2.0700   106.7050 
   54.1250    45.0180     0.9190     0.1530     0.6830    24.9100     2.0360   102.6520 
   54.2500    44.9260     1.0260     0.1540     0.8040    25.2570     2.0050    98.1870 
   54.3750    43.6790     1.1340     0.1580     1.0170    25.4460     1.9970    93.4090 
   54.5000    41.5970     1.2020     0.1620     1.0190    25.5300     2.0210    88.6270 
   54.6250    40.9380     1.2110     0.1650     0.7960    25.5510     2.0780    84.0890 
   54.7500    41.4900     1.1700     0.1690     0.6910    25.5510     2.1570    79.9590 
   54.8750    41.5720     1.1000     0.1780     0.5870    25.5500     2.2260    76.4670 
   55.0000    40.1200     1.0330     0.1900     0.5620    25.5430     2.2500    73.5340 
   55.1250    37.5170     0.9770     0.1990     0.6140    25.5280     2.2110    71.0450 
   55.2500    35.5040     0.9310     0.2060     0.6690    25.5020     2.1250    68.9100 
   55.3750    36.0620     0.9040     0.2120     0.6890    25.4880     2.0290    67.1720 
   55.5000    37.6430     0.9130     0.2210     0.6890    25.4820     1.9560    65.6520 
   55.6250    38.9000     0.9720     0.2320     0.7500    25.4790     1.9190    64.2460 
   55.7500    39.2480     1.0690     0.2370     0.7650    25.4760     1.9130    62.9200 
   55.8750    38.7290     1.1590     0.2290     0.6910    25.4730     1.9260    61.5550 
   56.0000    38.4360     1.1940     0.2050     0.5950    25.4740     1.9410    60.1290 
   56.1250    38.5980     1.1460     0.1690     0.5720    25.4730     1.9620    58.6530 
   56.2500    39.2760     0.9840     0.1270     0.6380    25.4760     2.0180    57.1010 
   56.3750    40.1860     0.7140     0.0910     0.6510    25.4800     2.1430    55.3210 
   56.5000    41.0520     0.4620     0.0660     0.6620    25.4770     2.2880    53.1870 
   56.6250    41.1850     0.2960     0.0530     0.6560    25.4260     2.3800    50.5130 
   56.7500    41.0250     0.2350     0.0540     0.7100    25.2840     2.3800    47.1310 
   56.8750    42.7400     0.3300     0.1100     1.2420    25.1320     2.2980    42.8720 
   57.0000    44.9520     0.6420     0.2920     2.4010    25.3170     2.1950    37.8890 
   57.1250    46.4110     1.3320     0.7150     3.9250    25.9750     2.1110    32.3760 
   57.2500    46.4960     2.6520     1.5320     4.9410    26.7680     2.0640    26.5600 
   57.3750    44.7770     4.8350     2.9200     4.9610    27.2060     2.0260    20.6860 
   57.5000    43.2250     6.8830     4.5210     4.4630    27.3870     1.9480    14.9930 
   57.6250    42.1130     7.7090     5.8140     4.3640    28.4520     1.8290     9.7200 
   57.7500    41.5330     7.5990     6.5740     4.9180    31.1490     1.7050     5.0610 
   57.8750    43.3490     7.4370     6.9630     5.6300    33.2460     1.6340     1.2780 
   58.0000    50.4040     7.4570     7.2360     5.7360    31.5380     1.6510    -1.7300 
   58.1250    61.3420     7.5430     7.4240     5.8600    27.5750     1.7670    -4.1060 
   58.2500    69.8030     7.6330     7.5480     6.3950    25.0740     1.9470    -6.0130 
   58.3750    72.4220     7.7980     7.6960     6.4670    24.6410     2.1030    -7.5670 
   58.5000    71.6890     8.1440     7.9690     6.6140    24.6270     2.1890    -8.9040 
   58.6250    69.0000     8.7210     8.4150     7.3280    24.6970     2.2190   -10.0540 
   58.7500    64.5640     9.4970     9.0100     8.5500    24.9050     2.2180   -11.0510 
   58.8750    57.9680    10.3270     9.6410     9.0980    25.2100     2.2010   -11.9130 
   59.0000    52.4180    10.9930    10.1390     9.2440    25.4600     2.1780   -12.6720 
   59.1250    51.4990    11.3590    10.4020     9.3260    25.5550     2.1570   -13.3440 
   59.2500    55.8390    11.4180    10.4190     9.2850    25.5790     2.1410   -13.9520 
   59.3750    59.8030    11.2780    10.2490     9.1640    25.6070     2.1330   -14.4640 
   59.5000    59.4290    11.1150    10.0180     9.0450    25.6330     2.1290   -14.8990 
   59.6250    57.6190    10.9910     9.7780     8.9190    25.6740     2.1270   -15.2570 
   59.7500    57.1540    10.9020     9.5490     8.8540    25.7170     2.1270   -15.5660 
   59.8750    56.8840    10.8260     9.3500     8.7210    25.6720     2.1310   -15.8330 
   60.0000    55.5960    10.7800     9.2060     8.5840    25.5880     2.1430   -16.0830 
   60.1250    57.2170    10.8350     9.1650     8.5250    25.5490     2.1600   -16.3320 
   60.2500    62.1770    11.0940     9.2860     8.4300    25.5060     2.1760   -16.5750 
   60.3750    64.6160    11.7220     9.6700     8.4730    25.5180     2.1710   -16.8430 
   60.5000    61.9720    12.7260    10.3330     8.7360    25.7080     2.1400   -17.1100 
   60.6250    56.7540    14.0400    11.2630     9.6690    25.7130     2.0970   -17.3960 
   60.7500    53.7620    15.3830    12.3160    12.4870    25.3190     2.0760   -17.6820 
   60.8750    54.4760    16.0830    13.0610    17.7360    24.6370     2.1230   -17.9850 
   61.0000    57.1570    15.7640    13.1130    20.7690    24.0100     2.2280   -18.3000 
   61.1250    59.4060    14.5000    12.3600    17.7800    23.4720     2.3340   -18.6290 
   61.2500    60.6620    12.7830    11.0650    13.3660    23.1230     2.3740   -18.9850 
   61.3750    62.3580    11.2900     9.7370     9.2800    23.1210     2.3270   -19.3590 
   61.5000    63.1760    10.3600     8.7530     7.9150    23.5700     2.2530   -19.7430 
   61.6250    62.0750    10.0180     8.2130     7.8870    24.2720     2.1860   -20.1170 
   61.7500    59.8960    10.1230     8.0730     8.2440    24.8610     2.1430   -20.4820 
   61.8750    58.2670    10.4520     8.2380     8.4710    25.1260     2.1210   -20.8020 
   62.0000    58.2890    10.7240     8.4780     8.6050    25.1970     2.1110   -21.0450 
   62.1250    61.1400    10.8190     8.6570     8.4860    25.1370     2.1070   -21.2100 
