~V
VERS. 2.00: Ver 2.00
~W
STRT.M 55.0000:
STOP.M 192.0000:
STEP.M 0.1250:
NULL. -999.2500:
UWI. F10682:
~C
DEPT.M :
DEN.GM/CC :
GR.API :
RML.OHMM :
RI. :
RXO.OHMM :
CALI.CM :
SP.MV :
~A
# ...
   88.7500     2.3020    62.0820     8.0880     7.2900     6.8990    24.3440   -11.1720 
   88.8750     2.3140    57.8370     8.1130     7.1880     8.2970    24.2570   -11.1370 
   89.0000     2.3180    57.4680     8.3880     7.3640     9.2680    24.2460   -11.1020 
   89.1250     2.2990    59.5050     9.2510     7.9760     9.1470    24.3460   -11.0760 
   89.2500     2.2550    58.0610    11.0130     9.2100     8.9010    24.4590   -11.0630 
   89.3750     2.1970    54.4120    15.6960    11.3710    10.5170    24.5150   -11.0670 
   89.5000     2.1420    52.5170    20.8980    14.7130    16.3750    24.7150   -11.0960 
   89.6250     2.1120    50.8310    26.0960    19.1580    27.9600    24.9750   -11.1040 
   89.7500     2.1080    46.7150    29.6890    23.1930    38.2830    25.1750   -11.1600 
   89.8750     2.1250    44.4730    30.0940    25.0840    36.5330    25.1750   -11.2400 
   90.0000     2.1500    46.9910    27.6830    24.3740    27.7990    25.0610   -11.3280 
   90.1250     2.1680    50.3280    24.6370    22.3990    21.4350    24.8900   -11.4120 
   90.2500     2.1740    51.2140    22.5830    20.7930    18.9640    24.8750   -11.4650 
   90.3750     2.1730    50.7990    21.5310    19.8450    18.7020    24.9140   -11.5140 
   90.5000     2.1760    50.9200    20.8790    19.2520    21.6980    24.9930   -11.5600 
   90.6250     2.1900    52.1400    19.8590    18.4140    24.4750    25.0060   -11.5970 
   90.7500     2.2120    54.0060    18.2990    17.0850    20.8030    25.0010   -11.6360 
   90.8750     2.2310    55.5880    16.4950    15.4460    14.8310    24.9630   -11.6940 
   91.0000     2.2410    54.5280    14.8840    13.8660    10.6320    24.7590   -11.7740 
   91.1250     2.2410    52.6050    13.8720    12.7220    10.6160    24.6410   -11.8850 
   91.2500     2.2400    53.2160    13.4830    12.0830    11.8520    24.6180   -12.0640 
   91.3750     2.2390    55.7630    13.7700    11.9970    12.5820    24.6150   -12.2510 
   91.5000     2.2370    57.3860    14.9050    12.5510    11.9080    24.6150   -12.4450 
   91.6250     2.2340    56.4980    17.5110    14.1450    11.6640    24.6330   -12.6860 
   91.7500     2.2350    54.2130    21.8740    17.0470    14.3520    24.7460   -12.9150 
   91.8750     2.2430    51.3190    28.3060    21.6860    21.5430    24.9990   -13.1710 
   92.0000     2.2530    49.2910    36.7530    28.3020    33.7340    25.2930   -13.4340 
   92.1250     2.2530    47.3920    46.4110    36.5710    49.7010    25.3410   -13.7180 
   92.2500     2.2360    45.1410    55.2200    44.6160    59.2270    25.2660   -13.9890 
   92.3750     2.2060    44.8690    61.8160    50.9560    61.7350    25.2320   -14.2560 
   92.5000     2.1740    47.4220    66.2990    55.2840    58.4110    25.1890   -14.5690 
   92.6250     2.1550    50.6260    69.9960    58.4000    55.7970    25.2350   -14.8760 
   92.7500     2.1460    49.9780    74.1410    61.4920    57.4960    25.3840   -15.1890 
   92.8750     2.1390    45.6070    78.7420    64.7910    65.9210    25.5230   -15.4780 
   93.0000     2.1270    41.1350    83.0300    67.8940    73.1580    25.5530   -15.7530 
   93.1250     2.1100    39.8410    85.5360    69.8070    68.9790    25.4980   -16.0400 
   93.2500     2.1000    40.6850    85.7410    70.0940    67.7310    25.4110   -16.3210 
   93.3750     2.1050    41.7000    83.7670    68.7460    68.2330    25.3320   -16.6240 
   93.5000     2.1250    42.3350    80.3070    66.2020    66.3270    25.2340   -16.9070 
   93.6250     2.1470    44.4620    76.1470    63.0390    56.0460    25.0220   -17.1230 
   93.7500     2.1530    47.0440    72.0380    59.8530    50.1290    24.8020   -17.3220 
   93.8750     2.1330    47.4940    68.3810    56.9360    46.0280    24.6580   -17.5160 
   94.0000     2.0880    45.1260    65.4330    54.4960    43.9320    24.6260   -17.7180 
   94.1250     2.0300    43.0980    63.3160    52.6810    43.4420    24.6620   -17.9050 
   94.2500     1.9820    44.7470    61.6580    51.2620    43.1620    24.7400   -18.0690 
   94.3750     1.9640    46.6440    60.2410    50.0770    42.7140    24.8070   -18.2160 
   94.5000     1.9850    45.4950    59.0510    49.0800    41.6640    24.9610   -18.3350 
   94.6250     2.0410    44.7750    58.4500    48.4940    40.2050    25.0050   -18.4770 
   94.7500     2.1020    45.9930    58.8030    48.5770    39.1250    24.9880   -18.6100 
   94.8750     2.1470    45.4670    60.3990    49.6030    39.7500    24.8550   -18.6830 
   95.0000     2.1670    41.3750    63.1100    51.6240    42.3900    24.6030   -18.7260 
   95.1250     2.1680    38.7960    65.7580    54.0080    44.3820    24.5600   -18.6740 
   95.2500     2.1650    39.0420    65.9670    54.9270    47.7830    24.5490   -18.5880 
   95.3750     2.1630    39.2440    61.6880    52.4880    50.4250    24.5430   -18.4340 
   95.5000     2.1590    38.8460    52.9580    46.1430    51.6790    24.5140   -18.2310 
   95.6250     2.1550    41.7180    42.6200    37.6490    46.2750    24.4290   -18.0160 
   95.7500     2.1500    48.7000    34.1890    30.1610    33.5320    24.3600   -17.7760 
   95.8750     2.1480    55.3560    28.8810    25.0050    22.8390    24.2740   -17.5870 
   96.0000     2.1450    57.5340    26.6780    22.3590    20.3810    24.2760   -17.4190 
   96.1250     2.1380    55.0080    27.4720    22.2320    21.7140    24.3670   -17.2420 
   96.2500     2.1290    50.6070    30.2300    23.9200    24.8190    24.3820   -17.0620 
   96.3750     2.1300    46.8130    34.1960    27.0670    29.2330    24.3850   -16.9050 
   96.5000     2.1590    45.0780    38.0850    30.8620    32.6630    24.3860   -16.7360 
   96.6250     2.2370    45.5050    39.4500    33.2970    33.5870    24.3980   -16.5270 
   96.7500     2.3450    46.7530    37.0900    32.6720    33.3920    24.4490   -16.2870 
   96.8750     2.4500    48.9410    31.4220    28.7450    33.0840    24.5580   -16.0060 
   97.0000     2.5120    51.6940    24.3380    22.9440    28.1620    24.7410   -15.7040 
   97.1250     2.5020    52.5440    18.1510    17.4110    19.3930    24.7710   -15.4390 
   97.2500     2.4470    53.3470    13.6770    13.1940    11.9400    24.7740   -15.2070 
   97.3750     2.3800    58.2990    10.7910    10.3240     9.1670    24.7390   -14.9890 
   97.5000     2.3290    66.6490     9.0870     8.5190     7.9030    24.6410   -14.8190 
   97.6250     2.3130    70.6820     8.2250     7.5520     7.1810    24.4720   -14.6360 
   97.7500     2.3220    69.4910     7.7400     7.0220     6.7030    24.3850   -14.4620 
   97.8750     2.3450    69.1380     7.4570     6.7520     6.2470    24.4720   -14.2650 
   98.0000     2.3670    73.4220     7.2770     6.6160     5.8020    24.6890   -14.0380 
   98.1250     2.3740    75.0790     7.1370     6.5350     5.7280    24.8910   -13.8430 
   98.2500     2.3670    72.2550     6.9850     6.4440     5.7730    24.9030   -13.6320 
   98.3750     2.3520    70.4550     6.7960     6.3200     5.7270    24.8110   -13.4400 
   98.5000     2.3410    72.6910     6.5830     6.1770     5.5500    24.6490   -13.2510 
   98.6250     2.3490    75.9840     6.4330     6.0930     5.4420    24.6220   -13.0800 
   98.7500     2.3770    77.2250     6.4610     6.1490     5.3190    24.6150   -12.9460 
   98.8750     2.4150    77.2300     6.7540     6.4010     5.4430    24.6180   -12.8750 
   99.0000     2.4490    75.6990     7.3050     6.8520     6.0760    24.6270   -12.8300 
   99.1250     2.4600    72.3830     7.9490     7.3990     7.4010    24.6810   -12.7810 
   99.2500     2.4480    71.2020     8.3860     7.8150     8.4910    24.6840   -12.7530 
   99.3750     2.4230    72.7980     8.4310     7.9210     8.2970    24.6560   -12.7170 
   99.5000     2.3970    75.1740     8.0990     7.6730     7.4470    24.6420   -12.6710 
   99.6250     2.3860    75.1500     7.6210     7.1980     6.6010    24.6420   -12.6620 
   99.7500     2.3890    72.2570     7.2880     6.7560     6.1660    24.5950   -12.6710 
   99.8750     2.4060    70.7690     7.1970     6.4680     5.9340    24.5540   -12.6660 
