~V
VERS. 2.00: Ver 2.00
~W
STRT.M 50.0000:
STOP.M 212.0000:
STEP.M 0.1250:
NULL. -999.2500:
UWI. F10691:
~C
DEPT.M :
GR.API :
RML.OHMM :
RI. :
RXO.OHMM :
CALI.CM :
SP.MV :
DEN.GM/CC :
~A
# ...
  128.7500    50.5250    47.5190    38.2570    29.9070    23.9380   -12.2140     2.1670 
  128.8750    51.5300    48.7220    39.2260    28.2960    24.7540   -12.1900     2.1700 
  129.0000    52.9040    49.1180    39.7090    26.0040    25.9680   -12.1360     2.1630 
  129.1250    53.8450    48.9190    39.7410    22.8130    26.1980   -12.0570     2.1370 
  129.2500    54.0090    48.7660    39.7200    20.9400    25.9870   -11.9540     2.0980 
  129.3750    52.8210    49.0500    39.9370    22.5410    25.7180   -11.8230     2.0600 
  129.5000    50.9250    49.8710    40.5170    26.8650    25.6780   -11.6750     2.0350 
  129.6250    51.3250    51.0220    41.3720    30.7440    25.6480   -11.4750     2.0280 
  129.7500    53.5200    52.0320    42.1850    32.9080    25.4520   -11.2300     2.0270 
  129.8750    54.3430    52.5800    42.7210    34.1800    25.0790   -10.9720     2.0200 
  130.0000    52.5040    52.5100    42.8380    34.3670    24.6730   -10.7010     2.0050 
  130.1250    49.2280    51.8890    42.5360    32.4870    24.2290   -10.3950     2.0020 
  130.2500    47.0120    51.1870    42.1510    31.0760    24.2010   -10.0820     2.0390 
  130.3750    45.4630    50.7740    41.9870    32.5770    24.5690    -9.7570     2.1260 
  130.5000    45.0510    50.8760    42.2770    35.5780    24.9160    -9.4220     2.2510 
  130.6250    46.7090    51.5020    43.1530    40.1250    25.0060    -9.1190     2.3680 
  130.7500    49.2980    52.0430    44.2120    42.2240    24.5910    -8.8280     2.4320 
  130.8750    50.2120    51.7080    44.8370    40.8680    24.3540    -8.5600     2.4340 
  131.0000    48.9300    49.8170    44.3620    39.5600    24.4090    -8.3190     2.3870 
  131.1250    49.4530    45.9870    42.1860    33.7100    24.5290    -8.1260     2.3260 
  131.2500    52.6470    41.0410    38.7300    30.8400    24.8270    -7.9640     2.2650 
  131.3750    55.3200    35.6990    34.4850    27.1060    24.7500    -7.8560     2.2020 
  131.5000    55.6700    30.6470    30.0750    22.6050    24.5970    -7.8030     2.1520 
  131.6250    56.0750    26.5700    26.2420    20.6070    24.6610    -7.7690     2.1460 
  131.7500    57.9170    23.5440    23.2540    19.3030    24.6540    -7.7440     2.1790 
  131.8750    60.2520    21.5000    21.1260    16.7260    24.5250    -7.7140     2.2370 
  132.0000    61.6140    20.2300    19.7170    13.3180    24.4180    -7.7080     2.2940 
  132.1250    60.6350    19.4960    18.8670    13.7340    24.2570    -7.7240     2.3140 
  132.2500    57.0930    18.9110    18.2440    15.4890    24.2340    -7.7400     2.2960 
  132.3750    55.5330    18.3240    17.6840    15.6900    24.2250    -7.7470     2.2560 
  132.5000    59.6770    17.7910    17.1710    13.9040    24.2180    -7.7290     2.2150 
  132.6250    66.0910    17.7010    16.9510    13.6650    24.1870    -7.6840     2.1910 
  132.7500    67.0240    18.4520    17.3270    15.1780    24.2670    -7.6450     2.1810 
  132.8750    63.1430    20.4230    18.6400    16.9340    24.3630    -7.6200     2.1750 
  133.0000    59.0450    23.8150    21.1910    17.5840    24.4980    -7.5850     2.1630 
  133.1250    55.8880    28.5790    25.2120    22.7840    24.9430    -7.5340     2.1410 
  133.2500    53.6150    33.6210    29.8790    28.3140    25.1020    -7.4950     2.1160 
  133.3750    52.5190    37.7540    34.0900    30.5760    25.2070    -7.4740     2.0970 
  133.5000    51.7030    40.0420    36.7770    29.3210    25.2390    -7.4660     2.0900 
  133.6250    49.7840    40.2330    37.3550    27.5390    25.2430    -7.4960     2.0900 
  133.7500    48.8200    39.7070    36.9120    26.1670    25.2430    -7.5560     2.0870 
  133.8750    49.3200    39.4980    36.4030    25.9090    25.2420    -7.6340     2.0740 
  134.0000    50.5310    40.1640    36.4630    26.1390    25.2430    -7.7430     2.0570 
  134.1250    51.7310    41.8940    37.4190    26.4440    25.3050    -7.9010     2.0600 
  134.2500    52.5090    44.3230    39.0640    27.2740    25.4440    -8.0800     2.1020 
  134.3750    52.0000    47.1560    41.2090    29.4700    25.4650    -8.2690     2.1860 
  134.5000    49.2660    49.9170    43.5020    31.7730    25.1460    -8.4840     2.2990 
  134.6250    47.4820    51.6480    45.1880    34.7580    24.5660    -8.7170     2.4140 
  134.7500    48.1440    51.6630    45.6100    37.6910    24.3980    -8.9160     2.5050 
  134.8750    48.7940    49.6170    44.3720    38.3100    24.3160    -9.0780     2.5670 
  135.0000    47.3350    45.8360    41.5920    35.7010    24.2700    -9.2190     2.6030 
  135.1250    46.5210    41.3690    37.9760    32.6060    24.1810    -9.3150     2.6200 
  135.2500    47.9840    37.5400    34.6850    28.6880    24.1570    -9.3850     2.6210 
  135.3750    47.9760    34.8860    32.2860    26.0870    24.1510    -9.4330     2.6100 
  135.5000    45.2560    33.3770    30.8790    23.6660    24.1430    -9.4480     2.5890 
  135.6250    43.6670    32.6210    30.2470    23.4600    24.1450    -9.4260     2.5620 
  135.7500    44.1320    31.8610    29.7420    26.3760    24.1660    -9.4130     2.5310 
  135.8750    45.2640    30.7000    28.9520    29.5170    24.2750    -9.4130     2.4960 
  136.0000    45.8810    29.0980    27.7410    27.3050    24.3640    -9.4020     2.4580 
  136.1250    45.3290    27.3660    26.2770    22.3420    24.3850    -9.3670     2.4230 
  136.2500    43.0660    25.9400    24.9300    18.3380    24.4200    -9.3110     2.3940 
  136.3750    41.3750    25.0410    23.9270    17.0340    24.4570    -9.2510     2.3770 
  136.5000    41.6960    24.6870    23.3490    17.0880    24.4900    -9.1910     2.3710 
  136.6250    43.1550    24.7470    23.1600    17.4030    24.5080    -9.1590     2.3760 
  136.7500    45.2780    24.9460    23.1390    17.8340    24.4590    -9.1550     2.3840 
  136.8750    47.9110    25.2100    23.2030    18.0180    24.3440    -9.1610     2.3920 
  137.0000    49.7650    25.5850    23.3710    18.0870    24.2960    -9.1930     2.3990 
  137.1250    49.9440    26.2210    23.7650    18.0760    24.2660    -9.2820     2.4100 
  137.2500    50.5970    27.1850    24.4460    18.4560    24.2340    -9.3960     2.4290 
  137.3750    51.0960    28.5200    25.4670    19.9040    24.2290    -9.5320     2.4590 
  137.5000    49.4260    30.2460    26.8530    22.4680    24.2280    -9.6840     2.4960 
  137.6250    46.2170    32.4400    28.6790    24.8500    24.2280    -9.8180     2.5340 
  137.7500    43.1140    35.0100    30.8760    26.0770    24.2250    -9.9330     2.5630 
  137.8750    40.5730    37.7830    33.3210    28.2960    24.2110   -10.0520     2.5820 
  138.0000    40.1990    40.3440    35.6960    31.5550    24.1310   -10.1510     2.5930 
  138.1250    42.5840    41.7550    37.2380    33.8460    24.1480   -10.2030     2.6030 
  138.2500    44.0560    41.4160    37.3570    34.7320    24.2590   -10.2400     2.6160 
  138.3750    44.5230    39.1330    35.7660    32.5140    24.2890   -10.2460     2.6310 
  138.5000    44.6530    35.4140    32.7630    28.5290    24.2940   -10.2330     2.6400 
  138.6250    43.0290    31.3390    29.1790    25.0860    24.2940   -10.2270     2.6360 
  138.7500    40.7020    27.9180    25.9670    22.2670    24.2940   -10.2280     2.6210 
  138.8750    40.2170    25.5310    23.5340    19.4630    24.2940   -10.2240     2.6060 
  139.0000    42.2350    24.2100    21.9910    17.7220    24.2940   -10.2290     2.5970 
  139.1250    43.1940    23.9030    21.3710    16.8320    24.2940   -10.2420     2.5970 
  139.2500    42.0010    24.1910    21.3570    17.3580    24.2940   -10.2460     2.6000 
  139.3750    40.7390    24.8390    21.7690    18.7100    24.2940   -10.2680     2.5980 
  139.5000    41.2170    25.6520    22.4380    20.4500    24.2940   -10.3110     2.5900 
  139.6250    44.0160    26.4720    23.2100    20.6870    24.2940   -10.3610     2.5820 
  139.7500    45.0000    27.2320    23.9430    20.1320    24.2940   -10.4250     2.5830 
  139.8750    43.4380    27.9530    24.5980    20.5250    24.2940   -10.4990     2.5960 
