~V
VERS. 2.00: Ver 2.00
~W
STRT.M 50.0000:
STOP.M 265.0000:
STEP.M 0.1250:
NULL. -999.2500:
UWI. F10671:
~C
DEPT.M :
GR.API :
RML.OHMM :
RI. :
RXO.OHMM :
CALI.CM :
DEN.GM/CC :
SP.MV :
~A
# ...
  106.2500    68.9060     8.6600     7.2910     7.6870    24.5290     2.1740    -9.1130 
  106.3750    65.8210     9.6380     8.1630     9.3940    24.5040     2.1670    -9.3660 
  106.5000    62.1600    10.3220     8.8640    11.8100    24.4730     2.2030    -9.4750 
  106.6250    61.0880    10.2670     9.0090    13.9080    24.4170     2.2770    -9.3220 
  106.7500    64.4040     9.4870     8.5380    14.9340    24.3100     2.3520    -9.0290 
  106.8750    70.8810     8.2170     7.5860    13.1990    24.1960     2.3980    -8.5980 
  107.0000    78.1530     6.8610     6.4580     8.5660    24.1060     2.4040    -7.9790 
  107.1250    85.5720     5.8470     5.5090     5.5150    24.0510     2.3810    -7.3280 
  107.2500    91.6090     5.2570     4.8690     4.7280    24.0220     2.3530    -6.7910 
  107.3750    92.8850     5.0370     4.5340     4.7630    24.0150     2.3320    -6.3590 
  107.5000    91.4360     5.0700     4.4430     4.9090    24.0140     2.3190    -6.0420 
  107.6250    91.1810     5.2400     4.5260     4.9870    24.0120     2.3190    -5.9210 
  107.7500    90.7450     5.4310     4.6750     5.0170    24.0000     2.3300    -5.8710 
  107.8750    87.2700     5.6040     4.8430     5.0490    23.9430     2.3460    -5.9340 
  108.0000    83.7900     5.7590     5.0070     5.1360    23.7960     2.3590    -6.1320 
  108.1250    85.4360     5.9090     5.1620     5.2670    23.5900     2.3590    -6.3640 
  108.2500    87.5320     6.0490     5.3020     5.4090    23.4200     2.3460    -6.6020 
  108.3750    86.0410     6.1550     5.4100     5.5670    23.2640     2.3240    -6.8990 
  108.5000    81.4820     6.1950     5.4630     5.7750    23.0560     2.3010    -7.1750 
  108.6250    76.2790     6.1460     5.4380     5.9870    22.7670     2.2840    -7.3660 
  108.7500    73.3830     6.0640     5.3680     6.0620    22.4760     2.2750    -7.5680 
  108.8750    75.0080     6.0210     5.3040     5.9180    22.3690     2.2720    -7.7090 
  109.0000    78.7230     6.0860     5.3030     5.6960    22.5020     2.2720    -7.8140 
  109.1250    80.0520     6.3060     5.4160     5.8430    22.8010     2.2740    -7.9540 
  109.2500    79.8110     6.6060     5.6070     6.2010    22.9660     2.2760    -8.0420 
  109.3750    79.0780     6.8990     5.8210     6.6740    22.9670     2.2780    -7.9880 
  109.5000    78.3440     7.0960     5.9870     7.0310    22.8900     2.2800    -7.9280 
  109.6250    80.7790     7.1380     6.0440     7.0130    22.9790     2.2800    -7.9530 
  109.7500    87.8700     7.0900     6.0170     6.7440    23.2530     2.2780    -7.9860 
  109.8750    92.9130     7.0230     5.9480     6.5810    23.5890     2.2730    -8.0920 
  110.0000    89.7230     6.9840     5.8810     6.7000    23.8100     2.2640    -8.1770 
  110.1250    81.5520     6.9720     5.8380     6.9820    23.8480     2.2510    -8.1310 
  110.2500    75.3810     6.9780     5.8250     7.3040    23.8340     2.2360    -8.0360 
  110.3750    74.1940     7.0750     5.8950     7.6140    23.8110     2.2240    -7.9780 
  110.5000    76.1060     7.4550     6.1790     7.8980    23.7760     2.2250    -7.9010 
  110.6250    77.1700     8.4800     6.9570     8.5810    23.7200     2.2570    -7.6830 
  110.7500    73.6980    10.1390     8.2740    10.2880    23.6660     2.3240    -7.3940 
  110.8750    67.9490    12.1540     9.9870    13.4480    23.6770     2.4160    -7.0090 
  111.0000    63.2810    13.9240    11.6730    17.5750    23.7600     2.5090    -6.6180 
  111.1250    61.2120    14.4500    12.5200    20.9600    23.7900     2.5650    -6.2930 
  111.2500    62.6060    13.4660    12.1350    21.4860    23.7870     2.5720    -6.0460 
  111.3750    68.0090    11.3250    10.6290    17.9480    23.7980     2.5360    -5.8650 
  111.5000    76.4980     8.9110     8.6400    11.9000    23.8370     2.4780    -5.7860 
  111.6250    83.2490     7.1610     6.9660     7.8070    23.8940     2.4180    -5.8070 
  111.7500    84.8320     6.2170     5.8750     6.2250    23.9560     2.3700    -5.9260 
  111.8750    82.4530     5.9210     5.3280     5.8810    23.9740     2.3380    -6.1040 
  112.0000    81.4690     6.0200     5.1790     5.9830    23.9630     2.3210    -6.3160 
  112.1250    84.8450     6.2390     5.2570     6.0140    23.9550     2.3130    -6.5090 
  112.2500    86.9690     6.3480     5.3490     6.0180    23.9960     2.3060    -6.7120 
  112.3750    85.8530     6.2730     5.3610     5.9560    24.1170     2.2990    -6.9140 
  112.5000    84.4520     6.0650     5.2810     5.8300    24.2660     2.2920    -7.0290 
  112.6250    85.7500     5.8560     5.1690     5.6710    24.4170     2.2890    -7.1490 
  112.7500    86.8960     5.7590     5.1100     5.4440    24.3980     2.2850    -7.2350 
  112.8750    86.4640     5.8020     5.1400     5.3400    24.2840     2.2800    -7.3130 
  113.0000    84.6180     5.9530     5.2530     5.6860    24.1640     2.2760    -7.2960 
  113.1250    81.8050     6.1270     5.4020     6.3270    24.1100     2.2820    -7.2220 
  113.2500    80.6950     6.2270     5.5060     6.7340    24.0890     2.3000    -7.1240 
  113.3750    81.3590     6.2090     5.5180     6.8180    24.0930     2.3250    -7.0080 
  113.5000    82.4580     6.0860     5.4320     6.7800    24.1130     2.3450    -6.9220 
  113.6250    84.0120     5.9260     5.2820     6.7480    24.1480     2.3510    -6.8730 
  113.7500    86.7090     5.8210     5.1480     6.2820    24.1770     2.3470    -6.8480 
  113.8750    89.2300     5.8070     5.0720     5.7060    24.1910     2.3370    -6.8140 
  114.0000    88.2920     5.8680     5.0590     5.3140    24.1860     2.3240    -6.8710 
  114.1250    84.9230     5.9340     5.0790     5.2520    24.1640     2.3110    -7.0020 
  114.2500    82.6300     5.9330     5.0780     5.3140    24.1220     2.3010    -7.1240 
  114.3750    81.2510     5.8440     5.0280     5.4420    24.0630     2.2970    -7.2820 
  114.5000    81.2520     5.6980     4.9350     5.4880    24.0360     2.3030    -7.5290 
  114.6250    84.0710     5.6060     4.8620     5.3790    24.1030     2.3170    -7.8070 
  114.7500    88.4270     5.6780     4.8920     5.3020    24.1680     2.3270    -8.1630 
  114.8750    90.0150     5.9720     5.0820     5.5580    24.1930     2.3240    -8.6390 
  115.0000    86.6920     6.4690     5.4380     6.1030    24.1960     2.3050    -9.1270 
  115.1250    81.2960     7.0630     5.9090     6.7150    24.2080     2.2750    -9.6160 
  115.2500    77.9150     7.5630     6.3540     7.2930    24.2260     2.2450   -10.0570 
  115.3750    77.1000     7.8380     6.6580     7.6430    24.2470     2.2260   -10.3460 
  115.5000    75.8600     7.8380     6.7580     7.6620    24.2550     2.2220   -10.4680 
  115.6250    74.7820     7.5970     6.6450     7.5170    24.2450     2.2320   -10.4570 
  115.7500    76.9620     7.2810     6.4320     7.3300    24.2130     2.2450   -10.3300 
  115.8750    79.2430     6.9900     6.1940     7.1770    24.1520     2.2540   -10.0200 
  116.0000    77.8220     6.7740     5.9790     7.0280    24.0840     2.2590    -9.5270 
  116.1250    77.1550     6.6500     5.8140     6.8780    23.9920     2.2630    -8.9050 
  116.2500    80.9960     6.5900     5.6980     6.4970    23.8490     2.2700    -8.3510 
  116.3750    85.1160     6.5870     5.6340     6.0880    23.6980     2.2830    -7.8650 
  116.5000    85.0760     6.6300     5.6200     6.0460    23.7370     2.3030    -7.3950 
  116.6250    83.9330     6.6790     5.6380     6.4180    23.9910     2.3300    -6.9980 
  116.7500    84.0570     6.6740     5.6390     7.0020    24.2220     2.3620    -6.6010 
  116.8750    84.1920     6.5800     5.5900     7.5630    24.3180     2.3910    -6.2360 
  117.0000    84.9740     6.4080     5.4820     8.0080    24.3350     2.4080    -6.0390 
  117.1250    86.8000     6.2420     5.3620     7.5190    24.3350     2.4010    -5.9970 
  117.2500    87.8630     6.1930     5.3100     6.5790    24.3350     2.3790    -5.9680 
  117.3750    86.6400     6.3110     5.3770     5.8970    24.3340     2.3550    -5.9930 
