~V
VERS. 2.00: Ver 2.00
~W
STRT.M 54.0000:
STOP.M 246.0000:
STEP.M 0.1250:
NULL. -999.2500:
UWI. F10643:
~C
DEPT.M :
SP.MV :
GR.API :
RML.OHMM :
RI. :
RXO.OHMM :
CALI.CM :
DEN.GM/CC :
~A
# ...
  234.0000    -7.7670    22.4900     3.7100     3.0380     3.4360    22.9980     2.3020 
  234.1250    -7.7460    23.9820     3.6970     3.0380     3.4610    22.9110     2.3210 
  234.2500    -7.6750    25.2670     3.6830     3.0360     3.4760    22.9780     2.3360 
  234.3750    -7.5400    25.7460     3.6740     3.0330     3.4620    22.8810     2.3410 
  234.5000    -7.4000    25.8290     3.6650     3.0300     3.4230    22.8270     2.3360 
  234.6250    -7.2450    25.4560     3.6460     3.0240     3.4140    23.0320     2.3300 
  234.7500    -7.0620    24.7110     3.6190     3.0150     3.4570    23.2640     2.3280 
  234.8750    -6.8640    24.3860     3.6010     3.0080     3.5140    23.3650     2.3280 
  235.0000    -6.6520    24.6750     3.6330     3.0140     3.5460    23.3740     2.3270 
  235.1250    -6.4560    25.0670     3.7170     3.0330     3.4790    23.3740     2.3230 
  235.2500    -6.2640    25.3180     3.8200     3.0640     3.4210    23.3810     2.3190 
  235.3750    -6.1030    25.1460     3.8940     3.0980     3.4860    23.4000     2.3160 
  235.5000    -5.9430    24.1340     3.8960     3.1260     3.6070    23.4130     2.3130 
  235.6250    -5.8080    22.9310     3.8430     3.1440     3.6390    23.4200     2.3070 
  235.7500    -5.7370    22.5460     3.7750     3.1620     3.6160    23.4740     2.3010 
  235.8750    -5.7570    22.5510     3.7430     3.1920     3.5810    23.6300     2.3000 
  236.0000    -5.8780    22.5510     3.7960     3.2500     3.5810    23.7160     2.3110 
  236.1250    -6.0360    22.5510     3.9240     3.3290     3.7110    23.7860     2.3280 
  236.2500    -6.2210    22.5510     4.0920     3.4120     3.9600    23.8830     2.3420 
  236.3750    -6.4240    22.5510     4.2480     3.4800     4.2130    23.9710     2.3450 
  236.5000    -6.6230    22.5510     4.3270     3.5100     4.2400    23.9120     2.3370 
  236.6250    -6.7790    22.5510     4.3300     3.5050     4.0710    23.6990     2.3280 
  236.7500    -6.8850    22.5510     4.2850     3.4730     3.8650    23.4830     2.3220 
  236.8750    -6.9390    22.5510     4.2350     3.4270     3.7680    23.3550     2.3230 
  237.0000    -6.9350    22.5510     4.2110     3.3780     3.7610    23.2950     2.3310 
  237.1250    -6.8850    22.5510     4.1930     3.3370     3.7530    23.2770     2.3440 
  237.2500    -6.8120    22.5510     4.1430     3.3070     3.7660    23.3190     2.3590 
  237.3750    -6.6970    22.5510     4.0430     3.2860     3.7790    23.3660     2.3730 
  237.5000    -6.5830    22.5510     3.9170     3.2640     3.7480    23.4000     2.3770 
  237.6250    -6.4560    22.5510     3.8310     3.2480     3.6830    23.4180     2.3720 
  237.7500    -6.2850    22.5510     3.8460     3.2630     3.6160    23.4000     2.3640 
  237.8750    -6.1190    22.5510     3.9870     3.3430     3.6350    23.4010     2.3600 
  238.0000    -5.9450    22.5510     4.2460     3.5100     3.7840    23.4590     2.3650 
  238.1250    -5.7440    22.5510     4.5170     3.7130     4.1950    23.5260     2.3740 
  238.2500    -5.5250    22.5510     4.6990     3.8830     4.7480    23.5990     2.3780 
  238.3750    -5.2910    22.5510     4.7050     3.9470     4.8760    23.6480     2.3720 
  238.5000    -5.0550    22.5510     4.4960     3.8480     4.1990    23.5250     2.3530 
  238.6250    -4.8370    22.5510     4.1960     3.6550     3.6220    23.2470     2.3300 
  238.7500    -4.6600    22.5510     3.9150     3.4390     3.3680    23.0290     2.3110 
  238.8750    -4.4990    22.5510     3.7250     3.2620     3.3250    23.0430     2.3030 
  239.0000    -4.3330    22.5510     3.6580     3.1660     3.3990    23.2370     2.3080 
  239.1250    -4.1980    22.5510     3.6620     3.1340     3.4740    23.3170     2.3210 
  239.2500    -4.1080    22.5510     3.6930     3.1410     3.5370    23.3400     2.3310 
  239.3750    -4.0550    22.5510     3.7230     3.1580     3.5590    23.3530     2.3320 
  239.5000    -4.0180    22.5510     3.7580     3.1670     3.5250    23.3750     2.3210 
  239.6250    -3.9860    22.5510     3.8000     3.1740     3.4620    23.3990     2.3120 
  239.7500    -3.9360    22.5510     3.8340     3.1840     3.4360    23.3960     2.3100 
  239.8750    -3.8560    22.5510     3.8380     3.1990     3.4780    23.3930     2.3160 
  240.0000    -3.7400    22.5510     3.7930     3.2170     3.5250    23.3100     2.3200 
  240.1250    -3.6040    22.5510     3.7260     3.2320     3.4940    23.1600     2.3150 
  240.2500    -3.4120    22.5510     3.6640     3.2380     3.4480    23.0030     2.3020 
  240.3750    -3.2170    22.5510     3.6270     3.2360     3.4550    22.8970     2.2910 
  240.5000    -3.0010    22.5510     3.6230     3.2300     3.5410    22.8350     2.2930 
  240.6250    -2.7360    22.5510     3.6340     3.2180     3.6020    22.8690     2.3050 
  240.7500    -2.4660    22.5510     3.6520     3.1990     3.5970    23.0740     2.3170 
  240.8750    -2.2240    22.5510     3.6680     3.1770     3.4950    23.2720     2.3190 
  241.0000    -2.0340    22.5510     3.6680     3.1580     3.4620    23.3440     2.3060 
  241.1250    -1.9110    22.5510     3.6470     3.1430     3.4260    23.3140     2.2900 
  241.2500    -1.8610    22.5510     3.6100     3.1320     3.4140    23.2010     2.2770 
  241.3750    -1.8470    22.5510     3.5690     3.1270     3.4500    23.0590     2.2710 
  241.5000    -1.8810    22.5510     3.5380     3.1260     3.5050    23.1260     2.2740 
  241.6250    -1.9490    22.5510     3.5290     3.1330     3.4940    23.2460     2.2800 
  241.7500    -2.0400    22.5510     3.5310     3.1370     3.3520    23.4320     2.2890 
  241.8750    -2.1180    22.5510     3.5310     3.1370     3.2300    23.5380     2.2970 
  242.0000    -2.2160    22.5510     3.5310     3.1370     3.2490    23.5540     2.3040 
  242.1250    -2.2990    22.5510     3.5310     3.1370     3.3870    23.5800     2.3080 
  242.2500    -2.3540    22.5510     3.5310     3.1370     3.5320    23.5900     2.3030 
  242.3750    -2.3940    22.5510     3.5310     3.1370     3.5690    23.4810     2.2880 
  242.5000    -2.4190    22.5510     3.5310     3.1370     3.4260    23.2460     2.2690 
  242.6250    -2.4560    22.5510     3.5310     3.1370     3.3240    23.1400     2.2560 
  242.7500    -2.4980    22.5510     3.5310     3.1370     3.2620    23.3520     2.2590 
  242.8750    -2.5370    22.5510     3.5310     3.1370     3.3280    23.5180     2.2790 
  243.0000    -2.5600    22.5510     3.5310     3.1370     3.4920    23.4620     2.3040 
  243.1250    -2.5590    22.5510     3.5310     3.1370     3.6360    23.4530     2.3180 
  243.2500    -2.5580    22.5510     3.5310     3.1370     3.6780    23.5500     2.3170 
  243.3750    -2.5450    22.5510     3.5310     3.1370     3.6530    23.5980     2.3080 
  243.5000    -2.5390    22.5510     3.5310     3.1370     3.6940    23.6460     2.3000 
  243.6250    -2.5460    22.5510     3.5310     3.1370     3.7840    23.6660     2.2960 
  243.7500    -2.5520    22.5510     3.5310     3.1370     3.8130    23.6740     2.2990 
  243.8750  -999.2500    22.5510     3.5310     3.1370     3.7650    23.6730     2.3110 
  244.0000  -999.2500    22.5510     3.5310     3.1370     3.6960    23.6550     2.3230 
  244.1250  -999.2500    22.5510     3.5310     3.1370     3.7560    23.5770     2.3050 
  244.2500  -999.2500    22.5510     3.5310     3.1370     3.7890    23.3770     2.2280 
  244.3750  -999.2500    22.5510     3.5310     3.1370     3.6970    23.0070     2.0930 
  244.5000  -999.2500    22.5510     3.5310     3.1370     3.4140    22.3530     1.9370 
  244.6250  -999.2500    22.5510     3.5310     3.1370     3.1340    21.6580     1.8060 
  244.7500  -999.2500    22.5510     3.5310     3.1370     2.9470    21.2210     1.7190 
  244.8750  -999.2500    22.5510     3.5310     3.1370     2.8810    21.0690     1.6780 
  245.0000  -999.2500    22.5510     3.5310     3.1370     2.8790    21.0530     1.6700 
  245.1250  -999.2500    22.5510     3.5310     3.1370     2.8790    21.0500     1.6700 
