~V
VERS. 2.00: Ver 2.00
~W
STRT.M 49.0000:
STOP.M 254.0000:
STEP.M 0.1250:
NULL. -999.2500:
UWI. F10669:
~C
DEPT.M :
DEN.GM/CC :
GR.API :
RML.OHMM :
RI. :
RXO.OHMM :
CALI.CM :
SP.MV :
~A
# ...
  172.7500     2.4810    49.6420    19.0200    16.6650    19.6620    23.7030   -17.5660 
  172.8750     2.4710    49.6910    19.3840    16.8590    21.2390    23.7160   -17.5380 
  173.0000     2.4640    46.4220    19.6990    17.0730    21.5130    23.7230   -17.5080 
  173.1250     2.4660    44.7920    19.8810    17.2550    20.2080    23.7190   -17.4960 
  173.2500     2.4760    47.2010    19.8820    17.3520    19.3470    23.6880   -17.4620 
  173.3750     2.4850    50.3620    19.6820    17.2970    19.6620    23.6190   -17.4740 
  173.5000     2.4820    50.1370    19.3870    17.1220    19.8090    23.5240   -17.4710 
  173.6250     2.4650    47.6460    19.1000    16.8960    18.7790    23.4430   -17.4910 
  173.7500     2.4390    47.0090    18.9220    16.7160    17.4830    23.4100   -17.5170 
  173.8750     2.4160    49.9550    18.9720    16.7000    17.1320    23.4770   -17.5950 
  174.0000     2.4040    52.2650    19.2890    16.8950    17.5490    23.5300   -17.7030 
  174.1250     2.4070    50.8080    19.9110    17.3420    18.3160    23.4450   -17.8340 
  174.2500     2.4210    46.9430    20.8050    18.0360    19.1740    23.3120   -17.9990 
  174.3750     2.4390    46.0350    21.8180    18.9010    19.7570    23.2440   -18.1370 
  174.5000     2.4560    48.4180    22.6510    19.7060    20.7450    23.2000   -18.2710 
  174.6250     2.4680    50.6250    23.0520    20.2250    22.3610    23.1630   -18.3910 
  174.7500     2.4740    50.1930    22.8920    20.2910    23.5370    23.1650   -18.4940 
  174.8750     2.4720    49.1430    22.2040    19.8350    22.1740    23.2100   -18.5470 
  175.0000     2.4680    49.1890    21.3690    19.1410    20.1380    23.2560   -18.5640 
  175.1250     2.4670    48.5860    20.6710    18.4590    19.1230    23.2870   -18.5620 
  175.2500     2.4680    46.5040    20.2890    17.9870    18.9920    23.3210   -18.5490 
  175.3750     2.4700    45.5080    20.2980    17.8630    19.5760    23.3350   -18.5300 
  175.5000     2.4710    46.8040    20.4980    17.9690    19.7900    23.3150   -18.5270 
  175.6250     2.4710    47.9240    20.7050    18.1550    19.7380    23.2360   -18.5100 
  175.7500     2.4720    47.8490    20.7860    18.2720    19.0690    23.0980   -18.5060 
  175.8750     2.4790    47.2040    20.7190    18.2390    18.6670    23.0140   -18.4880 
  176.0000     2.4870    46.8700    20.6350    18.1470    18.3340    22.9660   -18.4970 
  176.1250     2.4890    46.9670    20.6420    18.0990    18.1810    22.9560   -18.5060 
  176.2500     2.4830    48.4300    20.8040    18.1790    18.2370    22.9540   -18.5420 
  176.3750     2.4750    49.5580    21.1520    18.4380    19.0880    22.9410   -18.5930 
  176.5000     2.4750    47.8420    21.5940    18.8100    20.0510    22.9140   -18.6550 
  176.6250     2.4820    45.4980    22.0460    19.2220    20.4440    22.8840   -18.7550 
  176.7500     2.4920    45.4360    22.4340    19.6090    20.4870    22.8550   -18.8660 
  176.8750     2.4970    47.9010    22.6580    19.8900    21.4980    22.8220   -19.0350 
  177.0000     2.4970    49.7080    22.6730    20.0150    22.1690    22.7920   -19.1830 
  177.1250     2.4960    50.4880    22.4600    19.9450    21.2970    22.7670   -19.3450 
  177.2500     2.4980    50.1280    22.0460    19.6780    20.9620    22.7340   -19.4820 
  177.3750     2.4980    48.9400    21.4620    19.2210    20.5620    22.7200   -19.6240 
  177.5000     2.4910    48.2670    20.7970    18.6620    19.3820    22.6150   -19.7390 
  177.6250     2.4740    48.4110    20.1010    18.0650    18.3370    22.4860   -19.8210 
  177.7500     2.4550    49.0490    19.4050    17.4790    17.7130    22.4300   -19.8670 
  177.8750     2.4440    48.9090    18.7510    16.9370    17.0120    22.4240   -19.8440 
  178.0000     2.4470    47.0020    18.1930    16.4560    15.3640    22.4170   -19.7780 
  178.1250     2.4600    44.3100    17.8010    16.0670    13.9090    22.4070   -19.6760 
  178.2500     2.4730    43.0330    17.6300    15.8150    13.5820    22.4070   -19.5250 
  178.3750     2.4750    45.4020    17.7450    15.7830    14.3370    22.4460   -19.3310 
  178.5000     2.4690    48.8290    18.0610    15.9560    15.6150    22.6250   -19.1040 
  178.6250     2.4580    50.5360    18.4790    16.2830    16.6150    22.9940   -18.8490 
  178.7500     2.4500    49.2090    18.8680    16.6530    17.8280    23.3720   -18.5850 
  178.8750     2.4500    47.8690    19.1040    16.9300    19.2570    23.5500   -18.2920 
  179.0000     2.4560    50.0360    19.2120    17.0850    19.8570    23.5640   -18.0540 
  179.1250     2.4630    53.1390    19.2830    17.1710    18.9420    23.4940   -17.8210 
  179.2500     2.4700    53.3650    19.4080    17.2690    17.9080    23.3460   -17.6330 
  179.3750     2.4790    51.0930    19.6170    17.4280    17.7000    23.2460   -17.4610 
  179.5000     2.4850    48.8650    19.8300    17.6100    18.2730    23.1720   -17.3340 
  179.6250     2.4840    48.2100    19.9500    17.7490    19.1630    23.1460   -17.2530 
  179.7500     2.4740    49.9580    19.8870    17.7720    19.9680    23.1120   -17.1810 
  179.8750     2.4550    52.8930    19.5800    17.6020    18.3150    22.8630   -17.1740 
  180.0000     2.4400    53.5630    19.1390    17.2880    17.2100    22.3680   -17.1260 
  180.1250     2.4380    51.9270    18.6660    16.8920    16.2730    21.5510   -17.0520 
  180.2500     2.4540    49.9780    18.2390    16.4800    15.0210    20.4800   -16.9010 
  180.3750     2.4800    48.4630    17.9020    16.1120    13.6970    19.4580   -16.6990 
  180.5000     2.4970    46.8030    17.6250    15.7990    13.1360    18.7230   -16.4280 
  180.6250     2.5000    45.3270    17.3860    15.5380    13.1180    18.3430   -16.0920 
  180.7500     2.4890    43.7640    17.1990    15.3350    12.9710    18.1540   -15.6920 
  180.8750     2.4730    42.7760    17.1610    15.2470    12.5720    18.1170   -15.2190 
  181.0000     2.4620    45.1980    17.3300    15.3100    12.3950    18.1220   -14.7130 
  181.1250     2.4590    49.8950    17.7200    15.5510    12.4230    18.1380   -14.2240 
  181.2500     2.4650    52.7690    18.3000    15.9700    12.7940    18.2130   -13.7570 
  181.3750     2.4770    49.5190    18.9960    16.5580    13.5500    18.4870   -13.3160 
  181.5000     2.4820    45.0020    19.6630    17.2040    14.1230    18.8670   -12.9090 
  181.6250     2.4630    44.7600    20.1950    17.8000    13.9820    19.1930   -12.5290 
  181.7500     2.4190    48.2410    20.5390    18.2490    13.7910    19.3640   -12.2190 
  181.8750     2.3680    50.6010    20.6780    18.4760    14.1370    19.4010   -11.9690 
  182.0000     2.3280    50.7450    20.7020    18.5380    14.4910    19.4060   -11.7920 
  182.1250     2.3070    51.1540    20.6740    18.4940    14.6230    19.4000   -11.6290 
  182.2500     2.3030    53.2790    20.6470    18.4070    14.4560    19.3760   -11.5360 
  182.3750     2.3100    54.7770    20.6480    18.3200    14.1270    19.3340   -11.4720 
  182.5000     2.3230    54.2610    20.6600    18.2460    13.8060    19.3340   -11.4560 
  182.6250     2.3430    52.5540    20.6440    18.1750    13.9230    19.4020   -11.4870 
  182.7500     2.3700    50.9200    20.5580    18.0890    14.2380    19.5310   -11.5480 
  182.8750     2.3910    51.2540    20.4150    17.9860    14.3610    19.7160   -11.6330 
  183.0000     2.3960    51.5800    20.3420    17.9250    14.0880    19.9100   -11.7100 
  183.1250     2.3880    50.6200    20.4720    17.9800    13.6180    20.0300   -11.8040 
  183.2500     2.3770    49.4860    20.8930    18.2170    13.1610    20.0380   -11.8650 
  183.3750     2.3750    48.4450    21.6120    18.6810    13.1240    19.9410   -11.9110 
  183.5000     2.3810    45.8130    22.3980    19.2570    13.6880    19.8310   -11.9020 
  183.6250     2.3880    43.1610    23.0140    19.8030    14.4230    19.7040   -11.8290 
  183.7500     2.3910    44.1830    23.2850    20.1680    14.5950    19.4940   -11.7070 
  183.8750     2.3880    47.8940    23.1390    20.2240    14.1830    19.1960   -11.5260 
