~V
VERS. 2.00: Ver 2.00
~W
STRT.M 55.0000:
STOP.M 228.0000:
STEP.M 0.1250:
NULL. -999.2500:
UWI. F10621:
~C
DEPT.M :
GR.API :
RML.OHMM :
RI. :
RXO.OHMM :
CALI.CM :
DEN.GM/CC :
SP.MV :
~A
# ...
  190.0000    57.5580   168.6230   160.7540   126.2480    24.8700     2.2270   -14.0330 
  190.1250    57.0610   181.7930   174.6460   122.9230    24.8700     2.2270   -14.1550 
  190.2500    56.7970   186.5590   180.5920   121.8170    24.8700     2.2280   -14.2250 
  190.3750    56.0490   183.4210   178.7100   125.3220    24.8700     2.2290   -14.2240 
  190.5000    54.8050   175.1500   171.2970   134.4490    24.8700     2.2310   -14.1900 
  190.6250    55.2550   165.6460   161.8240   142.4010    24.8700     2.2320   -14.1470 
  190.7500    57.3100   158.1850   153.7620   144.9440    24.8700     2.2310   -14.1010 
  190.8750    57.3640   153.7790   148.4290   149.0320    24.8700     2.2260   -14.0680 
  191.0000    55.9500   152.0520   145.7570   159.5770    24.8700     2.2180   -14.0440 
  191.1250    55.7370   152.1920   145.1430   166.0540    24.8700     2.2100   -14.0250 
  191.2500    55.5140   153.3840   145.7340   158.8150    24.8700     2.2040   -14.0120 
  191.3750    54.4890   156.0940   147.8650   144.3130    24.8700     2.2030   -14.0320 
  191.5000    54.4320   161.3960   152.4400   132.9440    24.8700     2.2050   -14.0630 
  191.6250    56.2840   170.7970   160.8230   138.8870    24.8700     2.2100   -14.0840 
  191.7500    56.9850   183.0390   171.8890   160.2820    24.8700     2.2140   -14.0890 
  191.8750    58.2530   195.6380   183.3950   184.9520    24.8700     2.2140   -14.0670 
  192.0000    62.5390   204.9970   192.0500   201.1220    24.8700     2.2120   -14.0340 
  192.1250    64.5140   206.5250   193.6200   206.4620    24.8700     2.2100   -14.0020 
  192.2500    60.5450   200.7960   188.4760   209.7010    24.8700     2.2150   -13.9750 
  192.3750    57.0030   190.4490   178.8450   208.1530    24.8700     2.2260   -13.9530 
  192.5000    59.5850   179.2150   168.0820   189.8400    24.8700     2.2390   -13.9130 
  192.6250    64.6360   169.8880   158.9390   155.4060    24.8680     2.2450   -13.8280 
  192.7500    66.3610   161.4510   150.9880   138.3520    24.8560     2.2400   -13.7120 
  192.8750    65.7970   151.6770   142.2750   145.4410    24.8270     2.2290   -13.5780 
  193.0000    64.5950   138.2380   130.8510   160.1150    24.8040     2.2250   -13.4010 
  193.1250    62.9130   121.0570   115.9710   161.3720    24.7940     2.2460   -13.1940 
  193.2500    62.3810   103.0530   100.3080   137.3580    24.7620     2.2960   -12.9400 
  193.3750    67.9500    87.7370    86.6950    96.6260    24.6230     2.3680   -12.6460 
  193.5000    79.8590    78.4720    77.2060    66.5820    24.3300     2.4430   -12.3390 
  193.6250    88.8250    74.9540    72.9170    59.5010    24.0630     2.4940   -12.0680 
  193.7500    87.2230    74.3440    71.6570    60.1550    23.9260     2.5140   -11.8220 
  193.8750    80.8420    74.5660    71.4840    56.9090    23.8110     2.5110   -11.6010 
  194.0000    79.2910    73.8240    70.6670    48.8050    23.6640     2.5000   -11.4420 
  194.1250    80.7460    70.9660    68.0360    43.4770    23.5840     2.4940   -11.3350 
  194.2500    78.5370    66.9140    64.2700    41.0510    23.5810     2.4960   -11.2670 
  194.3750    74.5660    62.8910    60.4030    41.3940    23.6890     2.5070   -11.2290 
  194.5000    73.4200    59.8030    57.2700    46.5620    23.8800     2.5200   -11.2110 
  194.6250    74.7980    57.9430    55.1990    56.5200    24.0640     2.5300   -11.1940 
  194.7500    74.8130    56.6760    53.6790    67.5620    24.1840     2.5300   -11.1730 
  194.8750    74.5230    55.6420    52.3890    73.0120    24.2250     2.5210   -11.1360 
  195.0000    75.7140    54.7780    51.2300    67.4610    24.2300     2.5130   -11.0700 
  195.1250    77.4620    54.2230    50.2490    58.0040    24.2300     2.5160   -10.9700 
  195.2500    77.7050    53.7320    49.2070    51.7280    24.2290     2.5270   -10.8540 
  195.3750    75.2950    52.4810    47.4380    52.3720    24.2200     2.5370   -10.7160 
  195.5000    73.2300    49.1900    43.9540    58.1850    24.2010     2.5350   -10.5380 
  195.6250    74.2290    42.5090    37.7060    59.8720    24.1910     2.5140   -10.3300 
  195.7500    75.8480    33.7630    29.9820    59.3930    24.2060     2.4880   -10.1070 
  195.8750    74.3080    25.1290    22.6890    56.5020    24.2260     2.4740    -9.8880 
  196.0000    66.0970    18.5830    17.3210    41.7810    24.2320     2.4870    -9.6510 
  196.1250    51.2700    15.1060    14.4940    25.2280    24.2310     2.5310    -9.4100 
  196.2500    35.0500    13.9140    13.1900    20.0990    24.2300     2.5810    -9.1850 
  196.3750    22.5250    13.4490    12.6140    22.1400    24.2300     2.6090    -8.9990 
  196.5000    16.9700    12.7800    12.0280    25.5710    24.2300     2.6000    -8.8680 
  196.6250    17.1230    11.6930    10.8430    21.7760    24.2450     2.5570    -8.7540 
  196.7500    18.9880    10.1510     9.1700    12.7370    24.2960     2.5110    -8.6400 
  196.8750    21.4810     8.2590     7.4220     6.9700    24.3830     2.4780    -8.5190 
  197.0000    23.9530     6.6670     6.0160     5.2820    24.4460     2.4550    -8.4160 
  197.1250    24.3030     5.8150     5.1940     5.0980    24.4820     2.4260    -8.3320 
  197.2500    23.4410     5.4000     4.7590     5.2150    24.5040     2.3830    -8.2600 
  197.3750    24.2890     5.1760     4.5360     5.2610    24.5150     2.3260    -8.1950 
  197.5000    27.1410     4.9760     4.3770     5.0740    24.5280     2.2610    -8.1300 
  197.6250    29.6860     4.7960     4.1980     4.6520    24.5550     2.1950    -8.1090 
  197.7500    31.2910     4.5980     4.0080     4.0980    24.5410     2.1350    -8.1210 
  197.8750    31.9220     4.3940     3.8540     3.6660    24.4850     2.0940    -8.1850 
  198.0000    31.5610     4.2470     3.7790     3.4000    24.5710     2.0850    -8.2770 
  198.1250    32.3080     4.1360     3.8170     3.4230    24.9750     2.1220    -8.3810 
  198.2500    35.0410     4.2950     3.9290     3.7030    25.4700     2.1880    -8.4790 
  198.3750    36.8170     4.4750     4.0700     4.0880    25.7920     2.2580    -8.5750 
  198.5000    34.4530     4.6110     4.1880     4.3900    25.5530     2.3050    -8.6670 
  198.6250    29.9830     4.6470     4.2350     4.5090    25.1180     2.3100    -8.7430 
  198.7500    26.8880     4.5860     4.2130     4.4080    24.7930     2.2930    -8.8080 
  198.8750    25.6350     4.4660     4.1430     4.1320    24.8230     2.2750    -8.8460 
  199.0000    26.0370     4.3570     4.0570     3.9500    25.1660     2.2710    -8.8700 
  199.1250    26.8800     4.3110     3.9800     3.9540    25.2070     2.2880    -8.8920 
  199.2500    27.5090     4.2730     3.9250     4.0770    24.9690     2.3100    -8.9230 
  199.3750    29.0520     4.2510     3.8910     4.2260    24.6970     2.3260    -8.9530 
  199.5000    32.2810     4.2510     3.8790     4.3160    24.4640     2.3300    -8.9650 
  199.6250    35.5510     4.2620     3.8900     4.2320    24.2040     2.3250    -8.9650 
  199.7500    36.2290     4.2800     3.9120     4.1550    24.0890     2.3250    -8.9640 
  199.8750    35.4890     4.2930     3.9340     4.1950    24.1060     2.3310    -8.9730 
  200.0000    34.4190     4.2800     3.9450     4.3440    24.2040     2.3390    -8.9900 
  200.1250    33.1870     4.2490     3.9330     4.4110    24.2830     2.3440    -8.9890 
  200.2500    31.5170     4.2130     3.9050     4.2890    24.4410     2.3410    -8.9630 
  200.3750    30.0010     4.1810     3.8670     4.0890    24.5660     2.3310    -8.9110 
  200.5000    29.0940     4.1470     3.8290     4.0420    24.5470     2.3190    -8.8710 
  200.6250    28.7310     4.1240     3.7980     4.0770    24.5350     2.3100    -8.8110 
  200.7500    28.2910     4.1140     3.7790     4.0500    24.7370     2.3090    -8.7340 
  200.8750    27.6010     4.1210     3.7770     4.0020    24.9530     2.3160    -8.6550 
  201.0000    26.8320     4.1520     3.7970     4.0330    25.0180     2.3320    -8.6120 
  201.1250    26.1400     4.2170     3.8460     4.1380    25.0120     2.3500    -8.5990 
