~V
VERS. 2.00: Ver 2.00
~W
STRT.M 55.0000:
STOP.M 228.0000:
STEP.M 0.1250:
NULL. -999.2500:
UWI. F10621:
~C
DEPT.M :
GR.API :
RML.OHMM :
RI. :
RXO.OHMM :
CALI.CM :
DEN.GM/CC :
SP.MV :
~A
# ...
  145.0000    51.9430    21.8070    20.1720    21.0030    24.5560     2.4660    -3.8130 
  145.1250    50.7150    21.6910    20.2170    21.1850    24.4440     2.4530    -3.7950 
  145.2500    50.1840    21.1560    19.8760    20.7860    24.3210     2.4420    -3.7780 
  145.3750    50.7030    20.3260    19.2320    19.9940    24.2690     2.4360    -3.7380 
  145.5000    49.9680    19.3890    18.4360    19.1000    24.3800     2.4370    -3.6860 
  145.6250    49.3140    18.5560    17.6770    17.8820    24.5960     2.4440    -3.6620 
  145.7500    50.8330    17.9240    17.0680    16.8680    24.7320     2.4550    -3.6170 
  145.8750    54.3050    17.4970    16.6400    16.3630    24.7820     2.4640    -3.5400 
  146.0000    57.5860    17.2240    16.3650    15.9800    24.7950     2.4700    -3.4880 
  146.1250    57.6600    17.0290    16.1890    15.6720    24.8020     2.4700    -3.4850 
  146.2500    54.6890    16.8090    16.0150    15.5060    24.8050     2.4650    -3.4840 
  146.3750    51.0160    16.5050    15.7780    15.4890    24.8230     2.4590    -3.4770 
  146.5000    50.0510    16.0960    15.4440    15.3090    24.8440     2.4570    -3.5110 
  146.6250    52.8860    15.6070    15.0190    14.8490    24.8020     2.4620    -3.5510 
  146.7500    54.4170    15.1280    14.5790    14.2610    24.7290     2.4710    -3.5740 
  146.8750    52.7340    14.7380    14.1940    13.7510    24.6530     2.4780    -3.6250 
  147.0000    49.1030    14.5010    13.9270    13.2880    24.5820     2.4780    -3.6630 
  147.1250    47.4370    14.4860    13.8500    13.0550    24.5540     2.4710    -3.6620 
  147.2500    47.8940    14.6530    13.9400    13.1330    24.5500     2.4620    -3.6550 
  147.3750    48.4080    14.9730    14.1760    13.5610    24.5690     2.4590    -3.6520 
  147.5000    48.8610    15.4070    14.5280    14.1250    24.6160     2.4640    -3.6120 
  147.6250    50.1340    15.9340    14.9770    14.8600    24.6840     2.4750    -3.5200 
  147.7500    53.0310    16.5080    15.4780    15.6750    24.7450     2.4860    -3.4400 
  147.8750    56.2260    17.0940    15.9960    16.3420    24.7440     2.4900    -3.3720 
  148.0000    58.0920    17.6510    16.4900    16.6720    24.6990     2.4870    -3.3100 
  148.1250    57.1470    18.1060    16.8960    16.6780    24.6440     2.4790    -3.2720 
  148.2500    55.2810    18.4540    17.1980    16.5990    24.5720     2.4710    -3.2360 
  148.3750    54.6840    18.7420    17.4260    16.5380    24.4250     2.4670    -3.2350 
  148.5000    55.5690    19.0850    17.6690    16.5430    24.1730     2.4680    -3.2460 
  148.6250    56.2410    19.6680    18.0780    16.6970    23.8770     2.4680    -3.2710 
  148.7500    56.1290    20.5180    18.7050    17.1660    23.7540     2.4640    -3.3310 
  148.8750    55.0960    21.5350    19.5020    18.3290    23.9360     2.4560    -3.3770 
  149.0000    52.5520    22.4800    20.3000    20.3420    24.2780     2.4480    -3.4110 
  149.1250    51.7300    22.9770    20.7970    22.4250    24.4740     2.4450    -3.4810 
  149.2500    55.7520    22.9200    20.8590    23.5490    24.5910     2.4450    -3.5640 
  149.3750    61.3080    22.3910    20.5000    23.0710    24.5850     2.4460    -3.6040 
  149.5000    62.3630    21.6470    19.8970    20.4140    24.4260     2.4450    -3.6470 
  149.6250    60.0770    21.0590    19.3380    17.7710    24.0760     2.4410    -3.7230 
  149.7500    58.8500    20.8070    19.0210    16.9200    23.6450     2.4360    -3.7740 
  149.8750    58.0980    20.8840    18.9850    17.0680    23.2890     2.4340    -3.8060 
  150.0000    56.5520    21.1560    19.1570    17.2930    23.0960     2.4360    -3.8570 
  150.1250    54.6280    21.4390    19.4030    17.0050    22.8240     2.4450    -3.8750 
  150.2500    53.4470    21.6090    19.5850    16.4710    22.4180     2.4550    -3.8350 
  150.3750    54.0610    21.6490    19.6560    16.0430    22.0660     2.4630    -3.7840 
  150.5000    56.0560    21.5920    19.6220    16.0420    21.9150     2.4670    -3.7320 
  150.6250    57.5900    21.4660    19.4990    16.5980    21.9500     2.4650    -3.6600 
  150.7500    56.7690    21.2840    19.3110    17.1440    22.0550     2.4590    -3.5530 
  150.8750    55.2170    21.0400    19.0620    17.5490    22.2290     2.4500    -3.4440 
  151.0000    55.3050    20.7440    18.7610    17.7490    22.4130     2.4410    -3.3290 
  151.1250    56.3320    20.4300    18.4350    17.4050    22.6050     2.4340    -3.2030 
  151.2500    56.8650    20.1570    18.1280    17.3600    22.7870     2.4280    -3.1230 
  151.3750    56.2670    19.9770    17.8870    17.4940    23.1010     2.4260    -3.0430 
  151.5000    54.9470    19.9460    17.7600    17.8310    23.6170     2.4260    -2.9630 
  151.6250    54.6270    20.1310    17.8170    18.2020    23.9150     2.4270    -2.9120 
  151.7500    56.1150    20.4740    18.0250    18.6770    24.0000     2.4300    -2.8770 
  151.8750    58.4920    20.8770    18.3100    19.2060    24.0480     2.4340    -2.8590 
  152.0000    59.6810    21.1770    18.5490    20.0380    24.2100     2.4370    -2.8400 
  152.1250    59.4550    21.1380    18.5470    20.7660    24.3330     2.4400    -2.8520 
  152.2500    59.1900    20.7080    18.2420    20.6880    24.3750     2.4400    -2.8580 
  152.3750    59.8850    19.9520    17.6670    19.4600    24.4020     2.4380    -2.9230 
  152.5000    58.6880    19.0550    16.9580    17.9590    24.4450     2.4370    -3.0240 
  152.6250    54.0660    18.3000    16.3330    17.0020    24.4690     2.4410    -3.0980 
  152.7500    51.6620    17.8320    15.9150    16.8720    24.4730     2.4490    -3.1870 
  152.8750    53.4640    17.6180    15.6880    16.9980    24.4690     2.4630    -3.2990 
  153.0000    55.5900    17.4510    15.4980    17.1520    24.4690     2.4790    -3.4370 
  153.1250    54.6780    16.9340    15.0230    16.9270    24.4860     2.4940    -3.5360 
  153.2500    54.3870    15.8480    14.0770    16.4400    24.5190     2.5020    -3.6270 
  153.3750    56.0550    14.1900    12.6430    15.5480    24.5320     2.4960    -3.7110 
  153.5000    57.2780    12.1900    10.9090    13.9380    24.5390     2.4790    -3.7630 
  153.6250    57.5150    10.2680     9.2190    11.5220    24.6150     2.4570    -3.8020 
  153.7500    57.9080     8.7520     7.8420     8.9620    24.7000     2.4380    -3.8520 
  153.8750    55.5030     7.7570     6.8810     7.0430    24.7810     2.4240    -3.8580 
  154.0000    48.5310     7.2420     6.3210     6.3450    24.8210     2.4130    -3.8020 
  154.1250    40.3330     7.1040     6.1140     6.2180    24.8270     2.4060    -3.7380 
  154.2500    37.1370     7.1170     6.0860     6.1670    24.8040     2.4040    -3.6890 
  154.3750    38.7810     7.1630     6.1330     6.0350    24.7320     2.4080    -3.6090 
  154.5000    40.5070     7.1750     6.1830     5.8590    24.6110     2.4180    -3.5090 
  154.6250    39.8240     7.1270     6.1900     5.7380    24.5140     2.4270    -3.4090 
  154.7500    40.0250     7.0400     6.1540     5.7030    24.4620     2.4280    -3.2920 
  154.8750    41.5050     6.9200     6.0790     5.7020    24.4580     2.4190    -3.1900 
  155.0000    41.8640     6.7730     5.9700     5.6860    24.4570     2.4060    -3.1000 
  155.1250    42.1510     6.6180     5.8400     5.6190    24.4020     2.3940    -3.0670 
  155.2500    44.0040     6.4970     5.7240     5.5030    24.2890     2.3870    -3.0470 
  155.3750    45.7170     6.4540     5.6580     5.3920    24.2150     2.3860    -3.0250 
  155.5000    46.5070     6.5210     5.6740     5.3410    24.2250     2.3930    -3.0510 
  155.6250    50.9230     6.7100     5.7970     5.4510    24.2940     2.4030    -3.1210 
  155.7500    60.2320     6.9500     5.9820     5.7070    24.3290     2.4110    -3.1910 
  155.8750    69.7050     7.1710     6.1750     6.0700    24.3670     2.4150    -3.2740 
  156.0000    75.2930     7.3100     6.3170     6.4560    24.4510     2.4130    -3.3830 
  156.1250    77.3840     7.3220     6.3550     6.6210    24.5730     2.4090    -3.4660 
