~V
VERS. 2.00: Ver 2.00
~W
STRT.M 50.0000:
STOP.M 263.0000:
STEP.M 0.1250:
NULL. -999.2500:
UWI. F10656:
~C
DEPT.M :
DEN.GM/CC :
GR.API :
RML.OHMM :
RI. :
RXO.OHMM :
CALI.CM :
SP.MV :
~A
# ...
   72.5000     2.2490    90.6210     9.4110     8.3250     8.9180    23.5030   -14.7460 
   72.6250     2.2720    95.7490     9.3980     8.3010     8.9540    23.2500   -14.8860 
   72.7500     2.2900    96.6100     9.2600     8.2140     8.9930    23.0480   -15.0120 
   72.8750     2.2940    89.6720     8.9910     8.0370     9.0000    22.9430   -15.0950 
   73.0000     2.2830    77.9690     8.6370     7.7850     8.8670    22.9260   -15.1610 
   73.1250     2.2610    70.0340     8.2820     7.5050     8.6780    22.9680   -15.1840 
   73.2500     2.2390    66.1600     7.9950     7.2530     8.5070    23.0420   -15.2340 
   73.3750     2.2200    64.2040     7.8020     7.0560     8.4250    23.1270   -15.3850 
   73.5000     2.2050    63.8050     7.6980     6.9200     8.3930    23.1850   -15.5520 
   73.6250     2.1940    64.5040     7.6540     6.8310     8.3900    23.2230   -15.6430 
   73.7500     2.1860    63.7170     7.6190     6.7580     8.3730    23.2560   -15.6010 
   73.8750     2.1820    62.2990     7.5670     6.6840     8.3370    23.2650   -15.4480 
   74.0000     2.1820    62.4200     7.4920     6.6050     8.3110    23.2360   -15.2530 
   74.1250     2.1880    62.9290     7.4060     6.5310     8.2740    23.1530   -15.0010 
   74.2500     2.1960    63.7490     7.3360     6.4770     8.1870    23.0900   -14.6850 
   74.3750     2.2030    65.8480     7.3020     6.4560     8.0350    23.0400   -14.2910 
   74.5000     2.2060    68.7310     7.3040     6.4650     7.8580    22.9710   -13.9460 
   74.6250     2.2050    68.6370     7.3100     6.4770     7.7590    22.8560   -13.6750 
   74.7500     2.2000    65.0760     7.2570     6.4410     7.7900    22.7490   -13.4460 
   74.8750     2.1940    61.2440     7.0920     6.3190     7.8500    22.7180   -13.1900 
   75.0000     2.1910    61.3950     6.7930     6.0880     7.7390    22.8020   -12.8970 
   75.1250     2.1960    66.5470     6.3750     5.7570     7.3710    22.9650   -12.5900 
   75.2500     2.2100    72.3940     5.9440     5.3990     6.7990    23.1420   -12.2560 
   75.3750     2.2330    78.0090     5.5840     5.0770     6.1810    23.3580   -11.9260 
   75.5000     2.2590    82.7700     5.3520     4.8390     5.7270    23.5840   -11.5840 
   75.6250     2.2790    85.5590     5.2950     4.7310     5.4670    23.7790   -11.2910 
   75.7500     2.2870    86.2150     5.3750     4.7370     5.4620    23.8680   -11.1020 
   75.8750     2.2820    84.4210     5.5690     4.8470     5.6480    23.8140   -11.0960 
   76.0000     2.2690    79.9140     5.8490     5.0420     5.9000    23.6680   -11.2550 
   76.1250     2.2520    74.5940     6.1830     5.3010     6.1760    23.5040   -11.5750 
   76.2500     2.2350    71.7070     6.5050     5.5690     6.5640    23.3480   -12.0120 
   76.3750     2.2210    69.8720     6.7530     5.7970     7.0180    23.1900   -12.5300 
   76.5000     2.2100    67.1120     6.8790     5.9410     7.3910    23.1160   -13.0800 
   76.6250     2.2030    64.9850     6.8530     5.9630     7.5350    23.1860   -13.6150 
   76.7500     2.2010    65.6270     6.7460     5.9030     7.5000    23.3180   -14.1110 
   76.8750     2.2040    68.4350     6.6310     5.8120     7.4340    23.4440   -14.5610 
   77.0000     2.2100    70.7860     6.5780     5.7430     7.4260    23.5700   -14.9290 
   77.1250     2.2140    70.1700     6.6410     5.7430     7.6070    23.7420   -15.2430 
   77.2500     2.2130    68.9260     6.7870     5.8070     7.8110    23.9430   -15.5910 
   77.3750     2.2080    68.0720     6.9730     5.9160     7.9380    24.1560   -15.9210 
   77.5000     2.2020    66.0730     7.1550     6.0440     8.0180    24.3460   -16.2350 
   77.6250     2.1960    64.7620     7.2990     6.1670     8.1100    24.4090   -16.5270 
   77.7500     2.1910    65.5270     7.4100     6.2780     8.2820    24.4210   -16.8300 
   77.8750     2.1860    66.7720     7.5040     6.3770     8.4530    24.4440   -17.1390 
   78.0000     2.1810    65.3450     7.5960     6.4660     8.5760    24.4880   -17.4620 
   78.1250     2.1770    63.5700     7.6880     6.5460     8.6830    24.4680   -17.7660 
   78.2500     2.1730    63.7390     7.7710     6.6130     8.7360    24.4040   -17.9900 
   78.3750     2.1700    63.0730     7.8380     6.6620     8.7370    24.3370   -18.1870 
   78.5000     2.1700    60.3660     7.8830     6.6900     8.7020    24.2690   -18.3780 
   78.6250     2.1720    58.7840     7.9010     6.6950     8.6100    24.1880   -18.5580 
   78.7500     2.1750    60.2210     7.8950     6.6820     8.5020    24.1360   -18.6770 
   78.8750     2.1770    62.0680     7.8690     6.6520     8.4400    24.1180   -18.7450 
   79.0000     2.1770    62.1550     7.8300     6.6090     8.4460    24.1140   -18.7560 
   79.1250     2.1750    61.1060     7.7860     6.5610     8.5010    24.1060   -18.6770 
   79.2500     2.1720    60.3680     7.7530     6.5230     8.5110    24.0880   -18.4940 
   79.3750     2.1690    60.0240     7.7450     6.5090     8.4680    24.0560   -18.2140 
   79.5000     2.1680    60.0780     7.7800     6.5360     8.5040    24.0220   -17.8470 
   79.6250     2.1680    59.3120     7.8770     6.6260     8.7050    23.9850   -17.4150 
   79.7500     2.1710    55.7730     8.0290     6.7730     8.9300    23.9440   -16.9520 
   79.8750     2.1750    51.2560     8.2240     6.9670     9.1290    23.9190   -16.4310 
   80.0000     2.1790    49.0580     8.4390     7.1890     9.3640    23.9060   -15.8200 
   80.1250     2.1820    51.9240     8.6380     7.4030     9.6210    23.8780   -15.1630 
   80.2500     2.1840    56.4380     8.7760     7.5650     9.8300    23.8070   -14.4810 
   80.3750     2.1840    60.7360     8.8040     7.6300     9.8610    23.7130   -13.7620 
   80.5000     2.1860    64.9830     8.6690     7.5530     9.6600    23.6190   -12.9880 
   80.6250     2.1920    68.4350     8.3070     7.2740     9.2110    23.5600   -12.1060 
   80.7500     2.2060    70.3540     7.7680     6.8350     8.5710    23.5540   -11.1570 
   80.8750     2.2270    72.2430     7.1130     6.2830     7.7420    23.5840   -10.2040 
   81.0000     2.2530    75.3640     6.4230     5.6860     6.7970    23.6530    -9.3380 
   81.1250     2.2750    78.5500     5.7900     5.1260     5.9140    23.7580    -8.5540 
   81.2500     2.2870    79.6840     5.2800     4.6620     5.4080    23.8840    -7.8520 
   81.3750     2.2870    79.9340     4.9640     4.3460     5.2630    24.0180    -7.2780 
   81.5000     2.2810    81.4700     4.9410     4.2480     5.1900    24.1270    -6.8540 
   81.6250     2.2820    84.9010     5.3920     4.5050     5.3040    24.1410    -6.6470 
   81.7500     2.3040    86.9500     6.2640     5.0980     5.9590    24.0880    -6.6160 
   81.8750     2.3480    84.2950     7.4050     5.9500     7.6640    24.0330    -6.7180 
   82.0000     2.4050    75.9930     8.5070     6.8630    10.3350    24.0040    -6.8420 
   82.1250     2.4430    69.6390     9.0660     7.4720    13.1180    23.9670    -7.0110 
   82.2500     2.4450    69.3280     8.8810     7.5500    14.6740    23.8540    -7.2660 
   82.3750     2.4090    73.6450     8.0310     7.0780    12.8720    23.6760    -7.5580 
   82.5000     2.3570    78.2300     6.8770     6.2720     8.7140    23.5450    -7.8430 
   82.6250     2.3150    81.7450     5.9220     5.4870     6.5580    23.5080    -8.1340 
   82.7500     2.2950    85.4760     5.3940     4.9480     5.7550    23.5040    -8.4260 
   82.8750     2.2930    86.2670     5.2930     4.7040     5.6650    23.5030    -8.7130 
   83.0000     2.3000    82.1450     5.5060     4.7210     5.8840    23.5000    -9.0270 
   83.1250     2.3020    78.3440     5.9030     4.9480     6.1260    23.4930    -9.4220 
   83.2500     2.2960    77.5370     6.3400     5.2780     6.4790    23.4770    -9.8940 
   83.3750     2.2800    77.7240     6.7580     5.6580     6.9800    23.4510   -10.4390 
   83.5000     2.2570    74.9410     7.1290     6.0470     7.5330    23.4300   -11.0660 
   83.6250     2.2330    70.2700     7.4340     6.4070     7.9790    23.4250   -11.6840 
