~V
VERS. 2.00: Ver 2.00
~W
STRT.M 52.0000:
STOP.M 239.0000:
STEP.M 0.1250:
NULL. -999.2500:
UWI. F10645:
~C
DEPT.M :
SP.MV :
GR.API :
RML.OHMM :
RI. :
RXO.OHMM :
CALI.CM :
DEN.GM/CC :
~A
# ...
  119.5000   -17.0070    56.8670    28.8000    23.3460    21.7600    25.1080     2.2780 
  119.6250   -16.6100    52.5050    29.6770    24.3170    20.9310    25.8620     2.2030 
  119.7500   -16.2130    51.5630    29.5550    24.3650    20.1560    26.1550     2.1380 
  119.8750   -15.8810    53.1750    28.9770    23.9310    20.0510    26.1000     2.1080 
  120.0000   -15.6090    55.1630    28.1820    23.2600    19.9810    25.8490     2.1060 
  120.1250   -15.4340    56.3870    27.2210    22.4460    19.3750    25.6650     2.1120 
  120.2500   -15.3350    58.0040    26.0720    21.4940    17.0330    25.4660     2.1120 
  120.3750   -15.3130    58.7420    24.8620    20.5010    14.0810    24.9780     2.1060 
  120.5000   -15.3630    57.2710    23.7470    19.5810    12.4540    24.2630     2.1000 
  120.6250   -15.4600    55.8560    22.8740    18.8460    12.8030    23.7530     2.0970 
  120.7500   -15.5900    57.2880    22.4050    18.4230    13.5010    23.6600     2.0940 
  120.8750   -15.7420    59.2570    22.3070    18.2930    13.5830    23.7400     2.0930 
  121.0000   -15.8980    57.5720    22.5340    18.4340    13.9060    23.9990     2.0970 
  121.1250   -16.0480    52.9110    22.9980    18.7960    14.8250    24.4540     2.1070 
  121.2500   -16.2150    50.1070    23.5870    19.3100    15.7150    24.9120     2.1160 
  121.3750   -16.3820    51.1030    24.1520    19.8490    16.5190    25.2120     2.1160 
  121.5000   -16.5300    53.8200    24.5830    20.3210    16.8660    25.3320     2.1050 
  121.6250   -16.7030    55.2080    24.7790    20.6400    16.5390    25.3410     2.0910 
  121.7500   -16.8870    54.5310    24.6140    20.6820    16.4980    25.4010     2.0830 
  121.8750   -17.0640    54.8050    24.1400    20.4530    16.4450    25.4720     2.0810 
  122.0000   -17.2830    57.2760    23.4200    19.9830    15.6510    25.4270     2.0780 
  122.1250   -17.4860    60.4210    22.5500    19.3460    14.4350    25.2570     2.0760 
  122.2500   -17.7010    62.1150    21.6570    18.6530    13.3000    25.0890     2.0800 
  122.3750   -17.9090    60.8420    20.8840    18.0400    12.6540    24.9330     2.0920 
  122.5000   -18.0940    57.1140    20.3280    17.5920    12.4520    24.7880     2.1090 
  122.6250   -18.2940    53.6840    20.0310    17.3420    11.7530    24.7750     2.1280 
  122.7500   -18.4720    53.3240    19.9290    17.2500    11.1630    24.8890     2.1470 
  122.8750   -18.6370    56.1600    19.7200    17.0990    11.0190    25.0030     2.1580 
  123.0000   -18.7880    60.6880    19.1060    16.6560    11.0180    25.0450     2.1520 
  123.1250   -18.9370    64.6510    17.9510    15.7900    10.7060    25.0040     2.1270 
  123.2500   -19.0630    67.0990    16.4070    14.5720    10.3550    24.9950     2.0990 
  123.3750   -19.1610    69.5800    14.9460    13.3540     9.7770    24.9370     2.0950 
  123.5000   -19.2500    72.0660    13.8850    12.3920     8.3090    24.6200     2.1270 
  123.6250   -19.2560    71.5250    13.3880    11.8440     7.4450    24.4460     2.1750 
  123.7500   -19.2780    68.7950    13.5170    11.8110     7.9490    25.0040     2.1860 
  123.8750   -19.2760    66.9090    14.0240    12.1420     8.4700    25.7380     2.1510 
  124.0000   -19.2270    65.2320    14.7330    12.7150     8.5530    26.0610     2.0860 
  124.1250   -19.1610    61.9310    15.4860    13.3890     8.4970    25.7560     2.0280 
  124.2500   -19.0410    59.6780    16.1630    14.0270     8.8580    24.7420     2.0190 
  124.3750   -18.9210    60.3320    16.7620    14.5800     9.5090    23.8030     2.0550 
  124.5000   -18.7730    61.4510    17.3210    15.0840    10.6530    23.3570     2.1150 
  124.6250   -18.6440    60.6960    17.8920    15.6050    12.4160    23.3840     2.1650 
  124.7500   -18.4480    60.5510    18.5660    16.2140    12.3440    23.6490     2.1850 
  124.8750   -18.2330    63.3010    19.3710    16.9090    11.6520    23.7800     2.1860 
  125.0000   -17.9860    68.8060    20.2430    17.6240    11.4590    23.8510     2.1880 
  125.1250   -17.7430    74.0950    21.0120    18.2320    11.8390    24.1140     2.2040 
  125.2500   -17.5110    72.9390    21.4060    18.5450    11.9530    24.5180     2.2240 
  125.3750   -17.2950    66.0520    21.4130    18.5760    11.3680    25.0500     2.2190 
  125.5000   -17.0970    58.6480    21.2010    18.4380    10.0910    25.9800     2.1740 
  125.6250   -16.9210    55.7730    21.0410    18.3110     8.9190    26.6400     2.1020 
  125.7500   -16.8020    56.6410    21.1840    18.3790     8.9580    25.9630     2.0390 
  125.8750   -16.7050    58.7320    21.5700    18.6410    10.8980    24.9340     2.0170 
  126.0000   -16.7080    62.1300    22.0420    19.0100    13.2020    24.3260     2.0440 
  126.1250   -16.7640    64.5720    22.4400    19.3640    14.0720    23.9910     2.0980 
  126.2500   -16.8830    63.3480    22.7090    19.6160    13.4360    23.6910     2.1480 
  126.3750   -17.0820    59.0070    23.0850    19.8880    12.7950    23.6310     2.1930 
  126.5000   -17.3360    54.3430    23.9060    20.4230    12.8800    23.7980     2.2340 
  126.6250   -17.6450    51.4430    25.4690    21.5020    12.2370    23.9930     2.2540 
  126.7500   -18.0690    50.7370    28.0280    23.4320    11.6550    24.1190     2.2380 
  126.8750   -18.5640    50.3430    31.2190    26.0100    13.8110    24.2830     2.2080 
  127.0000   -19.0780    49.1110    34.4750    28.8360    20.9570    24.4250     2.1900 
  127.1250   -19.6060    48.0710    36.9090    31.2010    34.3430    24.4160     2.2070 
  127.2500   -20.1360    46.7310    37.0960    31.8810    31.5560    24.3330     2.2650 
  127.3750   -20.5740    44.8520    34.7120    30.3970    26.3070    24.3390     2.3310 
  127.5000   -20.9490    43.8920    30.0970    26.8480    20.0740    24.4080     2.3780 
  127.6250   -21.2250    44.8490    24.4540    22.1650    17.9200    24.4430     2.4030 
  127.7500   -21.3540    49.9120    19.3970    17.7470    15.3630    24.2980     2.4150 
  127.8750   -21.3640    58.3170    15.6950    14.3850    10.5280    24.1150     2.4110 
  128.0000   -21.2540    64.9290    13.4820    12.2540     7.0870    23.9750     2.3790 
  128.1250   -21.0260    65.6520    12.6100    11.2650     6.7360    23.8460     2.3170 
  128.2500   -20.7490    62.8090    12.9350    11.3590     8.2710    23.7370     2.2420 
  128.3750   -20.4780    61.5620    13.9050    12.1170     9.9350    23.7360     2.1760 
  128.5000   -20.2520    60.9320    15.1200    13.2340    11.1820    23.8410     2.1320 
  128.6250   -20.0940    58.5440    16.1330    14.3160    12.0520    23.9420     2.1120 
  128.7500   -20.0170    56.5190    16.4680    14.8750    12.0090    23.9410     2.1110 
  128.8750   -20.0680    55.9880    16.1480    14.8190    11.2600    23.8680     2.1200 
  129.0000   -20.2150    56.6940    15.2900    14.2040    10.0330    23.6590     2.1330 
  129.1250   -20.4870    59.9650    14.0000    13.1210     8.8310    23.2760     2.1430 
  129.2500   -20.8260    64.4740    12.3780    11.6550     8.3640    23.1670     2.1500 
  129.3750   -21.2320    68.0990    10.7350    10.0920     8.7740    23.4300     2.1560 
  129.5000   -21.6390    69.9670     9.3310     8.6710     7.9440    23.8410     2.1640 
  129.6250   -22.0570    72.5870     8.3460     7.5700     6.3460    24.1990     2.1730 
  129.7500   -22.4350    79.7420     7.9160     6.9420     5.4360    24.3400     2.1840 
  129.8750   -22.7330    87.6230     7.9000     6.7050     5.4560    24.3790     2.1960 
  130.0000   -22.9710    91.1650     8.1800     6.7830     6.3350    24.3950     2.2080 
  130.1250   -23.1400    88.6010     8.6140     7.0660     6.7070    24.4090     2.2160 
  130.2500   -23.2420    86.1270     9.0680     7.4340     6.6080    24.4290     2.2190 
  130.3750   -23.2630    85.5650     9.4950     7.7930     6.7460    24.4540     2.2210 
  130.5000   -23.2330    82.7630     9.9640     8.1540     6.9190    24.4730     2.2290 
  130.6250   -23.1480    76.2990    10.5980     8.6000     7.0190    24.5270     2.2440 
