~V
VERS. 2.00: Ver 2.00
~W
STRT.M 58.0000:
STOP.M 221.0000:
STEP.M 0.1250:
NULL. -999.2500:
UWI. F10613:
~C
DEPT.M :
SP.MV :
GR.API :
RML.OHMM :
RI. :
RXO.OHMM :
CALI.CM :
DEN.GM/CC :
~A
# ...
  204.2500   -11.8470    32.0880     4.3430     3.5870     4.2500    23.4600     2.3480 
  204.3750   -11.9990    34.7080     4.2910     3.5650     4.3730    23.3600     2.3440 
  204.5000   -12.1540    34.2720     4.2170     3.5180     4.2270    23.2860     2.3410 
  204.6250   -12.3170    31.6770     4.1560     3.4650     4.0260    23.3450     2.3420 
  204.7500   -12.4760    29.4060     4.1350     3.4280     4.0170    23.4180     2.3490 
  204.8750   -12.5980    29.5090     4.1850     3.4380     4.1860    23.4030     2.3590 
  205.0000   -12.7120    32.6180     4.3600     3.5510     4.4080    23.2540     2.3670 
  205.1250   -12.8020    36.6910     4.6510     3.7740     4.5050    23.1490     2.3680 
  205.2500   -12.8510    41.8180     5.0230     4.0800     4.6910    23.2350     2.3630 
  205.3750   -12.9210    47.6570     5.3960     4.4110     5.6060    23.3570     2.3530 
  205.5000   -12.9300    53.1780     5.6240     4.6480     7.5680    23.3600     2.3350 
  205.6250   -12.8910    56.4980     5.6300     4.7140     8.1170    23.2900     2.3140 
  205.7500   -12.8830    56.0410     5.4250     4.5950     6.2920    23.2120     2.2990 
  205.8750   -12.8720    51.4680     5.1070     4.3500     4.9910    23.1830     2.2980 
  206.0000   -12.8050    42.9270     4.8050     4.0730     4.5790    22.9920     2.3150 
  206.1250   -12.7530    35.4790     4.5970     3.8540     4.4030    22.7640     2.3360 
  206.2500   -12.6920    32.6100     4.5040     3.7350     4.2770    22.4860     2.3490 
  206.3750   -12.5850    33.1380     4.5020     3.7170     4.3330    22.1630     2.3490 
  206.5000   -12.5140    33.6440     4.5530     3.7750     4.5190    21.8670     2.3350 
  206.6250   -12.4880    33.7330     4.6020     3.8480     4.5440    21.4550     2.3160 
  206.7500   -12.4390    34.8460     4.6200     3.8950     4.5960    20.9880     2.2970 
  206.8750   -12.4080    35.3230     4.5870     3.8900     4.5830    20.4390     2.2800 
  207.0000   -12.4180    32.2020     4.4930     3.8170     4.4420    20.0880     2.2700 
  207.1250   -12.4020    28.0060     4.3710     3.7080     4.1680    19.7250     2.2680 
  207.2500   -12.4150    26.3390     4.2580     3.5970     3.9680    19.1510     2.2730 
  207.3750   -12.4390    28.4530     4.1840     3.5140     3.9480    18.4630     2.2890 
  207.5000   -12.4250    31.2180     4.1770     3.4870     3.9860    18.1740     2.3160 
  207.6250   -12.3750    31.0550     4.2130     3.5040     3.9970    18.5070     2.3450 
  207.7500   -12.2970    29.0120     4.2690     3.5470     4.0740    19.2610     2.3680 
  207.8750   -12.2130    27.7410     4.3160     3.5920     4.2740    20.3030     2.3770 
  208.0000   -12.1470    27.4920     4.3240     3.6140     4.3230    21.3000     2.3710 
  208.1250   -12.0820    27.6950     4.2930     3.6050     4.1350    22.1670     2.3590 
  208.2500   -11.9840    28.2820     4.2320     3.5710     4.0280    22.6630     2.3470 
  208.3750   -11.9140    29.1760     4.1650     3.5290     4.0600    22.8530     2.3390 
  208.5000   -11.8640    29.8830     4.1320     3.5060     4.1520    22.8820     2.3370 
  208.6250   -11.8010    32.1930     4.1580     3.5210     4.2270    22.9240     2.3420 
  208.7500   -11.7710    36.9270     4.2550     3.5870     4.3180    22.9710     2.3520 
  208.8750   -11.7610    41.4260     4.4160     3.7100     4.5970    23.0110     2.3610 
  209.0000   -11.7580    43.1670     4.6100     3.8770     4.9940    23.0260     2.3650 
  209.1250   -11.7830    43.0450     4.7790     4.0430     5.1680    23.0370     2.3640 
  209.2500   -11.8300    42.9750     4.8790     4.1670     5.0520    23.0540     2.3600 
  209.3750   -11.8900    44.1500     4.8840     4.2190     4.9660    23.0630     2.3520 
  209.5000   -11.9950    45.5070     4.7880     4.1830     4.9050    23.0750     2.3410 
  209.6250   -12.1730    45.6380     4.6390     4.0990     4.8230    23.1000     2.3320 
  209.7500   -12.3790    44.5060     4.4760     3.9970     4.7560    23.1130     2.3290 
  209.8750   -12.5730    43.4100     4.3310     3.8990     4.6770    23.0870     2.3340 
  210.0000   -12.7270    42.6340     4.2220     3.8130     4.4450    23.0680     2.3430 
  210.1250   -12.8510    41.8460     4.1460     3.7360     4.1150    23.0650     2.3470 
  210.2500   -12.9380    42.2590     4.0960     3.6670     3.7930    23.0710     2.3430 
  210.3750   -12.9700    44.3890     4.0640     3.6080     3.6690    23.0920     2.3340 
  210.5000   -12.9620    46.6400     4.0470     3.5690     3.7280    23.1430     2.3260 
  210.6250   -12.9150    47.0960     4.0490     3.5570     3.9010    23.1940     2.3230 
  210.7500   -12.8490    46.2240     4.0730     3.5670     4.0220    23.2240     2.3250 
  210.8750   -12.7690    45.6430     4.1110     3.5870     4.1280    23.2400     2.3310 
  211.0000   -12.6660    46.0990     4.1440     3.5960     4.2400    23.2550     2.3390 
  211.1250   -12.5520    46.2850     4.1510     3.5880     4.2460    23.2420     2.3470 
  211.2500   -12.4560    46.2850     4.1350     3.5730     4.1050    23.2520     2.3550 
  211.3750   -12.3960    46.2850     4.1340     3.5740     4.0730    23.2980     2.3630 
  211.5000   -12.3630    46.2850     4.2350     3.6420     4.3750    23.3850     2.3710 
  211.6250   -12.3570    46.2850     4.4910     3.8170     4.9300    23.4470     2.3800 
  211.7500   -12.3730    46.2850     4.9410     4.1450     5.8250    23.4600     2.3890 
  211.8750   -12.3960    46.2850     5.5990     4.6590     7.0540    23.4560     2.3940 
  212.0000   -12.4510    46.2850     6.4750     5.4060     8.8330    23.4530     2.4000 
  212.1250   -12.5520    46.2850     7.4590     6.3030    10.5490    23.4510     2.4120 
  212.2500   -12.6660    46.2850     8.4010     7.2250    11.7500    23.4460     2.4280 
  212.3750   -12.7870    46.2850     9.0960     7.9760    12.3240    23.4400     2.4400 
  212.5000   -12.9120    46.2850     9.2960     8.2950    12.1830    23.4340     2.4390 
  212.6250   -13.0070    46.2850     9.1050     8.2220    11.0170    23.4210     2.4240 
  212.7500   -13.0780    46.2850     8.7310     7.9210     9.6230    23.4180     2.4050 
  212.8750   -13.1840    46.2850     8.4240     7.6090     9.0060    23.4280     2.3910 
  213.0000   -13.3330    46.2850     8.4110     7.5050    10.1040    23.4400     2.3840 
  213.1250   -13.4730    46.2850     8.7030     7.6640    11.6390    23.4300     2.3830 
  213.2500   -13.6410    46.2850     9.2470     8.0780    12.6560    23.4190     2.3870 
  213.3750   -13.8060    46.2850     9.9330     8.6780    13.0270    23.4160     2.3970 
  213.5000   -13.9210    46.2850    10.5790     9.3280    12.6970    23.4140     2.4150 
  213.6250   -14.0470    46.2850    11.0270     9.8500    12.6840    23.4240     2.4320 
  213.7500   -14.2010    46.2850    11.2080    10.1430    13.0750    23.4320     2.4400 
  213.8750   -14.3190    46.2850    11.1440    10.1960    13.2480    23.4190     2.4330 
  214.0000   -14.3710    46.2850    10.9200    10.0670    12.8950    23.4180     2.4150 
  214.1250   -14.4130    46.2850    10.6980     9.8980    12.1750    23.4130     2.4000 
  214.2500   -14.4290    46.2850    10.5790     9.7820    11.6380    23.4170     2.3960 
  214.3750   -14.4230    46.2850    10.5950     9.7620    11.5540    23.4220     2.4050 
  214.5000   -14.4260    46.2850    10.6560     9.7950    12.0580    23.4240     2.4200 
  214.6250   -14.3860    46.2850    10.5830     9.7350    12.7990    23.4240     2.4290 
  214.7500   -14.2870    46.2850    10.2790     9.4850    12.8920    23.4210     2.4240 
  214.8750   -14.1660    46.2850     9.7810     9.0630    11.5260    23.4260     2.4080 
  215.0000   -14.0460    46.2850     9.2600     8.6060     9.1890    23.4350     2.3880 
  215.1250   -13.9710    46.2850     8.8840     8.2640     8.4530    23.4410     2.3700 
  215.2500   -13.9140    46.2850     8.6920     8.0790     9.4200    23.4380     2.3570 
  215.3750   -13.8980    46.2850     8.6320     8.0160    10.6380    23.4320     2.3480 
