~V
VERS. 2.00: Ver 2.00
~W
STRT.M 52.0000:
STOP.M 238.0000:
STEP.M 0.1250:
NULL. -999.2500:
UWI. F10653:
~C
DEPT.M :
GR.API :
RML.OHMM :
RI. :
RXO.OHMM :
CALI.CM :
DEN.GM/CC :
SP.MV :
~A
# ...
   74.5000    60.3130    10.1680     9.1680     8.0930    23.4070     2.1530   -29.8360 
   74.6250    58.1380    10.8810     9.8810     8.5090    23.4040     2.1770   -29.5910 
   74.7500    56.6510    11.8180    10.8180    10.2280    23.4570     2.1790   -29.2880 
   74.8750    57.4800    12.7790    11.7790    15.6910    23.5040     2.1590   -28.9850 
   75.0000    60.5330    13.4160    12.4160    28.8870    23.4600     2.1210   -28.6540 
   75.1250    62.4310    13.3460    12.3460    33.0350    23.2990     2.0800   -28.3190 
   75.2500    63.5480    12.6880    11.6880    20.4670    23.0020     2.0500   -27.9930 
   75.3750    65.0170    11.6970    10.6970    11.2950    22.6760     2.0370   -27.6680 
   75.5000    64.9250    10.7470     9.7470     8.0910    22.4590     2.0420   -27.3200 
   75.6250    60.2080    10.2090     9.2090     7.7590    22.4120     2.0570   -26.9330 
   75.7500    55.9950    10.0250     9.0250     8.1950    22.4590     2.0830   -26.5190 
   75.8750    56.9320     9.9930     8.9930     9.0350    22.5190     2.1250   -26.0680 
   76.0000    63.7220     9.8990     8.8990    10.5630    22.6330     2.1840   -25.5830 
   76.1250    72.7010     9.5600     8.5600    11.4930    22.8580     2.2430   -25.0960 
   76.2500    79.8110     9.0260     8.0260    10.4580    23.0450     2.2780   -24.5710 
   76.3750    81.9880     8.4880     7.4880     8.6250    23.1820     2.2780   -24.0520 
   76.5000    79.9200     8.1440     7.1440     7.6380    23.2330     2.2510   -23.5350 
   76.6250    78.6340     8.0650     7.0650     7.8770    23.2150     2.2160   -23.0280 
   76.7500    78.1240     8.1180     7.1180     8.1780    23.1670     2.1920   -22.5230 
   76.8750    75.2140     8.1960     7.1960     8.5160    23.1060     2.1860   -21.9500 
   77.0000    70.9710     8.1440     7.1440     8.5590    23.0860     2.1970   -21.2790 
   77.1250    72.6060     7.7990     6.7990     8.0220    23.1200     2.2150   -20.4580 
   77.2500    79.3350     7.2900     6.2900     7.3180    23.1980     2.2280   -19.4950 
   77.3750    84.9050     6.7860     5.7860     6.9770    23.2290     2.2380   -18.4420 
   77.5000    87.8890     6.4110     5.4110     6.9110    23.1760     2.2500   -17.3390 
   77.6250    90.7110     6.3040     5.3040     6.7110    23.0370     2.2740   -16.3170 
   77.7500    93.2240     6.4980     5.4980     6.6760    22.9550     2.3010   -15.3930 
   77.8750    90.1820     6.9410     5.9410     7.1850    22.8700     2.3190   -14.5970 
   78.0000    81.4910     7.4780     6.4780     8.2350    22.7670     2.3190   -13.9970 
   78.1250    75.8390     7.8930     6.8930     9.0720    22.7090     2.3030   -13.5780 
   78.2500    76.5250     8.0390     7.0390     8.8920    22.7770     2.2850   -13.3540 
   78.3750    78.5950     7.8850     6.8850     8.2840    22.8920     2.2750   -13.2910 
   78.5000    79.0700     7.5630     6.5630     7.8250    22.9420     2.2770   -13.3220 
   78.6250    82.2660     7.3010     6.3010     7.5760    22.9170     2.2880   -13.4070 
   78.7500    86.5960     7.1900     6.1900     7.5550    22.9220     2.3000   -13.5090 
   78.8750    85.5510     7.2300     6.2300     7.6570    22.9520     2.3050   -13.6310 
   79.0000    79.6070     7.4040     6.4040     7.6920    22.9750     2.2970   -13.7270 
   79.1250    75.2110     7.6360     6.6360     7.6890    22.9190     2.2770   -13.8590 
   79.2500    74.1180     7.7810     6.7810     8.0460    22.8180     2.2560   -13.9480 
   79.3750    75.2340     7.7800     6.7800     8.3750    22.7350     2.2390   -13.9780 
   79.5000    77.0690     7.6470     6.6470     8.2380    22.6460     2.2300   -13.9740 
   79.6250    80.1150     7.4320     6.4320     7.6630    22.5120     2.2310   -13.8860 
   79.7500    83.6010     7.2610     6.2610     7.2180    22.5050     2.2400   -13.7460 
   79.8750    86.3840     7.2290     6.2290     6.9190    22.6590     2.2490   -13.5660 
   80.0000    86.1970     7.3140     6.3140     6.8970    22.6870     2.2550   -13.3720 
   80.1250    83.4480     7.3980     6.3980     7.0520    22.4350     2.2570   -13.1500 
   80.2500    81.1660     7.3830     6.3830     7.3190    22.1650     2.2600   -12.9430 
   80.3750    81.7130     7.2310     6.2310     7.3620    22.1290     2.2710   -12.7780 
   80.5000    87.0300     6.9420     5.9420     7.0390    22.3240     2.2890   -12.6420 
   80.6250    94.1130     6.6140     5.6140     6.4130    22.5890     2.3000   -12.5990 
   80.7500    96.0620     6.4490     5.4490     6.2920    22.6640     2.2890   -12.6100 
   80.8750    91.4020     6.6010     5.6010     6.5750    22.5690     2.2520   -12.6900 
   81.0000    83.5680     7.2160     6.2160     7.3340    22.3610     2.2070   -12.8100 
   81.1250    74.8310     8.6160     7.6160     8.5570    22.1200     2.1870   -12.9630 
   81.2500    68.1020    10.9410     9.9410    10.3210    21.9720     2.2180   -13.1990 
   81.3750    66.3390    14.4250    13.4250    14.0650    21.8970     2.3060   -13.4660 
   81.5000    67.1980    19.2500    18.2500    22.2190    21.8050     2.4340   -13.7890 
   81.6250    64.9970    25.3820    24.3820    36.0930    21.7000     2.5610   -14.1620 
   81.7500    60.0280    31.2410    30.2410    43.0130    21.5640     2.6590   -14.5960 
   81.8750    57.1620    34.4190    33.4190    42.8710    21.5190     2.7270   -15.0850 
   82.0000    56.6990    33.0300    32.0300    43.0150    21.7110     2.7510   -15.6040 
   82.1250    56.8490    27.5520    26.5520    38.8310    22.1530     2.7000   -16.1880 
   82.2500    56.6290    21.5170    20.5170    25.9190    22.2820     2.5900   -16.7380 
   82.3750    57.5390    16.6680    15.6680    16.1430    22.2600     2.4550   -17.2560 
   82.5000    60.2440    13.5440    12.5440    12.1880    22.4110     2.3280   -17.7250 
   82.6250    62.5110    12.2110    11.2110    11.1650    22.6790     2.2410   -18.0810 
   82.7500    63.5980    11.9270    10.9270    10.9310    22.8680     2.1960   -18.3520 
   82.8750    63.9690    12.1650    11.1650    11.1920    22.9260     2.1840   -18.4990 
   83.0000    63.6350    12.3040    11.3040    11.7250    22.9360     2.1880   -18.5570 
   83.1250    62.6330    11.6370    10.6370    11.7830    22.9590     2.1930   -18.4500 
   83.2500    63.9400    10.3580     9.3580    11.2210    22.9950     2.1980   -18.2840 
   83.3750    70.7000     9.0750     8.0750     9.8500    23.0350     2.2060   -18.1180 
   83.5000    81.0190     8.3210     7.3210     7.9820    23.0110     2.2280   -17.9680 
   83.6250    86.2510     8.4220     7.4220     7.1400    22.8850     2.2760   -17.9360 
   83.7500    82.5460     9.2230     8.2230     7.7830    22.6790     2.3330   -17.9910 
   83.8750    72.8440    10.5520     9.5520     9.4350    22.4050     2.3690   -18.1220 
   84.0000    62.5230    12.0420    11.0420    10.7000    22.1810     2.3620   -18.3310 
   84.1250    56.5580    13.1060    12.1060    10.9210    22.2500     2.3100   -18.6100 
   84.2500    55.5860    13.5390    12.5390    10.7990    22.2480     2.2430   -18.9180 
   84.3750    57.3300    13.4680    12.4680    10.7010    22.1560     2.1820   -19.2430 
   84.5000    59.1750    13.1790    12.1790    10.6730    22.0050     2.1460   -19.5970 
   84.6250    59.9610    12.9380    11.9380    10.5320    21.7920     2.1380   -19.8660 
   84.7500    59.7060    12.8180    11.8180    10.2110    21.4750     2.1440   -20.0830 
   84.8750    58.4440    12.7600    11.7600     9.9000    21.1620     2.1510   -20.2640 
   85.0000    56.4970    12.6980    11.6980     9.7380    20.9180     2.1560   -20.4110 
   85.1250    55.5230    12.6280    11.6280     9.6120    20.5830     2.1570   -20.5400 
   85.2500    55.1160    12.5630    11.5630     9.6520    20.2260     2.1600   -20.6350 
   85.3750    54.8410    12.4930    11.4930     9.9270    20.1200     2.1650   -20.7030 
   85.5000    54.7240    12.4450    11.4450    10.0060    20.4330     2.1710   -20.6880 
   85.6250    54.3600    12.5250    11.5250    10.1320    20.9380     2.1740   -20.6310 
