~V
VERS. 2.00: Ver 2.00
~W
STRT.M 50.0000:
STOP.M 216.0000:
STEP.M 0.1250:
NULL. -999.2500:
UWI. F10607:
~C
DEPT.M :
GR.API :
RML.OHMM :
RI. :
RXO.OHMM :
CALI.CM :
DEN.GM/CC :
SP.MV :
~A
# ...
   61.2500    73.5370     7.2460     6.1670     8.7510    23.7940     2.3630   -36.9030 
   61.3750    70.9570     7.5990     6.5000     7.9970    23.8840     2.3310   -37.2480 
   61.5000    72.2700     7.9990     6.8600     7.4360    23.9640     2.2930   -37.6020 
   61.6250    74.2040     8.5500     7.3150     7.8450    24.0170     2.2510   -37.9690 
   61.7500    73.6400     9.2420     7.8790     8.7790    24.1560     2.2120   -38.3220 
   61.8750    70.0880     9.9890     8.5070     9.5910    24.3690     2.1780   -38.6150 
   62.0000    64.5030    10.6090     9.0720    10.0230    24.5710     2.1530   -38.8580 
   62.1250    59.5980    10.8030     9.3280    10.1270    24.6970     2.1360   -39.0110 
   62.2500    57.8730    10.5140     9.1830    10.3220    24.7970     2.1330   -39.0780 
   62.3750    58.4500     9.8220     8.6620    10.2750    24.8290     2.1500   -39.0580 
   62.5000    60.5860     8.9290     7.9150     9.3410    24.7460     2.1870   -38.9310 
   62.6250    64.4450     8.1010     7.1500     7.7750    24.6450     2.2330   -38.7110 
   62.7500    69.9930     7.4910     6.5300     6.8000    24.6000     2.2690   -38.4480 
   62.8750    74.1190     7.1390     6.1100     6.5310    24.5950     2.2870   -38.1540 
   63.0000    74.4910     7.0060     5.8850     6.4640    24.5970     2.2880   -37.8620 
   63.1250    73.4920     7.0100     5.8160     6.6940    24.6020     2.2800   -37.5660 
   63.2500    75.5720     7.0160     5.7980     6.9030    24.6180     2.2720   -37.3090 
   63.3750    80.9070     6.9530     5.7720     6.8420    24.6440     2.2740   -37.0760 
   63.5000    85.5170     6.8130     5.7140     6.4440    24.6450     2.2910   -36.9210 
   63.6250    86.2990     6.6540     5.6420     6.2120    24.6030     2.3160   -36.7880 
   63.7500    85.7530     6.5600     5.6040     6.2210    24.5650     2.3350   -36.6950 
   63.8750    85.6020     6.5900     5.6410     6.2860    24.5680     2.3400   -36.6250 
   64.0000    85.9840     6.7670     5.7770     6.3990    24.5880     2.3370   -36.5790 
   64.1250    82.8930     7.0630     6.0150     6.7580    24.5840     2.3330   -36.5910 
   64.2500    76.5360     7.3500     6.2780     7.4830    24.5150     2.3260   -36.6090 
   64.3750    71.1700     7.5200     6.4830     8.1600    24.3980     2.3120   -36.6590 
   64.5000    68.4550     7.5200     6.5660     7.7830    24.3470     2.2920   -36.7000 
   64.6250    66.9280     7.3660     6.4980     7.3120    24.4330     2.2750   -36.7550 
   64.7500    65.1220     7.1870     6.3610     6.8090    24.5390     2.2700   -36.7760 
   64.8750    64.9850     7.0810     6.2280     6.4620    24.5830     2.2740   -36.7740 
   65.0000    67.2980     7.0940     6.1450     6.3030    24.5880     2.2800   -36.7360 
   65.1250    69.8770     7.1920     6.1090     6.6810    24.5780     2.2780   -36.6410 
   65.2500    71.6110     7.2320     6.0380     6.6750    24.5540     2.2730   -36.5220 
   65.3750    72.0220     7.0800     5.8520     6.5410    24.5310     2.2740   -36.3570 
   65.5000    71.2210     6.6630     5.5060     6.4710    24.5280     2.2810   -36.1620 
   65.6250    72.3160     6.0670     5.0360     6.2290    24.5390     2.2920   -35.9390 
   65.7500    76.5830     5.6220     4.6320     5.7380    24.4950     2.3050   -35.7220 
   65.8750    81.9100     5.6410     4.4890     5.3560    24.3240     2.3290   -35.5410 
   66.0000    83.5480     6.4170     4.8000     5.3740    24.0280     2.3860   -35.3730 
   66.1250    79.6550     8.4300     5.9010     7.3020    23.6610     2.4870   -35.2500 
   66.2500    71.9950    11.6570     7.8820    14.1020    23.2910     2.5750   -35.1560 
   66.3750    61.9400    15.7550    10.7230    32.8490    23.0010     2.5890   -35.1180 
   66.5000    51.9160    19.5470    13.8440    45.2010    22.9810     2.5150   -35.1220 
   66.6250    46.4190    20.8120    15.6140    30.7550    23.4360     2.3930   -35.1630 
   66.7500    46.4970    19.4850    15.4240    17.7020    24.1870     2.2810   -35.2350 
   66.8750    48.8110    16.9550    14.0180    13.2920    24.7910     2.2040   -35.2930 
   67.0000    49.7950    14.7270    12.4850    12.2550    25.0080     2.1640   -35.3600 
   67.1250    49.1610    13.6140    11.5120    12.0270    24.9530     2.1520   -35.3730 
   67.2500    49.8620    13.3020    11.0630    11.8980    24.9190     2.1480   -35.3590 
   67.3750    51.7770    13.4350    10.9720    11.8310    24.9100     2.1460   -35.2630 
   67.5000    51.7280    13.7140    11.0590    11.7380    24.9320     2.1430   -35.1090 
   67.6250    48.8520    13.9600    11.1940    11.6030    25.0040     2.1380   -34.8660 
   67.7500    47.0120    14.1220    11.3060    11.4930    25.0940     2.1320   -34.5440 
   67.8750    47.6470    14.2000    11.3800    11.3630    25.1570     2.1270   -34.1350 
   68.0000    49.9950    14.2170    11.4150    11.5160    25.2110     2.1220   -33.6190 
   68.1250    51.4900    14.2110    11.4260    11.7210    25.2240     2.1220   -33.0160 
   68.2500    50.9940    14.2260    11.4350    11.9300    25.1890     2.1260   -32.3760 
   68.3750    49.2190    14.2850    11.4530    12.1400    25.1200     2.1320   -31.7460 
   68.5000    47.7090    14.3830    11.4810    12.4960    25.0820     2.1380   -31.1580 
   68.6250    47.5380    14.4960    11.5110    12.8650    25.1030     2.1410   -30.6000 
   68.7500    47.8300    14.5820    11.5310    12.9630    25.1620     2.1440   -30.1020 
   68.8750    48.7570    14.6270    11.5320    12.9590    25.2230     2.1480   -29.6910 
   69.0000    49.7890    14.6370    11.5170    12.9100    25.2560     2.1560   -29.3810 
   69.1250    49.5720    14.6310    11.4950    12.9150    25.2260     2.1670   -29.1970 
   69.2500    48.6210    14.6310    11.4750    13.0350    25.1690     2.1710   -29.0730 
   69.3750    48.4170    14.6360    11.4560    13.3030    25.1500     2.1640   -29.0220 
   69.5000    49.7730    14.6330    11.4320    13.6270    25.1700     2.1470   -28.9900 
   69.6250    50.9100    14.6040    11.3840    13.7590    25.1280     2.1310   -29.0680 
   69.7500    51.5850    14.5500    11.3060    13.4360    24.9890     2.1230   -29.1940 
   69.8750    51.4290    14.4770    11.1990    13.0830    24.8070     2.1300   -29.3940 
   70.0000    50.1210    14.3990    11.0770    12.9620    24.6800     2.1500   -29.6550 
   70.1250    49.4240    14.3310    10.9650    13.0630    24.6260     2.1780   -29.9980 
   70.2500    51.4290    14.2860    10.8860    13.5190    24.5510     2.2050   -30.4050 
   70.3750    54.3980    14.2740    10.8500    14.1830    24.4600     2.2190   -30.8490 
   70.5000    54.6340    14.2930    10.8550    14.0320    24.4320     2.2110   -31.3140 
   70.6250    50.3570    14.3350    10.8930    13.1670    24.4850     2.1790   -31.7030 
   70.7500    45.5230    14.3660    10.9380    12.8710    24.5890     2.1390   -31.9850 
   70.8750    43.3890    14.3500    10.9650    12.8070    24.7560     2.1110   -32.1250 
   71.0000    44.5100    14.2660    10.9530    12.6100    24.8730     2.1070   -32.1190 
   71.1250    46.0590    14.0970    10.8830    12.6280    24.9070     2.1250   -31.8990 
   71.2500    46.1020    13.8670    10.7580    12.7350    24.8900     2.1440   -31.4750 
   71.3750    45.9130    13.5790    10.5750    12.4880    24.8300     2.1520   -30.8670 
   71.5000    47.6820    13.2250    10.3260    11.9950    24.7270     2.1510   -30.0920 
   71.6250    51.0700    12.7940     9.9990    11.6220    24.7580     2.1540   -29.2460 
   71.7500    54.3870    12.3220     9.6260    11.1500    24.8420     2.1700   -28.4160 
   71.8750    56.2490    11.8660     9.2480    10.5290    24.8530     2.1920   -27.6410 
   72.0000    56.5480    11.4880     8.9100    10.3600    24.7410     2.2070   -26.9600 
   72.1250    56.1180    11.2450     8.6640    10.3460    24.7120     2.2000   -26.3860 
   72.2500    55.7160    11.1120     8.5080    10.3410    24.7890     2.1800   -25.9680 
   72.3750    56.3660    11.0490     8.4250    10.2220    24.8680     2.1610   -25.6680 
