~V
VERS. 2.00: Ver 2.00
~W
STRT.M 52.0000:
STOP.M 240.0000:
STEP.M 0.1250:
NULL. -999.2500:
UWI. F10646:
~C
DEPT.M :
GR.API :
RML.OHMM :
RI. :
RXO.OHMM :
CALI.CM :
DEN.GM/CC :
SP.MV :
~A
# ...
   63.2500    74.9860     6.9330     5.6070     6.5470    26.1590     2.3020   -17.9090 
   63.3750    74.9380     6.8500     5.4950     6.5320    26.2920     2.2890   -18.0940 
   63.5000    73.0460     7.0240     5.5990     6.2780    26.2960     2.2580   -18.2670 
   63.6250    69.2540     7.6800     6.0640     6.6670    26.2770     2.2100   -18.4060 
   63.7500    63.7050     9.0830     7.0490     7.5640    26.2690     2.1600   -18.5640 
   63.8750    57.8100    11.4600     8.6870     9.1870    26.1020     2.1410   -18.6880 
   64.0000    54.8850    14.7700    11.0490    12.8610    25.6530     2.2120   -18.7750 
   64.1250    55.8830    17.8880    13.5460    19.6160    25.1300     2.3670   -18.8780 
   64.2500    58.1550    19.5070    15.2330    26.4110    24.8940     2.5310   -18.9850 
   64.3750    59.3130    18.8150    15.2490    27.1240    24.9650     2.5960   -19.1230 
   64.5000    59.0020    16.0580    13.5200    20.6390    25.3790     2.5360   -19.2990 
   64.6250    60.2480    13.0150    11.3470    13.4540    26.1820     2.4320   -19.5110 
   64.7500    63.1920    10.7070     9.4770     9.9130    27.1040     2.3310   -19.7190 
   64.8750    63.9720     9.4520     8.1920     9.0670    27.8210     2.2570   -19.9790 
   65.0000    59.5240     9.1850     7.5670     9.0140    28.4390     2.2180   -20.3200 
   65.1250    54.4290     9.4390     7.3800     8.8540    29.2960     2.1990   -20.6450 
   65.2500    51.8440     9.9690     7.5090     8.7440    30.2540     2.1840   -20.9850 
   65.3750    51.4390    10.5760     7.8330     8.3880    30.8600     2.1640   -21.3730 
   65.5000    52.1320    11.0700     8.2310     7.4400    30.6660     2.1440   -21.7000 
   65.6250    53.1250    11.3490     8.5630     7.0690    29.7500     2.1290   -22.0080 
   65.7500    53.8440    11.3490     8.7270     8.6970    28.7900     2.1210   -22.3130 
   65.8750    53.1340    11.0730     8.6700    12.5440    28.6670     2.1140   -22.5280 
   66.0000    52.3050    10.6590     8.4230    11.9360    29.3630     2.0910   -22.6710 
   66.1250    52.8420    10.3850     8.1820    10.3430    29.9080     2.0480   -22.7640 
   66.2500    53.2530    10.4500     8.1170     9.5170    30.3710     1.9940   -22.8070 
   66.3750    52.5980    10.9410     8.3350     8.9480    30.4580     1.9620   -22.7500 
   66.5000    52.3310    11.8040     8.8650     8.2530    29.1520     2.0110   -22.6370 
   66.6250    53.5550    12.6630     9.4780     9.3750    26.8460     2.1330   -22.4760 
   66.7500    55.0510    13.1340     9.9020    13.8190    25.2860     2.2750   -22.2460 
   66.8750    56.2410    12.9560     9.9070    13.9690    25.0120     2.3510   -22.0190 
   67.0000    56.6120    12.1150     9.4040    11.1910    25.9100     2.3270   -21.8030 
   67.1250    56.2710    11.0850     8.6870     9.1210    27.0630     2.2660   -21.5650 
   67.2500    57.0450    10.1890     7.9860     8.4870    27.5470     2.2100   -21.3000 
   67.3750    59.4330     9.5690     7.4420     8.5100    27.1750     2.1800   -21.0630 
   67.5000    61.9840     9.2180     7.1060     8.7140    26.8600     2.1720   -20.8020 
   67.6250    61.4940     8.9660     6.8860     8.7770    27.1520     2.1610   -20.5300 
   67.7500    60.0370     8.7590     6.7290     8.5180    27.6790     2.1360   -20.3070 
   67.8750    60.9990     8.6190     6.6240     8.0370    28.0170     2.1060   -20.0580 
   68.0000    62.7690     8.5940     6.5980     7.6140    27.9170     2.0910   -19.7940 
   68.1250    62.6910     8.6290     6.6320     7.4970    27.3910     2.1000   -19.5920 
   68.2500    60.1650     8.6200     6.6710     7.7900    26.8400     2.1260   -19.3890 
   68.3750    57.6460     8.4620     6.6380     8.2460    26.6410     2.1480   -19.1810 
   68.5000    58.8520     8.0930     6.4530     8.1430    26.6200     2.1520   -19.0160 
   68.6250    63.9540     7.6290     6.1560     7.2340    26.3080     2.1520   -18.8220 
   68.7500    72.2700     7.1960     5.8210     6.2080    25.7600     2.1640   -18.6130 
   68.8750    80.1840     6.8920     5.5330     5.8160    25.2740     2.1910   -18.4440 
   69.0000    83.7150     6.7630     5.3540     5.8480    25.0990     2.2170   -18.2710 
   69.1250    83.3310     6.7260     5.2580     5.9490    25.0360     2.2300   -18.1250 
   69.2500    81.8290     6.6950     5.1920     6.0990    24.9970     2.2290   -18.0150 
   69.3750    81.7050     6.5870     5.0980     5.9600    24.9320     2.2290   -17.9520 
   69.5000    83.4080     6.3690     4.9380     5.6240    24.7800     2.2530   -17.9470 
   69.6250    88.3710     6.1400     4.7530     5.3070    24.5140     2.2940   -18.0320 
   69.7500    95.7470     6.0150     4.6090     5.1700    24.2980     2.3310   -18.2030 
   69.8750    98.6640     6.0830     4.5740     5.2800    24.4300     2.3470   -18.4230 
   70.0000    90.3840     6.4390     4.7310     5.4100    25.0750     2.3200   -18.7470 
   70.1250    77.4970     7.0380     5.0720     5.6720    25.7370     2.2550   -19.1320 
   70.2500    66.8510     7.8150     5.5660     6.3010    26.3100     2.1700   -19.5590 
   70.3750    60.1520     8.6430     6.1360     7.4760    26.7490     2.0870   -20.0180 
   70.5000    56.7190     9.3180     6.6420     8.9280    27.2780     2.0290   -20.5240 
   70.6250    54.5230     9.7100     6.9810     9.4780    27.5850     1.9990   -21.0140 
   70.7500    52.5060     9.7850     7.1180     9.4720    27.8030     1.9930   -21.4490 
   70.8750    51.3890     9.6170     7.0850     9.0450    28.1460     2.0070   -21.8820 
   71.0000    52.7580     9.3540     6.9570     8.7190    28.2930     2.0340   -22.2120 
   71.1250    55.6620     9.1410     6.8270     8.6070    28.0140     2.0630   -22.4590 
   71.2500    58.8110     9.0330     6.7340     8.5570    27.5940     2.0920   -22.7120 
   71.3750    62.4180     9.0410     6.6930     8.4740    27.2990     2.1190   -22.9210 
   71.5000    66.0960     9.1510     6.7120     8.4670    27.1490     2.1360   -23.0540 
   71.6250    66.4320     9.2980     6.7620     8.5850    26.7340     2.1460   -23.2180 
   71.7500    64.0520     9.4350     6.8160     8.7330    26.2510     2.1490   -23.3730 
   71.8750    64.1280     9.5280     6.8520     8.8110    25.9770     2.1460   -23.4970 
   72.0000    67.3040     9.5490     6.8500     8.8140    25.9700     2.1360   -23.6440 
   72.1250    67.5500     9.5230     6.8190     8.6950    26.0110     2.1270   -23.7630 
   72.2500    64.0640     9.4890     6.7800     8.6810    25.9650     2.1240   -23.8510 
   72.3750    62.2620     9.4860     6.7580     8.7880    25.8170     2.1300   -23.8950 
   72.5000    65.2410     9.5530     6.7800     8.8270    25.7330     2.1460   -23.9330 
   72.6250    66.9240     9.6650     6.8440     8.8100    25.7490     2.1660   -23.9180 
   72.7500    65.4320     9.7870     6.9410     8.8730    25.7720     2.1850   -23.8750 
   72.8750    62.0500     9.8760     7.0480     9.0830    25.7360     2.1960   -23.8300 
   73.0000    60.3890     9.8930     7.1300     9.2020    25.8600     2.1930   -23.7500 
   73.1250    60.3880     9.8460     7.1680     9.0700    26.1200     2.1790   -23.6420 
   73.2500    59.1100     9.7540     7.1630     8.9100    26.4680     2.1560   -23.5020 
   73.3750    56.9270     9.6470     7.1310     8.8420    26.8040     2.1290   -23.3560 
   73.5000    57.2020     9.5660     7.0970     8.7400    26.8820     2.1100   -23.1470 
   73.6250    60.1950     9.5360     7.0790     8.7290    26.6480     2.1030   -22.9540 
   73.7500    63.2960     9.5600     7.0800     8.9500    26.2930     2.1090   -22.7790 
   73.8750    63.4050     9.6160     7.0890     9.0590    26.0700     2.1220   -22.5830 
   74.0000    62.3710     9.6540     7.0840     8.9100    25.9950     2.1320   -22.4290 
   74.1250    62.1870     9.6330     7.0510     8.8440    25.9740     2.1340   -22.3000 
   74.2500    61.6790     9.5330     6.9830     8.9300    25.9980     2.1350   -22.1390 
   74.3750    60.8940     9.3830     6.8890     9.1200    26.0300     2.1450   -21.9930 
