~V
VERS. 2.00: Ver 2.00
~W
STRT.M 55.0000:
STOP.M 228.0000:
STEP.M 0.1250:
NULL. -999.2500:
UWI. F10621:
~C
DEPT.M :
GR.API :
RML.OHMM :
RI. :
RXO.OHMM :
CALI.CM :
DEN.GM/CC :
SP.MV :
~A
# ...
  201.2500    26.0570     4.3060     3.9170     4.2330    25.0420     2.3570    -8.5870 
  201.3750    26.6440     4.4050     4.0000     4.3070    25.0790     2.3420    -8.5920 
  201.5000    27.3370     4.4970     4.0830     4.3500    25.1280     2.3060    -8.5890 
  201.6250    27.6290     4.5680     4.1500     4.3300    25.2290     2.2610    -8.6380 
  201.7500    27.8300     4.6150     4.1970     4.2900    25.4710     2.2260    -8.7080 
  201.8750    28.8540     4.6370     4.2190     4.2670    25.7260     2.2150    -8.7580 
  202.0000    30.8250     4.6260     4.2090     4.2990    25.6900     2.2300    -8.7720 
  202.1250    31.7870     4.5620     4.1510     4.3870    25.2600     2.2690    -8.7680 
  202.2500    30.5650     4.4540     4.0520     4.4890    24.7750     2.3140    -8.7820 
  202.3750    29.3840     4.3190     3.9240     4.5650    24.4680     2.3510    -8.7720 
  202.5000    30.0700     4.1870     3.7880     4.4930    24.3410     2.3700    -8.7560 
  202.6250    31.3060     4.0940     3.6750     4.2040    24.2630     2.3590    -8.6990 
  202.7500    30.5650     4.0520     3.5980     3.8540    24.2060     2.3250    -8.6310 
  202.8750    28.7440     4.0560     3.5620     3.6330    24.2260     2.2870    -8.5960 
  203.0000    27.3620     4.0850     3.5550     3.4960    24.3950     2.2630    -8.5390 
  203.1250    26.8620     4.1150     3.5630     3.4260    24.5860     2.2680    -8.4700 
  203.2500    26.8590     4.1320     3.5710     3.4230    24.6760     2.2950    -8.4010 
  203.3750    27.1010     4.1380     3.5770     3.4580    24.7100     2.3270    -8.3300 
  203.5000    27.5560     4.1510     3.5880     3.5440    24.7240     2.3460    -8.2760 
  203.6250    28.2780     4.1940     3.6170     3.6610    24.7330     2.3400    -8.2390 
  203.7500    29.7230     4.2680     3.6680     3.7720    24.7980     2.3190    -8.2220 
  203.8750    31.4690     4.3610     3.7350     3.8810    25.0070     2.2970    -8.2050 
  204.0000    31.4920     4.4470     3.8020     4.0030    25.3400     2.2840    -8.1940 
  204.1250    29.3710     4.4920     3.8470     4.1130    25.5070     2.2860    -8.1580 
  204.2500    27.3730     4.4890     3.8610     4.1600    25.5340     2.2960    -8.0880 
  204.3750    26.8350     4.4450     3.8450     4.1630    25.3990     2.3060    -8.0200 
  204.5000    27.8530     4.3810     3.8070     4.1300    25.1700     2.3070    -7.9580 
  204.6250    30.7160     4.3220     3.7630     4.0950    25.2750     2.2950    -7.8990 
  204.7500    33.7270     4.2850     3.7250     4.0720    25.8010     2.2790    -7.8350 
  204.8750    34.2310     4.2710     3.7000     4.0440    26.2960     2.2730    -7.7610 
  205.0000    33.7340     4.2730     3.6880     4.0210    26.5720     2.2820    -7.7070 
  205.1250    33.6670     4.2790     3.6900     4.0840    26.4960     2.3020    -7.6770 
  205.2500    32.5040     4.2810     3.6990     4.2080    26.0900     2.3110    -7.6590 
  205.3750    29.6680     4.2800     3.7120     4.2840    25.5710     2.2960    -7.6470 
  205.5000    27.6560     4.2750     3.7250     4.2660    25.3570     2.2620    -7.6000 
  205.6250    28.1050     4.2610     3.7300     4.2030    26.0340     2.2330    -7.5500 
  205.7500    29.0370     4.2330     3.7240     4.1100    27.3680     2.2300    -7.5160 
  205.8750    30.8110     4.1920     3.7060     4.0470    28.2490     2.2530    -7.4680 
  206.0000    31.8430     4.1460     3.6770     4.0160    27.6870     2.2920    -7.3930 
  206.1250    29.5340     4.1060     3.6460     3.9880    26.6140     2.3210    -7.3160 
  206.2500    26.5920     4.0790     3.6210     3.9680    25.9790     2.3280    -7.2550 
  206.3750    27.2670     4.0670     3.6080     3.9530    25.6160     2.3160    -7.2080 
  206.5000    30.9350     4.0670     3.6070     3.9410    25.3870     2.2990    -7.1740 
  206.6250    32.2980     4.0770     3.6180     3.9260    25.2150     2.2900    -7.1210 
  206.7500    31.0460     4.0880     3.6320     3.9380    25.0770     2.2940    -7.0810 
  206.8750    30.7730     4.0950     3.6430     3.9600    24.9910     2.3090    -7.0400 
  207.0000    33.0250     4.0930     3.6480     3.9870    24.8510     2.3260    -7.0130 
  207.1250    34.7120     4.0790     3.6450     3.9950    24.6520     2.3360    -7.0170 
  207.2500    33.7230     4.0620     3.6370     4.0080    24.5180     2.3390    -7.0120 
  207.3750    31.6370     4.0470     3.6290     4.0090    24.5630     2.3370    -7.0240 
  207.5000    31.0120     4.0410     3.6260     3.9840    24.7900     2.3300    -7.0520 
  207.6250    32.7840     4.0470     3.6280     3.9450    24.9600     2.3150    -7.1310 
  207.7500    34.9390     4.0560     3.6300     3.9350    24.9090     2.2930    -7.1770 
  207.8750    35.5270     4.0620     3.6280     3.9590    24.8350     2.2670    -7.2320 
  208.0000    33.8020     4.0570     3.6180     3.9440    24.9750     2.2450    -7.3140 
  208.1250    30.9760     4.0400     3.5990     3.9140    25.4800     2.2370    -7.3710 
  208.2500    28.9300     4.0190     3.5780     3.8940    25.8330     2.2450    -7.4210 
  208.3750    28.6630     4.0000     3.5610     3.9020    25.6540     2.2650    -7.4480 
  208.5000    29.8500     3.9900     3.5570     3.9420    25.4140     2.2930    -7.4580 
  208.6250    30.8020     3.9970     3.5700     3.9960    25.2390     2.3230    -7.4540 
  208.7500    30.2500     4.0190     3.5980     4.0180    25.2130     2.3490    -7.4470 
  208.8750    28.8420     4.0510     3.6340     4.0190    25.0840     2.3700    -7.4190 
  209.0000    28.2160     4.0860     3.6690     4.0330    24.9360     2.3810    -7.3940 
  209.1250    29.0170     4.1080     3.6940     4.0690    24.8610     2.3840    -7.3930 
  209.2500    30.5750     4.1130     3.7040     4.1010    24.9220     2.3840    -7.3860 
  209.3750    31.7630     4.1010     3.6980     4.1190    24.9830     2.3850    -7.4090 
  209.5000    31.6770     4.0790     3.6810     4.1080    24.9940     2.3880    -7.4630 
  209.6250    30.3200     4.0570     3.6560     4.0720    25.1060     2.3930    -7.4820 
  209.7500    28.5510     4.0430     3.6340     4.0360    25.1110     2.3970    -7.5290 
  209.8750    28.0470     4.0410     3.6210     4.0100    24.9910     2.3990    -7.6290 
  210.0000    29.5400     4.0550     3.6220     4.0120    24.8300     2.4000    -7.7230 
  210.1250    31.5880     4.0920     3.6440     4.0670    24.8470     2.3990    -7.8130 
  210.2500    32.9650     4.1470     3.6850     4.1800    24.9190     2.3960    -7.9400 
  210.3750    34.6690     4.2170     3.7430     4.3140    24.8740     2.3860    -8.0810 
  210.5000    37.2400     4.3000     3.8160     4.4520    24.7380     2.3660    -8.2120 
  210.6250    38.4020     4.3920     3.9030     4.5920    24.6380     2.3400    -8.3460 
  210.7500    38.3670     4.4880     3.9960     4.7080    24.5990     2.3210    -8.4840 
  210.8750    38.3330     4.5800     4.0890     4.8150    24.5950     2.3180    -8.6010 
  211.0000    37.9040     4.6580     4.1730     4.9640    24.5730     2.3350    -8.6930 
  211.1250    38.0610     4.7030     4.2310     5.1470    24.4790     2.3640    -8.7650 
  211.2500    39.6870     4.7140     4.2600     5.2870    24.3770     2.3890    -8.8400 
  211.3750    41.8070     4.6980     4.2610     5.3210    24.3620     2.4000    -8.8540 
  211.5000    42.6170     4.6750     4.2480     5.1680    24.4030     2.4000    -8.8430 
  211.6250    41.1050     4.6680     4.2390     4.9620    24.4420     2.3960    -8.8220 
  211.7500    38.7920     4.6830     4.2430     4.8760    24.4080     2.3930    -8.7610 
  211.8750    37.6670     4.7050     4.2550     4.9080    24.3560     2.3920    -8.6790 
  212.0000    38.2950     4.7090     4.2590     4.9560    24.3100     2.3910    -8.6030 
  212.1250    38.5600     4.6630     4.2310     4.9330    24.2970     2.3860    -8.5060 
  212.2500    36.3270     4.5700     4.1680     4.8650    24.3050     2.3730    -8.3600 
  212.3750    33.0160     4.4500     4.0800     4.7130    24.3290     2.3550    -8.2450 
