~V
VERS. 2.00: Ver 2.00
~W
STRT.M 49.0000:
STOP.M 217.0000:
STEP.M 0.1250:
NULL. -999.2500:
UWI. F10685:
~C
DEPT.M :
SP.MV :
DEN.GM/CC :
GR.API :
RML.OHMM :
RI. :
RXO.OHMM :
CALI.CM :
~A
   49.0000  -999.2500  -999.2500    43.2910     5.1360     0.4430     1.5960    23.3830 
   49.1250  -999.2500  -999.2500    41.7230     4.8470     0.4110     1.6090    23.3280 
   49.2500  -999.2500  -999.2500    40.0520     4.4750     0.5040     1.6160    23.3650 
   49.3750  -999.2500  -999.2500    38.6880     4.0550     0.6490     1.6270    23.4910 
   49.5000  -999.2500  -999.2500    38.3730     3.6250     0.7650     1.6850    23.6450 
   49.6250  -999.2500  -999.2500    40.2670     3.2550     0.7820     1.9050    24.1600 
   49.7500  -999.2500  -999.2500    41.5230     3.0340     0.7220     2.6480    24.9570 
   49.8750  -999.2500  -999.2500    39.9420     2.9870     0.6170     6.2160    25.3670 
   50.0000  -999.2500  -999.2500    38.1270     3.0100     0.5030    96.3550    25.4810 
   50.1250  -999.2500  -999.2500    39.4140     2.8630     0.4130    92.4390    25.4280 
   50.2500  -999.2500  -999.2500    40.2790     2.4840     0.3610    19.0380    25.2660 
   50.3750  -999.2500  -999.2500    39.7660     1.9810     0.3720     4.5300    25.0690 
   50.5000  -999.2500  -999.2500    40.9220     1.5410     0.4460     2.4100    24.9960 
   50.6250  -999.2500  -999.2500    44.1480     1.4310     0.5280     1.7980    24.8530 
   50.7500  -999.2500  -999.2500    44.5220     1.6260     0.5540     1.4830    24.8140 
   50.8750  -999.2500  -999.2500    42.0730     1.9270     0.5150     1.3980    24.8730 
   51.0000  -999.2500  -999.2500    41.7670     2.1470     0.4580     1.4590    24.7650 
   51.1250  -999.2500  -999.2500    45.9690     2.3500     0.4370     1.6000    24.6640 
   51.2500  -999.2500  -999.2500    49.3560     2.7200     0.4620     1.7190    24.5470 
   51.3750  -999.2500     2.1500    48.4340     3.2570     0.5070     1.7860    24.3720 
   51.5000    46.8440     2.1500    45.0760     3.7950     0.5250     1.8100    24.1080 
   51.6250    46.8440     2.1590    45.0910     4.0320     0.4710     1.8610    23.9510 
   51.7500    46.8440     2.1700    46.6570     3.9150     0.3880     1.9170    23.8430 
   51.8750    46.5930     2.1790    46.3180     3.6320     0.3730     1.9650    23.8230 
   52.0000    45.9960     2.1850    43.9220     3.4330     0.4960     1.9900    23.8780 
   52.1250    45.3110     2.1890    43.5810     3.4530     0.7640     1.9680    23.9170 
   52.2500    44.7200     2.1930    44.7000     3.6060     1.0470     1.9200    23.9840 
   52.3750    44.3860     2.1950    44.4380     3.8880     1.2170     1.8310    24.1010 
   52.5000    44.4520     2.1980    42.7890     4.2760     1.2040     1.7160    24.4570 
   52.6250    45.1810     2.2000    41.9370     4.6620     1.0080     1.6660    24.7010 
   52.7500    46.6030     2.2010    41.8040     4.9160     0.7550     1.6560    24.7500 
   52.8750    48.6020     2.1990    42.1860     4.9590     0.5400     1.6720    24.7450 
   53.0000    50.9030     2.1900    42.6760     4.8620     0.4150     1.6860    24.7120 
   53.1250    53.1130     2.1740    43.4930     4.8410     0.3950     1.7040    24.4850 
   53.2500    55.0410     2.1630    45.5720     4.9520     0.4200     1.7190    24.0400 
   53.3750    56.5760     2.1660    49.6400     5.0360     0.4400     1.7280    23.1790 
   53.5000    57.7020     2.1880    53.2890     4.8690     0.4220     1.7210    22.4510 
   53.6250    58.3720     2.2250    51.9720     4.4160     0.3570     1.7060    22.0750 
   53.7500    58.5390     2.2610    46.3160     3.8430     0.2870     1.6940    22.1600 
   53.8750    58.2880     2.2870    42.2030     3.2270     0.2460     1.6790    22.4350 
   54.0000    57.7640     2.3010    43.1830     2.5910     0.2470     1.6680    22.2660 
   54.1250    57.1520     2.3120    46.9340     1.9950     0.2890     1.6630    21.9940 
   54.2500    56.6560     2.3360    47.9930     1.5940     0.3540     1.6690    22.0520 
   54.3750    56.3930     2.3810    46.2010     1.4870     0.4380     1.6790    22.5560 
   54.5000    56.4150     2.4470    43.7990     1.6310     0.5300     1.6770    22.9180 
   54.6250    56.7790     2.5190    42.4920     1.8520     0.6050     1.6540    22.7120 
   54.7500    57.4770     2.5720    41.3200     1.9080     0.6330     1.6300    22.5530 
   54.8750    58.3620     2.5940    39.5620     1.7630     0.5930     1.6090    22.5300 
   55.0000    59.3320     2.5910    37.8230     1.5750     0.4970     1.5940    22.5520 
   55.1250    60.3420     2.5840    38.6690     1.6590     0.3980     1.5070    22.5500 
   55.2500    61.2360     2.5830    41.4070     2.1020     0.3630     1.4950    22.3480 
   55.3750    61.8330     2.5810    41.7930     2.7770     0.4300     1.5900    21.9750 
   55.5000    61.9810     2.5680    38.4840     3.4290     0.5890     1.7030    21.7450 
   55.6250    61.6120     2.5320    36.0670     3.7900     0.7780     1.7690    21.8730 
   55.7500    60.9070     2.4790    37.1680     3.9910     0.8950     1.7610    22.3370 
   55.8750    60.0870     2.4200    39.4230     4.2430     0.8970     1.6770    23.2800 
   56.0000    59.3200     2.3690    40.1600     4.5690     0.8180     1.5250    24.4660 
   56.1250    58.6710     2.3360    39.7750     4.7340     0.7530     1.4080    25.0100 
   56.2500    58.2330     2.3170    39.6010     4.5940     0.7720     1.3900    25.2180 
   56.3750    58.0340     2.3100    40.2570     4.2160     0.8660     1.4700    24.7910 
   56.5000    57.9710     2.3100    41.3570     3.7640     0.9810     1.5380    23.9800 
   56.6250    58.0340     2.3080    41.7060     3.2990     1.0230     1.6020    23.6300 
   56.7500    58.2430     2.2960    42.4860     2.8210     0.9650     1.6610    23.5500 
   56.8750    58.5940     2.2660    45.0600     2.3290     0.8370     1.7220    23.5610 
   57.0000    59.1250     2.2220    48.9020     1.9070     0.6980     1.7900    23.5890 
   57.1250    59.7960     2.1740    51.1570     1.7200     0.6340     1.8490    23.4530 
   57.2500    60.5010     2.1370    52.2770     1.6920     0.6920     1.8740    23.1040 
   57.3750    61.2290     2.1190    52.7880     1.6500     0.8630     1.8780    22.7540 
   57.5000    62.0790     2.1160    53.2910     1.4800     1.0720     1.8710    22.5120 
   57.6250    62.9880     2.1240    53.3060     1.1630     1.2100     1.8470    22.4580 
   57.7500    63.6320     2.1330    52.0610     0.8170     1.2370     1.8050    22.8610 
   57.8750    63.9420     2.1390    49.7820     0.5580     1.1550     1.7720    23.2990 
   58.0000    63.9520     2.1470    47.4810     0.5730     0.9990     1.7610    23.5320 
   58.1250    63.7110     2.1590    47.9230     1.0360     0.8630     1.7820    23.5610 
   58.2500    63.3730     2.1730    52.2960     1.8160     0.8230     1.8210    23.4560 
   58.3750    62.9740     2.1830    56.5350     2.7080     0.8620     1.8710    23.2160 
   58.5000    62.4880     2.1850    57.0340     3.4510     0.9230     1.9080    22.8310 
   58.6250    62.0270     2.1830    53.6290     3.7680     0.9380     1.9380    22.5050 
   58.7500    61.6330     2.1960    51.6110     3.7030     0.8680     2.0040    22.2610 
   58.8750    61.0660     2.2400    51.2860     3.3330     0.7140     2.0650    22.5380 
   59.0000    60.0160     2.3240    50.6600     2.7420     0.5160     2.1050    23.1430 
   59.1250    58.1570     2.4410    50.0480     2.0630     0.3620     2.1060    23.6060 
   59.2500    55.4290     2.5500    48.9590     1.4760     0.2770     2.0620    23.8330 
   59.3750    51.6300     2.6080    49.6590     1.0290     0.2670     1.9750    23.9840 
   59.5000    46.6670     2.5930    55.7260     0.7590     0.3330     1.9180    24.1520 
   59.6250    40.3620     2.5100    66.6260     0.8130     0.5030     2.3680    24.5470 
   59.7500    33.1110     2.4050    75.6820     1.2560     0.8170     3.9020    24.5540 
   59.8750    25.4170     2.3090    80.1110     2.1180     1.3580     6.5310    24.4320 
   60.0000    17.7920     2.2400    81.7720     3.2520     2.2120     8.1730    24.3400 
   60.1250    10.6610     2.2150    84.2910     4.0020     3.3360     8.7180    24.5690 
