~V
VERS. 2.00: Ver 2.00
~W
STRT.M 59.0000:
STOP.M 270.0000:
STEP.M 0.1250:
NULL. -999.2500:
UWI. F10667:
~C
DEPT.M :
GR.API :
RML.OHMM :
RI. :
RXO.OHMM :
CALI.CM :
DEN.GM/CC :
SP.MV :
~A
# ...
  171.5000    59.2030    16.0060    16.4100    16.8420    23.4250     2.4340   -15.8450 
  171.6250    60.1870    15.5500    16.0990    16.6460    23.6520     2.4470   -15.7900 
  171.7500    61.8970    14.8210    15.4380    15.7510    23.8750     2.4580   -15.7440 
  171.8750    63.1090    14.0540    14.6110    14.2450    23.9730     2.4640   -15.7300 
  172.0000    63.4020    13.5020    13.8720    13.2030    24.0260     2.4650   -15.7230 
  172.1250    61.2960    13.4490    13.5330    12.0830    24.0710     2.4670   -15.7170 
  172.2500    59.5150    13.8830    13.6670    11.9710    24.0660     2.4750   -15.7260 
  172.3750    60.3590    14.6940    14.2510    13.6170    23.9390     2.4910   -15.7490 
  172.5000    62.8740    15.6550    15.1360    17.2070    23.8400     2.5100   -15.7780 
  172.6250    63.2730    16.4410    16.0690    19.7650    23.8060     2.5270   -15.8230 
  172.7500    61.8520    16.9040    16.8200    19.6020    23.7620     2.5370   -15.8690 
  172.8750    60.6590    17.0940    17.3280    16.9980    23.7160     2.5400   -15.9100 
  173.0000    59.0510    17.1990    17.6610    15.5410    23.6900     2.5400   -15.9360 
  173.1250    56.0840    17.4340    17.9410    15.7900    23.6990     2.5370   -15.9740 
  173.2500    53.5740    17.8190    18.2360    17.4990    23.7680     2.5320   -16.0030 
  173.3750    53.1920    18.2230    18.4990    19.3070    23.8800     2.5260   -16.0280 
  173.5000    53.7560    18.4400    18.6190    19.5180    23.9890     2.5200   -16.0520 
  173.6250    54.2280    18.2160    18.4310    18.7140    24.0450     2.5110   -16.0540 
  173.7500    55.2770    17.5880    17.9370    18.1690    24.0620     2.4990   -16.0610 
  173.8750    57.0090    16.7360    17.1980    18.1520    24.0650     2.4850   -16.0640 
  174.0000    58.4360    16.0010    16.3370    17.2570    24.0650     2.4740   -16.0710 
  174.1250    58.6760    15.5190    15.5220    14.7080    24.0660     2.4730   -16.0690 
  174.2500    58.3430    15.2150    14.8730    12.2990    24.0730     2.4790   -16.0580 
  174.3750    58.5870    14.9590    14.4470    11.2800    24.0880     2.4890   -16.0290 
  174.5000    59.2400    14.7110    14.2400    11.2010    24.1030     2.4970   -15.9790 
  174.6250    57.7120    14.4320    14.2050    11.3630    24.0930     2.4980   -15.9210 
  174.7500    55.2860    14.3540    14.2100    11.7580    24.0760     2.4950   -15.8780 
  174.8750    54.5360    14.2710    14.1820    12.3950    24.0630     2.4940   -15.8360 
  175.0000    54.6520    14.0880    14.1120    12.6490    24.0500     2.4960   -15.7960 
  175.1250    54.1820    13.9050    14.0790    12.6150    24.0240     2.5050   -15.7670 
  175.2500    54.4840    13.9040    14.1840    12.4090    24.0000     2.5150   -15.7590 
  175.3750    55.9500    14.1800    14.4850    12.4630    23.9640     2.5240   -15.7840 
  175.5000    56.5500    14.7210    14.9730    13.2320    23.9300     2.5290   -15.8390 
  175.6250    55.2240    15.4090    15.5610    14.7770    23.8950     2.5320   -15.9590 
  175.7500    55.4800    16.0160    16.0780    16.0430    23.8830     2.5320   -16.0710 
  175.8750    57.7730    16.3900    16.4090    16.6420    23.8800     2.5300   -16.1960 
  176.0000    60.5920    16.4760    16.5170    16.1130    23.8800     2.5250   -16.3510 
  176.1250    61.5730    16.2930    16.4250    15.7290    23.8800     2.5150   -16.5300 
  176.2500    60.1280    15.9970    16.2470    15.4140    23.8800     2.5050   -16.7210 
  176.3750    57.3650    15.6760    16.0290    16.0260    23.8750     2.4970   -16.9300 
  176.5000    55.4970    15.3770    15.7730    16.5900    23.8630     2.4930   -17.1630 
  176.6250    55.3030    15.1160    15.4470    16.4410    23.8380     2.4950   -17.3950 
  176.7500    55.5220    14.8910    15.0640    14.9080    23.8270     2.5000   -17.6880 
  176.8750    54.8920    14.7500    14.6960    14.0190    23.8190     2.5060   -18.0040 
  177.0000    54.2460    14.8120    14.4880    14.4410    23.8030     2.5150   -18.3470 
  177.1250    54.6690    15.3500    14.7490    15.2250    23.7570     2.5280   -18.7670 
  177.2500    56.4180    16.5160    15.6650    15.8640    23.6970     2.5390   -19.2050 
  177.3750    59.2340    18.4340    17.3890    18.1040    23.6660     2.5380   -19.6980 
  177.5000    61.5420    21.0580    19.9090    22.9520    23.7270     2.5220   -20.1720 
  177.6250    62.6480    24.0160    22.9310    36.0480    23.7170     2.4890   -20.6310 
  177.7500    63.1190    26.5190    25.6940    36.3760    23.6060     2.4450   -21.0810 
  177.8750    62.9510    27.9660    27.5650    30.0030    23.6170     2.3980   -21.4720 
  178.0000    63.7230    28.1700    28.2360    30.1630    23.8180     2.3510   -21.7890 
  178.1250    69.2830    27.3540    27.7570    30.5530    24.0850     2.3110   -22.0290 
  178.2500    76.4240    26.1870    26.7930    35.2180    24.2110     2.2840   -22.1830 
  178.3750    78.2360    24.9130    25.6870    37.8290    24.1900     2.2780   -22.2410 
  178.5000    73.0610    23.5930    24.5950    35.8220    24.0980     2.2920   -22.2290 
  178.6250    67.1300    22.3530    23.6470    31.9640    24.0090     2.3170   -22.1050 
  178.7500    64.8750    21.4530    23.0050    28.6100    24.0010     2.3370   -21.8840 
  178.8750    64.4640    21.1020    22.8170    24.4970    24.0860     2.3440   -21.5760 
  179.0000    63.2990    21.2090    22.9890    21.3540    24.1520     2.3400   -21.2040 
  179.1250    61.5990    21.0650    22.8500    23.1780    24.1420     2.3400   -20.7320 
  179.2500    60.0230    19.8110    21.5810    30.6160    24.0710     2.3580   -20.1960 
  179.3750    58.7130    17.1540    18.8700    41.1580    23.9630     2.3950   -19.6150 
  179.5000    58.2500    13.6020    15.1800    33.6440    23.8330     2.4380   -18.9820 
  179.6250    58.0840    10.2250    11.5620    16.7550    23.7800     2.4640   -18.3720 
  179.7500    56.4000     7.7500     8.7620     7.5450    23.7680     2.4640   -17.8130 
  179.8750    52.9960     6.3880     6.9440     5.1070    23.7790     2.4440   -17.3320 
  180.0000    50.1550     6.0720     5.9960     4.6950    23.7880     2.4190   -16.9370 
  180.1250    49.4730     6.1030     5.7950     4.8200    23.7930     2.4030   -16.6400 
  180.2500    49.7150     6.1740     5.9940     5.1500    23.8110     2.4000   -16.4400 
  180.3750    49.2800     6.3560     6.3850     5.5510    23.8560     2.4110   -16.3500 
  180.5000    47.3450     6.6970     6.7880     5.9590    23.9070     2.4280   -16.3510 
  180.6250    45.3150     6.9980     7.0540     6.2090    23.9320     2.4460   -16.4180 
  180.7500    46.4210     7.1230     7.1590     6.3050    23.9400     2.4580   -16.5130 
  180.8750    51.1520     7.0700     7.1210     6.2630    23.9410     2.4650   -16.6120 
  181.0000    56.4810     6.8870     6.9840     6.1240    23.9410     2.4680   -16.7110 
  181.1250    57.3150     6.6510     6.8000     6.0950    23.9450     2.4720   -16.8260 
  181.2500    54.6890     6.4630     6.6270     6.1470    23.9620     2.4740   -16.9250 
  181.3750    52.5060     6.3890     6.5010     6.2620    24.0020     2.4710   -17.0060 
  181.5000    52.7150     6.4730     6.4420     6.5630    24.0550     2.4570   -17.1200 
  181.6250    54.5650     6.7460     6.4760     6.9350    24.1050     2.4340   -17.2390 
  181.7500    57.5390     7.1530     6.6000     7.2680    24.1520     2.4090   -17.3610 
  181.8750    61.9530     7.6530     6.8270     7.4950    24.1950     2.3880   -17.5250 
  182.0000    65.9420     8.2050     7.1670     7.8390    24.2250     2.3770   -17.6880 
  182.1250    66.1980     8.7680     7.6290     8.8100    24.2340     2.3780   -17.8390 
  182.2500    65.2400     9.3100     8.1680     9.9480    24.2360     2.3860   -17.9780 
  182.3750    65.9990     9.8090     8.7360    11.0110    24.2360     2.3960   -18.0940 
  182.5000    68.2730    10.2470     9.2760    11.9170    24.2360     2.4040   -18.1640 
  182.6250    69.3090    10.5820     9.6930    11.8140    24.2360     2.4060   -18.2020 
