~V
VERS. 2.00: Ver 2.00
~W
STRT.M 55.0000:
STOP.M 226.0000:
STEP.M 0.1250:
NULL. -999.2500:
UWI. F10689:
~C
DEPT.M :
DEN.GM/CC :
GR.API :
RML.OHMM :
RI. :
RXO.OHMM :
CALI.CM :
SP.MV :
~A
# ...
  156.2500     2.3570    68.3870    24.7560    21.6480    23.9760    24.2530   -22.1580 
  156.3750     2.3470    69.7300    24.2490    20.5360    20.6470    24.2550   -22.6510 
  156.5000     2.3310    69.3680    25.9090    20.9740    17.6590    24.2560   -23.1770 
  156.6250     2.3110    66.5350    30.9140    24.0110    20.8730    24.2530   -23.6810 
  156.7500     2.2910    63.3220    39.3270    29.9680    34.6720    24.2630   -24.1270 
  156.8750     2.2750    61.9670    51.1440    39.0950    56.3780    24.2680   -24.4760 
  157.0000     2.2640    61.7500    65.1490    50.6340    72.4590    24.2670   -24.7280 
  157.1250     2.2570    60.4420    77.2480    61.6340    73.4240    24.2590   -24.8800 
  157.2500     2.2520    58.7350    83.4490    68.5570    73.4610    24.2530   -24.9750 
  157.3750     2.2490    58.2030    83.4240    70.3710    72.8650    24.2480   -24.9830 
  157.5000     2.2460    59.7380    79.8300    68.5710    72.8270    24.2490   -24.8740 
  157.6250     2.2460    62.2070    74.4300    64.7040    69.9280    24.2600   -24.6270 
  157.7500     2.2530    64.6080    66.8240    58.9950    65.5840    24.2630   -24.2970 
  157.8750     2.2680    65.0890    56.0090    50.5200    59.9290    24.2660   -23.9590 
  158.0000     2.2900    63.6960    42.6830    39.4640    55.2530    24.2670   -23.6110 
  158.1250     2.3170    63.6300    29.8390    28.1940    47.3760    24.2580   -23.2490 
  158.2500     2.3460    66.3610    19.9120    19.1830    33.1750    24.2460   -22.8660 
  158.3750     2.3730    68.3330    13.3360    13.0080    17.3870    24.1810   -22.4330 
  158.5000     2.3940    67.7010     9.4850     9.2140     8.4640    24.0550   -21.9630 
  158.6250     2.4030    66.5240     7.6450     7.2320     6.4270    24.0290   -21.5010 
  158.7500     2.4000    65.0990     6.7440     6.1550     6.1830    24.0070   -21.0410 
  158.8750     2.3880    61.4110     6.3400     5.6260     5.8660    23.9540   -20.5360 
  159.0000     2.3720    55.8260     6.1320     5.3950     5.1320    23.7550   -19.9910 
  159.1250     2.3580    51.7090     5.9390     5.2930     4.6130    23.7210   -19.4530 
  159.2500     2.3460    49.0640     5.7290     5.2190     4.3990    23.7110   -18.9320 
  159.3750     2.3350    46.9250     5.5510     5.1710     4.3450    23.7110   -18.4490 
  159.5000     2.3240    46.1710     5.4380     5.1640     4.3230    23.7110   -18.0020 
  159.6250     2.3190    46.8430     5.3930     5.2030     4.3160    23.7110   -17.5840 
  159.7500     2.3210    48.3220     5.3840     5.2570     4.2680    23.7110   -17.2300 
  159.8750     2.3290    50.2950     5.3970     5.3000     4.2320    23.7110   -16.9630 
  160.0000     2.3380    52.4420     5.4160     5.3080     4.2550    23.7110   -16.7990 
  160.1250     2.3410    54.8410     5.4050     5.2480     4.3250    23.7110   -16.7030 
  160.2500     2.3370    56.4820     5.3430     5.1180     4.3610    23.7110   -16.6770 
  160.3750     2.3270    57.4350     5.2280     4.9290     4.2810    23.7100   -16.7470 
  160.5000     2.3150    58.2100     5.0820     4.7060     4.0950    23.7050   -16.9270 
  160.6250     2.3050    59.1750     4.9480     4.4880     3.9690    23.6760   -17.1840 
  160.7500     2.3030    60.1120     4.8690     4.3110     3.8780    23.6320   -17.4920 
  160.8750     2.3100    61.9290     4.8770     4.2010     3.9520    23.6230   -17.8090 
  161.0000     2.3240    64.6630     5.0020     4.1800     4.1780    23.6020   -18.1300 
  161.1250     2.3440    65.7200     5.3020     4.2890     4.3740    23.5340   -18.4730 
  161.2500     2.3630    65.7130     5.7710     4.5220     4.5620    23.6140   -18.8230 
  161.3750     2.3780    66.0250     6.3990     4.8760     4.9680    24.0770   -19.1860 
  161.5000     2.3860    66.3570     7.1360     5.3340     5.8050    24.2460   -19.5210 
  161.6250     2.3850    65.6520     7.8870     5.8660     6.8300    24.2690   -19.8510 
  161.7500     2.3770    67.3450     8.5250     6.3910     7.7160    24.2690   -20.1560 
  161.8750     2.3640    73.7250     8.9530     6.8140     7.9890    24.2690   -20.4390 
  162.0000     2.3510    79.8130     9.1430     7.0600     7.9370    24.2690   -20.6690 
  162.1250     2.3420    78.0370     9.1760     7.1180     8.3870    24.2690   -20.8400 
  162.2500     2.3430    73.4520     9.2670     7.1530     8.9710    24.2690   -20.9340 
  162.3750     2.3490    72.1480     9.5800     7.3250     8.2720    24.2690   -20.9510 
  162.5000     2.3520    73.0320    10.2100     7.7500     7.5960    24.2690   -20.9250 
  162.6250     2.3440    70.6950    11.1600     8.4730     8.5280    24.2690   -20.8430 
  162.7500     2.3290    67.8060    12.1320     9.2900    11.4300    24.2690   -20.7240 
  162.8750     2.3140    66.7120    12.7460     9.9260    14.8090    24.2690   -20.6000 
  163.0000     2.3070    67.2720    12.6370    10.0890    13.8860    24.2680   -20.4920 
  163.1250     2.3110    69.6250    11.6460     9.5910    10.7770    24.2640   -20.4110 
  163.2500     2.3190    72.9790    10.3640     8.7750     8.5280    24.2600   -20.3300 
  163.3750     2.3260    75.2650     9.3050     7.9750     7.6390    24.2680   -20.2040 
  163.5000     2.3300    74.2920     8.7530     7.4140     7.5180    24.2690   -20.0400 
  163.6250     2.3320    72.8020     8.7910     7.2240     7.7120    24.2680   -19.8890 
  163.7500     2.3340    72.4150     9.1490     7.3020     8.2110    24.2650   -19.7530 
  163.8750     2.3360    73.1970     9.6120     7.5460     9.2340    24.2610   -19.6180 
  164.0000     2.3380    73.9700     9.9940     7.8340    10.1540    24.2450   -19.4790 
  164.1250     2.3380    72.3210    10.1270     8.0240     9.2110    24.1340   -19.3550 
  164.2500     2.3380    70.8250     9.9900     8.0440     9.4650    24.0530   -19.2740 
  164.3750     2.3370    70.9200     9.6070     7.8800     9.5790    23.9570   -19.2480 
  164.5000     2.3350    71.7430     9.1010     7.5940     8.3270    23.8780   -19.2650 
  164.6250     2.3310    71.7770     8.7020     7.3240     7.1980    23.8090   -19.2740 
  164.7500     2.3250    71.6730     8.5490     7.1840     6.8040    23.7060   -19.2860 
  164.8750     2.3220    72.7260     8.6610     7.2070     6.9670    23.6540   -19.2990 
  165.0000     2.3240    73.3110     8.9450     7.3600     7.5210    23.6450   -19.3080 
  165.1250     2.3310    71.7000     9.1730     7.5250     8.2350    23.6450   -19.2760 
  165.2500     2.3390    69.5120     9.1300     7.5500     8.6640    23.6450   -19.2440 
  165.3750     2.3470    69.3220     8.7690     7.3740     8.3020    23.6450   -19.2160 
  165.5000     2.3570    71.8850     8.2450     7.0550     7.3250    23.6450   -19.1860 
  165.6250     2.3720    75.1750     7.8720     6.7670     6.7170    23.6450   -19.1480 
  165.7500     2.3890    78.8490     7.8380     6.6620     6.4050    23.6450   -19.1060 
  165.8750     2.4010    81.8900     8.1820     6.7960     6.4700    23.6400   -19.0560 
  166.0000     2.4030    81.9080     8.8050     7.1510     7.0810    23.6160   -19.0150 
  166.1250     2.3920    78.6130     9.4500     7.6140     8.6890    23.5670   -18.9770 
  166.2500     2.3740    77.2010     9.8020     7.9600    10.1390    23.5590   -18.9320 
  166.3750     2.3560    79.7120     9.7090     8.0300     9.3320    23.5550   -18.8930 
  166.5000     2.3430    83.4920     9.2200     7.7850     7.9670    23.5460   -18.8620 
  166.6250     2.3340    84.2190     8.5410     7.3050     7.2980    23.4930   -18.8240 
  166.7500     2.3320    81.8610     7.9860     6.8170     6.6440    23.4690   -18.7860 
  166.8750     2.3410    80.0390     7.7820     6.4990     6.0980    23.4660   -18.7620 
  167.0000     2.3650    79.5740     8.0930     6.5000     5.9210    23.4970   -18.7400 
  167.1250     2.4000    75.6330     9.1610     7.0200     6.3440    23.6530   -18.7330 
  167.2500     2.4230    68.6410    10.9890     8.1020     7.7480    23.8820   -18.7250 
  167.3750     2.4190    62.7430    13.5880     9.8220    11.1490    24.1050   -18.7080 
