~V
VERS. 2.00: Ver 2.00
~W
STRT.M 52.0000:
STOP.M 240.0000:
STEP.M 0.1250:
NULL. -999.2500:
UWI. F10646:
~C
DEPT.M :
GR.API :
RML.OHMM :
RI. :
RXO.OHMM :
CALI.CM :
DEN.GM/CC :
SP.MV :
~A
# ...
  130.7500    69.0330    14.5090    11.4050    12.3730    23.3720     2.2140   -15.3030 
  130.8750    60.7730    15.8760    12.6520    12.1350    23.5790     2.1960   -15.0770 
  131.0000    54.6490    16.8210    13.6140    11.7250    23.9040     2.1830   -14.8480 
  131.1250    53.7900    17.6310    14.4050    11.9070    24.1170     2.1750   -14.6160 
  131.2500    55.4770    18.6190    15.2370    12.4400    24.1920     2.1770   -14.3930 
  131.3750    54.2660    19.9600    16.2950    13.1110    24.2670     2.1880   -14.2220 
  131.5000    49.9720    21.3770    17.5080    13.2310    24.4420     2.1930   -14.0870 
  131.6250    48.1520    21.9930    18.2410    13.3080    24.5890     2.1810   -13.9720 
  131.7500    50.1560    20.9730    17.7410    13.4300    24.7020     2.1560   -13.9400 
  131.8750    53.8440    18.1730    15.7500    12.4030    24.7460     2.1400   -14.0270 
  132.0000    59.5910    14.4820    12.8900     9.6880    24.5370     2.1600   -14.1860 
  132.1250    68.9320    11.3150    10.2920     7.0260    24.1370     2.2190   -14.3840 
  132.2500    77.9220     9.2310     8.4090     5.9340    23.8940     2.2950   -14.6140 
  132.3750    80.7700     8.2440     7.3040     6.3580    23.7170     2.3550   -14.8390 
  132.5000    77.1940     8.1930     6.9450     7.7340    23.5950     2.3630   -15.0430 
  132.6250    74.2250     8.5890     7.0280     8.6300    23.5090     2.3390   -15.2320 
  132.7500    74.1780     9.1380     7.3670     8.9630    23.4710     2.3000   -15.3670 
  132.8750    73.7740     9.6470     7.7990     8.9630    23.5800     2.2510   -15.4190 
  133.0000    71.3360    10.2290     8.3150     9.0060    23.8250     2.1990   -15.4130 
  133.1250    68.9190    11.2950     9.1010     9.1930    24.0520     2.1620   -15.3640 
  133.2500    65.8870    13.2770    10.4430     9.7230    24.0690     2.1720   -15.2550 
  133.3750    61.2530    16.4560    12.6170    11.9400    23.9540     2.2600   -15.0950 
  133.5000    57.5550    20.8140    15.8520    20.0560    23.9510     2.4090   -14.9090 
  133.6250    57.0650    25.1250    19.4160    35.0760    23.8160     2.5120   -14.6920 
  133.7500    57.6750    27.8200    22.0510    38.5120    23.6530     2.5030   -14.4340 
  133.8750    56.4440    27.7870    22.5890    22.4400    23.5510     2.4080   -14.1730 
  134.0000    54.2580    25.3080    20.9380    15.0500    23.5230     2.2930   -13.8880 
  134.1250    54.1440    22.5230    18.7630    12.8340    23.6410     2.2030   -13.6150 
  134.2500    56.7850    20.5610    17.0160    12.4290    23.8800     2.1560   -13.4200 
  134.3750    60.4890    19.7090    16.0310    12.4000    24.2480     2.1450   -13.2520 
  134.5000    61.4030    19.7650    15.7960    12.6470    24.4140     2.1560   -13.0430 
  134.6250    59.8170    20.1570    15.9280    12.8670    24.3700     2.1710   -12.8490 
  134.7500    57.8320    20.6410    16.2340    12.9720    24.1000     2.1840   -12.7240 
  134.8750    57.8050    21.0900    16.5930    12.9310    23.6990     2.1950   -12.5680 
  135.0000    58.8760    21.4390    16.9340    12.6420    23.5790     2.2020   -12.3550 
  135.1250    57.6940    21.7010    17.2280    12.7330    23.6350     2.2030   -12.1380 
  135.2500    54.8460    21.8820    17.4490    13.1520    23.7590     2.1930   -11.9260 
  135.3750    54.1520    21.9500    17.5470    13.5800    23.9010     2.1700   -11.7630 
  135.5000    58.1040    21.7970    17.4230    13.3750    24.1330     2.1370   -11.6730 
  135.6250    62.6600    21.3690    17.0630    12.9840    24.2620     2.1060   -11.6410 
  135.7500    66.3720    20.6180    16.4650    12.4530    24.2720     2.0890   -11.6820 
  135.8750    68.2130    19.5550    15.6490    11.7660    24.1060     2.0940   -11.8050 
  136.0000    67.7430    18.2550    14.6590    11.0230    23.7350     2.1210   -12.0170 
  136.1250    65.8100    16.9390    13.6320    10.3730    23.4910     2.1530   -12.3030 
  136.2500    64.4480    15.7840    12.6900     9.7330    23.3840     2.1760   -12.6110 
  136.3750    65.9300    14.9490    11.9550     9.1240    23.3590     2.1840   -12.8920 
  136.5000    70.0220    14.6480    11.6010     8.9010    23.5410     2.1780   -13.1110 
  136.6250    72.9510    14.8640    11.6390     9.0750    23.8800     2.1680   -13.2730 
  136.7500    70.5540    15.5890    12.0740     9.4700    24.1200     2.1610   -13.3530 
  136.8750    64.6900    16.7710    12.8860    10.0960    24.3010     2.1540   -13.3370 
  137.0000    60.7830    18.3670    14.0830    10.9840    24.4800     2.1460   -13.2720 
  137.1250    58.8330    20.1640    15.5240    12.0560    24.5890     2.1380   -13.1730 
  137.2500    56.6490    21.9690    17.0740    13.0120    24.6290     2.1330   -13.0320 
  137.3750    54.0600    23.5020    18.5130    13.9230    24.6370     2.1340   -12.8800 
  137.5000    53.3670    24.2290    19.3900    14.7320    24.6480     2.1380   -12.8150 
  137.6250    53.7960    23.9370    19.4470    15.2270    24.6790     2.1430   -12.7940 
  137.7500    56.4090    22.6550    18.6440    15.2770    24.7000     2.1460   -12.7680 
  137.8750    62.2150    20.7390    17.2380    14.6710    24.6100     2.1490   -12.8000 
  138.0000    65.4270    18.7550    15.6650    13.0050    24.4710     2.1620   -12.9070 
  138.1250    65.1210    17.1860    14.3250    11.1770    24.3590     2.1890   -13.0020 
  138.2500    65.0370    16.2330    13.3970    10.4630    24.2800     2.2270   -13.0640 
  138.3750    66.3750    15.9270    12.9550    10.6480    24.2100     2.2600   -13.0990 
  138.5000    65.4350    16.2790    13.0900    10.7200    24.1740     2.2640   -13.0930 
  138.6250    63.2490    17.0480    13.6780    10.7180    24.1880     2.2410   -13.0500 
  138.7500    62.5770    18.0870    14.6290    10.8640    24.2140     2.2040   -12.9620 
  138.8750    61.2250    19.2800    15.8270    11.3770    24.2060     2.1700   -12.8120 
  139.0000    57.7830    20.5640    17.1720    12.3910    24.1930     2.1550   -12.6340 
  139.1250    55.6200    21.8550    18.5450    13.4270    24.2550     2.1580   -12.4950 
  139.2500    55.2910    22.9920    19.8200    14.1280    24.3770     2.1750   -12.4160 
  139.3750    54.8730    23.6620    20.7440    14.9010    24.5130     2.1910   -12.3790 
  139.5000    52.8690    23.2650    20.7560    15.5920    24.5850     2.1930   -12.3900 
  139.6250    52.0610    21.6690    19.6490    15.4500    24.6990     2.1840   -12.4650 
  139.7500    54.9860    19.0170    17.5020    14.1840    24.7760     2.1760   -12.6030 
  139.8750    60.7360    15.8250    14.7760    12.3240    24.6820     2.1830   -12.8120 
  140.0000    66.7190    12.8640    12.1480    10.0020    24.3730     2.2180   -12.9800 
  140.1250    72.4400    10.6140    10.0550     8.3820    24.1370     2.2720   -13.0170 
  140.2500    78.6690     9.2320     8.6460     7.7090    23.9730     2.3290   -12.9620 
  140.3750    81.6760     8.7290     7.9550     7.5240    23.8260     2.3730   -12.8370 
  140.5000    79.6190     9.2530     8.1310     7.3250    23.7250     2.3870   -12.5290 
  140.6250    76.3850    10.7120     9.1050     7.8190    23.5760     2.3700   -12.0430 
  140.7500    71.5880    13.1540    10.9420     9.0850    23.4330     2.3250   -11.4620 
  140.8750    64.4810    16.4950    13.6480    11.8020    23.6560     2.2630   -10.8170 
  141.0000    57.0010    20.3360    17.0660    13.4760    24.3540     2.2000   -10.1450 
  141.1250    52.3010    23.7630    20.4220    14.4660    24.7810     2.1560    -9.5320 
  141.2500    49.4460    26.0530    22.9480    15.4630    24.7660     2.1440    -9.0150 
  141.3750    48.4900    26.9500    24.1900    16.8910    24.6440     2.1600    -8.6380 
  141.5000    49.3250    26.6710    24.1260    16.2460    24.8250     2.1850    -8.4610 
  141.6250    48.8480    26.0290    23.4730    14.4140    25.3570     2.1990    -8.4640 
  141.7500    47.0680    25.5170    22.6980    12.7460    25.9710     2.1900    -8.6500 
  141.8750    46.7110    25.5580    22.2030    12.2370    26.2080     2.1500    -8.9920 
