~V
VERS. 2.00: Ver 2.00
~W
STRT.M 57.0000:
STOP.M 242.0000:
STEP.M 0.1250:
NULL. -999.2500:
UWI. F10636:
~C
DEPT.M :
GR.API :
RML.OHMM :
RI. :
RXO.OHMM :
CALI.CM :
DEN.GM/CC :
SP.MV :
~A
# ...
  225.7500    46.4500     6.2810     5.3620     5.6550    24.2940     2.3290   -10.4030 
  225.8750    44.3540     5.9600     5.2390     4.9860    23.7800     2.3060   -10.4490 
  226.0000    42.5220     5.6730     5.1050     4.5490    23.3930     2.3000   -10.5710 
  226.1250    42.8340     5.5460     5.0080     4.6470    23.2920     2.3200   -10.8090 
  226.2500    48.6660     5.6220     5.0040     4.9520    23.3800     2.3540   -11.1390 
  226.3750    59.0860     5.9120     5.1400     5.3890    23.5330     2.3850   -11.5330 
  226.5000    71.7840     6.3810     5.4330     6.1150    23.7010     2.3970   -11.9810 
  226.6250    83.2200     6.9330     5.8420     6.9660    23.8500     2.3820   -12.4530 
  226.7500    89.0750     7.3920     6.2240     8.2000    23.9600     2.3560   -12.9090 
  226.8750    90.7640     7.6310     6.4530     8.2630    24.0160     2.3350   -13.3330 
  227.0000    92.2910     7.6090     6.4650     7.4450    24.0250     2.3300   -13.7150 
  227.1250    92.7370     7.3900     6.2850     6.8010    24.0180     2.3420   -14.0640 
  227.2500    89.6200     7.1710     6.0860     6.6700    24.0170     2.3580   -14.4130 
  227.3750    85.9940     7.0870     5.9990     6.7700    24.0110     2.3690   -14.7990 
  227.5000    86.6300     7.2220     6.1050     7.0720    23.9860     2.3720   -15.2400 
  227.6250    90.2530     7.6390     6.4410     7.7250    23.9360     2.3650   -15.7620 
  227.7500    92.3120     8.2420     6.9070     8.7850    23.8840     2.3530   -16.3330 
  227.8750    91.6970     8.9020     7.4040    10.5630    23.8470     2.3400   -16.8990 
  228.0000    88.8930     9.4520     7.8240    12.8430    23.8370     2.3280   -17.4010 
  228.1250    86.7390     9.6850     8.0580    13.1200    23.8580     2.3190   -17.7460 
  228.2500    86.8650     9.6300     8.1320    11.3740    23.8910     2.3130   -17.9140 
  228.3750    87.3010     9.4290     8.1290     9.3830    23.9210     2.3110   -17.9170 
  228.5000    87.2770     9.2830     8.1660     8.7220    23.9390     2.3130   -17.7860 
  228.6250    87.4750     9.3930     8.3470     9.3020    23.9580     2.3220   -17.4580 
  228.7500    87.1780     9.7260     8.6300    10.2160    23.9840     2.3370   -16.9620 
  228.8750    87.3880    10.1240     8.8900    11.6910    24.0030     2.3550   -16.3470 
  229.0000    89.1350    10.3130     8.9550    13.2350    23.9900     2.3690   -15.6430 
  229.1250    90.7590     9.9620     8.6450    11.2910    23.9240     2.3690   -14.8700 
  229.2500    89.3980     9.1720     8.0530     8.5560    23.8350     2.3570   -14.0900 
  229.3750    87.8480     8.2070     7.3360     6.8050    23.7680     2.3400   -13.3190 
  229.5000    88.5870     7.3590     6.6660     6.0540    23.7520     2.3270   -12.5490 
  229.6250    90.4880     6.8580     6.1870     5.8010    23.7590     2.3270   -11.8410 
  229.7500    91.9710     6.6370     5.8990     5.8090    23.7270     2.3350   -11.2400 
  229.8750    94.3630     6.5740     5.7740     5.9960    23.6520     2.3410   -10.7670 
  230.0000    96.3430     6.5740     5.7740     6.2170    23.5770     2.3350   -10.4250 
  230.1250    96.3250     6.6170     5.8710     6.3120    23.5540     2.3150   -10.2280 
  230.2500    96.0780     6.6690     6.0140     6.3230    23.5730     2.2930   -10.1200 
  230.3750    95.3370     6.7440     6.1610     6.3780    23.6100     2.2780   -10.0710 
  230.5000    93.3790     6.8650     6.2660     6.4450    23.6400     2.2780   -10.0830 
  230.6250    91.4900     7.0530     6.2740     6.6040    23.6480     2.2920   -10.1590 
  230.7500    92.2890     7.1280     6.1850     6.5480    23.6440     2.3100   -10.2330 
  230.8750    94.8420     7.1040     6.0160     6.2800    23.6390     2.3260   -10.3060 
  231.0000    94.9480     7.0010     5.8050     6.0650    23.6320     2.3350   -10.3880 
  231.1250    93.3340     6.8170     5.6310     5.8980    23.6120     2.3300   -10.5330 
  231.2500    93.3450     6.7400     5.5880     5.6310    23.5790     2.3140   -10.7120 
  231.3750    95.0410     6.9340     5.7730     5.5080    23.5430     2.2940   -10.9180 
  231.5000    96.1980     7.5830     6.2700     5.9940    23.5220     2.2850   -11.1210 
  231.6250    94.7580     8.8190     7.1520     8.1490    23.5400     2.3040   -11.2980 
  231.7500    94.7580    10.2780     8.2090    12.8830    23.5790     2.3430   -11.4680 
  231.8750    94.7580    11.3940     9.1160    18.3410    23.5870     2.3840   -11.5840 
  232.0000    94.7580    11.5760     9.5000    19.2570    23.5240     2.4060   -11.6210 
  232.1250    94.7580    10.5790     9.0800    13.3440    23.4190     2.3970   -11.5140 
  232.2500    94.7580     9.1480     8.1950     9.4170    23.3600     2.3700   -11.2910 
  232.3750    94.7580     7.8470     7.1980     7.5090    23.3850     2.3430   -10.9680 
  232.5000    94.7580     6.9540     6.3540     6.3070    23.4800     2.3280   -10.5470 
  232.6250    94.7580     6.5290     5.8060     6.0980    23.5970     2.3290   -10.0720 
  232.7500    94.7580     6.2990     5.4660     6.1460    23.6840     2.3380    -9.6040 
  232.8750    94.7580     6.0260     5.2540     5.6690    23.7200     2.3470    -9.1630 
  233.0000    94.7580     5.6090     5.0980     5.0760    23.7170     2.3550    -8.7650 
  233.1250    94.7580     5.3120     4.9570     4.7370    23.7090     2.3590    -8.4780 
  233.2500    94.7580     5.1670     4.8230     4.6730    23.7220     2.3630    -8.3220 
  233.3750    94.7580     5.1100     4.7100     4.7000    23.7590     2.3640    -8.2260 
  233.5000    94.7580     5.0750     4.6330     4.7240    23.8060     2.3640    -8.1730 
  233.6250    94.7580     5.0320     4.5990     4.5950    23.8240     2.3560    -8.1660 
  233.7500    94.7580     4.9950     4.5940     4.4050    23.8030     2.3400    -8.2030 
  233.8750    94.7580     4.9820     4.6080     4.3070    23.8120     2.3190    -8.2530 
  234.0000    94.7580     5.0230     4.6390     4.2850    23.9900     2.2960    -8.3070 
  234.1250    94.7580     5.1300     4.6950     4.2860    24.4370     2.2820    -8.3430 
  234.2500    94.7580     5.2430     4.7770     4.3370    24.9120     2.2770    -8.3710 
  234.3750    94.7580     5.3470     4.8770     4.4070    25.0920     2.2820    -8.3890 
  234.5000    94.7580     5.4520     4.9780     4.4630    24.8050     2.2950    -8.4050 
  234.6250    94.7580     5.5240     5.0540     4.8710    24.1860     2.3180    -8.3980 
  234.7500    94.7580     5.5690     5.0930     6.2420    23.6300     2.3560    -8.3650 
  234.8750    94.7580     5.5790     5.0900     8.8440    23.2860     2.4050    -8.3360 
  235.0000    94.7580     5.5600     5.0500    10.4710    23.0740     2.4530    -8.3370 
  235.1250    94.7580     5.5120     4.9820     8.7170    22.7200     2.4690    -8.3690 
  235.2500    94.7580     5.4580     4.9060     6.2290    22.0180     2.4330    -8.3620 
  235.3750    94.7580     5.3930     4.8330     4.7860    20.8870     2.3440    -8.3450 
  235.5000    94.7580     5.3180     4.7710     4.2770    19.4040     2.2210    -8.3620 
  235.6250    94.7580     5.2830     4.7330     4.2620    17.8390     2.1070    -8.4150 
  235.7500    94.7580     5.2840     4.7270     4.3610    16.5300     2.0340    -8.4560 
  235.8750    94.7580     5.3170     4.7640     4.5760    15.6160     2.0090    -8.4790 
  236.0000    94.7580     5.3590     4.8400     4.9730    15.0470     2.0160    -8.5080 
  236.1250    94.7580     5.4040     4.9380     5.3830    14.7050     2.0320    -8.5140 
  236.2500    94.7580     5.4370     5.0210     5.6250    14.4520     2.0400    -8.5270 
  236.3750    94.7580     5.4720     5.0660     5.6550    14.2430     2.0380    -8.5570 
  236.5000    94.7580     5.4950     5.0610     5.6510    14.0410     2.0280    -8.5690 
  236.6250    94.7580     5.4900     5.0070     5.6870    13.8400     2.0110    -8.5660 
  236.7500    94.7580     5.4590     4.9330     5.8160    13.6790     1.9900    -8.6030 
  236.8750    94.7580     5.4110     4.8590     5.9350    13.5850     1.9710    -8.6810 
