~V
VERS. 2.00: Ver 2.00
~W
STRT.M 50.0000:
STOP.M 219.0000:
STEP.M 0.1250:
NULL. -999.2500:
UWI. F10688:
~C
DEPT.M :
SP.MV :
DEN.GM/CC :
GR.API :
RML.OHMM :
RI. :
RXO.OHMM :
CALI.CM :
~A
# ...
   72.5000   -22.4910     2.2940    69.8650     7.9010     6.5170     7.1760    23.0870 
   72.6250   -22.2660     2.2900    67.5340     8.6350     7.0500     7.9570    23.1210 
   72.7500   -22.1130     2.2940    65.1900     9.3820     7.6310     8.7130    23.1590 
   72.8750   -22.0240     2.3000    63.0840     9.9730     8.1240     9.0230    23.2000 
   73.0000   -21.9120     2.2970    62.5730    10.3050     8.4230     9.0180    23.2510 
   73.1250   -21.8230     2.2790    63.5590    10.3410     8.4570     8.8990    23.3430 
   73.2500   -21.8350     2.2560    62.8120    10.2270     8.3290     8.7110    23.4790 
   73.3750   -21.9120     2.2400    60.0820    10.0610     8.1270     8.6800    23.6520 
   73.5000   -22.0210     2.2440    58.7890     9.9020     7.9200     8.6550    23.8460 
   73.6250   -22.1040     2.2730    62.1820     9.7900     7.7550     8.4820    24.0440 
   73.7500   -22.1370     2.3160    67.2300     9.7940     7.6750     9.0490    24.2290 
   73.8750   -22.1620     2.3680    70.7470    10.0660     7.7680    11.0680    24.3850 
   74.0000   -22.2050     2.4260    71.7730    10.8180     8.1670    14.2750    24.4990 
   74.1250   -22.1210     2.4980    70.9040    12.4360     9.1230    16.0180    24.5470 
   74.2500   -21.8720     2.5740    67.7660    14.9640    10.6980    22.4350    24.5400 
   74.3750   -21.5040     2.6150    62.1210    18.3060    12.8980    36.9300    24.4830 
   74.5000   -21.0080     2.5870    56.8750    21.9560    15.4720    54.9630    24.3810 
   74.6250   -20.3660     2.4810    55.5340    24.6740    17.6430    61.9850    24.2420 
   74.7500   -19.6410     2.3510    56.9470    25.6140    18.6780    47.9450    24.0850 
   74.8750   -18.8840     2.2400    59.6330    24.8230    18.4540    30.0160    23.9280 
   75.0000   -18.1270     2.1750    61.4510    23.1470    17.4710    21.0750    23.7840 
   75.1250   -17.4360     2.1650    59.2590    21.6360    16.4420    18.9160    23.6740 
   75.2500   -16.8060     2.1800    55.4460    20.7250    15.7690    18.7870    23.6040 
   75.3750   -16.2440     2.1970    52.7480    20.3390    15.4800    19.2800    23.5740 
   75.5000   -15.7960     2.2010    52.1060    20.2300    15.4480    19.5890    23.5700 
   75.6250   -15.5500     2.1900    52.3070    20.2160    15.5400    18.5810    23.5700 
   75.7500   -15.4390     2.1750    52.6300    20.2750    15.6870    17.7220    23.5700 
   75.8750   -15.3500     2.1660    52.7280    20.5020    15.9250    17.2790    23.5690 
   76.0000   -15.2830     2.1640    51.4920    20.9870    16.3050    16.9790    23.5690 
   76.1250   -15.3590     2.1710    49.9130    21.6370    16.7960    16.8600    23.5710 
   76.2500   -15.5460     2.1860    48.9230    21.8870    17.0390    17.1700    23.5730 
   76.3750   -15.7680     2.2130    49.2310    21.0300    16.5190    17.9130    23.5860 
   76.5000   -15.9790     2.2520    52.4000    18.7280    14.9460    18.5440    23.6200 
   76.6250   -16.1150     2.2870    55.9110    15.4700    12.6120    17.9200    23.6820 
   76.7500   -16.2200     2.3020    58.2820    12.5330    10.4130    15.7270    23.7620 
   76.8750   -16.3340     2.2860    60.7880    10.6440     8.8580    12.5110    23.8530 
   77.0000   -16.3880     2.2480    62.8410    10.0890     8.1710    10.8690    23.9450 
   77.1250   -16.2700     2.2100    60.8740    11.0470     8.5480    12.9200    24.0220 
   77.2500   -16.0800     2.1940    55.2890    13.0750     9.7800    15.9790    24.0720 
   77.3750   -15.9120     2.2030    49.7030    15.8000    11.7110    17.7820    24.0610 
   77.5000   -15.8020     2.2210    46.6990    18.6420    13.9990    18.2020    23.9710 
   77.6250   -15.7460     2.2250    46.7930    20.8060    16.0460    18.1280    23.8140 
   77.7500   -15.7260     2.2100    47.3600    22.1320    17.5180    17.9640    23.6380 
   77.8750   -15.8160     2.1890    45.8460    22.8130    18.4360    17.8030    23.4630 
   78.0000   -16.1010     2.1850    43.8060    22.9790    18.8660    17.2770    23.3070 
   78.1250   -16.5980     2.2150    45.4340    22.2660    18.5400    17.1750    23.1900 
   78.2500   -17.2330     2.2650    48.3300    20.5150    17.3500    17.6200    23.1180 
   78.3750   -17.9640     2.3130    49.4080    17.8490    15.3790    17.9790    23.0950 
   78.5000   -18.7380     2.3410    51.6530    14.8010    13.0260    17.2520    23.1090 
   78.6250   -19.5170     2.3430    57.9090    12.1470    10.8730    15.2460    23.1400 
   78.7500   -20.2450     2.3280    63.4710    10.2460     9.2280    13.6350    23.1870 
   78.8750   -20.8630     2.3070    66.4520     9.1210     8.1540     9.1970    23.2730 
   79.0000   -21.3620     2.2870    69.3440     8.6220     7.5870     7.8310    23.4010 
   79.1250   -21.7540     2.2730    72.5630     8.5500     7.4420     8.2560    23.5630 
   79.2500   -22.0120     2.2690    72.9160     8.5830     7.4730     8.5010    23.7420 
   79.3750   -22.1150     2.2750    71.4340     8.5660     7.5390     8.5130    23.9290 
   79.5000   -22.1070     2.2850    69.8200     8.4580     7.5590     8.2820    24.1060 
   79.6250   -22.0530     2.2940    66.7710     8.3050     7.5120     7.9480    24.2480 
   79.7500   -22.0550     2.3000    63.7820     8.1850     7.4420     7.5930    24.3500 
   79.8750   -22.0890     2.3090    64.4520     8.1120     7.3650     7.6520    24.4130 
   80.0000   -22.0700     2.3210    68.0730     8.0340     7.2620     7.9510    24.4510 
   80.1250   -22.0380     2.3360    70.4120     7.8580     7.0730     8.1520    24.4630 
   80.2500   -22.0400     2.3490    70.2520     7.5780     6.7980     8.0740    24.4530 
   80.3750   -22.0550     2.3490    68.3320     7.2680     6.4860     7.8460    24.4220 
   80.5000   -22.0340     2.3290    66.9950     7.0620     6.2320     7.6560    24.3810 
   80.6250   -21.9270     2.2820    66.8610     7.2130     6.2170     7.4540    24.3380 
   80.7500   -21.7320     2.2280    66.2290     7.8910     6.5720     7.5210    24.2980 
   80.8750   -21.4680     2.1880    63.7890     9.2740     7.4370     8.6410    24.2600 
   81.0000   -21.1120     2.1800    60.7910    11.4840     8.9240    17.2770    24.2240 
   81.1250   -20.6120     2.2070    59.5670    14.5800    11.1470    24.7740    24.1900 
   81.2500   -20.0530     2.2420    57.9520    17.9780    13.7340    36.7480    24.1540 
   81.3750   -19.4760     2.2620    54.3490    20.8960    16.1230    47.1280    24.1170 
   81.5000   -18.9150     2.2560    50.4580    22.5640    17.6750    39.8600    24.0810 
   81.6250   -18.3990     2.2350    49.2570    22.5990    17.9780    26.4110    24.0490 
   81.7500   -17.9050     2.2180    50.1600    21.8570    17.5980    21.8970    24.0250 
   81.8750   -17.4880     2.2090    51.7150    20.9910    17.0160    21.5850    24.0100 
   82.0000   -17.2550     2.2080    53.5420    20.3480    16.5230    22.4510    24.0050 
   82.1250   -17.2010     2.2110    56.0090    19.9560    16.1910    22.9810    24.0040 
   82.2500   -17.2330     2.2120    57.9870    19.5720    15.8780    22.6980    23.9990 
   82.3750   -17.3290     2.2080    58.7450    19.0410    15.4800    21.8070    23.9780 
   82.5000   -17.4930     2.2030    58.7820    18.3430    14.9810    20.6820    23.9290 
   82.6250   -17.7370     2.2060    58.1670    17.5820    14.4530    19.7290    23.8500 
   82.7500   -18.0050     2.2160    57.0720    16.9370    14.0110    18.7690    23.7540 
   82.8750   -18.2140     2.2280    55.7840    16.5550    13.7450    17.7380    23.6500 
   83.0000   -18.3470     2.2360    54.7510    16.5040    13.7000    17.0260    23.5480 
   83.1250   -18.4770     2.2450    54.2830    16.6400    13.8000    16.7660    23.4640 
   83.2500   -18.6070     2.2650    54.6830    16.5060    13.7370    16.8260    23.4210 
   83.3750   -18.7360     2.2940    56.7390    15.7060    13.2120    17.0440    23.4420 
   83.5000   -18.8480     2.3190    59.7910    14.1460    12.1150    17.5520    23.5320 
   83.6250   -18.9100     2.3110    63.3200    12.1920    10.6540    17.1850    23.6730 
