~V
VERS. 2.00: Ver 2.00
~W
STRT.M 50.0000:
STOP.M 209.0000:
STEP.M 0.1250:
NULL. -999.2500:
UWI. F10692:
~C
DEPT.M :
DEN.GM/CC :
GR.API :
RML.OHMM :
RI. :
RXO.OHMM :
CALI.CM :
SP.MV :
~A
# ...
  106.2500     2.3240    68.3080    11.0500     9.9350     8.7620    25.1360   -18.5210 
  106.3750     2.3110    70.9250    10.0560     9.2600     8.1080    25.1550   -18.0530 
  106.5000     2.2960    72.0290     9.2240     8.6320     7.6430    25.1380   -17.6690 
  106.6250     2.2820    70.8820     8.6180     8.1290     7.6160    25.1250   -17.3970 
  106.7500     2.2750    72.6620     8.1390     7.7080     7.6300    25.1190   -17.2170 
  106.8750     2.2750    75.4220     7.7220     7.3350     7.5400    25.1130   -17.1190 
  107.0000     2.2760    75.4720     7.3570     7.0060     7.3720    25.0970   -17.0980 
  107.1250     2.2770    73.7320     7.1420     6.7940     7.1570    25.0650   -17.1810 
  107.2500     2.2820    72.9870     7.1710     6.7670     7.1030    25.0440   -17.3750 
  107.3750     2.2930    72.1370     7.4840     6.9650     7.3360    25.0200   -17.6940 
  107.5000     2.3080    69.6440     8.0310     7.3660     7.8470    24.9910   -18.1370 
  107.6250     2.3200    67.6740     8.6650     7.8750     8.4770    24.9900   -18.7000 
  107.7500     2.3180    67.1340     9.1650     8.3150     8.9800    25.0170   -19.3320 
  107.8750     2.3050    67.7390     9.3970     8.5600     8.9740    25.0480   -19.9910 
  108.0000     2.2880    68.0980     9.3520     8.5700     8.6380    25.0540   -20.6360 
  108.1250     2.2760    66.8840     9.1740     8.4280     8.4920    25.0510   -21.2150 
  108.2500     2.2640    65.2800     9.0600     8.2970     8.5870    25.0490   -21.7170 
  108.3750     2.2500    63.3000     9.0460     8.2320     8.6690    25.0430   -22.1410 
  108.5000     2.2370    61.4150     9.0810     8.2120     8.9550    25.0260   -22.4960 
  108.6250     2.2270    61.0170     9.1460     8.2230     9.8270    24.9920   -22.7860 
  108.7500     2.2260    61.8300     9.3980     8.3520    10.5540    24.9770   -23.0250 
  108.8750     2.2320    62.3420    10.1050     8.7840    10.4060    24.9740   -23.2160 
  109.0000     2.2390    60.8560    11.4810     9.7070    10.3030    24.9730   -23.3670 
  109.1250     2.2300    58.5500    13.6190    11.2990    12.7470    24.9580   -23.5000 
  109.2500     2.2080    58.4090    16.0640    13.3220    19.1330    24.9180   -23.6430 
  109.3750     2.1870    59.6310    18.3050    15.4270    25.6500    24.8630   -23.8180 
  109.5000     2.1740    59.4240    19.9470    17.2220    25.1750    24.8310   -24.0430 
  109.6250     2.1610    57.3830    21.0410    18.5280    19.4290    24.8240   -24.3310 
  109.7500     2.1430    55.7180    22.2880    19.7590    17.3580    24.8240   -24.6610 
  109.8750     2.1270    54.4970    24.2410    21.3830    21.5560    24.8240   -25.0110 
  110.0000     2.1180    54.1290    27.1380    23.7530    25.9660    24.8240   -25.3560 
  110.1250     2.1140    55.8220    30.8330    27.0140    26.2200    24.8240   -25.6770 
  110.2500     2.1100    56.2560    34.4840    30.5250    24.4670    24.8240   -25.9790 
  110.3750     2.1100    54.7940    37.4140    33.5910    24.5540    24.8240   -26.2720 
  110.5000     2.1150    54.2050    39.4260    35.8350    27.8570    24.8190   -26.5660 
  110.6250     2.1210    55.0580    41.0140    37.5210    30.0250    24.7740   -26.8640 
  110.7500     2.1210    54.4080    43.0910    39.5010    27.5750    24.6790   -27.1600 
  110.8750     2.1120    51.5280    46.1880    42.3710    26.5310    24.5880   -27.4520 
  111.0000     2.0950    49.7870    50.4520    46.3990    32.5030    24.5670   -27.7340 
  111.1250     2.0790    50.2110    55.5200    51.4090    40.8440    24.6200   -28.0050 
  111.2500     2.0730    50.9040    60.0090    56.1570    45.7010    24.6740   -28.2700 
  111.3750     2.0760    50.5630    62.3610    59.1520    45.4020    24.7330   -28.5310 
  111.5000     2.0830    48.3600    61.5800    59.2320    42.8320    24.8200   -28.7890 
  111.6250     2.0870    45.6780    58.0000    56.2880    39.8250    24.8040   -29.0340 
  111.7500     2.0920    44.1890    53.9300    52.4210    35.6850    24.6930   -29.2510 
  111.8750     2.0990    44.8730    50.7730    49.0920    30.8350    24.5670   -29.4270 
  112.0000     2.1050    46.9140    49.2810    47.1880    27.6990    24.4930   -29.5600 
  112.1250     2.1030    49.3230    50.0120    47.3880    30.0720    24.4970   -29.6610 
  112.2500     2.0930    51.6550    52.4740    49.3330    35.1500    24.5160   -29.7590 
  112.3750     2.0810    51.8040    56.2190    52.6760    40.1270    24.5280   -29.8680 
  112.5000     2.0720    49.5370    60.4840    56.7760    45.1240    24.5410   -29.9950 
  112.6250     2.0670    48.0270    64.0470    60.5480    47.0320    24.5810   -30.1330 
  112.7500     2.0650    48.7650    66.1450    63.1420    46.8510    24.6530   -30.2670 
  112.8750     2.0680    49.3890    66.6310    64.2910    46.2960    24.7160   -30.3800 
  113.0000     2.0770    48.4230    65.7480    64.1100    45.0800    24.7420   -30.4580 
  113.1250     2.0880    48.8320    63.7160    62.6760    44.2130    24.7370   -30.4900 
  113.2500     2.1010    49.9350    61.2000    60.5690    42.8170    24.7350   -30.5020 
  113.3750     2.1220    48.9200    58.7510    58.3170    41.3000    24.7720   -30.5210 
  113.5000     2.1460    45.5680    56.8800    56.4620    40.4860    24.8090   -30.5760 
  113.6250     2.1560    43.9340    56.0720    55.5690    38.1110    24.8050   -30.7020 
  113.7500     2.1410    45.8350    56.1460    55.6090    37.2120    24.7560   -30.8930 
  113.8750     2.1140    47.8510    56.7290    56.3180    40.8190    24.6810   -31.1340 
  114.0000     2.0920    47.7290    57.2380    57.1810    45.2720    24.5990   -31.3960 
  114.1250     2.0840    48.0800    56.9820    57.5290    44.4660    24.5470   -31.6330 
  114.2500     2.0790    49.5590    55.8760    57.1310    40.8670    24.5270   -31.8100 
  114.3750     2.0720    50.8520    54.1390    56.0350    37.4170    24.5240   -31.9130 
  114.5000     2.0590    50.9420    52.2150    54.5530    35.8840    24.5240   -31.9430 
  114.6250     2.0380    51.5600    50.7190    53.2460    35.0830    24.5240   -31.9010 
  114.7500     2.0180    53.7330    49.9100    52.4980    34.2020    24.5290   -31.8170 
  114.8750     2.0110    55.7650    49.7400    52.3600    32.8950    24.5680   -31.7040 
  115.0000     2.0300    54.8780    49.8910    52.5920    32.0790    24.6940   -31.5710 
  115.1250     2.0720    49.9710    49.7100    52.5910    34.0550    24.9180   -31.4280 
  115.2500     2.1170    46.9390    48.6680    51.7700    36.8740    25.1000   -31.2850 
  115.3750     2.1470    49.8670    46.7020    49.9620    39.4540    25.1750   -31.1460 
  115.5000     2.1600    54.9660    44.3460    47.5960    38.1650    25.1810   -31.0120 
  115.6250     2.1570    56.4770    42.6600    45.6720    34.5700    25.1560   -30.8850 
  115.7500     2.1420    53.7670    42.2710    44.9170    30.6460    25.1340   -30.7650 
  115.8750     2.1240    50.0300    43.4490    45.6890    32.1350    25.1430   -30.6600 
  116.0000     2.1120    48.0470    46.2840    48.1770    38.8710    25.1910   -30.5790 
  116.1250     2.1110    47.4780    51.1150    52.9180    50.9240    25.2390   -30.5230 
  116.2500     2.1170    46.3400    57.6260    59.7160    57.2260    25.2630   -30.4650 
  116.3750     2.1250    44.7400    65.3820    68.1960    54.9860    25.2810   -30.3770 
  116.5000     2.1320    45.5240    72.9340    76.8450    55.8880    25.3110   -30.2380 
  116.6250     2.1460    47.8940    76.3790    81.5870    70.6310    25.3110   -30.0310 
  116.7500     2.1650    47.8710    73.3240    79.5930    84.2000    25.2580   -29.7740 
  116.8750     2.1750    47.5390    64.4720    71.0290    71.4720    25.1310   -29.4740 
  117.0000     2.1590    50.5040    53.3550    59.2380    47.1540    24.9370   -29.1350 
  117.1250     2.1180    55.0330    43.8870    48.5350    33.0670    24.7870   -28.7470 
  117.2500     2.0810    55.6510    37.2020    40.6800    24.9750    24.7050   -28.3220 
  117.3750     2.0590    53.0000    33.0340    35.5960    21.9500    24.6800   -27.8630 
