~V
VERS. 2.00: Ver 2.00
~W
STRT.M 55.0000:
STOP.M 242.0000:
STEP.M 0.1250:
NULL. -999.2500:
UWI. F10652:
~C
DEPT.M :
SP.MV :
GR.API :
RML.OHMM :
RI. :
RXO.OHMM :
CALI.CM :
DEN.GM/CC :
~A
# ...
   77.5000   -17.5350    75.8590     7.7220     5.9690     6.6560    23.9040     2.2400 
   77.6250   -17.5960    77.2710     7.6530     5.9350     6.6510    23.8790     2.2420 
   77.7500   -17.6540    78.7690     7.5660     5.8860     6.4500    23.8010     2.2500 
   77.8750   -17.7260    79.2450     7.4980     5.8470     6.2450    23.6290     2.2560 
   78.0000   -17.8100    78.8660     7.4740     5.8360     6.1100    23.4790     2.2570 
   78.1250   -17.8500    79.3800     7.5130     5.8650     6.1420    23.4780     2.2550 
   78.2500   -17.8920    79.9380     7.5780     5.9120     6.2210    23.5530     2.2580 
   78.3750   -17.9030    79.7770     7.6210     5.9360     6.2350    23.6460     2.2640 
   78.5000   -17.9080    81.6890     7.5980     5.8960     6.2020    23.7460     2.2700 
   78.6250   -17.8560    85.8560     7.4950     5.7720     6.2070    23.8180     2.2720 
   78.7500   -17.7580    86.8690     7.3660     5.6270     6.3270    23.8510     2.2740 
   78.8750   -17.6560    83.6420     7.2720     5.5300     6.2330    23.8750     2.2790 
   79.0000   -17.4800    81.4830     7.2920     5.5450     5.8300    23.8710     2.2870 
   79.1250   -17.2870    82.6000     7.5560     5.7600     5.9120    23.6900     2.2940 
   79.2500   -17.0530    82.2410     8.0930     6.1810     6.5550    23.3820     2.2930 
   79.3750   -16.7740    78.5980     8.9180     6.8030     7.2740    23.1270     2.2830 
   79.5000   -16.4920    74.0200     9.9580     7.5780     7.5630    22.9890     2.2650 
   79.6250   -16.2020    70.2610    11.0000     8.3650     7.8140    22.8310     2.2440 
   79.7500   -15.9030    67.2630    11.7320     8.9570     8.5510    22.5960     2.2270 
   79.8750   -15.6130    65.0510    11.9450     9.2000     9.2540    22.3940     2.2170 
   80.0000   -15.3870    63.3730    11.6230     9.0600     9.3190    22.2540     2.2140 
   80.1250   -15.1660    63.2490    10.9290     8.6180     8.5860    22.2130     2.2170 
   80.2500   -14.9780    66.6880    10.2110     8.1030     7.6700    22.2120     2.2180 
   80.3750   -14.8770    72.4420     9.6710     7.6520     7.1240    22.1720     2.2110 
   80.5000   -14.7830    76.2590     9.4600     7.3840     6.9270    22.0680     2.1900 
   80.6250   -14.7050    74.6330     9.8440     7.4950     7.0630    21.9510     2.1680 
   80.7500   -14.6850    71.9520    10.9510     8.1110     7.3900    21.8830     2.1690 
   80.8750   -14.6380    70.2060    13.0120     9.4390     8.0840    21.8370     2.2240 
   81.0000   -14.5570    67.9200    16.2260    11.7110     9.6930    21.8130     2.3490 
   81.1250   -14.4590    63.3360    20.7180    15.2090    15.0710    21.8210     2.4920 
   81.2500   -14.3250    57.5190    25.4690    19.2960    21.6370    21.8580     2.5510 
   81.3750   -14.1450    51.8770    28.8120    22.7720    24.4330    21.9360     2.4980 
   81.5000   -13.9460    49.6670    29.1660    24.1920    21.7720    22.0860     2.3830 
   81.6250   -13.7630    52.3830    26.2560    22.7240    17.4540    22.2400     2.2660 
   81.7500   -13.5500    55.5440    22.3270    19.8650    14.5710    22.3070     2.1850 
   81.8750   -13.3820    57.4380    18.6100    16.7390    13.3230    22.2670     2.1490 
   82.0000   -13.2750    60.3710    15.4900    13.9160    12.4110    22.1270     2.1620 
   82.1250   -13.2200    67.3180    13.0260    11.6010    10.4720    21.8900     2.2260 
   82.2500   -13.2260    72.6590    11.0880     9.7430     8.4440    21.6690     2.3170 
   82.3750   -13.2370    73.9470     9.7170     8.3760     7.3340    21.5870     2.4000 
   82.5000   -13.2450    72.9350     8.9570     7.5270     7.0280    21.6220     2.4370 
   82.6250   -13.2610    71.2830     8.9660     7.3000     6.8150    21.7710     2.4040 
   82.7500   -13.2720    70.7040     9.6950     7.6340     6.8530    21.9850     2.3380 
   82.8750   -13.2370    70.5750    11.1440     8.5510     7.0660    22.1910     2.2740 
   83.0000   -13.1650    70.5550    13.2220    10.0300     7.6600    22.2830     2.2380 
   83.1250   -13.0520    67.6000    15.6900    11.9720     9.8230    22.3480     2.2420 
   83.2500   -12.9210    62.5250    17.9210    13.9070    14.7860    22.5530     2.2600 
   83.3750   -12.7990    59.8330    19.2990    15.3240    19.2500    22.8910     2.2670 
   83.5000   -12.6710    61.7080    19.5280    15.8740    18.1870    23.2220     2.2510 
   83.6250   -12.5490    63.6640    18.8850    15.5900    13.9380    23.4220     2.2210 
   83.7500   -12.4360    60.5270    18.1670    15.0530    11.5610    23.5010     2.1970 
   83.8750   -12.3460    55.4590    17.7520    14.6050    10.7800    23.5210     2.1860 
   84.0000   -12.2310    54.2600    17.7980    14.4350    11.0530    23.5190     2.1800 
   84.1250   -12.1410    55.5060    18.3230    14.6340    11.9750    23.4690     2.1700 
   84.2500   -12.0760    55.0800    19.0360    15.0340    11.9830    23.3740     2.1590 
   84.3750   -12.0190    54.4110    19.6590    15.4520    11.4520    23.2930     2.1530 
   84.5000   -12.0240    55.0910    19.9070    15.6820    11.6460    23.2580     2.1560 
   84.6250   -12.0250    56.7030    19.4620    15.4560    12.5620    23.3100     2.1690 
   84.7500   -12.0820    58.4650    18.4260    14.7780    13.3420    23.4190     2.1830 
   84.8750   -12.1520    59.7900    17.0380    13.7700    13.4940    23.5840     2.1930 
   85.0000   -12.2500    60.0540    15.6290    12.6570    12.2030    23.6880     2.1930 
   85.1250   -12.3760    59.6810    14.5520    11.7140    10.1590    23.6550     2.1840 
   85.2500   -12.4630    60.9460    13.9090    11.0760     8.6400    23.5410     2.1690 
   85.3750   -12.5590    62.1320    13.6790    10.7700     8.1190    23.4640     2.1530 
   85.5000   -12.6340    60.4350    13.7270    10.7320     7.9340    23.4390     2.1390 
   85.6250   -12.7180    57.0000    13.8300    10.8340     8.0500    23.4300     2.1290 
   85.7500   -12.7900    54.8250    13.7890    10.8880     8.3160    23.4000     2.1240 
   85.8750   -12.8620    55.6020    13.5480    10.8000     8.3120    23.3570     2.1260 
   86.0000   -12.9700    58.4940    13.1630    10.5610     8.0950    23.3110     2.1320 
   86.1250   -13.0720    60.5770    12.7830    10.2530     7.9180    23.2820     2.1420 
   86.2500   -13.2020    61.5290    12.5330     9.9980     7.7880    23.2570     2.1510 
   86.3750   -13.3540    61.8410    12.4510     9.8540     7.7210    23.2300     2.1580 
   86.5000   -13.5070    61.6810    12.5020     9.8200     7.7500    23.2080     2.1610 
   86.6250   -13.6730    61.8180    12.5750     9.8360     7.9180    23.2000     2.1610 
   86.7500   -13.8310    61.4220    12.5350     9.7970     7.9460    23.1980     2.1610 
   86.8750   -13.9790    59.6810    12.3180     9.6430     7.7370    23.1900     2.1650 
   87.0000   -14.0870    57.0140    11.9510     9.3820     7.4810    23.1620     2.1710 
   87.1250   -14.1540    57.0480    11.5820     9.0950     7.3510    23.1280     2.1770 
   87.2500   -14.1780    60.8400    11.3870     8.9150     7.2950    23.1330     2.1790 
   87.3750   -14.1160    64.9190    11.4820     8.9320     7.3350    23.1800     2.1780 
   87.5000   -14.0200    65.8550    11.9060     9.1930     7.4480    23.2190     2.1740 
   87.6250   -13.8580    63.3080    12.6550     9.7270     7.6750    23.2400     2.1710 
   87.7500   -13.6470    60.7120    13.5480    10.4220     7.9720    23.2510     2.1680 
   87.8750   -13.4190    59.7590    14.3380    11.1220     8.3080    23.2350     2.1630 
   88.0000   -13.1840    59.8680    14.6830    11.5840     8.6050    23.2140     2.1570 
   88.1250   -12.9650    60.8680    14.1430    11.4410     8.9410    23.2020     2.1580 
   88.2500   -12.8140    62.3110    12.8720    10.7040     9.3790    23.1960     2.1760 
   88.3750   -12.7140    62.3720    11.2390     9.5720     9.1570    23.1790     2.2120 
   88.5000   -12.6830    60.0850     9.7140     8.3730     7.9450    23.1420     2.2590 
   88.6250   -12.7070    62.1820     8.7400     7.4540     6.4400    23.1070     2.2900 
