~V
VERS. 2.00: Ver 2.00
~W
STRT.M 50.0000:
STOP.M 224.0000:
STEP.M 0.1250:
NULL. -999.2500:
UWI. F10690:
~C
DEPT.M :
SP.MV :
DEN.GM/CC :
GR.API :
RML.OHMM :
RI. :
RXO.OHMM :
CALI.CM :
~A
# ...
  151.2500   -22.5280     2.4140    58.5940    19.9930    20.1880    13.7510    25.5260 
  151.3750   -22.5670     2.4140    59.4130    18.6660    18.8310    12.2790    25.5260 
  151.5000   -22.5890     2.4150    62.5730    18.1440    18.1640    11.6890    25.5260 
  151.6250   -22.6070     2.4110    64.2670    18.7160    18.4690    12.1010    25.5260 
  151.7500   -22.6400     2.4000    63.2030    20.1770    19.6390    13.4070    25.5260 
  151.8750   -22.6900     2.3880    62.3970    22.3020    21.5600    15.6240    25.5260 
  152.0000   -22.7420     2.3840    64.0530    24.7320    23.9620    19.3310    25.5260 
  152.1250   -22.7870     2.3930    65.1810    26.9730    26.4010    24.3040    25.5260 
  152.2500   -22.8260     2.4040    63.0260    28.6970    28.4440    27.3660    25.5260 
  152.3750   -22.8640     2.4090    61.9130    29.8010    29.8930    29.9920    25.5260 
  152.5000   -22.9090     2.4030    65.4680    30.3710    30.7600    31.3500    25.5260 
  152.6250   -22.9700     2.3820    68.2050    30.6040    31.1840    30.3110    25.5260 
  152.7500   -23.0430     2.3560    64.8330    30.7770    31.4580    30.6890    25.5260 
  152.8750   -23.1180     2.3380    59.6120    30.9520    31.6570    30.5320    25.5260 
  153.0000   -23.2040     2.3380    58.3170    31.0550    31.7150    28.6800    25.5260 
  153.1250   -23.3080     2.3600    60.9320    30.8710    31.4170    29.0280    25.5250 
  153.2500   -23.3980     2.3970    62.7380    30.2840    30.6770    29.9200    25.5220 
  153.3750   -23.4550     2.4460    61.9620    29.2570    29.4900    29.2350    25.5030 
  153.5000   -23.4700     2.4900    59.5790    27.9120    28.0020    24.3480    25.4380 
  153.6250   -23.4690     2.5070    60.3650    26.5280    26.5110    22.7250    25.2810 
  153.7500   -23.4940     2.4970    65.1100    25.3900    25.2880    21.6170    25.0580 
  153.8750   -23.5720     2.4720    68.8600    24.6670    24.4880    20.3910    24.8670 
  154.0000   -23.6990     2.4430    68.0590    24.4310    24.1830    19.2090    24.7790 
  154.1250   -23.8340     2.4300    64.0620    24.6790    24.3920    18.5740    24.7790 
  154.2500   -23.9520     2.4290    61.6020    25.1720    24.8860    18.6770    24.8510 
  154.3750   -24.0590     2.4300    61.2590    25.7560    25.5120    19.1280    25.0300 
  154.5000   -24.1590     2.4240    60.9110    26.3370    26.1730    20.0740    25.2950 
  154.6250   -24.2560     2.4140    59.8360    26.8850    26.8340    21.9690    25.5060 
  154.7500   -24.3610     2.4070    60.7340    27.4370    27.5150    23.2420    25.6070 
  154.8750   -24.4770     2.4010    64.3400    28.0180    28.2290    23.9660    25.6330 
  155.0000   -24.5870     2.3950    67.0280    28.5910    28.9360    25.6020    25.6350 
  155.1250   -24.6950     2.3860    66.7160    29.0400    29.5020    26.1430    25.6350 
  155.2500   -24.8190     2.3790    66.6930    29.3130    29.8490    27.0360    25.6330 
  155.3750   -24.9550     2.3770    66.9990    29.4390    29.9810    27.2940    25.6260 
  155.5000   -25.1020     2.3810    66.2030    29.4860    29.9660    26.7520    25.6080 
  155.6250   -25.2500     2.3840    64.6270    29.4590    29.8160    26.7640    25.5940 
  155.7500   -25.4060     2.3770    63.2650    29.2920    29.4960    26.4900    25.5860 
  155.8750   -25.5770     2.3610    62.6320    28.9230    28.9610    27.0370    25.5830 
  156.0000   -25.7670     2.3470    62.7980    28.3880    28.2520    27.1960    25.5760 
  156.1250   -25.9880     2.3470    63.4750    27.8940    27.5580    25.5840    25.5530 
  156.2500   -26.2000     2.3540    62.2260    27.7910    27.1880    21.6250    25.4910 
  156.3750   -26.3800     2.3600    59.1610    28.4430    27.4620    19.2590    25.3510 
  156.5000   -26.5330     2.3590    56.0540    30.1550    28.6670    19.6070    25.1070 
  156.6250   -26.6600     2.3460    55.3280    33.3500    31.2510    20.6490    24.8690 
  156.7500   -26.7770     2.3250    56.4770    37.8310    35.1290    21.8640    24.7210 
  156.8750   -26.8890     2.3030    57.1580    43.3480    40.1540    23.2140    24.6430 
  157.0000   -27.0050     2.2920    55.6010    49.3160    45.8400    25.1820    24.5600 
  157.1250   -27.1360     2.2950    52.5600    54.5950    51.1730    26.2280    24.4470 
  157.2500   -27.2570     2.3010    50.6940    58.1580    55.1260    25.2910    24.3350 
  157.3750   -27.3590     2.3040    50.6340    59.3450    57.0120    24.4880    24.2720 
  157.5000   -27.4460     2.3040    50.2000    58.1580    56.6760    25.4490    24.3130 
  157.6250   -27.5150     2.3050    48.8190    55.2840    54.4950    27.7240    24.4880 
  157.7500   -27.5700     2.3080    49.7050    52.3000    51.8850    31.1580    24.6710 
  157.8750   -27.6060     2.3130    54.1080    50.0620    49.7580    35.5660    24.7300 
  158.0000   -27.6120     2.3180    58.7630    48.5520    48.3070    37.7810    24.6770 
  158.1250   -27.5720     2.3180    58.8120    46.1270    46.1130    34.9690    24.5680 
  158.2500   -27.5060     2.3140    56.6180    40.7970    41.0770    30.8410    24.4690 
  158.3750   -27.4400     2.3100    54.8860    32.3090    32.7920    27.8800    24.3530 
  158.5000   -27.3720     2.3060    55.5390    24.2430    23.3820    21.8800    24.1130 
  158.6250   -27.2860     2.2960    59.1400    16.5230    15.8640    12.6840    23.5690 
  158.7500   -27.1620     2.2910    62.0450    11.3200    10.7980     7.2370    23.0360 
  158.8750   -26.9940     2.3040    60.8470     8.1760     7.7370     5.1740    23.0400 
  159.0000   -26.7920     2.3310    54.4500     6.4460     6.0520     4.7090    23.6830 
  159.1250   -26.5780     2.3510    47.5210     5.7150     5.3410     4.5920    24.6160 
  159.2500   -26.3830     2.3540    43.7930     5.4770     5.1100     4.3640    25.1570 
  159.3750   -26.2080     2.3430    41.8590     5.5090     5.1410     4.2630    25.1420 
  159.5000   -26.0520     2.3240    38.6790     5.6430     5.2710     4.2670    24.7290 
  159.6250   -25.9320     2.3060    35.1440     5.7850     5.4090     4.3040    24.4260 
  159.7500   -25.8220     2.2950    34.1250     5.9210     5.5410     4.3180    24.6390 
  159.8750   -25.7150     2.2920    36.0380     6.0580     5.6740     4.3140    25.1350 
  160.0000   -25.5970     2.2930    39.2890     6.1870     5.8000     4.2930    25.4520 
  160.1250   -25.4660     2.2970    41.8750     6.2770     5.8880     4.2020    25.3170 
  160.2500   -25.3350     2.2940    43.9270     6.3170     5.9270     4.1990    24.8230 
  160.3750   -25.2080     2.2790    46.4710     6.3070     5.9170     4.3620    24.2410 
  160.5000   -25.0970     2.2600    50.4770     6.2590     5.8700     4.5630    24.0320 
  160.6250   -25.0030     2.2630    55.1170     6.1910     5.8040     4.7940    24.2100 
  160.7500   -24.9180     2.2950    58.3650     6.1160     5.7320     5.0320    24.3780 
  160.8750   -24.8430     2.3460    61.3470     6.0320     5.6490     5.1880    24.5600 
  161.0000   -24.7750     2.3940    63.8310     5.9320     5.5520     5.1490    25.0160 
  161.1250   -24.7120     2.4220    64.7580     5.8140     5.4370     4.9460    25.7430 
  161.2500   -24.6460     2.4310    63.2010     5.6960     5.3220     4.7980    26.2580 
  161.3750   -24.5840     2.4280    60.8710     5.6120     5.2410     4.6400    26.4930 
  161.5000   -24.5360     2.4190    60.9930     5.6140     5.2420     4.6340    26.5510 
  161.6250   -24.5120     2.4140    62.2290     5.7860     5.4100     4.7960    26.5510 
  161.7500   -24.5180     2.4180    60.8030     6.1450     5.7590     5.2600    26.5490 
  161.8750   -24.5500     2.4330    56.1150     6.6690     6.2700     6.1900    26.5040 
  162.0000   -24.6040     2.4490    52.1520     7.2690     6.8540     7.5600    26.3320 
  162.1250   -24.6550     2.4500    54.6630     7.7770     7.3490     9.1970    25.9600 
  162.2500   -24.6830     2.4380    60.6980     8.1160     7.6790    10.2090    25.6620 
  162.3750   -24.6840     2.4300    64.6660     8.3210     7.8780     9.9830    25.5390 
