~V
VERS. 2.00: Ver 2.00
~W
STRT.M 55.0000:
STOP.M 197.0000:
STEP.M 0.1250:
NULL. -999.2500:
UWI. F10681:
~C
DEPT.M :
DEN.GM/CC :
GR.API :
RML.OHMM :
RI. :
RXO.OHMM :
CALI.CM :
SP.MV :
~A
# ...
  190.0000     2.2770    67.4100     7.3210     6.0490     7.3540    23.3610   -20.0910 
  190.1250     2.2800    67.4100     7.3100     5.9730     7.5330    23.1550   -19.9450 
  190.2500     2.2790    67.4100     7.3220     5.9760     7.5480    23.0620   -19.8500 
  190.3750     2.2720    67.4100     7.3150     6.0110     7.5450    22.8940   -19.8190 
  190.5000     2.2590    67.4100     7.3000     6.0370     7.5780    22.9540   -19.8410 
  190.6250     2.2390    67.4100     7.3350     6.0360     7.4430    23.0700   -19.9380 
  190.7500     2.2130    67.4100     7.4300     6.0320     7.4150    23.1950   -20.0730 
  190.8750     2.1820    67.4100     7.5540     6.0430     7.8390    23.5930   -20.2250 
  191.0000     2.1540    67.4100     7.6610     6.0720     8.6710    24.1010   -20.3530 
  191.1250     2.1430    67.4100     7.7110     6.1040     9.3220    24.3210   -20.4450 
  191.2500     2.1570    67.4100     7.7270     6.1230     9.1600    24.5640   -20.4820 
  191.3750     2.1930    67.4100     7.7390     6.1240     8.7740    25.2610   -20.4730 
  191.5000     2.2400    67.4100     7.7590     6.1150     9.1080    25.9350   -20.4630 
  191.6250     2.2750    67.4100     7.7830     6.1080    10.2850    25.5750   -20.4240 
  191.7500     2.2870    67.4100     7.7970     6.1090    10.4370    25.9770   -20.3780 
  191.8750     2.2810    67.4100     7.8010     6.1150     9.3400    25.4920   -20.3460 
  192.0000     2.2730    67.4100     7.8030     6.1210     7.9960    24.4880   -20.3410 
  192.1250     2.2780    67.4100     7.8080     6.1240     6.9620    24.6690   -20.3410 
  192.2500     2.2890    67.4100     7.8080     6.1240     5.9940    25.2120   -20.3470 
  192.3750     2.2940    67.4100     7.8080     6.1240     5.4320    26.0160   -20.3720 
  192.5000     2.2820    67.4100     7.8080     6.1240     5.2940    26.1410   -20.4020 
  192.6250     2.2560    67.4100     7.8080     6.1240     5.4820    25.3100   -20.5000 
  192.7500     2.2380    67.4100     7.8080     6.1240     5.8390    24.8410   -20.6160 
  192.8750     2.2400    67.4100     7.8080     6.1240     6.3680    24.8260   -20.7180 
  193.0000     2.2540    67.4100     7.8080     6.1240     6.9000    25.1020   -20.7930 
  193.1250     2.2580    67.4100     7.8080     6.1240     7.1900    25.7780   -20.8880 
  193.2500     2.2400    67.4100     7.8080     6.1240     7.3970    25.9350   -20.9880 
  193.3750     2.2090    67.4100     7.8080     6.1240     7.3350    24.9360   -21.0750 
  193.5000     2.1840    67.4100     7.8080     6.1240     7.0030    24.3390   -21.1530 
  193.6250     2.1830    67.4100     7.8080     6.1240     6.6500    24.3230   -21.1530 
  193.7500     2.1970    67.4100     7.8080     6.1240     6.5040    25.4470   -21.1530 
  193.8750     2.2120    67.4100     7.8080     6.1240     6.5200    26.1810  -999.2500 
  194.0000     2.2200    67.4100     7.8080     6.1240     6.5050    26.4370  -999.2500 
  194.1250     2.2180    67.4100     7.8080     6.1240     6.4250    26.3900  -999.2500 
  194.2500     2.2130    67.4100     7.8080     6.1240     6.3810    25.9980  -999.2500 
  194.3750     2.2040    67.4100     7.8080     6.1240     6.2940    25.4110  -999.2500 
  194.5000     2.1850    67.4100     7.8080     6.1240     6.2670    25.4850  -999.2500 
  194.6250     2.1540    67.4100     7.8080     6.1240     6.6620    26.3380  -999.2500 
  194.7500     2.1150    67.4100     7.8080     6.1240     7.3050    26.9060  -999.2500 
  194.8750     2.0770    67.4100     7.8080     6.1240     7.8910    26.7880  -999.2500 
  195.0000     2.0490    67.4100     7.8080     6.1240     8.1830    26.3850  -999.2500 
  195.1250     2.0370    67.4100     7.8080     6.1240     8.0340    26.8750  -999.2500 
  195.2500     2.0370    67.4100     7.8080     6.1240     7.9410    27.6600  -999.2500 
  195.3750     2.0420    67.4100     7.8080     6.1240     7.8820    27.9530  -999.2500 
  195.5000     2.0460    67.4100     7.8080     6.1240     7.8610    27.9980  -999.2500 
  195.6250     2.0450    67.4100     7.8080     6.1240     7.8600    27.9930  -999.2500 
  195.7500     2.0430    67.4100     7.8080     6.1240     7.8620    27.9970  -999.2500 
  195.8750     2.0410    67.4100     7.8080     6.1240     7.8640    27.9910  -999.2500 
  196.0000     2.0400    67.4100     7.8080     6.1240     7.8610    27.9880  -999.2500 
  196.1250     2.0400    67.4100     7.8080     6.1240     7.8600    27.9890  -999.2500 
  196.2500     2.0360    67.4100     7.8080     6.1240     7.8590    27.9920  -999.2500 
  196.3750  -999.2500    67.4100     7.8080     6.1240     7.8580    27.9900  -999.2500 
  196.5000  -999.2500    67.4100     7.8080     6.1240     7.8590    27.9870  -999.2500 
  196.6250  -999.2500    67.4100     7.8080     6.1240     7.8610    27.9810  -999.2500 
  196.7500  -999.2500    67.4100     7.8080     6.1240     7.8630    27.9820  -999.2500 
  196.8750  -999.2500    67.4100     7.8080     6.1240     7.8600    27.9770  -999.2500 
  197.0000  -999.2500    67.4100     7.8080     6.1240     7.8580    27.9750  -999.2500 
