~V
VERS. 2.00: Ver 2.00
~W
STRT.M 49.0000:
STOP.M 221.0000:
STEP.M 0.1250:
NULL. -999.2500:
UWI. F10615:
~C
DEPT.M :
DEN.GM/CC :
GR.API :
RML.OHMM :
RI. :
RXO.OHMM :
CALI.CM :
SP.MV :
~A
# ...
  105.2500     2.2710    87.7910     7.5210     6.1870     6.4030    24.8370    -5.7600 
  105.3750     2.1950    82.1220     9.0920     7.1970     7.3420    24.7470    -5.5540 
  105.5000     2.1310    74.7780    11.4800     8.8790     9.5400    24.7520    -5.4260 
  105.6250     2.1000    67.9540    14.1290    10.9310    14.0960    24.9810    -5.3470 
  105.7500     2.1240    62.7630    16.1640    12.7480    19.3040    25.3760    -5.3360 
  105.8750     2.1790    60.4350    16.6740    13.5330    20.2190    25.6500    -5.3890 
  106.0000     2.2230    63.7130    15.3750    12.8470    15.7150    25.4920    -5.4410 
  106.1250     2.2230    67.5070    13.5850    11.6000    11.5410    25.1310    -5.5210 
  106.2500     2.1840    68.3500    12.2920    10.5270     9.5030    24.6720    -5.5770 
  106.3750     2.1480    67.2920    12.0150    10.0420     9.1210    24.2300    -5.6210 
  106.5000     2.1420    66.1430    13.0600    10.4410    10.2420    23.9090    -5.6150 
  106.6250     2.1640    65.9450    15.1140    11.6290    11.9140    23.7920    -5.5480 
  106.7500     2.1810    65.8930    17.9270    13.5480    13.7060    23.8360    -5.4350 
  106.8750     2.1690    64.6970    21.1080    16.0140    14.6270    23.9240    -5.2670 
  107.0000     2.1320    60.5670    24.0330    18.6290    16.1170    24.1760    -5.0830 
  107.1250     2.0980    54.7720    26.1730    20.8280    18.9020    24.7550    -4.8950 
  107.2500     2.1050    51.7030    27.2700    22.2480    22.0890    25.5720    -4.7210 
  107.3750     2.1430    52.5560    27.3680    22.7940    23.5210    26.1750    -4.5720 
  107.5000     2.1870    56.3870    26.6870    22.5540    21.7490    26.1810    -4.4680 
  107.6250     2.2130    62.5640    25.7800    21.9910    19.4050    25.8350    -4.3850 
  107.7500     2.2150    68.8180    24.9870    21.4050    17.9550    25.4800    -4.3440 
  107.8750     2.2040    71.1520    24.4820    20.9860    17.7960    25.3570    -4.3030 
  108.0000     2.1920    66.4050    24.2230    20.7600    17.8080    25.3560    -4.2950 
  108.1250     2.1800    60.0780    23.9360    20.5460    17.4790    25.3690    -4.3090 
  108.2500     2.1510    57.6650    23.4430    20.1990    17.1840    25.3520    -4.3230 
  108.3750     2.0920    59.1490    22.6980    19.6580    16.7750    25.4400    -4.3580 
  108.5000     2.0100    61.6980    21.8170    18.9710    15.5860    25.6410    -4.3690 
  108.6250     1.9380    62.7730    21.0680    18.3370    14.9190    25.9310    -4.3550 
  108.7500     1.9360    62.1530    20.6280    17.9170    14.9050    26.1080    -4.3320 
  108.8750     2.0280    60.6920    20.5250    17.7860    15.5550    26.0820    -4.3150 
  109.0000     2.1860    60.3760    20.6450    17.9060    15.4850    25.8500    -4.2310 
  109.1250     2.3150    63.1100    20.7920    18.0960    14.5080    25.2880    -4.0770 
  109.2500     2.3300    65.8390    20.9270    18.2770    13.4110    24.4170    -3.8960 
  109.3750     2.2790    65.1650    21.1670    18.4780    12.6840    23.7310    -3.6440 
  109.5000     2.2100    63.0960    21.8460    18.9100    12.8140    23.5180    -3.2970 
  109.6250     2.1530    63.9750    23.1520    19.7660    14.2150    23.5970    -2.9390 
  109.7500     2.1220    65.5230    25.1240    21.1640    17.6620    24.0540    -2.5570 
  109.8750     2.1230    64.2090    27.5530    23.0470    23.7960    24.8440    -2.1300 
  110.0000     2.1400    59.3260    29.9150    25.1130    28.8470    25.7550    -1.7390 
  110.1250     2.1500    55.2410    31.6340    26.8390    30.4230    26.1210    -1.4100 
  110.2500     2.1370    54.3110    32.4350    27.8730    29.0560    26.1610    -1.0710 
  110.3750     2.1110    55.8250    32.4480    28.1810    27.2200    26.0740    -0.7390 
  110.5000     2.0850    56.1900    32.0920    28.0130    25.4580    25.9800    -0.5170 
  110.6250     2.0710    54.0710    31.7610    27.7610    24.8750    25.9760    -0.3630 
  110.7500     2.0780    52.9630    31.4700    27.5010    25.7490    26.0800    -0.2180 
  110.8750     2.0970    56.1860    31.0990    27.1730    26.5360    26.1250    -0.1100 
  111.0000     2.1180    61.0500    30.5790    26.7240    25.7200    26.0570    -0.0500 
  111.1250     2.1330    60.6780    30.0620    26.2680    24.3040    25.9220    -0.0060 
  111.2500     2.1380    56.7820    29.7370    25.9630    23.6140    25.7890     0.0060 
  111.3750     2.1350    56.3270    29.7440    25.9410    23.7510    25.7680    -0.0060 
  111.5000     2.1300    59.3630    30.1270    26.2770    24.9910    25.8430    -0.0410 
  111.6250     2.1250    60.5870    30.6420    26.7880    26.3570    25.8800    -0.1070 
  111.7500     2.1230    60.3940    31.0610    27.2730    27.3040    25.8910    -0.2090 
  111.8750     2.1210    61.3310    31.2100    27.5470    27.6080    25.8690    -0.3230 
  112.0000     2.1210    62.7270    30.9970    27.4820    26.9610    25.7910    -0.4520 
  112.1250     2.1270    63.1390    30.5820    27.1900    26.3550    25.7100    -0.6100 
  112.2500     2.1210    62.6270    30.1120    26.7960    25.7980    25.7570    -0.7740 
  112.3750     2.1270    60.5220    29.6930    26.4010    24.5950    25.9100    -0.9460 
  112.5000     2.1420    59.3140    29.3180    26.0380    23.9970    26.0040    -1.1290 
  112.6250     2.1600    60.1170    28.8960    25.6560    24.1800    26.0770    -1.2600 
  112.7500     2.1700    61.8900    28.3740    25.2080    24.6750    26.1730    -1.3640 
  112.8750     2.1690    62.4050    27.7690    24.6890    25.5100    26.4510    -1.4950 
  113.0000     2.1590    61.8240    27.1790    24.1570    25.1650    27.2030    -1.5810 
  113.1250     2.1520    60.8360    26.7090    23.7030    24.3150    28.1490    -1.6110 
  113.2500     2.1540    57.2840    26.3920    23.3740    23.4820    28.7530    -1.6740 
  113.3750     2.1610    52.7320    26.1800    23.1480    23.2520    28.9360    -1.7580 
  113.5000     2.1570    50.6390    25.9530    22.9270    22.9840    28.9580    -1.7840 
  113.6250     2.1400    51.7240    25.5920    22.5890    22.6620    29.0900    -1.8040 
  113.7500     2.1180    53.4500    25.0260    22.0650    21.5200    29.2570    -1.8510 
  113.8750     2.1030    54.5770    24.2530    21.3490    19.9290    29.1480    -1.9100 
  114.0000     2.1050    58.3190    23.3480    20.5050    19.0930    28.3410    -1.9940 
  114.1250     2.1180    62.1010    22.4610    19.6690    18.6780    27.1660    -2.0780 
  114.2500     2.1360    63.4600    21.6910    18.9310    18.4680    26.2400    -2.1760 
  114.3750     2.1520    64.1070    21.1060    18.3530    18.1480    25.7740    -2.3010 
  114.5000     2.1690    65.7010    20.7910    18.0090    17.7950    25.5340    -2.4510 
  114.6250     2.1900    66.6340    20.7210    17.8700    17.8180    25.4580    -2.6310 
  114.7500     2.2090    65.6190    20.8860    17.9150    17.9160    25.4760    -2.8430 
  114.8750     2.2150    64.2450    21.2470    18.1090    18.1270    25.5490    -3.0580 
  115.0000     2.1990    63.1120    21.7240    18.4010    18.0060    25.6920    -3.2700 
  115.1250     2.1680    60.6300    22.1510    18.6770    17.2200    25.7330    -3.5160 
  115.2500     2.1320    59.1250    22.3830    18.8290    15.9330    25.4100    -3.7660 
  115.3750     2.1050    60.7890    22.2940    18.7460    14.9300    24.8680    -3.9860 
  115.5000     2.0980    63.6550    21.7130    18.2730    15.1680    24.4570    -4.1850 
  115.6250     2.1080    65.5020    20.7100    17.4410    14.9080    24.3460    -4.3790 
  115.7500     2.1310    67.2050    19.4170    16.3460    13.8700    24.4890    -4.5000 
  115.8750     2.1610    69.6780    18.0930    15.1970    12.8940    24.6830    -4.5290 
  116.0000     2.1890    72.6330    17.1490    14.3230    12.4300    24.7900    -4.5210 
  116.1250     2.2050    73.4090    16.8130    13.9160    11.8370    24.7030    -4.4400 
  116.2500     2.2030    70.6360    17.1990    14.0920    11.7660    24.4840    -4.2360 
  116.3750     2.1870    64.8560    18.2680    14.8710    12.8390    24.3800    -3.9790 
