~V
VERS. 2.00: Ver 2.00
~W
STRT.M 51.0000:
STOP.M 221.0000:
STEP.M 0.1250:
NULL. -999.2500:
UWI. F10616:
~C
DEPT.M :
GR.API :
RML.OHMM :
RI. :
RXO.OHMM :
CALI.CM :
DEN.GM/CC :
SP.MV :
~A
# ...
  152.2500    46.4690    15.5540    12.7490    11.9280    23.3900     2.4230   -11.9470 
  152.3750    45.1320    15.5680    12.7150    12.0640    23.4660     2.4350   -12.1400 
  152.5000    43.3710    15.7290    12.8100    12.3710    23.5160     2.4460   -12.3090 
  152.6250    43.1220    15.9670    12.9760    12.7880    23.4870     2.4570   -12.4630 
  152.7500    45.2520    16.1870    13.1370    13.0040    23.4760     2.4700   -12.5970 
  152.8750    47.3390    16.2710    13.2160    12.5590    23.6960     2.4820   -12.6930 
  153.0000    46.9440    16.2250    13.2150    12.2370    24.0150     2.4910   -12.7840 
  153.1250    44.5590    16.1650    13.2030    11.8320    24.3060     2.4960   -12.8330 
  153.2500    43.1740    16.2770    13.2930    11.7950    24.4700     2.4980   -12.8550 
  153.3750    43.7810    16.7520    13.6140    12.4070    24.6630     2.5000   -12.8320 
  153.5000    42.9360    17.4540    14.0950    13.0170    24.7310     2.5010   -12.7950 
  153.6250    40.7920    18.0970    14.5590    14.4090    24.7110     2.4980   -12.7410 
  153.7500    40.6020    18.3190    14.7560    16.7920    24.6360     2.4860   -12.6680 
  153.8750    43.9730    17.7860    14.4290    17.8740    24.5870     2.4670   -12.5820 
  154.0000    46.2240    16.7680    13.7300    14.9540    24.5620     2.4500   -12.4770 
  154.1250    45.2930    15.6720    12.9170    12.0020    24.5650     2.4450   -12.3910 
  154.2500    42.6240    14.8870    12.2530    10.8270    24.5760     2.4530   -12.3230 
  154.3750    41.8930    14.7030    11.9650    11.5180    24.5840     2.4690   -12.3110 
  154.5000    44.8270    14.9760    12.0200    12.1500    24.6040     2.4810   -12.3360 
  154.6250    49.0670    15.4980    12.3250    12.4310    24.6490     2.4840   -12.4070 
  154.7500    50.8170    16.0260    12.7210    12.9100    24.6830     2.4830   -12.5080 
  154.8750    47.4750    16.3330    13.0280    13.6110    24.6570     2.4820   -12.6330 
  155.0000    42.8390    16.4320    13.1970    14.0680    24.6460     2.4830   -12.7720 
  155.1250    40.6590    16.4260    13.2760    13.9280    24.6830     2.4870   -12.9110 
  155.2500    41.9580    16.4420    13.3530    13.7100    24.7120     2.4890   -13.0600 
  155.3750    45.1230    16.5790    13.5020    13.9440    24.6920     2.4910   -13.1960 
  155.5000    47.6350    16.8050    13.7140    14.4610    24.6380     2.4940   -13.3390 
  155.6250    47.4770    17.0310    13.9320    15.1290    24.5990     2.4990   -13.4680 
  155.7500    44.8440    17.1450    14.0710    15.7880    24.5830     2.5010   -13.5990 
  155.8750    42.5510    17.0480    14.0390    15.3220    24.5910     2.4910   -13.7330 
  156.0000    43.3770    16.8010    13.8720    14.6910    24.6070     2.4690   -13.8690 
  156.1250    47.8490    16.4310    13.6020    14.0360    24.6070     2.4420   -13.9960 
  156.2500    53.9990    15.8960    13.2150    13.0740    24.5790     2.4210   -14.1020 
  156.3750    57.9090    15.0860    12.6170    12.7980    24.5600     2.4160   -14.1700 
  156.5000    59.1840    14.0660    11.8400    13.0960    24.5010     2.4210   -14.1770 
  156.6250    61.5370    12.9910    10.9900    13.0610    24.3800     2.4240   -14.1330 
  156.7500    67.9410    12.0790    10.2340    10.7820    24.2210     2.4170   -14.0250 
  156.8750    73.3990    11.5990     9.7880     9.2700    24.0950     2.4020   -13.8780 
  157.0000    73.1040    11.5380     9.6720     9.1780    24.0510     2.3900   -13.6940 
  157.1250    68.6800    11.8080     9.8440    10.2570    24.1930     2.3810   -13.4960 
  157.2500    65.0670    12.2450    10.1990    11.9710    24.5530     2.3710   -13.2950 
  157.3750    65.1500    12.6300    10.5830    12.0130    24.7710     2.3550   -13.0940 
  157.5000    68.5100    12.8270    10.8520    11.0480    24.8680     2.3320   -12.9360 
  157.6250    73.4170    12.8480    10.9680    10.4380    24.9120     2.3060   -12.8190 
  157.7500    75.8290    12.8040    10.9830    10.8250    24.9460     2.2790   -12.7670 
  157.8750    74.1330    12.8140    10.9810    11.4610    24.9420     2.2570   -12.7470 
  158.0000    72.4190    12.8590    10.9910    11.6880    24.8880     2.2470   -12.8040 
  158.1250    73.1860    12.8480    10.9720    11.6520    24.8130     2.2570   -12.8840 
  158.2500    73.6530    12.7150    10.8750    11.5020    24.8180     2.2900   -13.0130 
  158.3750    71.0210    12.5250    10.7210    11.6580    24.8750     2.3350   -13.1660 
  158.5000    68.6030    12.5190    10.6630    11.8050    24.9250     2.3670   -13.3500 
  158.6250    68.0490    12.9610    10.8850    11.1930    24.9510     2.3770   -13.5340 
  158.7500    68.0350    14.0620    11.5590    11.2270    24.9520     2.3660   -13.7110 
  158.8750    66.2550    15.9600    12.8520    13.0570    24.9060     2.3410   -13.8770 
  159.0000    64.3410    18.2500    14.5530    16.6050    24.7750     2.3150   -14.0150 
  159.1250    62.9050    20.3960    16.3220    21.0300    24.5410     2.2900   -14.1430 
  159.2500    61.7730    21.7380    17.6530    21.8840    24.2220     2.2700   -14.2260 
  159.3750    61.6640    21.5630    17.8780    18.4190    24.0500     2.2540   -14.2760 
  159.5000    61.7290    20.2200    17.0820    15.3340    23.9010     2.2400   -14.2820 
  159.6250    60.5610    18.3460    15.6790    15.5040    23.7650     2.2250   -14.2750 
  159.7500    58.2070    16.6500    14.2380    18.9110    23.6260     2.2130   -14.2290 
  159.8750    58.7750    15.8010    13.3280    20.2840    23.5690     2.2100   -14.1700 
  160.0000    62.6370    15.9680    13.1410    16.0010    23.5990     2.2190   -14.0920 
  160.1250    66.2030    17.2530    13.7830    12.9550    23.7750     2.2380   -13.9920 
  160.2500    64.9630    19.5870    15.2720    14.9610    23.9150     2.2600   -13.8950 
  160.3750    60.8510    22.6520    17.5520    20.9390    24.0120     2.2760   -13.8060 
  160.5000    59.9010    25.5060    20.0020    23.4290    24.1220     2.2830   -13.7440 
  160.6250    62.2700    27.2330    21.8700    21.9020    24.2950     2.2860   -13.6910 
  160.7500    62.4480    27.2790    22.4940    19.6880    24.4950     2.2840   -13.6960 
  160.8750    58.7370    25.8130    21.7030    19.0630    24.6160     2.2720   -13.7210 
  161.0000    57.1520    24.0640    20.4180    17.2930    24.5650     2.2510   -13.7890 
  161.1250    58.3590    22.7430    19.2680    16.1480    24.5220     2.2290   -13.8840 
  161.2500    59.4400    22.1460    18.5790    15.6580    24.5420     2.2130   -14.0100 
  161.3750    60.0120    22.3990    18.5340    16.4030    24.4100     2.2110   -14.1490 
  161.5000    60.3960    23.2240    18.9940    18.2080    24.2130     2.2220   -14.2890 
  161.6250    59.7930    24.4300    19.8520    20.0080    24.0940     2.2340   -14.4330 
  161.7500    58.0710    25.7960    20.9470    21.1120    24.0050     2.2390   -14.5490 
  161.8750    57.7370    27.0010    22.0310    19.8530    23.8590     2.2310   -14.6350 
  162.0000    58.9370    27.7440    22.8210    19.7330    23.7800     2.2170   -14.6660 
  162.1250    58.7820    27.8320    23.1260    20.1140    23.7770     2.2030   -14.6700 
  162.2500    58.9070    27.2530    22.8900    20.6270    23.8150     2.1940   -14.6370 
  162.3750    61.3170    26.1720    22.1790    20.4640    23.8140     2.1940   -14.5830 
  162.5000    64.6320    25.0390    21.3220    18.6270    23.8120     2.2050   -14.4860 
  162.6250    67.7700    24.1550    20.5720    16.9800    23.8530     2.2240   -14.3380 
  162.7500    69.0890    23.6660    20.1030    17.3320    23.9910     2.2470   -14.1570 
  162.8750    67.4990    23.5450    19.9810    18.8380    24.2920     2.2670   -13.9580 
  163.0000    63.7180    23.4960    20.0020    19.8200    24.6410     2.2770   -13.7740 
  163.1250    59.5410    23.2870    19.9650    20.1230    24.8720     2.2780   -13.5900 
  163.2500    55.9750    22.7830    19.7180    19.8240    24.9370     2.2720   -13.4150 
  163.3750    54.4510    21.9860    19.2250    18.8000    24.8780     2.2630   -13.2490 
