~V
VERS. 2.00: Ver 2.00
~W
STRT.M 50.0000:
STOP.M 265.0000:
STEP.M 0.1250:
NULL. -999.2500:
UWI. F10671:
~C
DEPT.M :
GR.API :
RML.OHMM :
RI. :
RXO.OHMM :
CALI.CM :
DEN.GM/CC :
SP.MV :
~A
# ...
  162.5000    56.4440    25.0240    22.4950    22.3090    24.6010     2.1930    -4.4640 
  162.6250    56.0510    24.1590    21.6500    21.1160    24.5700     2.1910    -4.6570 
  162.7500    61.5140    23.3320    20.8320    19.9690    24.4670     2.1900    -4.8600 
  162.8750    66.0930    22.5190    20.0370    19.0310    24.3160     2.1890    -4.9710 
  163.0000    66.1130    21.7260    19.2710    18.6430    24.1640     2.1890    -5.0420 
  163.1250    64.9000    21.0500    18.6070    18.4270    24.0850     2.1880    -5.1580 
  163.2500    64.7030    20.6100    18.1320    17.9650    24.0140     2.1840    -5.1850 
  163.3750    64.0710    20.5110    17.9360    17.0870    23.9190     2.1810    -5.1110 
  163.5000    62.7440    20.7830    18.0590    16.7880    23.8690     2.1790    -5.0410 
  163.6250    63.9160    21.3620    18.4910    17.8650    23.8200     2.1810    -4.9780 
  163.7500    65.3280    21.9840    19.0310    19.1760    23.8490     2.1830    -4.9030 
  163.8750    62.9790    22.4430    19.5120    20.0720    24.0900     2.1780    -4.8830 
  164.0000    57.3480    22.6390    19.8200    20.4680    24.3950     2.1610    -4.8620 
  164.1250    54.9750    22.6560    19.9780    20.3640    24.5330     2.1350    -4.7700 
  164.2500    57.6190    22.8020    20.2110    20.2360    24.5400     2.1210    -4.7370 
  164.3750    61.8560    23.2980    20.7190    20.1110    24.4730     2.1370    -4.8030 
  164.5000    64.0960    24.1880    21.5810    20.0280    24.3380     2.1880    -4.8490 
  164.6250    64.8530    25.2760    22.6990    20.6840    24.0640     2.2580    -4.9020 
  164.7500    66.1290    26.1330    23.7130    21.5700    23.7120     2.3070    -4.9910 
  164.8750    66.3090    26.4150    24.2840    21.5940    23.4630     2.3120    -5.0580 
  165.0000    64.1830    25.9350    24.1620    21.5380    23.4640     2.2780    -5.1650 
  165.1250    61.3690    24.6480    23.1870    20.8320    23.7630     2.2300    -5.3670 
  165.2500    61.1330    22.9080    21.6570    20.0320    24.1930     2.1970    -5.5480 
  165.3750    63.7900    20.9300    19.7870    18.6150    24.5210     2.1820    -5.6980 
  165.5000    66.5600    18.8670    17.7770    16.7240    24.6390     2.1810    -5.8650 
  165.6250    67.8620    16.8970    15.8360    14.7430    24.6200     2.1830    -5.9940 
  165.7500    67.8920    15.2300    14.1640    13.2280    24.5690     2.1840    -6.0630 
  165.8750    68.2280    14.1190    12.9630    11.8840    24.4760     2.1820    -6.1170 
  166.0000    70.7690    13.8050    12.4260    10.8780    24.3470     2.1830    -6.1380 
  166.1250    74.8160    14.6070    12.8440    11.3630    24.2450     2.2020    -6.0510 
  166.2500    76.2560    16.3690    14.1500    13.8980    24.1560     2.2470    -5.9390 
  166.3750    71.9530    18.9700    16.3140    18.1430    24.1230     2.3160    -5.8460 
  166.5000    63.3430    22.1900    19.2080    23.4640    24.2750     2.3980    -5.7710 
  166.6250    56.4070    25.6970    22.5930    28.1710    24.3480     2.4710    -5.7210 
  166.7500    52.2790    28.9940    25.9400    30.2030    24.3430     2.5230    -5.7210 
  166.8750    48.5500    31.6660    28.7860    29.7940    24.2930     2.5540    -5.7530 
  167.0000    45.5200    33.3180    30.7000    29.4410    24.2480     2.5690    -5.8240 
  167.1250    46.7490    33.3350    31.0670    29.9400    24.1630     2.5690    -5.9880 
  167.2500    49.6100    31.8000    29.9320    29.2930    24.0250     2.5590    -6.1350 
  167.3750    49.3730    28.9350    27.4670    25.9350    23.9120     2.5420    -6.2810 
  167.5000    46.5290    25.2840    24.1510    22.4420    23.9140     2.5260    -6.4820 
  167.6250    46.9680    21.6190    20.6750    19.4060    23.8010     2.5120    -6.6380 
  167.7500    51.4160    18.5630    17.6630    15.1680    23.5540     2.4910    -6.7830 
  167.8750    56.7920    16.3890    15.3970    12.2310    23.3740     2.4540    -6.9640 
  168.0000    62.3290    15.1920    13.9800    10.4390    23.4040     2.3990    -7.0720 
  168.1250    66.9650    15.1810    13.6000     9.8990    23.6340     2.3400    -7.0580 
  168.2500    68.5180    16.2130    14.1420    11.1610    23.8980     2.3030    -7.0780 
  168.3750    65.8680    18.2390    15.6090    14.3380    24.0390     2.3060    -7.0650 
  168.5000    61.9830    21.0850    17.9160    18.7120    24.1280     2.3500    -6.9300 
  168.6250    59.6950    24.4360    20.8890    23.4590    24.2400     2.4250    -6.7650 
  168.7500    57.9440    27.7080    23.9940    27.2030    24.3040     2.4950    -6.6120 
  168.8750    56.6670    30.4900    26.7980    29.8300    24.2930     2.5440    -6.4140 
  169.0000    55.8110    32.5480    28.9710    31.4240    24.2620     2.5680    -6.2270 
  169.1250    54.7680    33.7730    30.2760    32.1440    24.2520     2.5780    -6.1460 
  169.2500    52.5230    34.4270    30.9180    32.5650    24.2270     2.5900    -6.0370 
  169.3750    49.7400    34.5700    30.9770    32.8490    24.1880     2.6050    -5.9100 
  169.5000    48.8560    34.1440    30.4590    32.4160    24.1560     2.6170    -5.8350 
  169.6250    51.0650    32.9210    29.2280    30.5410    24.1380     2.6170    -5.8160 
  169.7500    53.4190    31.0010    27.4140    28.0920    24.1330     2.6060    -5.8010 
  169.8750    53.4830    28.5190    25.1460    25.4330    24.1430     2.5900    -5.8120 
  170.0000    52.1030    25.7360    22.6440    22.7000    24.1570     2.5740    -5.8210 
  170.1250    52.6980    23.0380    20.2220    20.7970    24.0970     2.5660    -5.7720 
  170.2500    54.2350    20.7800    18.1560    19.0420    23.9840     2.5630    -5.7810 
  170.3750    54.8360    19.2300    16.6540    17.2130    23.8920     2.5650    -5.8490 
  170.5000    54.8720    18.5680    15.8610    15.9300    23.8700     2.5700    -5.9110 
  170.6250    55.3630    18.9570    15.9460    16.0570    23.9170     2.5780    -5.9280 
  170.7500    54.6490    20.0050    16.6510    17.7570    23.9960     2.5870    -5.9200 
  170.8750    53.1680    21.2950    17.6930    20.6920    24.0870     2.5950    -5.8930 
  171.0000    53.5950    22.3290    18.6880    23.7470    24.1770     2.5990    -5.9040 
  171.1250    55.0730    22.5600    19.1530    25.9830    24.2620     2.5970    -5.9380 
  171.2500    56.3050    22.0330    18.9970    25.1540    24.3230     2.5930    -5.9150 
  171.3750    58.1410    21.0330    18.3690    21.9350    24.3510     2.5880    -5.8140 
  171.5000    61.2710    19.9790    17.5780    18.8370    24.3490     2.5840    -5.7190 
  171.6250    60.6890    19.2640    16.9570    17.4620    24.3160     2.5780    -5.6820 
  171.7500    56.0300    18.9320    16.6090    17.4760    24.2740     2.5710    -5.6420 
  171.8750    53.3230    18.8710    16.4930    17.8840    24.2720     2.5640    -5.6200 
  172.0000    55.7650    18.8970    16.4860    17.7020    24.3550     2.5600    -5.5590 
  172.1250    59.3600    18.7870    16.4100    17.2460    24.4570     2.5610    -5.4640 
  172.2500    60.0260    18.4260    16.1440    16.6060    24.5000     2.5640    -5.4300 
  172.3750    59.7770    17.7790    15.6380    16.0960    24.5090     2.5650    -5.4460 
  172.5000    60.1290    16.8760    14.9080    15.6070    24.5090     2.5570    -5.4170 
  172.6250    59.8530    15.8130    14.0250    15.0080    24.5090     2.5340    -5.4060 
  172.7500    59.1420    14.8010    13.1630    14.0570    24.5080     2.4990    -5.4040 
  172.8750    56.2120    14.0390    12.4800    13.1210    24.5030     2.4620    -5.3610 
  173.0000    50.9050    13.7090    12.1250    12.8310    24.4950     2.4340    -5.3670 
  173.1250    50.1020    14.0190    12.2870    13.1910    24.4720     2.4280    -5.4370 
  173.2500    56.9330    14.8600    12.9170    14.2550    24.4360     2.4420    -5.4760 
  173.3750    63.6490    16.0740    13.9300    16.0210    24.4020     2.4680    -5.5150 
  173.5000    62.3990    17.3840    15.1270    18.0150    24.3950     2.4950    -5.6160 
  173.6250    56.5290    18.3350    16.1450    18.9800    24.4130     2.5100    -5.6640 
