~V
VERS. 2.00: Ver 2.00
~W
STRT.M 49.0000:
STOP.M 254.0000:
STEP.M 0.1250:
NULL. -999.2500:
UWI. F10669:
~C
DEPT.M :
DEN.GM/CC :
GR.API :
RML.OHMM :
RI. :
RXO.OHMM :
CALI.CM :
SP.MV :
~A
# ...
  229.0000     2.5310    53.6420    22.6670    23.3430    38.6430    22.6710   -16.8610 
  229.1250     2.4410    51.0850    14.0700    14.5800    16.0670    22.6310   -16.5970 
  229.2500     2.3580    47.6490     9.0930     9.3210     8.4720    22.6390   -16.3700 
  229.3750     2.3130    42.8200     6.5770     6.7100     6.8230    22.7070   -16.2250 
  229.5000     2.3070    37.3340     4.9900     5.3850     5.9380    22.8340   -16.1290 
  229.6250     2.3260    33.5570     4.7670     4.8620     5.4860    22.9490   -16.0960 
  229.7500     2.3490    33.5360     4.9260     4.8360     5.4370    23.0230   -16.1250 
  229.8750     2.3590    35.3630     5.2440     5.0690     5.5710    23.0680   -16.2050 
  230.0000     2.3570    34.8300     5.5140     5.3210     5.8550    23.1020   -16.3090 
  230.1250     2.3540    32.3240     5.6620     5.4970     6.2450    23.0750   -16.4630 
  230.2500     2.3610    31.3390     5.6720     5.5660     6.5000    23.0020   -16.6200 
  230.3750     2.3810    32.0650     5.5660     5.5210     6.2180    22.9490   -16.7690 
  230.5000     2.4020    32.0340     5.4150     5.4150     5.9210    22.9470   -16.9130 
  230.6250     2.4140    32.1600     5.2600     5.2850     5.8870    22.9460   -17.0010 
  230.7500     2.4190    32.8180     5.1310     5.1580     5.9700    22.9600   -17.0590 
  230.8750     2.4240    32.5680     5.0570     5.0580     6.0890    22.9860   -17.0210 
  231.0000     2.4320    32.2430     5.0400     4.9840     6.2230    22.9740   -16.9430 
  231.1250     2.4360    33.1780     5.0780     4.9290     6.3710    22.9840   -16.8060 
  231.2500     2.4260    35.0540     5.1520     4.8900     6.4150    22.9940   -16.6260 
  231.3750     2.4040    36.4450     5.2510     4.8700     6.7150    22.9920   -16.4430 
  231.5000     2.3820    37.4090     5.3670     4.8750     6.6880    23.0190   -16.2230 
  231.6250     2.3740    38.0300     5.5070     4.9080     6.6200    23.0880   -15.9810 
  231.7500     2.3810    38.6900     5.6720     4.9670     6.7180    23.1230   -15.6980 
  231.8750     2.3970    40.1110     5.8360     5.0440     6.7110    23.1490   -15.3840 
  232.0000     2.4110    40.2530     5.9570     5.1090     6.8360    23.1680   -15.0630 
  232.1250     2.4210    38.4070     6.0070     5.1370     6.9330    23.2290   -14.7520 
  232.2500     2.4290    36.6220     5.9680     5.1070     7.0300    23.2910   -14.4650 
  232.3750     2.4390    36.9460     5.8390     5.0040     6.8310    23.3030   -14.1860 
  232.5000     2.4450    37.0940     5.6700     4.8530     6.5120    23.3000   -13.9340 
  232.6250     2.4430    35.4750     5.5020     4.6820     6.1440    23.3190   -13.7280 
  232.7500     2.4300    33.5990     5.3710     4.5250     5.9710    23.3690   -13.5680 
  232.8750     2.4160    33.3020     5.3040     4.4160     5.8430    23.4090   -13.4750 
  233.0000     2.4120    33.4240     5.2910     4.3610     5.7390    23.3750   -13.4000 
  233.1250     2.4200    32.8930     5.3180     4.3500     5.6910    23.2710   -13.3300 
  233.2500     2.4350    32.2510     5.3640     4.3610     5.7300    23.2790   -13.2570 
  233.3750     2.4440    33.5790     5.4000     4.3730     5.8590    23.3170   -13.1470 
  233.5000     2.4400    35.8390     5.4140     4.3830     5.9940    23.3280   -13.0430 
  233.6250     2.4220    37.5840     5.4320     4.4130     6.0330    23.2860   -12.8940 
  233.7500     2.4010    38.0640     5.5080     4.4980     6.0020    23.2560   -12.7320 
  233.8750     2.3940    37.1240     5.6930     4.6800     5.9020    23.2100   -12.5140 
  234.0000     2.4060    36.3980     5.9400     4.9180     6.0750    23.1810   -12.2440 
  234.1250     2.4280    35.6520     6.1460     5.1290     6.8330    23.2220   -11.9370 
  234.2500     2.4430    33.9660     6.1660     5.2010     8.2510    23.2540   -11.5780 
  234.3750     2.4370    32.7960     5.8640     5.0150     8.2510    23.2000   -11.2180 
  234.5000     2.4200    32.4760     5.3680     4.6420     6.8940    23.1070   -10.8150 
  234.6250     2.4000    31.6720     4.8490     4.2010     5.5080    23.0440   -10.4170 
  234.7500     2.3830    30.0600     4.4460     3.8110     4.7660    23.0000   -10.0280 
  234.8750     2.3690    29.2340     4.2480     3.5690     4.6140    23.0010    -9.6880 
  235.0000     2.3550    28.9530     4.1980     3.4600     4.6560    22.9760    -9.4180 
  235.1250     2.3390    28.5500     4.2290     3.4460     4.6720    22.9530    -9.2350 
  235.2500     2.3260    28.7300     4.2690     3.4760     4.5040    22.8950    -9.1430 
  235.3750     2.3160    29.8090     4.2750     3.4910     4.3690    22.8660    -9.1570 
  235.5000     2.3160    30.2180     4.2560     3.4690     4.3750    22.8920    -9.2530 
  235.6250     2.3350    29.5610     4.2300     3.4190     4.4590    22.9650    -9.4130 
  235.7500     2.3740    28.4200     4.2130     3.3680     4.4700    23.0290    -9.5950 
  235.8750     2.4160    27.8030     4.2070     3.3440     4.3420    23.0380    -9.8190 
  236.0000     2.4360    27.2580     4.1980     3.3500     4.2890    23.0280   -10.0370 
  236.1250     2.4250    26.8430     4.1690     3.3660     4.3320    23.0050   -10.2230 
  236.2500     2.3940    26.6110     4.1100     3.3610     4.3400    23.0170   -10.3820 
  236.3750     2.3610    25.8120     4.0180     3.3110     4.1430    23.0960   -10.4860 
  236.5000     2.3420    25.0430     3.9150     3.2350     4.0210    23.1510   -10.5590 
  236.6250     2.3370    25.2830     3.8150     3.1540     3.9160    23.2070   -10.5910 
  236.7500     2.3420    26.1170     3.7310     3.0870     3.8250    23.2420   -10.6260 
  236.8750     2.3520    24.6270     3.6630     3.0470     3.7660    23.2400   -10.6120 
  237.0000     2.3570    23.2550     3.6070     3.0270     3.7300    23.1770   -10.5800 
  237.1250     2.3510    25.5190     3.5820     3.0290     3.7640    23.0260   -10.5390 
  237.2500     2.3390    29.1070     3.6230     3.0570     3.7710    22.8890   -10.5040 
  237.3750     2.3310    29.1100     3.7740     3.1280     3.7590    22.8800   -10.4860 
  237.5000     2.3400    27.0420     4.0070     3.2380     3.8410    22.8910   -10.4710 
  237.6250     2.3690    26.7430     4.2800     3.3790     4.1070    22.8700   -10.4830 
  237.7500     2.4140    28.1620     4.5310     3.5320     4.4670    22.9100   -10.4800 
  237.8750     2.4550    27.6660     4.6900     3.6550     4.8200    23.1120   -10.5250 
  238.0000     2.4720    25.9370     4.7630     3.7300     5.1470    23.3700   -10.5960 
  238.1250     2.4630    26.2500     4.7800     3.7580     5.4940    23.5270   -10.6890 
  238.2500     2.4380    30.0240     4.7600     3.7570     5.0400    23.5970   -10.8280 
  238.3750     2.4170    35.3860     4.7080     3.7430     4.8590    23.6210   -10.9570 
  238.5000     2.4120    38.2310     4.6250     3.7260     4.7870    23.6500   -11.1240 
  238.6250     2.4140    37.0410     4.5200     3.7000     4.8550    23.6700   -11.2810 
  238.7500     2.4020    32.8900     4.4300     3.6540     4.9040    23.6650   -11.4500 
  238.8750     2.3640    29.8910     4.4150     3.5970     4.7370    23.6790   -11.6010 
  239.0000     2.3190    30.4850     4.4880     3.5600     4.7400    23.6670   -11.7220 
  239.1250     2.2930    31.7330     4.6180     3.5700     4.7300    23.6220   -11.8150 
  239.2500     2.3070    30.8620     4.7780     3.6440     4.5500    23.5870   -11.8350 
  239.3750     2.3630    29.5310     4.9680     3.7830     4.5930    23.5200   -11.8070 
  239.5000     2.4170    29.6030     5.1830     3.9480     4.8970    23.4280   -11.7100 
  239.6250     2.4340    29.7560     5.4060     4.1060     5.5470    23.3470   -11.5520 
  239.7500     2.4110    28.4240     5.6020     4.2440     5.9910    23.3120   -11.3400 
  239.8750     2.3760    27.5080     5.7360     4.3760     6.1240    23.3270   -11.1050 
  240.0000     2.3600    30.0010     5.8540     4.5420     6.4920    23.2950   -10.8220 
  240.1250     2.3730    34.9170     6.0340     4.7760     7.5820    23.2470   -10.5240 
