~V
VERS. 2.00: Ver 2.00
~W
STRT.M 52.0000:
STOP.M 239.0000:
STEP.M 0.1250:
NULL. -999.2500:
UWI. F10645:
~C
DEPT.M :
SP.MV :
GR.API :
RML.OHMM :
RI. :
RXO.OHMM :
CALI.CM :
DEN.GM/CC :
~A
# ...
   74.5000   -33.1210    67.2560     9.6080     7.3190     6.6040    24.7090     2.2050 
   74.6250   -32.5310    68.6710     9.1730     7.0130     6.5320    24.7620     2.2250 
   74.7500   -31.9040    73.5600     8.6190     6.5980     6.7320    24.7190     2.2080 
   74.8750   -31.2900    79.2890     8.0970     6.1650     6.7520    24.6540     2.1790 
   75.0000   -30.7210    86.0730     7.6770     5.7830     5.8720    24.6210     2.1540 
   75.1250   -30.2320    92.6210     7.3750     5.4960     5.4080    24.6650     2.1440 
   75.2500   -29.8430    93.3310     7.1740     5.3160     4.9600    24.7550     2.1460 
   75.3750   -29.5280    88.5350     7.0070     5.1970     5.1000    24.8490     2.1560 
   75.5000   -29.3180    84.2540     6.8290     5.1060     4.9870    24.9430     2.1720 
   75.6250   -29.2210    84.8620     6.6350     5.0310     4.7370    25.0350     2.2010 
   75.7500   -29.2620    86.1640     6.5070     5.0060     4.6560    25.1390     2.2470 
   75.8750   -29.3830    84.8930     6.5570     5.0770     4.6320    25.2180     2.2980 
   76.0000   -29.5730    83.2900     6.8670     5.2890     4.7080    25.3850     2.3300 
   76.1250   -29.7900    81.8360     7.4490     5.6590     5.1550    25.8900     2.3260 
   76.2500   -29.9880    76.8660     8.2090     6.1680     5.9410    27.1140     2.2740 
   76.3750   -30.1510    68.3880     8.8740     6.6800     6.8210    28.6280     2.1930 
   76.5000   -30.2510    61.3080     9.2080     7.0340     7.1220    29.5980     2.1050 
   76.6250   -30.2680    61.1960     9.0830     7.0880     6.7950    29.1420     2.0310 
   76.7500   -30.1890    68.8010     8.5370     6.7730     6.3430    27.2520     2.0110 
   76.8750   -30.0340    78.1160     7.9180     6.2950     5.8920    25.6890     2.0510 
   77.0000   -29.8060    84.8960     7.4800     5.8540     5.2530    24.7420     2.1340 
   77.1250   -29.5260    87.0230     7.3830     5.6060     4.7960    24.2190     2.2200 
   77.2500   -29.2120    83.8610     7.7010     5.6610     4.8120    23.9410     2.2660 
   77.3750   -28.9100    80.0190     8.2400     5.9350     5.2550    23.9350     2.2680 
   77.5000   -28.6310    77.3960     8.7710     6.3040     6.5870    24.0620     2.2440 
   77.6250   -28.3860    74.4990     9.0080     6.5810     8.1230    24.2230     2.2080 
   77.7500   -28.1640    72.1810     8.6830     6.5260     7.7730    24.4610     2.1720 
   77.8750   -27.9780    73.8610     7.9880     6.1630     6.1280    24.6290     2.1470 
   78.0000   -27.8110    79.7920     7.1990     5.6310     5.1820    24.6160     2.1430 
   78.1250   -27.6740    87.2140     6.5570     5.1120     4.6560    24.5030     2.1640 
   78.2500   -27.5650    91.0800     6.2130     4.7740     4.1910    24.4360     2.2090 
   78.3750   -27.4980    90.1610     6.1300     4.6420     4.2160    24.4410     2.2550 
   78.5000   -27.4820    86.7870     6.2910     4.7110     4.4640    24.4470     2.2810 
   78.6250   -27.5300    84.4210     6.6870     4.9560     4.7330    24.3970     2.2790 
   78.7500   -27.6420    83.7980     7.3260     5.3630     4.8960    24.2340     2.2580 
   78.8750   -27.7960    80.4400     8.0630     5.8460     5.1650    24.0160     2.2380 
   79.0000   -27.9780    74.3060     8.7270     6.3260     5.6590    23.9190     2.2240 
   79.1250   -28.1600    69.0160     9.1560     6.7220     6.2810    23.9520     2.2140 
   79.2500   -28.3420    67.8820     9.2680     6.9660     6.7770    24.0750     2.1960 
   79.3750   -28.4910    69.7980     9.2210     7.0940     6.7930    24.3020     2.1720 
   79.5000   -28.6030    70.9390     9.1290     7.1240     6.3660    24.5300     2.1550 
   79.6250   -28.6690    69.8960     9.0330     7.0550     6.0360    24.5700     2.1640 
   79.7500   -28.6910    69.3860     8.8640     6.8460     7.2360    24.5200     2.2180 
   79.8750   -28.6490    70.6760     8.5510     6.5110     8.9980    24.4920     2.2930 
   80.0000   -28.5740    74.2410     8.1010     6.0950     8.4260    24.4930     2.3570 
   80.1250   -28.4940    79.9860     7.6240     5.6960     6.0800    24.5100     2.3870 
   80.2500   -28.4070    85.0790     7.3140     5.4600     4.9270    24.5180     2.3800 
   80.3750   -28.3240    85.1660     7.2470     5.4210     4.9080    24.5100     2.3560 
   80.5000   -28.2360    79.9380     7.3960     5.5540     5.2260    24.4920     2.3200 
   80.6250   -28.1540    72.9730     7.6300     5.7640     5.7400    24.4830     2.2760 
   80.7500   -28.0750    69.3230     7.7320     5.8950     5.9170    24.4560     2.2360 
   80.8750   -28.0390    70.4760     7.6340     5.8700     5.5540    24.4110     2.2190 
   81.0000   -28.0310    73.6930     7.4280     5.7350     4.9380    24.4180     2.2340 
   81.1250   -28.0400    74.9610     7.2860     5.6080     4.6070    24.4500     2.2650 
   81.2500   -28.0850    71.0730     7.3880     5.6270     4.7970    24.4450     2.2830 
   81.3750   -28.1750    65.2670     7.7490     5.8160     5.3670    24.4070     2.2760 
   81.5000   -28.2980    61.2800     8.3250     6.1510     5.8570    24.3700     2.2550 
   81.6250   -28.4270    60.1870     9.0000     6.5610     6.0770    24.3760     2.2320 
   81.7500   -28.5480    61.3340     9.6190     6.9630     6.1670    24.4170     2.2140 
   81.8750   -28.6720    62.8640    10.1120     7.3250     6.3220    24.4570     2.1970 
   82.0000   -28.8050    65.2320    10.5080     7.6570     6.5570    24.4740     2.1810 
   82.1250   -28.9410    67.6750    10.8730     7.9780     6.8500    24.4770     2.1680 
   82.2500   -29.0620    66.7160    11.2670     8.3000     7.3450    24.4740     2.1630 
   82.3750   -29.1500    64.4150    11.7070     8.6390     7.8330    24.4610     2.1630 
   82.5000   -29.2280    64.1790    12.1670     9.0000     8.0500    24.4360     2.1630 
   82.6250   -29.3030    67.2470    12.5670     9.3440     7.9330    24.4080     2.1620 
   82.7500   -29.4120    69.7180    12.7240     9.5500     8.2300    24.5190     2.1810 
   82.8750   -29.5090    68.0170    12.5410     9.5320    10.7370    24.6300     2.2330 
   83.0000   -29.6060    65.6360    12.0110     9.2580    15.5130    24.6090     2.3110 
   83.1250   -29.7020    66.9430    11.2690     8.7880    15.1410    24.5170     2.3770 
   83.2500   -29.7960    70.5050    10.5920     8.2850     9.0790    24.4740     2.3790 
   83.3750   -29.8830    69.9850    10.1980     7.9120     6.8090    24.4780     2.3290 
   83.5000   -29.9620    66.3860    10.1580     7.7450     6.6560    24.4940     2.2630 
   83.6250   -30.0340    63.8390    10.4200     7.7910     7.0990    24.5190     2.2120 
   83.7500   -30.0740    62.3350    10.8420     8.0150     7.3900    24.5690     2.1880 
   83.8750   -30.0990    59.7990    11.2040     8.2700     7.3710    24.5950     2.1790 
   84.0000   -30.0960    57.2320    11.3970     8.4620     7.2970    24.6150     2.1760 
   84.1250   -30.0600    56.8180    11.4190     8.5540     7.3220    24.6340     2.1750 
   84.2500   -30.0000    59.3730    11.3270     8.5560     7.3190    24.5860     2.1750 
   84.3750   -29.9510    61.5620    11.2050     8.5130     7.2050    24.4840     2.1700 
   84.5000   -29.9080    62.1390    11.0970     8.4510     7.0740    24.3730     2.1540 
   84.6250   -29.8850    62.2660    11.0390     8.3890     6.9400    24.2650     2.1280 
   84.7500   -29.8890    63.5230    11.0690     8.3500     6.8440    24.0420     2.1080 
   84.8750   -29.9290    64.7980    11.1540     8.3400     6.9260    23.6690     2.1170 
   85.0000   -30.0060    64.7210    11.2440     8.3550     7.3090    23.3340     2.1550 
   85.1250   -30.1310    63.7170    11.2880     8.3760     7.5750    23.2220     2.1980 
   85.2500   -30.3030    62.5650    11.2380     8.3660     7.4760    23.5790     2.2090 
   85.3750   -30.4620    60.7410    11.1290     8.3040     7.2500    24.4350     2.1860 
   85.5000   -30.6170    58.0570    11.0110     8.1900     7.2780    25.4780     2.1380 
   85.6250   -30.7500    54.6780    10.9290     8.0610     7.3290    26.1960     2.0770 
