~V
VERS. 2.00: Ver 2.00
~W
STRT.M 56.0000:
STOP.M 256.0000:
STEP.M 0.1250:
NULL. -999.2500:
UWI. F10668:
~C
DEPT.M :
SP.MV :
GR.API :
RML.OHMM :
RI. :
RXO.OHMM :
CALI.CM :
DEN.GM/CC :
~A
# ...
   78.5000   -21.1730    85.5830     7.4020     5.0540     5.7650    24.4890     2.2750 
   78.6250   -21.0520    91.5000     7.2790     4.9360     5.5550    24.5080     2.2810 
   78.7500   -21.0220    94.9610     7.1720     4.8270     5.7360    24.5040     2.2720 
   78.8750   -21.0740    94.6110     7.1220     4.7550     5.8480    24.4690     2.2570 
   79.0000   -21.2220    91.9360     7.1700     4.7490     5.7990    24.4110     2.2480 
   79.1250   -21.4140    87.4710     7.3630     4.8460     5.6550    24.3160     2.2530 
   79.2500   -21.6840    82.9740     7.7210     5.0660     5.6470    24.0840     2.2720 
   79.3750   -21.9950    79.0090     8.2200     5.4030     6.2260    23.9010     2.2910 
   79.5000   -22.3260    74.9220     8.7150     5.7630     7.3350    23.8370     2.3000 
   79.6250   -22.6380    70.1930     9.0830     6.0550     9.0870    23.7760     2.2950 
   79.7500   -22.9070    67.1190     9.2830     6.2370    10.8810    23.7430     2.2820 
   79.8750   -23.1270    67.6470     9.4430     6.3670    10.7830    23.9220     2.2590 
   80.0000   -23.2920    70.4850     9.8020     6.5960     9.0360    24.2820     2.2220 
   80.1250   -23.4170    72.3800    10.4890     7.0180     9.9080    24.5840     2.1710 
   80.2500   -23.4770    70.5500    11.4460     7.6310    15.4590    24.7510     2.1140 
   80.3750   -23.4970    65.8860    12.2800     8.2320    24.8000    24.6500     2.0560 
   80.5000   -23.4600    63.4940    12.4440     8.4610    28.7520    24.1970     2.0220 
   80.6250   -23.3900    64.4420    11.6490     8.0880    20.3420    23.3500     2.0250 
   80.7500   -23.2900    67.5510    10.1320     7.1920    10.6790    22.3560     2.0660 
   80.8750   -23.1640    71.5400     8.5820     6.1400     7.4600    21.8650     2.1320 
   81.0000   -23.0130    74.8070     7.5360     5.3100     5.9340    21.7630     2.1910 
   81.1250   -22.8310    75.3080     7.1370     4.8470     5.0120    21.8320     2.2260 
   81.2500   -22.6210    73.7260     7.3450     4.7800     5.2990    21.9690     2.2320 
   81.3750   -22.3670    71.3220     8.0600     5.1030     6.8040    22.1890     2.2200 
   81.5000   -22.0910    67.7120     8.9360     5.6260     7.8500    22.5190     2.2060 
   81.6250   -21.7880    63.4460     9.6560     6.1660     8.2950    23.0430     2.1960 
   81.7500   -21.4640    60.9200     9.9390     6.5230     8.6840    23.7530     2.1910 
   81.8750   -21.1130    65.0950     9.6140     6.5130     8.8010    23.8880     2.1920 
   82.0000   -20.7540    73.5390     8.9620     6.2320     7.9960    23.2130     2.2020 
   82.1250   -20.3940    80.0600     8.2510     5.8230     6.2050    22.2720     2.2190 
   82.2500   -20.0620    81.8210     7.6750     5.4250     5.0810    21.7590     2.2360 
   82.3750   -19.7750    82.9060     7.3480     5.1470     4.8400    21.6880     2.2460 
   82.5000   -19.5360    85.6740     7.2050     4.9870     4.8600    21.7120     2.2490 
   82.6250   -19.3520    85.8940     7.1770     4.9170     4.8510    21.7860     2.2500 
   82.7500   -19.2230    84.5440     7.1740     4.8830     4.9020    21.9870     2.2500 
   82.8750   -19.1390    86.9200     7.0900     4.8160     5.0730    22.4050     2.2510 
   83.0000   -19.0830    89.2280     6.8910     4.6880     5.1750    23.0430     2.2580 
   83.1250   -19.0500    88.2140     6.6060     4.5080     5.1030    23.7570     2.2760 
   83.2500   -19.0240    87.3120     6.3150     4.3160     5.0010    24.3020     2.3050 
   83.3750   -18.9950    89.5900     6.1250     4.1690     4.7970    24.5190     2.3410 
   83.5000   -18.9610    91.3410     6.0730     4.1020     4.4800    24.5460     2.3720 
   83.6250   -18.9310    90.0840     6.1450     4.1180     4.4370    24.5170     2.3870 
   83.7500   -18.8920    88.0050     6.2800     4.1930     4.7790    24.4470     2.3850 
   83.8750   -18.8600    87.1730     6.3800     4.2720     5.1450    24.3340     2.3730 
   84.0000   -18.8260    88.7830     6.3750     4.2980     4.9970    24.1580     2.3630 
   84.1250   -18.8140    91.9930     6.2580     4.2510     4.5490    23.8700     2.3630 
   84.2500   -18.8090    95.0280     6.0790     4.1530     4.3470    23.6070     2.3760 
   84.3750   -18.8340    96.5220     5.9570     4.0680     4.2970    23.4350     2.3900 
   84.5000   -18.8650    96.7470     5.9930     4.0700     4.2890    23.3560     2.3910 
   84.6250   -18.9000    96.3400     6.2260     4.2010     4.4260    23.3170     2.3730 
   84.7500   -18.9270    94.8270     6.6250     4.4580     4.8180    23.3000     2.3390 
   84.8750   -18.9340    90.0990     7.0870     4.7900     5.6100    23.1440     2.3030 
   85.0000   -18.9190    83.5560     7.4520     5.0810     6.4810    23.0020     2.2780 
   85.1250   -18.8720    78.9300     7.6100     5.2440     6.9830    22.9710     2.2660 
   85.2500   -18.8200    79.0800     7.5310     5.2350     6.6130    23.0500     2.2630 
   85.3750   -18.7700    81.4220     7.2720     5.0710     5.7050    23.1650     2.2650 
   85.5000   -18.7320    81.8910     6.9950     4.8630     5.4280    23.2600     2.2680 
   85.6250   -18.7040    80.8220     6.8020     4.6900     5.5290    23.5040     2.2710 
   85.7500   -18.7000    80.4550     6.7480     4.6000     5.4880    24.1010     2.2740 
   85.8750   -18.7230    81.8820     6.8380     4.6180     5.4530    24.6640     2.2760 
   86.0000   -18.7740    83.7210     6.9710     4.6930     5.5050    24.9320     2.2790 
   86.1250   -18.8390    84.8680     7.0660     4.7750     5.6780    25.0010     2.2870 
   86.2500   -18.9100    85.3170     7.0740     4.8300     5.9040    24.9950     2.3020 
   86.3750   -18.9520    84.2030     6.9880     4.8410     5.8650    24.9650     2.3230 
   86.5000   -18.9840    84.4350     6.8790     4.8360     5.5710    24.9450     2.3370 
   86.6250   -18.9990    86.6400     6.8040     4.8440     5.3960    24.9110     2.3360 
   86.7500   -18.9920    87.8680     6.7930     4.8800     5.4290    24.8480     2.3180 
   86.8750   -18.9630    84.4310     6.8400     4.9400     5.7110    24.7760     2.2950 
   87.0000   -18.9230    78.8710     6.9110     5.0020     6.0110    24.7900     2.2800 
   87.1250   -18.8770    76.3230     7.0030     5.0630     6.1800    24.8170     2.2810 
   87.2500   -18.8290    79.1460     7.1370     5.1380     6.1790    24.8020     2.2930 
   87.3750   -18.7950    82.7990     7.3560     5.2640     6.0100    24.8050     2.2980 
   87.5000   -18.7730    80.6320     7.6310     5.4320     5.9340    24.8250     2.2860 
   87.6250   -18.7730    73.3600     7.8560     5.5820     6.2450    24.8060     2.2590 
   87.7500   -18.7890    69.2770     7.8720     5.6100     6.8410    24.7390     2.2290 
   87.8750   -18.8600    72.9670     7.5340     5.4080     7.1160    24.7020     2.2110 
   88.0000   -18.9890    78.5000     7.0570     5.0860     6.7460    24.7170     2.2110 
   88.1250   -19.2000    81.9160     6.7750     4.8400     5.9640    24.7490     2.2380 
   88.2500   -19.4990    81.8230     7.0300     4.8860     5.0950    24.7400     2.3050 
   88.3750   -19.9070    77.3930     8.2510     5.5050     5.7740    24.7350     2.4140 
   88.5000   -20.3760    70.0680    10.3880     6.7220     9.6150    24.7350     2.5140 
   88.6250   -20.9140    62.8490    13.1440     8.4580    20.1400    24.7110     2.5480 
   88.7500   -21.5100    57.1340    15.6900    10.3150    29.3330    24.6860     2.4950 
   88.8750   -22.1250    51.9610    16.5350    11.3740    22.7810    24.6780     2.3910 
   89.0000   -22.7100    49.6520    15.6100    11.2980    14.1490    24.7320     2.2890 
   89.1250   -23.2310    51.1700    13.8220    10.4580    11.2010    24.8070     2.2180 
   89.2500   -23.6670    54.5520    12.2050     9.4820    10.5060    24.8910     2.1830 
   89.3750   -23.9670    55.0430    11.3440     8.8360     9.7230    24.9470     2.1720 
   89.5000   -24.1780    52.9430    11.0340     8.5350     8.8180    24.8800     2.1610 
   89.6250   -24.2970    52.6930    11.0460     8.4870     8.5690    24.6490     2.1470 
