~V
VERS. 2.00: Ver 2.00
~W
STRT.M 52.0000:
STOP.M 240.0000:
STEP.M 0.1250:
NULL. -999.2500:
UWI. F10646:
~C
DEPT.M :
GR.API :
RML.OHMM :
RI. :
RXO.OHMM :
CALI.CM :
DEN.GM/CC :
SP.MV :
~A
# ...
  187.0000    54.5170    23.3250    20.3670    22.3870    24.1980     2.3020   -15.3190 
  187.1250    54.1940    24.5590    21.3960    21.5620    24.2040     2.3260   -15.2600 
  187.2500    53.5760    25.8380    22.5890    23.0240    24.1790     2.3450   -15.1820 
  187.3750    53.8840    26.6570    23.5270    27.3820    24.0860     2.3460   -15.1320 
  187.5000    55.4660    26.3060    23.5140    30.8860    24.0100     2.3270   -15.0130 
  187.6250    57.9520    24.8590    22.4780    28.1530    24.1170     2.3010   -14.8570 
  187.7500    59.8660    22.7940    20.7640    23.2570    24.2860     2.2800   -14.7520 
  187.8750    58.8950    20.8120    18.9760    19.4240    24.3350     2.2710   -14.6370 
  188.0000    58.1820    19.6230    17.7370    17.2640    24.3270     2.2650   -14.4590 
  188.1250    60.0110    19.3300    17.1940    16.8000    24.3660     2.2560   -14.3290 
  188.2500    61.7620    19.8470    17.3320    18.1180    24.4310     2.2470   -14.2540 
  188.3750    60.1480    20.9620    18.0320    20.0850    24.4880     2.2480   -14.1730 
  188.5000    58.4770    22.3860    19.1600    22.3700    24.4820     2.2650   -14.1350 
  188.6250    61.0510    23.7870    20.4710    23.4510    24.4080     2.2910   -14.1280 
  188.7500    65.4230    25.1560    21.8880    24.4360    24.3270     2.3140   -14.1110 
  188.8750    66.6340    26.7890    23.4800    26.4050    24.3100     2.3250   -14.0880 
  189.0000    62.2910    29.4350    25.6130    30.5490    24.3270     2.3220   -14.0930 
  189.1250    58.1960    33.4230    28.6200    33.5140    24.3650     2.3180   -14.1090 
  189.2500    58.2850    38.3660    32.5330    35.8760    24.4070     2.3240   -14.0990 
  189.3750    59.5020    42.4220    36.2720    39.6990    24.4300     2.3480   -14.0580 
  189.5000    55.6520    41.2170    36.2990    50.7430    24.3740     2.4000   -13.9870 
  189.6250    50.8670    33.9100    31.1270    63.4410    24.3170     2.4800   -13.8900 
  189.7500    49.7420    23.6030    22.8920    55.4720    24.2280     2.5680   -13.7140 
  189.8750    50.8820    14.5770    15.1500    28.4460    24.1760     2.6210   -13.5080 
  190.0000    50.9860     9.2740    10.0940    12.5190    24.2480     2.6000   -13.2850 
  190.1250    50.4490     6.5590     7.1310     6.1230    24.4440     2.5250   -12.9680 
  190.2500    49.3450     5.4390     5.6090     4.8480    24.4670     2.4290   -12.6140 
  190.3750    47.7650     5.2340     5.0170     4.8440    24.0520     2.3380   -12.2810 
  190.5000    47.8020     5.5840     5.0770     4.8430    23.9540     2.2720   -11.9410 
  190.6250    48.8530     6.0330     5.3670     4.8180    24.4420     2.2250   -11.5980 
  190.7500    49.5160     6.2400     5.6030     4.7050    24.6680     2.1930   -11.3320 
  190.8750    50.2090     6.0150     5.5990     4.6330    24.4400     2.1810   -11.1280 
  191.0000    52.2350     5.4220     5.3270     4.5260    24.0350     2.2050   -10.9420 
  191.1250    55.2480     4.8030     4.9550     4.4100    23.5890     2.2540   -10.8350 
  191.2500    57.6840     4.3550     4.5950     4.4700    23.3730     2.2970   -10.8060 
  191.3750    57.4530     4.1640     4.3200     4.9350    23.3630     2.3030   -10.8290 
  191.5000    54.5290     4.2420     4.1940     4.8240    23.5690     2.2650   -10.9100 
  191.6250    53.1390     4.4770     4.2170     5.2380    23.9950     2.2150   -11.0700 
  191.7500    55.8960     4.8390     4.3950     5.5300    24.3910     2.1790   -11.3080 
  191.8750    62.3510     5.3530     4.7330     5.5840    24.4520     2.1810   -11.5860 
  192.0000    69.9680     6.0640     5.2530     6.7560    24.1820     2.2330   -11.9180 
  192.1250    76.0930     6.8810     5.8820     8.8610    24.1510     2.3010   -12.3150 
  192.2500    80.8710     7.6590     6.5210    10.0800    24.2430     2.3530   -12.7250 
  192.3750    86.0730     8.2310     7.0430     9.9760    24.3140     2.3770   -13.1050 
  192.5000    90.1590     8.4560     7.3140     9.6630    24.3350     2.3830   -13.4790 
  192.6250    91.6800     8.4420     7.3680     9.5450    24.3380     2.3910   -13.8320 
  192.7500    92.9550     8.3330     7.2810     9.3960    24.3330     2.4060   -14.0930 
  192.8750    95.7770     8.2470     7.1450     9.1030    24.3240     2.4280   -14.2770 
  193.0000    99.0450     8.2340     7.0320     9.0560    24.2940     2.4530   -14.4530 
  193.1250    99.5100     8.2650     6.9670     9.1140    24.2420     2.4660   -14.5670 
  193.2500    97.6380     8.3130     6.9600     9.1630    24.2020     2.4570   -14.6040 
  193.3750    96.2290     8.3720     7.0100     9.1360    24.1700     2.4290   -14.6190 
  193.5000    96.7730     8.4500     7.0990     9.1910    24.1490     2.3930   -14.6630 
  193.6250    96.4150     8.5370     7.1890     9.4030    24.1400     2.3710   -14.6860 
  193.7500    92.7740     8.6120     7.2570     9.5230    24.1410     2.3740   -14.6860 
  193.8750    89.8170     8.6500     7.2800     9.4550    24.1480     2.3920   -14.6800 
  194.0000    92.4800     8.6240     7.2360     9.2320    24.1410     2.4050   -14.6270 
  194.1250    98.6500     8.5610     7.1410     9.0020    24.1370     2.4040   -14.5950 
  194.2500   103.5310     8.5000     7.0200     8.7980    24.1340     2.3920   -14.6310 
  194.3750   104.9320     8.4860     6.9190     8.6760    24.1320     2.3750   -14.7230 
  194.5000   106.4400     8.5820     6.9270     8.9210    24.1340     2.3630   -14.8050 
  194.6250   111.2340     8.8270     7.1060     9.1620    24.1340     2.3620   -14.9000 
  194.7500   116.0760     9.2620     7.5110     9.5180    24.1320     2.3730   -15.0590 
  194.8750   113.6580     9.9210     8.1560    10.2550    24.1280     2.3950   -15.2970 
  195.0000   101.0010    10.8110     9.0280    12.0250    24.1150     2.4210   -15.6020 
  195.1250    88.5670    11.7700     9.9790    14.0660    24.0960     2.4380   -15.8860 
  195.2500    82.5610    12.6110    10.8670    15.2830    24.0810     2.4420   -16.0960 
  195.3750    83.2660    13.1740    11.5610    14.9570    24.0820     2.4380   -16.2430 
  195.5000    85.7360    13.3750    11.9600    14.4450    24.1050     2.4310   -16.3780 
  195.6250    87.3530    13.3390    12.1260    14.5530    24.1180     2.4230   -16.4810 
  195.7500    88.0220    13.1180    12.0800    14.9550    24.1230     2.4150   -16.4910 
  195.8750    88.7790    12.7110    11.8170    14.7810    24.1240     2.4070   -16.4260 
  196.0000    90.3420    12.0630    11.2830    14.3650    24.1240     2.4000   -16.3100 
  196.1250    91.1480    11.2460    10.5470    13.1120    24.1240     2.3970   -16.1450 
  196.2500    90.9480    10.3650     9.7090    11.1620    24.1290     2.3970   -15.9570 
  196.3750    91.6220     9.5540     8.9010     9.6970    24.1300     2.4010   -15.7540 
  196.5000    92.1570     8.9360     8.2600     9.1490    24.1330     2.4060   -15.5240 
  196.6250    90.2700     8.5050     7.7910     9.0780    24.1460     2.4100   -15.3030 
  196.7500    86.1760     8.2540     7.4840     9.2180    24.1750     2.4140   -15.1230 
  196.8750    84.2780     8.2230     7.3490     9.2980    24.1950     2.4160   -14.9430 
  197.0000    86.5390     8.6940     7.5570     9.3110    24.1920     2.4110   -14.7430 
  197.1250    88.0730    10.0440     8.3320     9.8220    24.1590     2.4000   -14.5980 
  197.2500    86.3940    12.9200    10.1040    11.7830    24.0750     2.3910   -14.5490 
  197.3750    81.0650    18.1830    13.5830    18.0730    23.9370     2.3870   -14.6010 
  197.5000    75.2350    27.4480    20.4340    38.5330    23.8800     2.3850   -14.7170 
  197.6250    70.3460    40.5960    31.1120    86.7610    23.9440     2.3770   -14.8450 
  197.7500    66.6600    56.1020    44.7650   133.8380    24.0540     2.3570   -15.0190 
  197.8750    63.7620    69.5980    57.7300   125.0850    24.1090     2.3270   -15.2840 
  198.0000    61.4700    75.1000    64.3520    95.1930    24.0930     2.2990   -15.6230 
  198.1250    59.6250    75.2300    65.8000    77.8450    24.0520     2.2820   -15.9620 
