~V
VERS. 2.00: Ver 2.00
~W
STRT.M 58.0000:
STOP.M 240.0000:
STEP.M 0.1250:
NULL. -999.2500:
UWI. F10642:
~C
DEPT.M :
SP.MV :
GR.API :
RML.OHMM :
RI. :
RXO.OHMM :
CALI.CM :
DEN.GM/CC :
~A
# ...
   69.2500   -27.4780    80.6520     8.9620     7.1820     6.8210    23.8360     2.2140 
   69.3750   -27.3790    78.8670     9.6910     7.6850     6.9720    23.6300     2.2610 
   69.5000   -27.3380    74.4720    10.3880     8.2120     7.2890    23.6870     2.3010 
   69.6250   -27.3440    73.8580    10.7140     8.5410     7.8850    23.5740     2.3080 
   69.7500   -27.3890    75.2400    10.5350     8.5320     7.9520    23.4010     2.2920 
   69.8750   -27.4720    73.6430     9.9140     8.1790     7.4050    23.5400     2.2650 
   70.0000   -27.5630    72.1400     9.0750     7.6070     7.2580    23.9670     2.2400 
   70.1250   -27.6370    78.2590     8.2900     6.9940     6.8290    24.2820     2.2290 
   70.2500   -27.6890    85.3740     7.7180     6.4860     6.4350    24.4290     2.2300 
   70.3750   -27.6850    84.9220     7.4020     6.1460     6.6170    24.4800     2.2410 
   70.5000   -27.6370    78.9860     7.3010     5.9730     6.7350    24.4790     2.2540 
   70.6250   -27.5160    78.2130     7.3430     5.9410     5.9880    24.3950     2.2600 
   70.7500   -27.3350    81.8620     7.4340     5.9860     6.0290    24.2900     2.2530 
   70.8750   -27.1160    82.1720     7.5630     6.0970     6.7450    24.1350     2.2300 
   71.0000   -26.8620    77.3250     7.7750     6.2810     7.2660    23.9790     2.1980 
   71.1250   -26.5400    74.4960     8.1810     6.5880     6.7070    23.9520     2.1700 
   71.2500   -26.1840    74.1630     8.7910     7.0190     6.8550    23.8920     2.1510 
   71.3750   -25.8280    71.8990     9.5420     7.5480     8.3650    23.7330     2.1390 
   71.5000   -25.4640    67.3790    10.2990     8.1120     9.1450    23.5690     2.1320 
   71.6250   -25.1600    64.6850    10.8790     8.6030     8.9030    23.4800     2.1280 
   71.7500   -24.9180    64.0540    11.2230     8.9490     8.6180    23.4610     2.1240 
   71.8750   -24.7480    64.0140    11.3510     9.1230     8.6040    23.4610     2.1230 
   72.0000   -24.6520    63.4990    11.3300     9.1450     8.7920    23.4520     2.1260 
   72.1250   -24.6930    61.1150    11.1840     9.0260     8.9620    23.3830     2.1270 
   72.2500   -24.8290    59.1330    10.8940     8.7810     8.9910    23.3230     2.1230 
   72.3750   -25.0290    61.4700    10.4120     8.3900     8.7640    23.4050     2.1190 
   72.5000   -25.3170    67.7290     9.7640     7.8680     8.2880    23.5630     2.1240 
   72.6250   -25.6330    73.6260     9.0630     7.2880     7.3650    23.6410     2.1430 
   72.7500   -25.9280    75.8510     8.4430     6.7550     6.5260    23.4990     2.1710 
   72.8750   -26.2130    74.9560     7.9540     6.3270     6.0710    23.2470     2.1960 
   73.0000   -26.4590    73.7560     7.5770     6.0100     5.9870    22.9900     2.2110 
   73.1250   -26.6520    75.0130     7.2570     5.7800     5.9470    22.8080     2.2170 
   73.2500   -26.8130    78.6420     6.9720     5.5930     5.7570    22.6870     2.2240 
   73.3750   -26.9450    83.3210     6.7670     5.4560     5.4870    22.5660     2.2400 
   73.5000   -27.0320    87.9890     6.6970     5.3910     5.3120    22.4290     2.2750 
   73.6250   -27.0750    89.4330     6.7850     5.4220     5.1520    22.3190     2.3280 
   73.7500   -27.1150    86.3390     6.9520     5.5190     5.3750    22.2840     2.3750 
   73.8750   -27.1090    81.5940     7.1160     5.6370     6.2320    22.3370     2.3920 
   74.0000   -27.0810    78.7440     7.2110     5.7290     7.0600    22.5290     2.3730 
   74.1250   -27.0140    78.6240     7.2160     5.7560     6.1430    22.9400     2.3260 
   74.2500   -26.9470    78.7390     7.1960     5.7430     5.6910    23.5000     2.2790 
   74.3750   -26.8660    76.9180     7.1920     5.7200     5.9440    24.1820     2.2460 
   74.5000   -26.7820    74.1260     7.2130     5.7050     6.2720    24.6610     2.2310 
   74.6250   -26.6980    72.4550     7.2360     5.6980     6.4270    24.8190     2.2320 
   74.7500   -26.6270    72.0550     7.2040     5.6660     6.2940    24.8080     2.2410 
   74.8750   -26.5910    72.8400     7.0790     5.5770     6.0400    24.7770     2.2530 
   75.0000   -26.5810    76.1090     6.8740     5.4330     5.8260    24.7690     2.2690 
   75.1250   -26.6300    80.8050     6.6740     5.2860     5.6820    24.7830     2.2860 
   75.2500   -26.6910    81.7630     6.5690     5.2000     5.5540    24.7640     2.2970 
   75.3750   -26.7520    79.3560     6.6180     5.2170     5.4510    24.7180     2.2980 
   75.5000   -26.8430    78.3090     6.8550     5.3640     5.6180    24.7010     2.2890 
   75.6250   -26.9320    79.7350     7.2880     5.6620     6.1860    24.7280     2.2740 
   75.7500   -27.0080    80.1370     7.8040     6.0440     6.4630    24.7570     2.2570 
   75.8750   -27.0660    78.4190     8.2830     6.4330     6.7530    24.7710     2.2410 
   76.0000   -27.1120    74.2820     8.5820     6.7270     7.1500    24.7800     2.2290 
   76.1250   -27.1240    71.2040     8.5200     6.7850     7.3280    24.7940     2.2300 
   76.2500   -27.0900    72.7640     8.1450     6.6060     6.8630    24.7650     2.2450 
   76.3750   -27.0340    78.7000     7.5880     6.2550     6.2480    24.6870     2.2740 
   76.5000   -26.8920    84.2700     7.0470     5.8530     5.8660    24.6490     2.3080 
   76.6250   -26.7150    85.5340     6.7490     5.5650     5.6410    24.6420     2.3290 
   76.7500   -26.4920    84.0930     6.7750     5.4840     5.5560    24.6480     2.3310 
   76.8750   -26.2420    81.5970     7.1330     5.6510     5.7950    24.6550     2.3150 
   77.0000   -25.9580    78.3500     7.7570     6.0460     6.4140    24.6770     2.2900 
   77.1250   -25.6420    74.2170     8.4970     6.5920     7.1430    24.7170     2.2650 
   77.2500   -25.3140    71.7310     9.1150     7.1160     7.5950    24.7680     2.2480 
   77.3750   -24.9770    71.9370     9.4600     7.4910     7.7620    24.8720     2.2410 
   77.5000   -24.6640    71.6960     9.5040     7.6610     7.7320    25.0240     2.2400 
   77.6250   -24.3640    67.2500     9.3500     7.6540     7.5070    25.0600     2.2440 
   77.7500   -24.0910    64.2390     9.2330     7.6200     7.1950    25.0050     2.2460 
   77.8750   -23.8270    67.0250     9.3030     7.6660     7.0810    24.9320     2.2420 
   78.0000   -23.5660    71.9770     9.6440     7.8630     7.3250    24.9390     2.2270 
   78.1250   -23.3290    71.9180    10.2860     8.2650     7.4440    25.0120     2.2050 
   78.2500   -23.0960    68.2510    11.0220     8.7750     7.4520    25.1060     2.1870 
   78.3750   -22.8940    66.8780    11.5900     9.2410     7.6790    25.2390     2.1750 
   78.5000   -22.7230    68.2490    11.7770     9.5090     8.4180    25.2920     2.1720 
   78.6250   -22.5920    68.9180    11.6180     9.5430     9.3890    25.1990     2.1900 
   78.7500   -22.5220    68.7900    11.5570     9.5790     9.6680    25.0630     2.2420 
   78.8750   -22.4750    70.2940    11.9920     9.8690     9.2020    24.8530     2.3200 
   79.0000   -22.4730    72.5470    13.1640    10.6210     9.5230    24.5210     2.3880 
   79.1250   -22.4790    70.2820    15.0690    11.9770    13.1960    24.1200     2.3890 
   79.2500   -22.5100    64.4370    16.9610    13.5240    17.5640    23.7260     2.3360 
   79.3750   -22.5540    58.2500    17.9200    14.5770    15.9790    23.5220     2.2630 
   79.5000   -22.6200    55.1590    17.2260    14.4240    12.1770    23.3430     2.2080 
   79.6250   -22.7000    58.5840    14.8820    12.8190     9.2930    22.9420     2.1960 
   79.7500   -22.7690    65.7180    12.2180    10.7630     7.1230    22.4610     2.2150 
   79.8750   -22.8470    72.1550    10.0750     8.9620     6.1720    21.8490     2.2410 
   80.0000   -22.9130    74.6580     8.8010     7.7520     6.3770    21.3160     2.2540 
   80.1250   -22.9750    72.8400     8.5620     7.3200     6.6990    21.4110     2.2470 
   80.2500   -23.0220    70.7750     9.2080     7.5860     6.7500    21.8720     2.2350 
   80.3750   -23.0610    69.7980    10.8230     8.6390     7.1190    22.4200     2.2380 
