~V
VERS. 2.00: Ver 2.00
~W
STRT.M 49.0000:
STOP.M 221.0000:
STEP.M 0.1250:
NULL. -999.2500:
UWI. F10615:
~C
DEPT.M :
DEN.GM/CC :
GR.API :
RML.OHMM :
RI. :
RXO.OHMM :
CALI.CM :
SP.MV :
~A
# ...
  150.2500     2.4980    43.8950    18.4320    16.6170    16.3140    23.6540   -19.9320 
  150.3750     2.4820    43.5510    18.7490    16.9670    16.4870    23.5350   -20.0930 
  150.5000     2.4780    44.8160    18.6380    16.9510    16.8330    23.5470   -20.2670 
  150.6250     2.4820    48.4030    18.1820    16.6030    16.6910    23.6640   -20.4620 
  150.7500     2.4890    49.8860    17.5140    16.0240    15.9800    23.8180   -20.6210 
  150.8750     2.4900    46.6300    16.8170    15.3820    14.9920    23.9790   -20.7340 
  151.0000     2.4850    43.0060    16.2830    14.8810    14.2620    24.1530   -20.8540 
  151.1250     2.4820    44.0010    15.9650    14.5880    13.9790    24.2310   -20.9380 
  151.2500     2.4860    47.2070    15.8450    14.4800    14.0690    24.2470   -20.9300 
  151.3750     2.4980    48.5940    15.8400    14.4630    14.6060    24.2150   -20.8800 
  151.5000     2.5120    48.9360    15.8280    14.4140    15.2160    24.1520   -20.8270 
  151.6250     2.5160    48.8270    15.7390    14.2820    15.0910    24.1180   -20.7150 
  151.7500     2.5090    47.8050    15.5830    14.0960    14.4780    24.1090   -20.5490 
  151.8750     2.4970    46.4630    15.3860    13.9010    14.1880    24.1090   -20.3920 
  152.0000     2.4870    46.3200    15.1480    13.7080    14.1120    24.1090   -20.2360 
  152.1250     2.4860    46.2490    14.8760    13.4940    13.7210    24.1090   -20.0740 
  152.2500     2.4930    44.3240    14.5880    13.2540    13.4720    24.1090   -19.9310 
  152.3750     2.5040    41.0860    14.3230    13.0110    13.2340    24.1090   -19.8120 
  152.5000     2.5110    39.1670    14.1890    12.8380    12.1930    24.1070   -19.7400 
  152.6250     2.5130    40.5810    14.2430    12.7940    11.7300    24.0920   -19.6960 
  152.7500     2.5140    44.5910    14.4790    12.9050    12.2000    24.0530   -19.6880 
  152.8750     2.5110    47.7670    14.8160    13.1430    13.2870    24.0220   -19.7270 
  153.0000     2.4970    47.8820    15.1120    13.4350    13.9310    24.0740   -19.8010 
  153.1250     2.4770    47.0450    15.2580    13.6740    14.2670    24.1670   -19.9160 
  153.2500     2.4600    46.6510    15.2220    13.7850    14.5380    24.2220   -20.0760 
  153.3750     2.4560    45.5090    15.0390    13.7320    14.8290    24.2400   -20.2760 
  153.5000     2.4670    43.5940    14.7840    13.5250    15.0440    24.2290   -20.4800 
  153.6250     2.4790    43.3610    14.5510    13.2720    14.8750    24.0980   -20.6880 
  153.7500     2.4760    44.4450    14.4050    13.0640    14.5650    23.7740   -20.9270 
  153.8750     2.4560    44.6860    14.4070    12.9830    14.2890    23.4380   -21.1670 
  154.0000     2.4250    43.9190    14.6360    13.1130    14.2200    23.5850   -21.3620 
  154.1250     2.4000    44.3570    15.0530    13.4270    14.7470    23.9230   -21.5510 
  154.2500     2.3890    47.5160    15.5750    13.8620    15.9270    24.1410   -21.7500 
  154.3750     2.3950    51.1100    16.0360    14.2950    16.9040    24.2090   -21.8990 
  154.5000     2.4100    51.1410    16.1770    14.5000    17.0070    24.1930   -21.9950 
  154.6250     2.4220    49.1370    15.9240    14.3670    16.7900    24.1660   -22.1130 
  154.7500     2.4290    49.3330    15.3230    13.9080    16.6890    24.1390   -22.2080 
  154.8750     2.4320    53.3320    14.5180    13.2400    16.0780    24.1370   -22.2470 
  155.0000     2.4300    59.4150    13.6850    12.5220    14.3460    24.1680   -22.2820 
  155.1250     2.4200    64.4960    12.9190    11.8510    13.3470    24.1820   -22.3360 
  155.2500     2.4000    68.5620    12.2250    11.2340    13.4190    24.1850   -22.3750 
  155.3750     2.3730    72.1980    11.5990    10.6670    14.5180    24.1870   -22.3940 
  155.5000     2.3480    75.3550    11.0950    10.1940    13.8100    24.2020   -22.4170 
  155.6250     2.3310    77.1970    10.7640     9.8590    11.2240    24.2000   -22.4300 
  155.7500     2.3210    77.1400    10.6490     9.7090    10.1990    24.1750   -22.4210 
  155.8750     2.3210    76.4180    10.7530     9.7650    10.7080    24.1630   -22.4180 
  156.0000     2.3330    74.6610    11.0300    10.0240    12.6780    24.1410   -22.4490 
  156.1250     2.3490    73.3720    11.3270    10.3570    13.8620    24.1210   -22.4640 
  156.2500     2.3540    72.7130    11.5670    10.6620    12.7500    24.1120   -22.4610 
  156.3750     2.3370    70.6990    11.7440    10.8840    11.3130    24.1050   -22.5100 
  156.5000     2.3000    67.6870    11.8730    11.0120    11.3180    24.0540   -22.5660 
  156.6250     2.2640    67.1290    11.9350    11.0700    11.6430    24.0070   -22.6230 
  156.7500     2.2410    68.1960    11.8630    11.0300    12.0680    24.0430   -22.7200 
  156.8750     2.2400    68.7230    11.6090    10.8470    12.1990    24.1520   -22.7970 
  157.0000     2.2600    68.6670    11.2190    10.5140    11.6740    24.1960   -22.8320 
  157.1250     2.2900    69.3770    10.9100    10.1890    10.6870    24.1240   -22.8480 
  157.2500     2.3240    69.9690    10.8770    10.0410    10.0240    23.9770   -22.8420 
  157.3750     2.3570    69.7070    11.2330    10.1980     9.6710    23.8780   -22.8090 
  157.5000     2.3820    66.8730    11.9830    10.7280    10.8880    23.9300   -22.7550 
  157.6250     2.4000    62.2650    12.8610    11.4330    12.1570    24.0610   -22.6470 
  157.7500     2.4220    59.0110    13.6160    12.1000    13.3520    24.1600   -22.5070 
  157.8750     2.4520    59.0470    14.0500    12.5320    13.9550    24.2100   -22.4060 
  158.0000     2.4810    61.3990    14.0730    12.6020    13.2020    24.1560   -22.2920 
  158.1250     2.4870    62.9550    13.9230    12.4770    11.9140    24.0190   -22.1620 
  158.2500     2.4610    63.0540    13.8230    12.3440    11.3010    23.8740   -22.0960 
  158.3750     2.4120    61.8680    13.9250    12.3470    13.1090    23.8300   -22.0580 
  158.5000     2.3630    60.4610    14.3230    12.5790    13.7920    23.9730   -22.0350 
  158.6250     2.3300    61.5850    14.9940    13.0270    12.7610    24.2070   -22.1040 
  158.7500     2.3160    64.9650    15.9490    13.7090    12.4510    24.3740   -22.2270 
  158.8750     2.3130    68.8850    17.1840    14.6330    14.0670    24.4880   -22.3450 
  159.0000     2.3140    69.9960    18.7070    15.8170    15.3270    24.5230   -22.5040 
  159.1250     2.3120    68.1490    20.3820    17.1630    16.4570    24.4860   -22.7200 
  159.2500     2.3070    64.8180    22.0400    18.5470    18.3010    24.3900   -22.9090 
  159.3750     2.2970    61.9140    23.4580    19.7880    20.9630    24.3330   -23.0830 
  159.5000     2.2900    61.8560    24.3830    20.6680    22.4750    24.4380   -23.2970 
  159.6250     2.2930    62.1780    24.8670    21.2030    22.8630    24.6360   -23.4560 
  159.7500     2.3070    60.8210    24.9910    21.4400    23.3890    24.7570   -23.5780 
  159.8750     2.3220    57.8600    24.8800    21.4680    24.2690    24.7940   -23.7060 
  160.0000     2.3270    54.3920    24.6580    21.3810    24.7090    24.8120   -23.7820 
  160.1250     2.3200    52.7960    24.4240    21.2640    24.6000    24.8650   -23.8250 
  160.2500     2.3020    54.3770    24.2340    21.1540    24.2230    24.9490   -23.8490 
  160.3750     2.2780    57.6060    24.1720    21.1190    23.8630    24.9860   -23.8280 
  160.5000     2.2480    60.5280    24.3580    21.2900    24.0860    24.8850   -23.7660 
  160.6250     2.2170    62.9110    24.7580    21.6960    24.3130    24.5600   -23.6820 
  160.7500     2.1900    63.7460    25.2490    22.2820    24.6680    24.1770   -23.5470 
  160.8750     2.1710    62.2680    25.6230    22.8870    25.1740    24.1780   -23.4010 
  161.0000     2.1690    63.3080    25.5610    23.2140    26.0850    24.5480   -23.2890 
  161.1250     2.1780    66.6620    24.9690    23.0910    25.9780    24.7020   -23.1480 
  161.2500     2.1930    66.2850    23.8750    22.4650    24.2820    24.6530   -23.0190 
  161.3750     2.2100    60.4350    22.4280    21.4160    21.8200    24.5470   -22.9610 
