~V
VERS. 2.00: Ver 2.00
~W
STRT.M 50.0000:
STOP.M 216.0000:
STEP.M 0.1250:
NULL. -999.2500:
UWI. F10607:
~C
DEPT.M :
GR.API :
RML.OHMM :
RI. :
RXO.OHMM :
CALI.CM :
DEN.GM/CC :
SP.MV :
~A
   50.0000    41.6890     3.9030     0.2970     1.2870    25.5070  -999.2500  -999.2500 
   50.1250    41.8250     3.8780     0.3020     1.3110    25.4930  -999.2500  -999.2500 
   50.2500    41.0450     3.8070     0.2990     1.4300    25.4560     2.0000  -999.2500 
   50.3750    40.8560     3.6860     0.2880     1.5930    25.3950     2.0000  -999.2500 
   50.5000    42.7550     3.5380     0.2760     1.7410    25.3460     1.9840  -999.2500 
   50.6250    44.7780     3.4000     0.2700     1.9870    25.3480     1.9650  -999.2500 
   50.7500    45.6550     3.2920     0.2690     2.0770    25.3680     1.9570  -999.2500 
   50.8750    46.7140     3.2070     0.2670     1.7200    25.3650     1.9650  -999.2500 
   51.0000    47.5450     3.1410     0.2590     1.0630    25.2710     1.9830  -999.2500 
   51.1250    46.2850     3.0900     0.2460     0.8030    24.8560     2.0080  -999.2500 
   51.2500    44.6740     3.0380     0.2330     0.8820    23.9910     2.0370    75.2250 
   51.3750    44.2830     2.9880     0.2240     1.2030    22.8600     2.0690    75.2250 
   51.5000    44.1630     2.9560     0.2210     1.6130    21.9980     2.1000    75.2250 
   51.6250    41.9300     2.9690     0.2240     1.6820    21.9710     2.1300    75.2250 
   51.7500    40.3950     3.0160     0.2320     1.5010    22.4540     2.1610    75.2250 
   51.8750    42.1700     3.0540     0.2430     1.2260    23.0300     2.1950    75.2340 
   52.0000    45.0310     3.0330     0.2540     1.0730    23.4330     2.2310    75.0910 
   52.1250    44.0120     2.9120     0.2620     1.0310    23.6050     2.2600    74.7480 
   52.2500    40.8790     2.7410     0.2650     0.9910    23.7820     2.2740    74.3250 
   52.3750    39.1530     2.5710     0.2620     0.9670    23.9400     2.2710    73.9350 
   52.5000    39.0340     2.4320     0.2540     0.9690    23.9950     2.2540    73.7250 
   52.6250    37.3500     2.3290     0.2410     0.9760    23.9470     2.2340    73.6930 
   52.7500    35.3570     2.2370     0.2280     0.9990    23.8510     2.2200    73.7620 
   52.8750    34.8140     2.1400     0.2170     1.0570    23.7690     2.2180    73.8940 
   53.0000    35.9120     2.0380     0.2120     1.1210    23.7570     2.2290    74.1340 
   53.1250    37.6130     1.9390     0.2170     1.1480    23.7580     2.2530    74.4810 
   53.2500    39.5650     1.8590     0.2280     1.1800    23.6570     2.2840    74.9490 
   53.3750    40.4900     1.8110     0.2430     1.2350    23.4770     2.3190    75.5460 
   53.5000    39.1260     1.8000     0.2540     1.2880    23.3420     2.3570    76.2350 
   53.6250    36.8620     1.8160     0.2550     1.2490    23.3890     2.3970    77.0740 
   53.7500    35.4550     1.8220     0.2480     1.1950    23.5450     2.4350    78.0080 
   53.8750    34.9120     1.8010     0.2390     1.1600    23.6680     2.4660    79.0660 
   54.0000    35.1770     1.7630     0.2350     1.1490    23.6740     2.4860    80.2580 
   54.1250    35.9000     1.7340     0.2430     1.1440    23.6310     2.4900    81.5820 
   54.2500    36.8500     1.7260     0.2520     1.1440    23.6130     2.4850    83.0780 
   54.3750    37.2110     1.7300     0.2570     1.1580    23.5610     2.4800    84.7110 
   54.5000    37.1470     1.7290     0.2540     1.1850    23.4620     2.4790    86.4470 
   54.6250    37.0970     1.7140     0.2490     1.2090    23.3710     2.4840    88.1690 
   54.7500    37.5090     1.7030     0.2510     1.2310    23.2970     2.4940    89.7830 
   54.8750    38.7150     1.7130     0.2640     1.2480    23.2250     2.5080    91.2280 
   55.0000    39.7340     1.7400     0.2830     1.2690    23.1650     2.5210    92.3990 
   55.1250    38.3120     1.7510     0.2990     1.3450    23.1330     2.5160    93.2400 
   55.2500    35.1570     1.7210     0.3040     1.4800    23.0860     2.4850    93.6660 
   55.3750    31.6790     1.6460     0.2990     1.5530    23.1180     2.4290    93.6980 
   55.5000    29.8340     1.5490     0.2860     1.3950    23.4020     2.3620    93.3700 
   55.6250    30.6450     1.4660     0.2710     1.1270    23.8670     2.3090    92.8120 
   55.7500    31.9630     1.4160     0.2610     0.9850    24.2040     2.2850    92.2110 
   55.8750    32.3610     1.3990     0.2590     0.9980    24.3040     2.2930    91.6280 
   56.0000    31.7340     1.4030     0.2610     1.0770    24.2520     2.3200    91.0760 
   56.1250    31.4460     1.4040     0.2650     1.1360    24.1970     2.3500    90.5130 
   56.2500    32.6070     1.3870     0.2660     1.1680    24.1490     2.3690    89.9750 
   56.3750    35.2740     1.3490     0.2640     1.1860    24.0850     2.3810    89.4960 
   56.5000    38.2570     1.3010     0.2620     1.2120    23.8930     2.3930    89.0560 
   56.6250    38.8660     1.2670     0.2610     1.2620    23.4590     2.4150    88.5000 
   56.7500    37.5700     1.2620     0.2620     1.3260    23.0420     2.4430    87.6070 
   56.8750    36.2440     1.2800     0.2600     1.3690    22.8180     2.4680    86.2070 
   57.0000    36.3010     1.2680     0.2470     1.3990    22.7640     2.4810    84.1990 
   57.1250    37.0510     1.1000     0.2160     1.4120    22.7710     2.4820    81.3870 
   57.2500    37.7330     0.7830     0.1710     1.4200    22.7960     2.4890    77.8030 
   57.3750    37.6790     0.4540     0.1240     1.5010    22.8070     2.5330    73.2710 
   57.5000    37.0930     0.2320     0.0850     1.6560    22.7910     2.6210    67.7200 
   57.6250    37.9140     0.1550     0.0670     1.7770    22.7840     2.6820    60.8780 
   57.7500    38.8730     0.1870     0.0780     1.9940    22.7060     2.6530    52.9590 
   57.8750    39.0590     0.3620     0.1500     2.5860    22.5070     2.5410    44.0190 
   58.0000    39.6130     0.7790     0.3490     3.8860    22.4670     2.3940    34.3410 
   58.1250    42.6920     1.7330     0.8680     6.8210    23.1400     2.2540    24.3690 
   58.2500    47.4490     3.3650     1.8840     9.8770    24.3540     2.1460    14.5690 
   58.3750    51.3060     5.5580     3.5300    11.9570    25.5150     2.0810     5.2810 
   58.5000    51.9720     7.6770     5.5980    12.9350    26.0630     2.0620    -3.3170 
   58.6250    50.4960     8.8860     7.4400    12.9710    26.0670     2.0770   -10.8010 
   58.7500    50.9120     9.4170     8.7290    12.8700    25.9930     2.1000   -17.1200 
   58.8750    52.3070     9.7030     9.5560    12.6990    25.8750     2.1240   -22.1010 
   59.0000    51.2380     9.9590    10.0630    12.8800    25.6060     2.1460   -25.8320 
   59.1250    50.6090    10.1730    10.2850    13.1690    25.2020     2.1590   -28.4640 
   59.2500    55.8930    10.3090    10.3130    12.9690    24.8990     2.1630   -30.4250 
   59.3750    63.1700    10.3660    10.2130    12.3560    24.6980     2.1580   -31.9090 
   59.5000    65.7180    10.3760    10.0650    11.6530    24.5980     2.1480   -32.9970 
   59.6250    65.3590    10.3560     9.9290    11.0600    24.5600     2.1360   -33.7460 
   59.7500    66.5210    10.2660     9.7820    10.7240    24.5620     2.1250   -34.2840 
   59.8750    67.6850    10.0100     9.5360    10.4260    24.5530     2.1190   -34.6620 
   60.0000    67.4390     9.4980     9.0880    10.1640    24.5130     2.1260   -34.9430 
   60.1250    68.4290     8.6830     8.3550    10.2490    24.5680     2.1530   -35.1270 
   60.2500    71.3540     7.7400     7.4620     9.3090    24.5910     2.1950   -35.2910 
   60.3750    74.8380     6.8480     6.5620     7.3710    24.5490     2.2450   -35.4260 
   60.5000    80.3660     6.1700     5.8100     6.0890    24.4710     2.2950   -35.5590 
   60.6250    87.8430     5.8510     5.3530     5.4110    24.3910     2.3380   -35.7130 
   60.7500    91.8240     5.8410     5.1760     5.2810    24.2790     2.3730   -35.8670 
   60.8750    90.2900     6.0790     5.2460     5.5640    24.1210     2.3950   -36.0800 
   61.0000    85.4040     6.4620     5.4930     6.6360    23.9430     2.3990   -36.3030 
   61.1250    79.2950     6.8730     5.8280     8.1280    23.7400     2.3860   -36.5950 
