~V
VERS. 2.00: Ver 2.00
~W
STRT.M 49.0000:
STOP.M 254.0000:
STEP.M 0.1250:
NULL. -999.2500:
UWI. F10669:
~C
DEPT.M :
DEN.GM/CC :
GR.API :
RML.OHMM :
RI. :
RXO.OHMM :
CALI.CM :
SP.MV :
~A
# ...
  217.7500     2.2170    60.4070    93.8190    89.6180    67.3380    23.1070   -22.5340 
  217.8750     2.2020    61.3140    88.8690    86.6430    69.5360    23.2160   -22.4240 
  218.0000     2.1880    59.9620    82.8030    82.5660    70.5840    23.3490   -22.2990 
  218.1250     2.1820    59.0170    75.5570    77.1090    72.2220    23.4920   -22.1370 
  218.2500     2.1830    60.4280    77.6530    70.4490    67.7850    23.6020   -21.9360 
  218.3750     2.1900    61.4340    68.4410    63.1510    55.7850    23.6560   -21.7270 
  218.5000     2.1980    60.4400    60.1150    56.1160    44.3080    23.6780   -21.4750 
  218.6250     2.2060    59.6050    53.0980    49.8820    38.8060    23.6820   -21.2370 
  218.7500     2.2150    62.1910    47.4410    44.6600    36.3770    23.6920   -20.9660 
  218.8750     2.2260    66.9040    43.0640    40.4690    33.8800    23.7190   -20.7110 
  219.0000     2.2360    68.8020    39.4540    36.9100    31.4660    23.7430   -20.4990 
  219.1250     2.2480    67.3980    36.5400    33.9170    29.9660    23.7560   -20.3140 
  219.2500     2.2650    65.2110    34.5970    31.7020    28.9800    23.7510   -20.2270 
  219.3750     2.2840    66.1610    34.6610    31.1000    27.8540    23.7620   -20.1490 
  219.5000     2.2910    67.8440    37.5370    32.8250    26.6130    23.7560   -20.1140 
  219.6250     2.2780    67.9770    44.4630    38.1250    28.3020    23.7320   -20.1060 
  219.7500     2.2460    65.4320    56.9360    48.5810    37.1970    23.7080   -20.1480 
  219.8750     2.2100    59.7940    77.6190    66.4830    68.6280    23.7100   -20.2620 
  220.0000     2.1880    53.0430   104.1520    89.0630   118.7120    23.7290   -20.3830 
  220.1250     2.1850    48.6490   129.4290   110.2540   127.4340    23.7470   -20.5210 
  220.2500     2.1980    49.2000   142.6460   122.1640   107.6560    23.7620   -20.6480 
  220.3750     2.2150    52.5220   138.8880   120.4920    86.9730    23.7390   -20.7980 
  220.5000     2.2290    53.9410   129.6800   113.0670    80.3260    23.6830   -21.0110 
  220.6250     2.2370    54.1090   121.5510   105.5110    79.6970    23.5950   -21.2620 
  220.7500     2.2410    54.9620   115.9990   100.0560    79.1220    23.5160   -21.5450 
  220.8750     2.2390    55.8470   112.2380    96.6690    78.3080    23.5250   -21.8700 
  221.0000     2.2340    56.4710   109.2370    94.3230    74.3660    23.6290   -22.2230 
  221.1250     2.2260    56.6830   107.2920    93.0010    67.6680    23.6880   -22.6070 
  221.2500     2.2160    57.3170   107.1960    93.1710    62.9610    23.7030   -23.0160 
  221.3750     2.2080    58.2610   109.8870    95.6570    67.4340    23.7270   -23.4400 
  221.5000     2.2010    59.3130   114.2000    99.7210    77.2460    23.7670   -23.8310 
  221.6250     2.1960    59.9820   117.9530   103.7420    85.0020    23.8160   -24.1900 
  221.7500     2.1930    58.6460   118.1530   105.2730    88.4170    23.8390   -24.5240 
  221.8750     2.1960    57.1280   111.8140   101.4250    85.6330    23.8590   -24.7500 
  222.0000     2.2120    58.2220   101.3170    93.4340    78.5940    23.8480   -24.9600 
  222.1250     2.2410    60.1640    90.1160    83.9170    69.0270    23.8080   -25.1110 
  222.2500     2.2730    60.5910    81.2770    75.7420    60.7380    23.6730   -25.2140 
  222.3750     2.2870    58.5070    77.1450    71.3690    56.7950    23.5190   -25.3080 
  222.5000     2.2730    57.5650    77.3270    70.7630    58.4390    23.4850   -25.3570 
  222.6250     2.2380    57.9220    81.3660    73.6550    63.1740    23.6050   -25.4290 
  222.7500     2.1970    57.7840    88.3650    79.3990    70.7730    23.7000   -25.5070 
  222.8750     2.1680    56.6480    97.0060    87.0610    74.2070    23.7200   -25.6000 
  223.0000     2.1540    55.3270   105.1670    94.7530    74.7770    23.7070   -25.7050 
  223.1250     2.1510    54.4470   111.4580   101.1230    76.3790    23.6980   -25.8330 
  223.2500     2.1550    54.4230   115.2650   105.3720    86.9860    23.6920   -25.9640 
  223.3750     2.1630    54.2290   116.5700   107.1860    91.9400    23.6570   -26.1310 
  223.5000     2.1760    54.6570   116.6910   107.6820    85.2110    23.6050   -26.3210 
  223.6250     2.1910    56.1290   116.6890   107.8490    79.1890    23.6030   -26.5170 
  223.7500     2.2050    57.3420   117.5980   108.6520    79.8330    23.6440   -26.7210 
  223.8750     2.2100    56.7150   120.0820   110.6970    83.8760    23.5360   -26.9650 
  224.0000     2.2020    55.9150   122.6420   112.7360    91.3640    23.2520   -27.2370 
  224.1250     2.1830    57.2380   122.5810   112.5490    95.5030    23.0120   -27.5080 
  224.2500     2.1610    59.3380   117.6130   108.2500    94.1350    22.9900   -27.8080 
  224.3750     2.1470    59.1050   108.3030   100.0060    82.2280    23.0950   -28.0560 
  224.5000     2.1550    57.3190    99.6930    91.8420    69.9590    23.2050   -28.2900 
  224.6250     2.1980    56.0570    95.2730    86.9450    56.8120    23.3620   -28.4730 
  224.7500     2.2870    55.3450    96.6000    87.1120    57.4640    23.5640   -28.6250 
  224.8750     2.4170    53.4680   103.9360    92.8700    88.1040    23.6390   -28.7340 
  225.0000     2.5360    51.9750   113.2700   100.7180   141.7740    23.6410   -28.7440 
  225.1250     2.5970    52.0330   119.4780   106.5170   155.2240    23.6090   -28.7280 
  225.2500     2.5850    55.8590   117.7350   106.3260   112.0930    23.5230   -28.6250 
  225.3750     2.5240    62.0990   107.3850    98.6200    82.0990    23.3160   -28.4530 
  225.5000     2.4600    64.6030    95.4390    88.3570    65.6560    23.1280   -28.2320 
  225.6250     2.4190    62.6320    85.9550    79.2920    55.6610    22.9970   -27.9280 
  225.7500     2.4080    59.4560    80.1580    73.1970    53.5900    22.9510   -27.5570 
  225.8750     2.4110    61.1950    77.8870    70.4160    52.5130    22.9470   -27.1160 
  226.0000     2.4060    64.5220    77.3400    69.4500    53.1810    22.9020   -26.6450 
  226.1250     2.3920    67.0090    77.4650    69.3400    51.4110    22.8150   -26.1600 
  226.2500     2.3800    68.5330    77.6970    69.4900    45.4690    22.7820   -25.6650 
  226.3750     2.3790    68.2240    78.0990    69.8310    40.8960    22.9320   -25.1740 
  226.5000     2.3870    66.6470    78.9110    70.4930    42.7150    23.0830   -24.7100 
  226.6250     2.3980    64.4890    80.2520    71.5780    44.2080    23.0830   -24.2640 
  226.7500     2.4050    62.2300    81.9780    72.9890    53.5050    23.1210   -23.8340 
  226.8750     2.4120    59.3810    83.0330    73.9390    60.5710    23.3140   -23.4480 
  227.0000     2.4290    56.8530    81.6830    73.0580    67.0050    23.3910   -23.0770 
  227.1250     2.4570    56.8780    76.4890    69.1130    66.8940    23.3710   -22.7160 
  227.2500     2.4880    59.7380    67.5760    61.9530    69.3960    23.3040   -22.3690 
  227.3750     2.5120    61.7950    57.0530    52.8930    62.4600    23.1480   -22.0580 
  227.5000     2.5210    62.7000    47.9200    44.5220    46.8640    23.0570   -21.7220 
  227.6250     2.5130    64.7750    41.5820    38.3140    33.2660    23.0200   -21.4140 
  227.7500     2.4940    68.5480    38.4230    34.8620    30.0000    22.9790   -21.0820 
  227.8750     2.4830    70.2260    38.7070    34.5480    34.4990    23.0150   -20.7060 
  228.0000     2.4890    69.3520    41.5330    36.5940    46.8820    23.1440   -20.3340 
  228.1250     2.5080    68.1420    46.5230    40.6830    64.5530    23.2010   -19.9020 
  228.2500     2.5290    67.3850    53.2180    46.4610    71.6760    23.1740   -19.4760 
  228.3750     2.5460    65.5470    60.4480    53.0920    58.6920    23.1790   -18.9880 
  228.5000     2.5680    62.5870    64.9750    58.0100    52.4920    23.1440   -18.4840 
  228.6250     2.5990    60.3050    62.4750    57.6050    57.0030    23.0400   -18.0080 
  228.7500     2.6210    58.2720    51.1680    49.4480    68.2900    22.8870   -17.5600 
  228.8750     2.5980    56.0460    35.5890    35.7990    67.1510    22.7170   -17.1800 
