~V
VERS. 2.00: Ver 2.00
~W
STRT.M 52.0000:
STOP.M 238.0000:
STEP.M 0.1250:
NULL. -999.2500:
UWI. F10653:
~C
DEPT.M :
GR.API :
RML.OHMM :
RI. :
RXO.OHMM :
CALI.CM :
DEN.GM/CC :
SP.MV :
~A
# ...
   63.2500    70.6160     6.2100     5.2100     7.0750    23.8500     2.2350   -23.8280 
   63.3750    72.3640     6.0540     5.0540     6.4930    23.6750     2.2620   -23.4850 
   63.5000    74.0760     6.1600     5.1600     6.4060    23.4750     2.2570   -23.2550 
   63.6250    72.6130     6.7170     5.7170     7.1490    23.5050     2.2240   -23.1610 
   63.7500    68.1350     7.6350     6.6350     8.0730    23.7790     2.1950   -23.0850 
   63.8750    65.0550     8.6290     7.6290     9.0490    24.0890     2.1860   -23.0240 
   64.0000    69.1720     9.2920     8.2920    10.0420    24.2220     2.1990   -23.0130 
   64.1250    76.6310     9.2110     8.2110    10.9890    24.1210     2.2210   -22.9670 
   64.2500    77.0880     8.5220     7.5220    10.5670    24.0190     2.2350   -22.8320 
   64.3750    71.0310     7.5600     6.5600     8.9130    23.9710     2.2390   -22.5960 
   64.5000    67.7650     6.7130     5.7130     7.2780    23.9160     2.2440   -22.2470 
   64.6250    72.2450     6.2260     5.2260     6.6270    23.8510     2.2590   -21.7940 
   64.7500    76.1540     6.0010     5.0010     6.2010    23.9300     2.2750   -21.3270 
   64.8750    78.3260     5.9600     4.9600     5.8970    24.0930     2.2790   -20.9140 
   65.0000    82.4940     6.0420     5.0420     5.8250    24.2460     2.2710   -20.5160 
   65.1250    87.6590     6.1690     5.1690     6.1410    24.3580     2.2640   -20.1750 
   65.2500    87.5160     6.3040     5.3040     6.3220    24.4700     2.2800   -19.9040 
   65.3750    82.7100     6.4870     5.4870     6.3180    24.4740     2.3220   -19.7340 
   65.5000    78.5920     6.7190     5.7190     6.8140    24.4260     2.3720   -19.6340 
   65.6250    76.3990     6.9170     5.9170     7.4430    24.4420     2.3910   -19.6050 
   65.7500    74.7750     7.0440     6.0440     7.8640    24.4910     2.3700   -19.6560 
   65.8750    75.7570     7.0980     6.0980     7.4180    24.5280     2.3260   -19.7070 
   66.0000    80.9020     7.0500     6.0500     7.4160    24.6960     2.2850   -19.8010 
   66.1250    85.2550     6.8800     5.8800     7.0800    24.8420     2.2710   -20.0110 
   66.2500    84.0790     6.6660     5.6660     6.6660    24.9230     2.2740   -20.2750 
   66.3750    80.0570     6.4170     5.4170     6.2880    24.9340     2.2810   -20.5670 
   66.5000    78.5490     6.1370     5.1370     6.1730    24.9110     2.2800   -20.9570 
   66.6250    81.1930     5.9670     4.9670     6.1850    24.8170     2.2690   -21.4660 
   66.7500    82.9030     6.0790     5.0790     6.2650    24.6480     2.2680   -22.0690 
   66.8750    82.1540     6.5760     5.5760     6.7180    24.4950     2.3030   -22.7960 
   67.0000    79.1090     7.5030     6.5030     8.3580    24.4780     2.3760   -23.6210 
   67.1250    74.3560     8.8680     7.8680    12.7510    24.5420     2.4420   -24.5020 
   67.2500    70.4980    10.2910     9.2910    19.9530    24.5590     2.4440   -25.4440 
   67.3750    67.8490    11.2790    10.2790    21.0400    24.5360     2.3840   -26.3820 
   67.5000    65.5050    11.5010    10.5010    15.2600    24.5940     2.2920   -27.2370 
   67.6250    61.0380    10.9780     9.9780    11.0630    24.6370     2.2050   -27.9270 
   67.7500    56.1440    10.2310     9.2310     9.7620    24.6050     2.1530   -28.4620 
   67.8750    54.3740     9.6180     8.6180     9.3500    24.4950     2.1410   -28.8360 
   68.0000    56.1330     9.3340     8.3340     9.2340    24.3490     2.1540   -29.0700 
   68.1250    59.7880     9.3570     8.3570     9.2790    24.2340     2.1760   -29.1140 
   68.2500    62.3600     9.4270     8.4270     9.2160    24.2540     2.1950   -28.9530 
   68.3750    62.9070     9.4160     8.4160     8.9630    24.4300     2.2070   -28.7090 
   68.5000    61.6090     9.2760     8.2760     8.8790    24.6970     2.2100   -28.4140 
   68.6250    60.4090     8.9770     7.9770     8.8730    24.9570     2.2030   -28.0790 
   68.7500    60.6950     8.6760     7.6760     8.6750    25.1810     2.1930   -27.7500 
   68.8750    60.7250     8.6030     7.6030     8.6090    25.3340     2.1770   -27.4160 
   69.0000    58.4500     8.9700     7.9700     9.1880    25.3590     2.1530   -27.0730 
   69.1250    57.5390    10.0490     9.0490    11.9650    25.1930     2.1210   -26.7430 
   69.2500    59.2150    11.8050    10.8050    18.7450    24.9720     2.1080   -26.4490 
   69.3750    60.7230    14.0280    13.0280    29.4080    24.8830     2.1490   -26.1960 
   69.5000    59.9620    16.1120    15.1120    44.1550    24.8370     2.2560   -25.9960 
   69.6250    59.2320    16.9480    15.9480    58.2500    24.6140     2.3680   -25.8420 
   69.7500    61.5060    16.2760    15.2760    57.3100    24.2350     2.3950   -25.7250 
   69.8750    64.6560    14.5130    13.5130    35.9210    23.8870     2.3310   -25.6180 
   70.0000    65.8850    12.4240    11.4240    17.3200    23.6630     2.2310   -25.4790 
   70.1250    65.4320    10.6880     9.6880    11.0590    23.7140     2.1710   -25.2270 
   70.2500    67.6320     9.3980     8.3980     9.1390    23.8010     2.1780   -24.8830 
   70.3750    73.2140     8.4410     7.4410     8.0440    23.7940     2.2310   -24.4190 
   70.5000    80.2280     7.7220     6.7220     6.8440    23.6640     2.2840   -23.8650 
   70.6250    85.1360     7.2620     6.2620     5.9400    23.4290     2.3010   -23.3200 
   70.7500    86.7820     7.0210     6.0210     5.8320    23.1690     2.2910   -22.7430 
   70.8750    84.9370     6.9970     5.9970     6.0220    23.0070     2.2730   -22.2110 
   71.0000    80.9010     7.1860     6.1860     6.1540    23.0550     2.2560   -21.7490 
   71.1250    78.5900     7.5080     6.5080     6.5150    23.2660     2.2400   -21.4610 
   71.2500    79.9900     7.7720     6.7720     6.8990    23.4940     2.2230   -21.2990 
   71.3750    84.6740     7.9000     6.9000     7.0640    23.6210     2.2070   -21.2050 
   71.5000    88.0310     7.8930     6.8930     6.9620    23.6920     2.1920   -21.1720 
   71.6250    85.3530     7.7890     6.7890     7.1340    23.7580     2.1830   -21.1420 
   71.7500    81.7680     7.7030     6.7030     6.7630    23.7590     2.1790   -21.1300 
   71.8750    82.6630     7.7080     6.7080     6.3910    23.6040     2.1850   -21.1460 
   72.0000    86.1290     7.7790     6.7790     6.3400    23.3100     2.2000   -21.1810 
   72.1250    85.0090     7.7920     6.7920     6.6280    23.0770     2.2150   -21.2640 
   72.2500    81.0440     7.6830     6.6830     6.7840    23.2400     2.2200   -21.4020 
   72.3750    79.9930     7.4330     6.4330     6.4670    23.4700     2.2180   -21.6400 
   72.5000    83.0500     7.0800     6.0800     6.3400    23.5000     2.2200   -22.0070 
   72.6250    86.4540     6.7830     5.7830     6.1360    23.4810     2.2380   -22.5070 
   72.7500    90.0300     6.6740     5.6740     5.9790    23.4690     2.2550   -23.1220 
   72.8750    93.8040     6.7890     5.7890     5.8120    23.4740     2.2540   -23.8390 
   73.0000    93.4910     7.1270     6.1270     6.1310    23.5440     2.2320   -24.6400 
   73.1250    85.1450     7.6710     6.6710     7.0190    23.6020     2.2060   -25.4880 
   73.2500    76.4740     8.2540     7.2540     7.6830    23.5110     2.1920   -26.3600 
   73.3750    71.5830     8.7550     7.7550     7.8290    23.4350     2.1900   -27.2540 
   73.5000    67.2800     9.1420     8.1420     7.9970    23.4520     2.1920   -28.0610 
   73.6250    62.3520     9.4080     8.4080     7.9030    23.5140     2.1820   -28.7510 
   73.7500    61.3300     9.5650     8.5650     7.9470    23.5510     2.1600   -29.3010 
   73.8750    62.6650     9.6430     8.6430     8.0440    23.6420     2.1320   -29.6820 
   74.0000    61.1370     9.6670     8.6670     8.0550    23.7800     2.1090   -29.9430 
   74.1250    58.0130     9.6290     8.6290     7.9290    23.8890     2.0960   -30.0610 
   74.2500    58.1430     9.6180     8.6180     7.9940    23.7800     2.1000   -30.0940 
   74.3750    60.0230     9.7690     8.7690     8.0870    23.5410     2.1200   -29.9940 
