~V
VERS. 2.00: Ver 2.00
~W
STRT.M 50.0000:
STOP.M 212.0000:
STEP.M 0.1250:
NULL. -999.2500:
UWI. F10691:
~C
DEPT.M :
GR.API :
RML.OHMM :
RI. :
RXO.OHMM :
CALI.CM :
SP.MV :
DEN.GM/CC :
~A
# ...
  140.0000    40.3920    28.6880    25.1910    21.4770    24.2940   -10.5950     2.6160 
  140.1250    37.8530    29.4530    25.7530    22.5800    24.2940   -10.7280     2.6310 
  140.2500    38.5270    30.1480    26.2520    22.5430    24.2940   -10.8740     2.6360 
  140.3750    41.9960    30.6090    26.5720    21.9680    24.2940   -11.0150     2.6320 
  140.5000    45.5930    30.6600    26.5610    23.1020    24.2940   -11.1530     2.6240 
  140.6250    46.1090    30.1040    26.0120    24.7590    24.2940   -11.2950     2.6180 
  140.7500    44.5630    29.1260    25.0580    23.4740    24.2940   -11.4220     2.6160 
  140.8750    41.0340    27.9910    23.9270    20.7730    24.2940   -11.5410     2.6150 
  141.0000    37.4540    27.0160    22.9190    18.9870    24.2940   -11.6440     2.6100 
  141.1250    39.1120    26.5240    22.3700    18.9560    24.2950   -11.7400     2.5930 
  141.2500    43.4090    26.5130    22.3290    19.8880    24.3020   -11.8680     2.5680 
  141.3750    45.8440    26.8880    22.7520    20.5600    24.3460   -12.0220     2.5420 
  141.5000    47.1680    27.4710    23.4750    21.4310    24.3410   -12.1830     2.5200 
  141.6250    50.9620    28.0840    24.2530    20.9500    24.3020   -12.3670     2.5120 
  141.7500    52.6400    28.6510    24.8950    21.4790    24.2950   -12.5900     2.5210 
  141.8750    49.8410    29.1690    25.3520    22.9930    24.2940   -12.8320     2.5440 
  142.0000    46.4230    29.6220    25.6350    24.2210    24.2880   -13.0770     2.5750 
  142.1250    44.4370    29.9060    25.7250    23.7140    24.2540   -13.3110     2.6040 
  142.2500    43.1820    29.9200    25.6220    22.3650    24.1900   -13.5330     2.6230 
  142.3750    43.9800    29.5680    25.2740    22.6730    24.2690   -13.7410     2.6330 
  142.5000    46.6730    28.8310    24.6560    23.2240    24.3520   -13.8910     2.6350 
  142.6250    46.3500    27.8040    23.8020    22.0430    24.3200   -13.9560     2.6310 
  142.7500    42.8300    26.7790    22.9060    20.6580    24.2990   -13.9540     2.6190 
  142.8750    40.8860    25.9810    22.1290    19.3640    24.2940   -13.9100     2.6040 
  143.0000    42.5320    25.5900    21.6050    19.2400    24.2940   -13.8450     2.5930 
  143.1250    44.2660    25.7950    21.5020    18.7970    24.2940   -13.7700     2.5950 
  143.2500    44.8640    26.4740    21.7920    19.1950    24.2940   -13.6850     2.6050 
  143.3750    46.0700    27.4750    22.4300    20.5330    24.2940   -13.5860     2.6140 
  143.5000    48.3070    28.5550    23.3050    21.0570    24.2940   -13.5300     2.6130 
  143.6250    49.1300    29.2560    24.1700    20.9200    24.2940   -13.5300     2.5980 
  143.7500    47.9280    29.1510    24.6110    20.9300    24.2940   -13.5650     2.5780 
  143.8750    46.8570    27.9830    24.2700    21.3440    24.2940   -13.6240     2.5540 
  144.0000    46.2330    25.8580    23.0410    21.9950    24.3020   -13.6800     2.5270 
  144.1250    46.1070    23.2510    21.1470    20.9530    24.3480   -13.7340     2.4950 
  144.2500    47.7300    20.8860    19.2160    18.0340    24.4400   -13.7850     2.4640 
  144.3750    48.0120    19.1510    17.6400    14.9120    24.4540   -13.8260     2.4420 
  144.5000    43.9970    18.1380    16.5910    14.0250    24.4430   -13.8530     2.4340 
  144.6250    39.5150    17.7440    16.0890    14.4440    24.3680   -13.8660     2.4390 
  144.7500    40.3380    17.5750    15.8670    14.8960    24.2610   -13.8610     2.4480 
  144.8750    43.5690    17.3880    15.7320    14.7610    24.2750   -13.8460     2.4550 
  145.0000    43.9400    17.0490    15.5310    13.8390    24.2860   -13.8310     2.4590 
  145.1250    42.8780    16.5620    15.2000    12.8520    24.2720   -13.8040     2.4610 
  145.2500    43.4560    16.0690    14.8190    12.2620    24.2720   -13.7500     2.4640 
  145.3750    44.6900    15.6240    14.4410    12.3250    24.3450   -13.6820     2.4660 
  145.5000    44.7320    15.2140    14.0770    12.0950    24.3760   -13.6200     2.4660 
  145.6250    44.4360    14.8080    13.7130    11.7450    24.3810   -13.5600     2.4630 
  145.7500    44.1180    14.4160    13.3540    11.3650    24.3810   -13.5000     2.4600 
  145.8750    45.0120    14.1050    13.0390    11.1480    24.3810   -13.4390     2.4570 
  146.0000    47.6940    13.9580    12.8310    10.9010    24.3810   -13.3790     2.4580 
  146.1250    48.6090    14.0540    12.8080    10.8090    24.3770   -13.3310     2.4630 
  146.2500    47.2150    14.3090    12.9310    10.9600    24.3500   -13.3160     2.4720 
  146.3750    47.0530    14.6260    13.1350    11.1320    24.2560   -13.3380     2.4820 
  146.5000    51.3400    14.9020    13.3410    11.3800    24.2100   -13.3690     2.4900 
  146.6250    54.6440    15.0240    13.4470    11.5700    24.1860   -13.4000     2.4890 
  146.7500    53.4130    14.9840    13.4140    11.4770    24.1620   -13.4350     2.4800 
  146.8750    51.4860    14.8370    13.2660    10.8070    24.2260   -13.4870     2.4650 
  147.0000    51.0710    14.6750    13.0690    10.4840    24.3540   -13.5610     2.4480 
  147.1250    49.9690    14.5970    12.9040    10.7510    24.3760   -13.6360     2.4370 
  147.2500    47.2670    14.6300    12.8060    10.7330    24.3810   -13.7030     2.4350 
  147.3750    44.8890    14.7590    12.7760    10.5950    24.3810   -13.7600     2.4380 
  147.5000    43.4450    14.9280    12.7800    10.6960    24.3760   -13.8140     2.4430 
  147.6250    42.5170    15.0640    12.7560    10.9490    24.3460   -13.8760     2.4450 
  147.7500    42.7540    15.1620    12.6930    10.9350    24.3020   -13.9400     2.4470 
  147.8750    43.7500    15.2540    12.6190    10.7240    24.2940   -14.0140     2.4510 
  148.0000    45.6220    15.3860    12.5750    10.5650    24.2860   -14.0910     2.4580 
  148.1250    48.4510    15.6840    12.6480    10.9290    24.2920   -14.1620     2.4610 
  148.2500    50.4720    16.2840    12.9360    11.6500    24.2890   -14.2450     2.4570 
  148.3750    51.8950    17.3300    13.5360    12.8100    24.2910   -14.3420     2.4440 
  148.5000    53.8750    18.9330    14.5270    13.8780    24.2930   -14.4420     2.4310 
  148.6250    55.5980    21.2700    16.0560    15.3610    24.2900   -14.5450     2.4290 
  148.7500    55.5130    24.1410    18.0580    17.6890    24.2840   -14.6570     2.4400 
  148.8750    55.5370    27.1880    20.3690    20.8040    24.2840   -14.7460     2.4560 
  149.0000    57.5720    29.7950    22.5830    24.4020    24.2880   -14.8110     2.4670 
  149.1250    58.9210    30.9870    23.9250    25.2930    24.2690   -14.8810     2.4600 
  149.2500    57.4410    30.5450    24.0320    25.4380    24.2550   -14.9520     2.4380 
  149.3750    54.1940    28.7020    22.9270    24.0960    24.3340   -15.0190     2.4100 
  149.5000    52.9350    26.1740    21.0780    20.4860    24.3720   -15.1120     2.3860 
  149.6250    54.5600    23.8920    19.1900    18.2390    24.3720   -15.2110     2.3800 
  149.7500    54.8230    22.3690    17.7570    17.5700    24.3730   -15.3120     2.3940 
  149.8750    53.2630    21.7760    16.9690    17.3470    24.3850   -15.4450     2.4220 
  150.0000    53.2450    22.0930    16.8810    17.1680    24.4280   -15.6030     2.4550 
  150.1250    56.3780    23.1360    17.4830    17.9720    24.4020   -15.7700     2.4740 
  150.2500    59.6020    24.2860    18.3800    19.7660    24.3800   -15.9280     2.4750 
  150.3750    62.1320    25.0420    19.2030    21.9070    24.3750   -16.0680     2.4590 
  150.5000    63.8340    25.0760    19.6370    21.9180    24.3910   -16.1730     2.4320 
  150.6250    62.6400    24.2980    19.4730    20.7650    24.4530   -16.2700     2.4030 
  150.7500    60.4870    23.1990    18.9500    19.4930    24.5780   -16.3400     2.3680 
  150.8750    59.6150    22.1430    18.3100    17.7720    24.6070   -16.3720     2.3420 
  151.0000    60.5000    21.2380    17.6950    17.1140    24.6640   -16.3710     2.3270 
  151.1250    61.9830    20.1960    16.9780    16.6550    24.6690   -16.3320     2.3230 
