~V
VERS. 2.00: Ver 2.00
~W
STRT.M 50.0000:
STOP.M 224.0000:
STEP.M 0.1250:
NULL. -999.2500:
UWI. F10690:
~C
DEPT.M :
SP.MV :
DEN.GM/CC :
GR.API :
RML.OHMM :
RI. :
RXO.OHMM :
CALI.CM :
~A
# ...
   95.0000   -21.7170     2.1520    50.4890    14.5820    12.8750     7.5620    25.4280 
   95.1250   -21.7100     2.1960    49.3910    14.4670    12.7880     7.5740    25.4620 
   95.2500   -21.6980     2.2180    47.9480    14.3400    12.6830     7.5410    25.4180 
   95.3750   -21.6880     2.2140    48.2680    14.2320    12.5890     7.4810    25.3120 
   95.5000   -21.6700     2.1980    50.1370    14.1730    12.5340     7.4210    25.2070 
   95.6250   -21.6340     2.1890    50.2900    14.2030    12.5480     7.4110    25.1680 
   95.7500   -21.5870     2.1940    48.6630    14.3040    12.6150     7.4590    25.1590 
   95.8750   -21.5390     2.2140    48.1570    14.4470    12.7160     7.5580    25.1580 
   96.0000   -21.5070     2.2440    50.1930    14.5880    12.8200     7.6270    25.1570 
   96.1250   -21.4860     2.2750    53.6730    14.6810    12.8990     7.6630    25.1570 
   96.2500   -21.4750     2.2900    55.4890    14.7220    12.9460     7.6550    25.1570 
   96.3750   -21.4720     2.2840    54.7830    14.7210    12.9620     7.6300    25.1570 
   96.5000   -21.4550     2.2670    52.0410    14.6990    12.9540     7.6890    25.1570 
   96.6250   -21.4080     2.2530    50.0820    14.6770    12.9300     7.7960    25.1570 
   96.7500   -21.3310     2.2440    49.7760    14.6640    12.9040     7.8590    25.1570 
   96.8750   -21.2390     2.2350    50.4740    14.6610    12.8810     7.8160    25.1570 
   97.0000   -21.1590     2.2210    51.7080    14.6630    12.8660     7.7330    25.1570 
   97.1250   -21.1120     2.2060    51.2960    14.6620    12.8610     7.6700    25.1570 
   97.2500   -21.0860     2.2000    49.7150    14.6550    12.8620     7.6960    25.1570 
   97.3750   -21.0550     2.2070    48.2960    14.6420    12.8690     7.7410    25.1570 
   97.5000   -21.0000     2.2220    47.3270    14.6220    12.8800     7.6900    25.1570 
   97.6250   -20.9350     2.2300    47.3980    14.5980    12.8970     7.6360    25.1570 
   97.7500   -20.8700     2.2270    48.9710    14.5770    12.9210     7.6510    25.1570 
   97.8750   -20.8160     2.2170    50.4360    14.5720    12.9600     7.7410    25.1570 
   98.0000   -20.7660     2.2090    49.7040    14.5980    13.0230     7.8250    25.1570 
   98.1250   -20.6940     2.2020    47.5180    14.6680    13.1120     7.8040    25.1570 
   98.2500   -20.6050     2.1950    46.7450    14.7710    13.2140     7.7300    25.1570 
   98.3750   -20.5070     2.1880    48.5150    14.8870    13.3150     7.7080    25.1570 
   98.5000   -20.4160     2.1870    51.9250    14.9860    13.3990     7.7200    25.1570 
   98.6250   -20.3490     2.1980    53.6090    15.0350    13.4480     7.6890    25.1560 
   98.7500   -20.3000     2.2110    51.5050    15.0390    13.4650     7.6450    25.1550 
   98.8750   -20.2690     2.2160    47.3060    15.0170    13.4570     7.6320    25.1470 
   99.0000   -20.2360     2.2190    43.3730    15.0070    13.4440     7.7370    25.1160 
   99.1250   -20.1880     2.2240    42.1570    15.0650    13.4620     7.8490    25.0350 
   99.2500   -20.1310     2.2340    43.9390    15.2260    13.5510     7.9360    24.9500 
   99.3750   -20.0640     2.2480    47.5760    15.5200    13.7490     7.9660    24.8890 
   99.5000   -19.9940     2.2650    50.9550    15.9510    14.0770     8.0430    24.8580 
   99.6250   -19.9240     2.2780    51.1420    16.5050    14.5390     8.2540    24.8440 
   99.7500   -19.8480     2.2840    49.1950    17.0890    15.0630     8.8170    24.8310 
   99.8750   -19.7610     2.2830    47.5520    17.6190    15.5780    10.1110    24.8160 
  100.0000   -19.6530     2.2780    47.5980    18.0290    16.0190    11.8520    24.7920 
  100.1250   -19.5410     2.2710    50.0390    18.2750    16.3320    12.1240    24.7800 
  100.2500   -19.4530     2.2650    52.7610    18.4080    16.5470    10.4220    24.7760 
  100.3750   -19.3970     2.2620    53.7050    18.4710    16.6980     9.6340    24.7760 
  100.5000   -19.3820     2.2620    50.5070    18.5180    16.8320     9.4930    24.7760 
  100.6250   -19.3910     2.2600    44.9620    18.6260    17.0150     9.4750    24.7760 
  100.7500   -19.3950     2.2490    42.4790    18.8340    17.2830     9.4490    24.7760 
  100.8750   -19.3890     2.2360    43.5600    19.1380    17.6330     9.6190    24.7760 
  101.0000   -19.3770     2.2310    45.6770    19.4740    18.0150    10.1960    24.7760 
  101.1250   -19.3790     2.2430    46.5190    19.6730    18.2830    10.9420    24.7760 
  101.2500   -19.3850     2.2650    47.9110    19.5990    18.2990    11.3140    24.7760 
  101.3750   -19.3840     2.2870    50.5330    19.2040    17.9920    10.9250    24.7760 
  101.5000   -19.3750     2.3000    53.4990    18.5070    17.3640     9.9880    24.7760 
  101.6250   -19.3600     2.3020    54.4900    17.4720    16.3820     9.6100    24.7800 
  101.7500   -19.3510     2.2990    52.3190    16.1690    15.1380     9.2070    24.8020 
  101.8750   -19.3520     2.2950    49.9440    14.7240    13.7730     9.0730    24.8560 
  102.0000   -19.3660     2.2920    51.0070    13.3850    12.5180     9.5280    24.9140 
  102.1250   -19.3770     2.2790    55.1030    12.5850    11.7120     9.2130    24.9530 
  102.2500   -19.3810     2.2520    57.8190    12.5640    11.5160     7.8460    24.9740 
  102.3750   -19.3850     2.2180    56.0970    13.4960    12.0600     7.4060    25.0200 
  102.5000   -19.3700     2.1980    51.0730    15.3990    13.4120     8.5500    25.1140 
  102.6250   -19.3220     2.2070    46.6370    18.1840    15.6360    10.4880    25.2160 
  102.7500   -19.2540     2.2260    44.7220    21.2190    18.3010    11.9380    25.2550 
  102.8750   -19.1770     2.2340    44.7490    23.8610    20.8730    13.1440    25.2530 
  103.0000   -19.1200     2.2220    44.7250    25.5750    22.7680    14.5160    25.2300 
  103.1250   -19.1040     2.1970    43.7550    26.1470    23.5950    15.8280    25.2180 
  103.2500   -19.1240     2.1780    41.7350    26.1650    23.7790    16.5370    25.2080 
  103.3750   -19.1700     2.1760    39.6040    26.0070    23.6630    16.2880    25.1750 
  103.5000   -19.2380     2.1870    39.3960    25.8540    23.4620    15.2540    25.0960 
  103.6250   -19.3370     2.2030    40.0430    25.7660    23.2820    14.1100    24.9910 
  103.7500   -19.4520     2.2160    40.8630    25.7170    23.1400    13.3100    24.9040 
  103.8750   -19.5780     2.2160    42.3590    25.6650    23.0060    12.9660    24.8520 
  104.0000   -19.7160     2.2000    45.5320    25.5690    22.8430    12.8530    24.8310 
  104.1250   -19.8620     2.1830    48.9150    25.4010    22.6280    12.5960    24.8420 
  104.2500   -20.0220     2.1870    49.6390    25.2030    22.4020    11.8400    24.9090 
  104.3750   -20.1940     2.2100    47.6850    25.0420    22.2210    11.1640    25.0730 
  104.5000   -20.3690     2.2300    45.4500    24.9740    22.1350    10.9710    25.3120 
  104.6250   -20.5460     2.2270    44.1780    24.9780    22.1490    11.3270    25.3640 
  104.7500   -20.7220     2.2180    42.8730    24.8760    22.1210    11.8760    25.2140 
  104.8750   -20.9120     2.2280    41.5700    24.5410    21.9210    12.1560    24.9590 
  105.0000   -21.1150     2.2680    42.4540    24.0860    21.5880    12.0910    24.7680 
  105.1250   -21.3300     2.3380    46.4340    24.0680    21.5020    11.5820    24.6690 
  105.2500   -21.5520     2.4250    50.7200    25.0030    22.0970    10.9130    24.6280 
  105.3750   -21.7750     2.5180    53.6030    27.1130    23.6440    11.2310    24.6160 
  105.5000   -22.0080     2.5960    54.6690    30.0270    26.0290    14.2380    24.6270 
  105.6250   -22.2420     2.6330    53.7280    32.1090    28.1100    24.1560    24.6720 
  105.7500   -22.4660     2.6340    51.8620    31.3660    27.9920    36.2320    24.7640 
  105.8750   -22.6770     2.6080    49.5650    27.1820    24.8350    37.4660    24.8700 
  106.0000   -22.8640     2.5590    50.2590    21.0670    19.8150    26.2710    24.9530 
  106.1250   -23.0320     2.4830    55.1240    15.5970    15.1430    15.8330    24.9750 
