~V
VERS. 2.00: Ver 2.00
~W
STRT.M 55.0000:
STOP.M 228.0000:
STEP.M 0.1250:
NULL. -999.2500:
UWI. F10621:
~C
DEPT.M :
GR.API :
RML.OHMM :
RI. :
RXO.OHMM :
CALI.CM :
DEN.GM/CC :
SP.MV :
~A
# ...
   77.5000    64.4110    18.1250    17.1120    12.1740    25.0900     2.1990    -9.3990 
   77.6250    66.7720    17.3870    16.4510    11.6750    25.0780     2.2020    -9.4870 
   77.7500    68.0610    16.6940    15.7600    11.0480    25.0730     2.2040    -9.5440 
   77.8750    67.9910    16.2060    15.1890    10.4570    25.0730     2.2070    -9.6120 
   78.0000    66.4420    16.0170    14.8400    10.1140    25.0730     2.2090    -9.7250 
   78.1250    63.7220    16.1680    14.7820    10.1770    25.0720     2.2100    -9.8000 
   78.2500    60.9690    16.4930    14.9080    10.4630    25.0650     2.2080    -9.8480 
   78.3750    60.4240    16.8450    15.1150    10.7850    25.0450     2.2040    -9.9240 
   78.5000    63.3600    17.1020    15.3000    11.0010    25.0170     2.1990    -9.9660 
   78.6250    64.4270    17.2590    15.4290    11.0620    25.0050     2.1920    -9.9910 
   78.7500    62.6380    17.5850    15.6520    11.0970    25.0090     2.1830   -10.0410 
   78.8750    61.6070    18.5400    16.2940    11.2740    25.0380     2.1810   -10.0910 
   79.0000    62.6430    20.6890    17.8240    12.0960    25.0730     2.1990   -10.0960 
   79.1250    62.9200    24.7240    20.9420    15.2430    25.0070     2.2550   -10.1110 
   79.2500    61.0980    30.1120    25.4270    22.0400    24.8170     2.3440   -10.1340 
   79.3750    59.3870    35.7790    30.5580    32.4100    24.5480     2.4380   -10.1010 
   79.5000    59.0070    40.0730    34.9620    44.3080    24.2650     2.4990   -10.0420 
   79.6250    59.5170    40.7330    36.4520    51.9890    24.1320     2.4810   -10.0070 
   79.7500    61.3590    37.8780    34.6620    49.3570    24.1530     2.4060    -9.9530 
   79.8750    64.1100    32.8370    30.5490    37.3010    24.3070     2.3120    -9.8360 
   80.0000    64.8670    27.6490    25.9590    24.1270    24.5790     2.2300    -9.7400 
   80.1250    62.2320    24.0750    22.5440    16.8080    24.7750     2.1840    -9.6520 
   80.2500    59.5510    22.0900    20.4440    14.1680    24.8920     2.1680    -9.5620 
   80.3750    59.7870    21.1950    19.3350    13.8140    24.9270     2.1730    -9.5050 
   80.5000    60.7110    20.8020    18.7810    13.9990    24.9310     2.1870    -9.4670 
   80.6250    58.7460    20.4600    18.4230    13.6310    24.9030     2.2000    -9.4470 
   80.7500    57.3550    20.0300    18.0600    12.5440    24.8320     2.2070    -9.4410 
   80.8750    58.9460    19.6230    17.7350    11.3370    24.7470     2.2060    -9.4750 
   81.0000    60.9990    19.4060    17.5670    10.8650    24.6870     2.2020    -9.5200 
   81.1250    59.9250    19.5020    17.6790    11.5610    24.6590     2.1980    -9.5670 
   81.2500    58.8210    19.7840    17.9950    12.2870    24.6490     2.1940    -9.6120 
   81.3750    60.6790    20.1170    18.4100    12.7550    24.6420     2.1840    -9.6690 
   81.5000    62.6580    20.4040    18.8270    12.7970    24.6060     2.1650    -9.7850 
   81.6250    61.2360    20.6110    19.1910    12.4760    24.5550     2.1330    -9.9180 
   81.7500    59.4270    20.7700    19.5050    12.1640    24.5860     2.0970   -10.0800 
   81.8750    58.8880    20.8370    19.7310    12.0840    24.7340     2.0680   -10.3350 
   82.0000    58.5010    20.6710    19.7460    12.3110    24.8510     2.0550   -10.6340 
   82.1250    57.5010    19.9990    19.2850    12.7750    24.8390     2.0660   -10.9710 
   82.2500    59.0160    18.8010    18.2950    13.0560    24.7990     2.0940   -11.3780 
   82.3750    64.1250    17.1770    16.8400    12.7800    24.7550     2.1300   -11.8370 
   82.5000    70.1530    15.3620    15.1240    11.8120    24.6800     2.1650   -12.2850 
   82.6250    74.7740    13.6570    13.4270    10.4500    24.6090     2.1900   -12.6840 
   82.7500    76.5170    12.2050    11.9190     9.3310    24.5810     2.2100   -13.0730 
   82.8750    74.9250    11.0000    10.6270     8.5880    24.5750     2.2300   -13.3730 
   83.0000    72.2610     9.9730     9.5140     7.8730    24.5750     2.2550   -13.5620 
   83.1250    73.2620     9.0940     8.5770     7.2250    24.5750     2.2860   -13.6220 
   83.2500    78.5220     8.4100     7.8320     6.8330    24.5750     2.3130   -13.5590 
   83.3750    85.1060     8.1210     7.4070     6.4000    24.5750     2.3270   -13.3690 
   83.5000    88.3720     8.5230     7.5090     6.2070    24.5660     2.3170   -13.0390 
   83.6250    86.8070    10.0860     8.5230     6.5580    24.4830     2.2700   -12.5940 
   83.7500    83.1240    12.6910    10.4330     7.6490    24.3030     2.1940   -12.0580 
   83.8750    79.1960    15.9540    13.0410     9.5730    24.2430     2.1060   -11.4530 
   84.0000    74.8740    19.0780    15.7850    12.0270    24.8420     2.0290   -10.8810 
   84.1250    69.1300    20.7090    17.5610    14.1840    26.2640     1.9920   -10.4090 
   84.2500    65.0940    20.3070    17.6880    14.5280    27.5640     2.0030   -10.0400 
   84.3750    65.3560    18.0760    16.1480    12.8310    27.6850     2.0550    -9.7710 
   84.5000    69.3020    14.9850    13.6950    10.3480    26.6160     2.1280    -9.6340 
   84.6250    73.7610    12.3800    11.4560     8.6610    25.3470     2.1910    -9.6760 
   84.7500    75.3930    10.9020    10.0100     7.9570    24.5990     2.2280    -9.7950 
   84.8750    75.3440    10.6110     9.4530     7.7710    24.3020     2.2410    -9.9510 
   85.0000    75.0550    11.2900     9.6930     7.9800    24.2260     2.2390   -10.0840 
   85.1250    74.5200    12.6230    10.5920     8.5450    24.2370     2.2280   -10.1350 
   85.2500    74.3600    14.0260    11.7260     9.2010    24.2900     2.2140   -10.1180 
   85.3750    75.4360    15.0940    12.7640     9.6820    24.3710     2.1990   -10.0860 
   85.5000    77.9390    15.5550    13.4230     9.8720    24.4210     2.1820   -10.0430 
   85.6250    78.5010    15.2630    13.4720     9.8940    24.4330     2.1660    -9.9420 
   85.7500    76.8430    14.4980    13.0430    10.0390    24.4330     2.1550    -9.8730 
   85.8750    74.9100    13.4290    12.2610    10.1340    24.4330     2.1580    -9.8770 
   86.0000    72.9960    12.2180    11.2550    10.1560    24.4160     2.1770    -9.9320 
   86.1250    73.1640    10.9050    10.1520     9.7290    24.3330     2.2140   -10.0340 
   86.2500    76.7780     9.6850     9.1120     8.8230    24.1550     2.2550   -10.1790 
   86.3750    83.2470     8.6580     8.2610     7.6380    23.9040     2.2870   -10.3430 
   86.5000    88.5790     7.9280     7.6810     6.8840    23.6010     2.2990   -10.5060 
   86.6250    90.5770     7.8560     7.3990     6.6820    23.2700     2.2890   -10.6340 
   86.7500    90.7700     7.8830     7.2470     6.5130    22.9860     2.2720   -10.7100 
   86.8750    88.8970     7.8150     7.0800     6.3980    22.7980     2.2620   -10.7610 
   87.0000    85.2190     7.5230     6.7860     6.3950    22.7370     2.2680   -10.7780 
   87.1250    86.5870     7.0280     6.3500     6.1970    22.7960     2.2890   -10.7590 
   87.2500    95.2140     6.6340     5.9640     5.7440    22.9020     2.3120   -10.7300 
   87.3750   102.6600     6.6900     5.8700     5.3950    22.9500     2.3230   -10.6640 
   87.5000    99.1980     7.4910     6.3090     5.5620    22.8590     2.3140   -10.5790 
   87.6250    88.7210     9.2500     7.5270     6.5350    22.5700     2.2820   -10.5560 
   87.7500    81.7040    11.5130     9.2800     7.9260    22.2600     2.2400   -10.5550 
   87.8750    76.6430    13.6700    11.1650     9.2260    21.9540     2.2030   -10.5330 
   88.0000    69.1460    14.9890    12.5830     9.9150    21.7640     2.1860   -10.5440 
   88.1250    63.8000    14.6800    12.7460     9.5840    21.3880     2.1980   -10.6290 
   88.2500    66.8100    13.0960    11.7400     8.5940    20.4240     2.2260   -10.7240 
   88.3750    76.1700    10.9080    10.0530     7.4600    19.0290     2.2540   -10.8080 
   88.5000    85.1250     8.8780     8.3350     6.6270    17.9700     2.2720   -10.9370 
   88.6250    89.0840     7.6160     7.1170     6.1990    17.7370     2.2780   -11.0770 
