~V
VERS. 2.00: Ver 2.00
~W
STRT.M 52.0000:
STOP.M 239.0000:
STEP.M 0.1250:
NULL. -999.2500:
UWI. F10645:
~C
DEPT.M :
SP.MV :
GR.API :
RML.OHMM :
RI. :
RXO.OHMM :
CALI.CM :
DEN.GM/CC :
~A
# ...
   63.2500   -33.2470    77.6460     5.1980     5.5480     4.8020    24.5650     2.2030 
   63.3750   -33.2670    82.1660     4.8020     5.1360     4.3010    24.5780     2.2320 
   63.5000   -33.3380    85.4010     4.3700     4.7830     3.9890    24.5580     2.2660 
   63.6250   -33.4570    86.3270     4.0750     4.6150     3.9490    24.5490     2.2880 
   63.7500   -33.6380    84.8000     4.1240     4.8010     4.1130    24.5510     2.2940 
   63.8750   -33.8980    80.6590     4.5560     5.3430     4.8500    24.5080     2.3020 
   64.0000   -34.2170    74.1100     5.3870     6.2130     6.5040    24.3950     2.3250 
   64.1250   -34.5760    67.7220     6.5060     7.2700    10.5960    24.2820     2.3570 
   64.2500   -34.9410    65.2200     7.5220     8.1570    16.4800    24.2610     2.3650 
   64.3750   -35.3040    65.5660     8.0500     8.5430    13.5340    24.3280     2.3340 
   64.5000   -35.6520    66.8610     7.9970     8.3540     8.4350    24.4590     2.2750 
   64.6250   -35.9820    66.6480     7.5860     7.7990     6.3960    24.5360     2.2170 
   64.7500   -36.2880    64.1100     7.2140     7.2460     6.0980    24.5420     2.1870 
   64.8750   -36.5230    61.3720     7.1240     6.9530     6.0190    24.5120     2.1790 
   65.0000   -36.7080    60.3810     7.3630     6.9830     6.0720    24.4810     2.1830 
   65.1250   -36.8380    61.6200     7.8730     7.2900     6.3760    24.4610     2.1890 
   65.2500   -36.9490    63.9590     8.5590     7.7780     7.0300    24.3720     2.1930 
   65.3750   -37.0230    66.1700     9.2710     8.2820     7.6410    24.1390     2.1930 
   65.5000   -37.0830    67.2030     9.8800     8.6810     7.7890    23.8640     2.1860 
   65.6250   -37.1150    67.1460    10.2950     8.8920     7.7910    23.7860     2.1760 
   65.7500   -37.1230    66.8280    10.4350     8.8680     7.8630    23.9370     2.1680 
   65.8750   -37.1160    66.1530    10.3490     8.6930     7.8970    24.1460     2.1640 
   66.0000   -37.1000    64.0120    10.0900     8.4410     7.7300    24.4510     2.1640 
   66.1250   -37.0810    61.1380     9.7350     8.1700     7.5450    24.8640     2.1640 
   66.2500   -37.0350    60.0780     9.3910     7.9130     7.3430    25.1450     2.1620 
   66.3750   -36.9720    61.1400     9.1580     7.6810     6.9310    25.4120     2.1600 
   66.5000   -36.9080    62.6600     9.0900     7.4850     6.1850    25.9350     2.1590 
   66.6250   -36.8440    63.4150     9.1730     7.3410     5.5960    26.6480     2.1550 
   66.7500   -36.7810    62.8430     9.3280     7.2660     5.5930    26.9390     2.1430 
   66.8750   -36.7140    62.3400     9.4550     7.2560     6.0890    26.6770     2.1230 
   67.0000   -36.6430    61.6350     9.5350     7.3040     6.6510    26.1210     2.0980 
   67.1250   -36.5660    60.8120     9.5920     7.3890     6.9610    25.5460     2.0750 
   67.2500   -36.4840    61.0840     9.6670     7.4870     6.8590    25.2230     2.0650 
   67.3750   -36.4050    62.2900     9.7600     7.5710     6.8910    24.9820     2.0710 
   67.5000   -36.2850    61.6810     9.8520     7.6390     7.0490    24.7180     2.0930 
   67.6250   -36.1220    58.1990     9.9250     7.7010     7.1660    24.5930     2.1270 
   67.7500   -35.9000    57.1720     9.9620     7.7690     7.1350    24.7660     2.1630 
   67.8750   -35.6290    59.0490     9.9280     7.8200     7.2030    25.0040     2.1820 
   68.0000   -35.2980    60.0090     9.7640     7.7990     7.4080    25.2960     2.1730 
   68.1250   -34.8970    59.2820     9.4240     7.6460     7.5590    25.6740     2.1390 
   68.2500   -34.4340    61.0920     8.9010     7.3160     7.2870    25.7810     2.1030 
   68.3750   -33.9250    65.9790     8.3300     6.8910     6.5230    25.2480     2.0940 
   68.5000   -33.4160    72.5200     7.8430     6.4610     5.4870    24.5600     2.1270 
   68.6250   -32.9160    80.7890     7.5340     6.1110     5.0480    24.2950     2.1870 
   68.7500   -32.4690    86.1090     7.4400     5.9060     5.1350    24.2440     2.2390 
   68.8750   -32.0680    85.5440     7.4350     5.8050     5.3220    24.1980     2.2580 
   69.0000   -31.7360    84.2190     7.4120     5.7570     5.3880    24.2320     2.2510 
   69.1250   -31.4890    87.5910     7.3050     5.7040     5.2370    24.2890     2.2360 
   69.2500   -31.3590    92.2860     7.1190     5.6090     5.0590    24.2930     2.2320 
   69.3750   -31.3230    93.0910     6.9460     5.5100     4.9310    24.2970     2.2440 
   69.5000   -31.3600    92.1980     6.8740     5.4820     4.8130    24.3320     2.2640 
   69.6250   -31.4850    90.2610     6.9740     5.6000     4.8810    24.3500     2.2770 
   69.7500   -31.6960    85.9920     7.2990     5.9100     5.2990    24.3170     2.2750 
   69.8750   -31.9620    81.8010     7.7580     6.3230     6.1160    24.2470     2.2780 
   70.0000   -32.2830    80.4110     8.2530     6.7440     7.6080    24.1400     2.3010 
   70.1250   -32.6590    79.6690     8.6580     7.0750     9.4110    24.0040     2.3400 
   70.2500   -33.0730    78.2480     8.8360     7.2190     9.4810    23.9400     2.3590 
   70.3750   -33.5090    78.6040     8.8370     7.2120     6.8640    23.9450     2.3350 
   70.5000   -33.9440    78.7320     8.7540     7.1230     6.0310    23.9630     2.2750 
   70.6250   -34.3460    74.5060     8.6560     7.0180     6.2450    24.0090     2.2090 
   70.7500   -34.6610    67.5490     8.5800     6.9450     6.4620    24.0250     2.1690 
   70.8750   -34.9330    63.1230     8.5640     6.9240     6.2650    23.8540     2.1560 
   71.0000   -35.1320    61.8270     8.6840     6.9870     5.8180    23.3950     2.1550 
   71.1250   -35.2510    63.0740     9.0640     7.2070     5.8710    22.9060     2.1540 
   71.2500   -35.2680    66.4970    10.0490     7.8490     6.2960    22.8420     2.1590 
   71.3750   -35.2190    69.8140    11.9240     9.1930     7.1690    22.9290     2.1910 
   71.5000   -35.1280    69.6800    15.0620    11.6220     9.4380    22.7650     2.2700 
   71.6250   -35.0210    65.9000    19.7400    15.4400    14.9660    22.4910     2.4000 
   71.7500   -34.9530    60.7240    25.6220    20.4600    27.3670    22.4220     2.5540 
   71.8750   -34.9120    57.5740    30.0710    24.5870    48.0280    22.4840     2.6500 
   72.0000   -34.9220    58.6570    30.0050    25.2920    60.3150    22.6540     2.6380 
   72.1250   -34.9740    62.2290    25.2000    21.9780    50.2200    23.2260     2.5230 
   72.2500   -35.0830    64.4830    19.0600    16.9460    28.9640    24.2450     2.3600 
   72.3750   -35.2200    63.6930    14.3970    12.7840    16.5900    25.1350     2.2110 
   72.5000   -35.3790    61.2790    11.5240     9.9950     9.8100    25.4630     2.1020 
   72.6250   -35.5440    59.0530    10.0650     8.3660     7.5610    25.4990     2.0520 
   72.7500   -35.6910    58.5160     9.6360     7.6310     7.3100    25.4810     2.0690 
   72.8750   -35.8170    61.2760     9.6210     7.3480     7.2320    25.4470     2.1050 
   73.0000   -35.9060    64.9570     9.6980     7.3060     7.1310    25.5030     2.1260 
   73.1250   -35.9610    65.9000     9.6900     7.3520     7.0090    25.7470     2.1220 
   73.2500   -35.9830    62.3460     9.5930     7.3980     6.9010    26.0740     2.1040 
   73.3750   -35.9680    58.4440     9.5060     7.4240     6.8550    26.0970     2.0890 
   73.5000   -35.8980    56.8080     9.4610     7.4390     6.8510    25.8770     2.0870 
   73.6250   -35.7800    57.8970     9.4350     7.4530     6.9570    25.6540     2.0950 
   73.7500   -35.5930    62.2720     9.4030     7.4770     7.0970    25.5480     2.0940 
   73.8750   -35.3480    65.6910     9.3970     7.5080     7.1000    25.4870     2.0780 
   74.0000   -35.0290    67.2520     9.4710     7.5390     7.0330    25.3610     2.0570 
   74.1250   -34.6410    68.0630     9.6370     7.5640     6.9680    25.1520     2.0510 
   74.2500   -34.1760    68.9180     9.8040     7.5620     6.9030    24.9000     2.0860 
   74.3750   -33.6710    68.4520     9.8230     7.4960     6.7640    24.7370     2.1480 
