~V
VERS. 2.00: Ver 2.00
~W
STRT.M 50.0000:
STOP.M 216.0000:
STEP.M 0.1250:
NULL. -999.2500:
UWI. F10607:
~C
DEPT.M :
GR.API :
RML.OHMM :
RI. :
RXO.OHMM :
CALI.CM :
DEN.GM/CC :
SP.MV :
~A
# ...
   95.0000    59.5290    11.3780     8.7740    10.0350    24.6650     2.1700   -15.5910 
   95.1250    61.7930    10.6440     8.3020     9.2720    24.7710     2.1450   -15.5570 
   95.2500    59.0380    10.1550     7.9190     9.4030    24.8420     2.1500   -15.5050 
   95.3750    54.5490     9.9910     7.7280     9.6390    24.8440     2.1660   -15.4480 
   95.5000    54.0070    10.0710     7.7170     9.6800    24.7660     2.1840   -15.3520 
   95.6250    57.5940    10.2830     7.8300     9.6620    24.7090     2.1970   -15.2470 
   95.7500    59.5950    10.5420     7.9990     9.9320    24.7440     2.2030   -15.1410 
   95.8750    59.3180    10.8310     8.2050    10.4250    24.7970     2.2040   -15.0630 
   96.0000    57.9580    11.1360     8.4350    10.8730    24.8360     2.2020   -15.0220 
   96.1250    57.6640    11.4200     8.6610    11.2760    24.8650     2.1990   -14.9970 
   96.2500    58.0950    11.6180     8.8380    11.6700    24.8820     2.1950   -15.0280 
   96.3750    57.9330    11.6570     8.9130    11.9070    24.9150     2.1900   -15.0490 
   96.5000    56.9680    11.5010     8.8500    11.8490    24.9690     2.1900   -15.1060 
   96.6250    55.0470    11.1670     8.6420    11.1280    24.9820     2.2020   -15.1470 
   96.7500    54.4710    10.7950     8.3770    10.0740    24.8710     2.2210   -15.1730 
   96.8750    56.7240    10.4940     8.1310     9.0500    24.7130     2.2340   -15.1760 
   97.0000    60.3650    10.3410     7.9650     8.6900    24.6220     2.2320   -15.1790 
   97.1250    61.6460    10.3760     7.9280     9.0770    24.6210     2.2100   -15.1790 
   97.2500    59.4030    10.5240     7.9930     9.5050    24.6460     2.1860   -15.1450 
   97.3750    56.7670    10.7210     8.1260     9.9600    24.6500     2.1700   -15.1020 
   97.5000    57.5160    10.9190     8.3000    10.1650    24.6360     2.1660   -15.0380 
   97.6250    59.0720    11.1150     8.5060    10.1490    24.6090     2.1740   -14.9400 
   97.7500    57.5140    11.3360     8.7520    10.2830    24.6000     2.1850   -14.8420 
   97.8750    53.8800    11.5940     9.0380    10.7390    24.6220     2.1910   -14.7080 
   98.0000    52.2910    11.8520     9.3350    11.7290    24.6990     2.1880   -14.5180 
   98.1250    53.3260    12.0060     9.5520    13.0350    24.7950     2.1750   -14.2820 
   98.2500    54.0290    12.0020     9.6210    12.6450    24.8520     2.1610   -13.9620 
   98.3750    55.4730    11.8350     9.5220    11.9770    24.8780     2.1540   -13.6020 
   98.5000    58.5030    11.5470     9.2850    11.4360    24.8180     2.1550   -13.1810 
   98.6250    60.3510    11.2000     8.9640    10.9260    24.5620     2.1640   -12.7400 
   98.7500    60.0460    10.8450     8.6270    10.2610    24.3240     2.1770   -12.2530 
   98.8750    59.4550    10.5000     8.3040     9.9050    24.4130     2.1840   -11.7470 
   99.0000    59.6270    10.2120     8.0350     9.9260    24.5790     2.1710   -11.2210 
   99.1250    58.5490    10.1950     7.9440     9.9580    24.6490     2.1380   -10.6500 
   99.2500    56.9300    10.7850     8.2030     9.9500    24.7360     2.1070   -10.1130 
   99.3750    56.0960    12.4270     9.0670    10.0790    24.8560     2.1100    -9.5530 
   99.5000    56.0880    15.4830    10.8240    11.4760    24.8290     2.1820    -9.0170 
   99.6250    57.5190    20.0680    13.8230    16.9390    24.6640     2.3470    -8.5180 
   99.7500    59.3790    24.7620    17.4170    27.8620    24.5270     2.5370    -8.1040 
   99.8750    58.7900    27.3490    20.1360    42.8880    24.4340     2.6600    -7.7730 
  100.0000    56.1410    25.8410    20.1270    55.5400    24.3750     2.6720    -7.5450 
  100.1250    57.0560    20.5340    16.9340    37.1760    24.3720     2.5970    -7.4350 
  100.2500    62.6440    15.0230    13.0880    17.8400    24.4020     2.5040    -7.4100 
  100.3750    69.2620    10.9900     9.9600     9.6860    24.4660     2.4240    -7.4770 
  100.5000    73.5380     8.6520     7.8980     7.3630    24.5340     2.3730    -7.5870 
  100.6250    75.6640     7.7210     6.8720     7.2960    24.5520     2.3520    -7.6770 
  100.7500    76.8890     7.4590     6.4470     7.5050    24.5320     2.3480    -7.7120 
  100.8750    76.6950     7.5020     6.3830     7.2480    24.4950     2.3500    -7.6830 
  101.0000    76.4060     7.5800     6.4630     6.8870    24.4820     2.3530    -7.5800 
  101.1250    77.8870     7.5220     6.5110     6.8630    24.5050     2.3540    -7.4380 
  101.2500    81.6360     7.3250     6.4580     6.8220    24.5170     2.3500    -7.2380 
  101.3750    86.2500     7.0190     6.3000     6.4330    24.5170     2.3440    -7.0240 
  101.5000    89.3760     6.6620     6.0700     6.1150    24.5280     2.3390    -6.7860 
  101.6250    88.8570     6.3740     5.8550     5.9740    24.5190     2.3400    -6.5980 
  101.7500    86.5040     6.2760     5.7580     5.8320    24.5070     2.3520    -6.4220 
  101.8750    85.8570     6.4500     5.8490     5.6500    24.4920     2.3740    -6.2830 
  102.0000    87.2520     6.9160     6.1470     5.8320    24.4660     2.4020    -6.1630 
  102.1250    87.5330     7.6050     6.6240     7.1340    24.3950     2.4200    -6.0360 
  102.2500    86.0170     8.2640     7.1090     8.7070    24.3180     2.4190    -5.9430 
  102.3750    83.1610     8.6590     7.4250     8.8720    24.3000     2.3990    -5.8260 
  102.5000    80.4070     8.6580     7.4440     7.9340    24.2950     2.3710    -5.7410 
  102.6250    80.5170     8.2870     7.1410     7.1850    24.2600     2.3540    -5.6490 
  102.7500    83.0800     7.8370     6.7310     6.7890    24.1920     2.3480    -5.6150 
  102.8750    84.8680     7.5080     6.3830     6.5530    24.1490     2.3440    -5.6360 
  103.0000    83.7010     7.4100     6.2010     6.4920    24.1310     2.3320    -5.7160 
  103.1250    81.6720     7.6390     6.2710     6.6510    24.1100     2.3100    -5.8080 
  103.2500    81.2030     8.2200     6.6020     7.4060    24.0940     2.2870    -5.8740 
  103.3750    80.6570     9.2470     7.2610     8.5180    24.0820     2.2670    -5.9260 
  103.5000    76.9030    10.7670     8.3070     9.5920    24.1030     2.2430    -5.9470 
  103.6250    69.4330    12.7240     9.7730    11.1690    24.2780     2.2110    -5.9220 
  103.7500    63.6350    14.7190    11.4080    15.7030    24.5230     2.1780    -5.8370 
  103.8750    62.0930    16.3480    12.9090    20.8010    24.6870     2.1640    -5.6730 
  104.0000    64.1730    17.2630    13.9520    21.6050    24.7140     2.1880    -5.4580 
  104.1250    67.6910    17.1760    14.1940    17.7100    24.6410     2.2540    -5.2550 
  104.2500    70.5140    16.3600    13.7600    14.7340    24.5140     2.3250    -5.0450 
  104.3750    70.6050    15.0920    12.8500    16.4460    24.4120     2.3690    -4.8820 
  104.5000    67.7590    13.6990    11.7380    19.8350    24.3900     2.3760    -4.7250 
  104.6250    66.1110    12.5820    10.7430    15.5400    24.4330     2.3520    -4.6240 
  104.7500    68.3830    11.9980    10.0840    10.4160    24.3620     2.3130    -4.5410 
  104.8750    72.3940    12.0730     9.8690     8.8760    24.3080     2.2600    -4.4680 
  105.0000    74.1120    12.7890    10.1260    10.4580    24.3980     2.1960    -4.3820 
  105.1250    70.8160    14.0780    10.8880    13.4470    24.5970     2.1370    -4.2720 
  105.2500    67.5450    15.6090    11.9800    16.2000    24.6840     2.1020    -4.2080 
  105.3750    66.9090    17.1760    13.2500    17.1950    24.5370     2.1010    -4.1340 
  105.5000    67.7980    18.7960    14.6040    16.2630    24.1940     2.1270    -4.0820 
  105.6250    67.1100    21.0140    16.2670    16.5610    23.9530     2.1600    -3.9800 
  105.7500    64.7970    24.4120    18.6440    20.2780    23.8960     2.1800    -3.8620 
  105.8750    62.6940    29.4420    22.1770    27.1160    23.8990     2.1850    -3.7170 
  106.0000    61.0960    36.2710    27.1820    33.4620    23.9170     2.1810    -3.5500 
  106.1250    59.3930    44.7210    33.8000    41.9900    23.9920     2.1730    -3.3580 
