~V
VERS. 2.00: Ver 2.00
~W
STRT.M 59.0000:
STOP.M 270.0000:
STEP.M 0.1250:
NULL. -999.2500:
UWI. F10667:
~C
DEPT.M :
GR.API :
RML.OHMM :
RI. :
RXO.OHMM :
CALI.CM :
DEN.GM/CC :
SP.MV :
~A
# ...
  261.5000    77.9110     8.9160     8.4500     8.3650    23.4360     2.3030   -17.4250 
  261.6250    77.9110     9.3010     8.7290     8.2710    23.4370     2.3060   -17.5540 
  261.7500    77.9110     9.5630     8.9320     8.9150    23.4700     2.3070   -17.5600 
  261.8750    77.9110     9.5200     8.9350    10.1920    23.4880     2.3050   -17.3780 
  262.0000    77.9110     9.0600     8.6450    10.2560    23.4930     2.3050   -16.9980 
  262.1250    77.9110     8.2000     8.0230     8.1250    23.4980     2.3090   -16.4730 
  262.2500    77.9110     7.2370     7.2590     5.9920    23.4920     2.3230   -15.9330 
  262.3750    77.9110     6.4570     6.5310     5.3870    23.4610     2.3490   -15.4110 
  262.5000    77.9110     6.0660     5.9770     5.5490    23.4240     2.3830   -14.9170 
  262.6250    77.9110     6.2110     5.7050     5.7880    23.4100     2.4140   -14.4730 
  262.7500    77.9110     6.4040     5.6570     5.8180    23.4130     2.4280   -14.1330 
  262.8750    77.9110     6.6350     5.7650     6.0890    23.4320     2.4230   -13.9530 
  263.0000    77.9110     6.8890     5.9490     6.5890    23.4650     2.4060   -13.9340 
  263.1250    77.9110     7.1180     6.1400     6.5640    23.5230     2.3890   -14.0140 
  263.2500    77.9110     7.2850     6.3050     6.2170    23.5610     2.3830   -14.0990 
  263.3750    77.9110     7.3860     6.4370     5.9600    23.5720     2.3860   -14.1940 
  263.5000    77.9110     7.4320     6.5350     5.7900    23.5720     2.3890   -14.3130 
  263.6250    77.9110     7.4440     6.5920     6.0220    23.5710     2.3790   -14.4030 
  263.7500    77.9110     7.4560     6.6160     6.0040    23.5730     2.3550   -14.4500 
  263.8750    77.9110     7.4820     6.6170     6.2810    23.5820     2.3260   -14.4740 
  264.0000    77.9110     7.5150     6.6060     6.9970    23.6040     2.3040   -14.4590 
  264.1250    77.9110     7.5380     6.5990     7.1630    23.6290     2.3000   -14.4390 
  264.2500    77.9110     7.5450     6.6020     6.3790    23.6610     2.3060   -14.4500 
  264.3750    77.9110     7.5460     6.6130     5.5800    23.6940     2.3110   -14.4880 
  264.5000    77.9110     7.5530     6.6200     5.2840    23.6980     2.3070   -14.4900 
  264.6250    77.9110     7.5630     6.6140     5.4340    23.6930     2.2980   -14.4940 
  264.7500    77.9110     7.5660     6.5980     5.9850    23.6880     2.2920   -14.5110 
  264.8750    77.9110     7.5560     6.5810     6.8550    23.6830     2.2940   -14.5370 
  265.0000    77.9110     7.5480     6.5700     7.6280    23.6670     2.3030   -14.5810 
  265.1250    77.9110     7.5650     6.5680     6.8680    23.6210     2.3180   -14.6210 
  265.2500    77.9110     7.6050     6.5670     6.6470    23.5710     2.3360   -14.6510 
  265.3750    77.9110     7.6490     6.5610     6.3890    23.5360     2.3590   -14.6550 
  265.5000    77.9110     7.6750     6.5500     6.2180    23.5210     2.3820   -14.6850 
  265.6250    77.9110     7.6740     6.5400     6.1790    23.5160     2.4000   -14.7290 
  265.7500    77.9110     7.6710     6.5370     6.1280    23.5090     2.4040   -14.7640 
  265.8750    77.9110     7.6710     6.5360     6.1640    23.5070     2.3930   -14.7720 
  266.0000    77.9110     7.6720     6.5360     6.6010    23.5050     2.3700   -14.7700 
  266.1250    77.9110     7.6720     6.5360     7.3700    23.5050     2.3410   -14.8010 
  266.2500    77.9110     7.6730     6.5360     7.7820    23.5020     2.3170   -14.8410 
  266.3750    77.9110     7.6740     6.5360     7.8850    23.4820     2.3030   -14.8990 
  266.5000    77.9110     7.6740     6.5360     7.6180    23.4350     2.2970   -14.9410 
  266.6250    77.9110     7.6750     6.5360     7.7820    23.4000     2.2960   -14.9540 
  266.7500    77.9110     7.6760     6.5360     7.9880    23.3870     2.2930   -14.9600 
  266.8750    77.9110     7.6760     6.5360     8.4580    23.3800     2.2890   -14.9800 
  267.0000    77.9110     7.6770     6.5360     9.3820    23.3650     2.2890   -15.0020 
  267.1250    77.9110     7.6780     6.5360     9.4610    23.3110     2.2980   -15.0330 
  267.2500    77.9110     7.6790     6.5360     8.3850    23.2230     2.3120   -15.0570 
  267.3750    77.9110     7.6790     6.5360     7.5390    23.1180     2.3270   -15.0730 
  267.5000    77.9110     7.6800     6.5360     7.5230    23.0340     2.3340   -15.0880 
  267.6250    77.9110     7.6810     6.5360     7.9040    22.9680     2.3120   -15.1150 
  267.7500    77.9110     7.6810     6.5360     8.3210    22.9000     2.2510   -15.2070 
  267.8750    77.9110     7.6820     6.5360     8.7910    22.7450     2.1460   -15.3210 
  268.0000    77.9110     7.6830     6.5360     8.6520    22.0480     2.0120   -15.4480 
  268.1250    77.9110     7.6830     6.5360     7.3700    20.4000     1.8780   -15.5360 
  268.2500    77.9110     7.6840     6.5360     6.1980    18.6350     1.7730   -15.6280 
  268.3750    77.9110     7.6850     6.5360     5.7700    17.8950     1.7080   -15.7470 
  268.5000    77.9110     7.6850     6.5360     5.7160    17.7900     1.6780   -15.8940 
  268.6250    77.9110     7.6860     6.5360     5.7160    17.7900     1.6710   -16.0280 
  268.7500    77.9110     7.6870     6.5360     5.7150    17.7900     1.6700   -16.0280 
  268.8750    77.9110     7.6870     6.5360     5.7150    17.7890     1.6720   -16.0280 
  269.0000    77.9110     7.6880     6.5360     5.7150    17.7890     1.6740  -999.2500 
  269.1250    77.9110     7.6890     6.5360     5.7150    17.7900     1.6750  -999.2500 
  269.2500    77.9110     7.6900     6.5360     5.7150    17.7900     1.6760  -999.2500 
  269.3750    77.9110     7.6900     6.5360     5.7150    17.7890     1.6770  -999.2500 
  269.5000    77.9110     7.6910     6.5360     5.7160    17.7880     1.6790  -999.2500 
  269.6250    77.9110     7.6920     6.5360     5.7170    17.7880     1.6810  -999.2500 
  269.7500    77.9110     7.6920     6.5360     5.7160    17.7880     1.6830  -999.2500 
  269.8750    77.9110     7.6930     6.5360     5.7150    17.7880     1.6820  -999.2500 
  270.0000    77.9110     7.6940     6.5360     5.7140    17.7880     1.6800  -999.2500 
