~V
VERS. 2.00: Ver 2.00
~W
STRT.M 50.0000:
STOP.M 209.0000:
STEP.M 0.1250:
NULL. -999.2500:
UWI. F10692:
~C
DEPT.M :
DEN.GM/CC :
GR.API :
RML.OHMM :
RI. :
RXO.OHMM :
CALI.CM :
SP.MV :
~A
# ...
   61.2500     2.5330    65.7660     6.5210     8.0980    10.2640    24.0660    -5.7620 
   61.3750     2.5510    55.0380     9.8170    12.6600    22.6780    24.1860    -7.1240 
   61.5000     2.5150    47.9060    14.1510    18.3640    32.4580    24.3030    -8.2370 
   61.6250     2.4190    45.8470    18.2680    23.4920    34.2060    24.5610    -9.1450 
   61.7500     2.3010    45.4940    20.2210    25.9620    28.4840    24.8520    -9.9210 
   61.8750     2.2030    45.6950    19.7750    25.5580    22.0590    25.1210   -10.5910 
   62.0000     2.1520    47.0680    18.3330    23.7650    19.0940    25.3510   -11.1790 
   62.1250     2.1470    49.4710    17.3010    22.2030    19.0110    25.5080   -11.6880 
   62.2500     2.1560    50.5760    16.9580    21.3760    19.5400    25.5660   -12.1400 
   62.3750     2.1640    50.2790    17.1450    21.1730    19.5710    25.5830   -12.5400 
   62.5000     2.1680    49.9640    17.6030    21.3380    19.1880    25.5920   -12.8860 
   62.6250     2.1680    49.9010    18.0760    21.6140    19.2420    25.6030   -13.1750 
   62.7500     2.1590    49.8400    18.4190    21.8180    19.3900    25.5860   -13.4210 
   62.8750     2.1390    50.7780    18.6100    21.9030    19.4610    25.5650   -13.6290 
   63.0000     2.1070    52.9120    18.6650    21.8720    19.1490    25.5420   -13.8110 
   63.1250     2.0750    54.6420    18.6020    21.7280    19.0200    25.5480   -13.9810 
   63.2500     2.0600    55.6260    18.4800    21.5150    19.0200    25.5600   -14.1620 
   63.3750     2.0620    56.5340    18.3540    21.2660    18.4870    25.5610   -14.3700 
   63.5000     2.0730    57.7390    18.2660    21.0210    18.3440    25.5490   -14.6140 
   63.6250     2.0810    57.8290    18.2260    20.8040    18.1980    25.5540   -14.9010 
   63.7500     2.0840    56.3840    18.2050    20.6060    18.7070    25.5740   -15.2040 
   63.8750     2.0820    54.0700    18.1970    20.4330    18.9190    25.5690   -15.5020 
   64.0000     2.0760    51.6280    18.2190    20.3060    18.4540    25.5720   -15.7780 
   64.1250     2.0680    50.0400    18.2850    20.2410    17.8080    25.5760   -16.0090 
   64.2500     2.0620    49.2690    18.3610    20.1980    17.6170    25.5940   -16.1900 
   64.3750     2.0600    51.1340    18.4080    20.1330    18.1600    25.6170   -16.3160 
   64.5000     2.0630    55.1530    18.4120    20.0200    19.0040    25.6250   -16.3760 
   64.6250     2.0690    57.2580    18.4120    19.8840    18.9140    25.6100   -16.3570 
   64.7500     2.0740    55.3860    18.4900    19.8000    17.7600    25.6090   -16.2740 
   64.8750     2.0730    51.6140    18.7020    19.8350    17.2200    25.6160   -16.1440 
   65.0000     2.0670    48.3720    19.0650    20.0140    17.9900    25.6190   -15.9900 
   65.1250     2.0540    47.3420    19.5520    20.3270    19.1870    25.6390   -15.8440 
   65.2500     2.0420    48.9490    20.0540    20.6810    19.8740    25.6430   -15.7330 
   65.3750     2.0380    53.1500    20.4850    21.0010    20.0040    25.6420   -15.6600 
   65.5000     2.0440    56.6880    20.8010    21.2370    19.6380    25.6450   -15.6250 
   65.6250     2.0530    56.6120    21.0080    21.3750    19.6290    25.6580   -15.6200 
   65.7500     2.0610    54.2150    21.1960    21.4810    19.2450    25.6810   -15.6120 
   65.8750     2.0670    52.2160    21.4280    21.6080    19.4100    25.6910   -15.5860 
   66.0000     2.0660    52.1310    21.7330    21.7860    19.9650    25.6710   -15.5350 
   66.1250     2.0510    51.9780    22.1040    22.0180    20.5110    25.6540   -15.4660 
   66.2500     2.0340    50.7000    22.4860    22.2580    20.9210    25.6490   -15.4050 
   66.3750     2.0320    49.7970    22.8380    22.4710    21.3470    25.6540   -15.3760 
   66.5000     2.0460    49.9680    23.1210    22.6290    21.7880    25.6720   -15.3940 
   66.6250     2.0630    48.3390    23.2960    22.7170    22.1340    25.7020   -15.4650 
   66.7500     2.0700    45.0570    23.3840    22.7590    21.8500    25.7160   -15.5750 
   66.8750     2.0750    44.3270    23.4010    22.7690    21.5630    25.7180   -15.7250 
   67.0000     2.0820    47.6340    23.3640    22.7480    21.8970    25.7170   -15.9090 
   67.1250     2.0910    50.6450    23.2860    22.6900    22.4270    25.7180   -16.1190 
   67.2500     2.0980    50.4040    23.2160    22.6220    22.5010    25.7200   -16.3280 
   67.3750     2.1010    49.6230    23.2410    22.6000    22.0320    25.7150   -16.5100 
   67.5000     2.0970    50.0360    23.4710    22.7060    21.5390    25.6890   -16.6460 
   67.6250     2.0850    50.6880    23.9790    23.0220    21.2060    25.6240   -16.7090 
   67.7500     2.0750    50.3660    24.5070    23.3900    21.2570    25.5640   -16.7040 
   67.8750     2.0810    49.9850    24.5920    23.4500    21.5700    25.5270   -16.6360 
   68.0000     2.1010    50.2570    23.6830    22.6990    21.3840    25.4670   -16.5210 
   68.1250     2.1220    50.4560    21.3980    20.6860    20.3490    25.3800   -16.3890 
   68.2500     2.1360    51.5020    18.5410    18.0610    18.0780    25.3040   -16.2780 
   68.3750     2.1470    56.0350    15.9870    15.6000    15.1120    25.2130   -16.2170 
   68.5000     2.1510    62.7570    14.3940    13.8950    12.5700    25.0760   -16.2190 
   68.6250     2.1340    63.8000    14.2500    13.3920    12.3520    24.9730   -16.3120 
   68.7500     2.1110    58.6510    15.2180    13.9100    13.8900    24.9560   -16.4840 
   68.8750     2.1130    53.6120    16.8240    15.1970    16.6120    25.0360   -16.7160 
   69.0000     2.1550    52.4170    18.3010    16.6980    17.9760    25.1300   -16.9840 
   69.1250     2.2200    53.3540    18.5950    17.4350    17.7690    25.1500   -17.2510 
   69.2500     2.2840    55.0700    17.6360    17.0470    16.8740    25.1290   -17.4890 
   69.3750     2.3440    58.5640    15.9340    15.8170    14.4490    25.0390   -17.6970 
   69.5000     2.4010    62.4220    14.1760    14.3220    11.5230    24.9180   -17.8850 
   69.6250     2.4430    62.7660    12.8590    13.0330    10.3550    24.8310   -18.0720 
   69.7500     2.4540    60.9540    11.9270    12.0130    10.2600    24.7600   -18.2600 
   69.8750     2.4250    59.6580    11.2130    11.1810    10.4220    24.7150   -18.4470 
   70.0000     2.3690    59.1670    10.5530    10.4350    10.2490    24.7150   -18.6330 
   70.1250     2.3190    56.8500     9.8140     9.6790     9.2700    24.7450   -18.8130 
   70.2500     2.2930    55.8390     9.0010     8.8880     8.7540    24.7570   -18.9890 
   70.3750     2.2870    58.7070     8.2230     8.1350     8.4050    24.7610   -19.1530 
   70.5000     2.2870    62.4210     7.6350     7.5390     7.9950    24.7620   -19.2950 
   70.6250     2.2730    60.7560     7.4250     7.2560     7.6590    24.7620   -19.4260 
   70.7500     2.2490    56.3990     7.6010     7.2890     7.5090    24.7480   -19.5600 
   70.8750     2.2260    53.7800     8.1640     7.6300     7.8360    24.7100   -19.6910 
   71.0000     2.2130    53.4170     9.0750     8.2510     8.7480    24.6700   -19.7910 
   71.1250     2.2060    53.7100    10.2580     9.1250     9.0560    24.6350   -19.8080 
   71.2500     2.1990    53.6020    11.4500    10.0800     9.1260    24.6230   -19.7330 
   71.3750     2.1960    53.2990    12.3700    10.9040     9.2410    24.6190   -19.5830 
   71.5000     2.1960    53.2670    12.8020    11.3900     9.7070    24.6250   -19.3970 
   71.6250     2.1970    53.2500    12.7560    11.4660    10.4420    24.6460   -19.2110 
   71.7500     2.1940    53.2890    12.7060    11.4540    10.8680    24.6730   -19.0500 
   71.8750     2.1840    53.1840    13.0880    11.6770    10.6420    24.6990   -18.9310 
   72.0000     2.1690    53.2140    14.2230    12.4030    10.7860    24.7710   -18.8610 
   72.1250     2.1560    53.3340    16.3180    13.8880    13.3560    24.9700   -18.8540 
   72.2500     2.1530    51.8660    18.8590    15.8620    17.9840    25.2150   -18.8910 
   72.3750     2.1660    48.6300    21.0360    17.7490    20.2420    25.3830   -18.9550 
