~V
VERS. 2.00: Ver 2.00
~W
STRT.M 57.0000:
STOP.M 204.0000:
STEP.M 0.1250:
NULL. -999.2500:
UWI. F10604:
~C
DEPT.M :
SP.MV :
GR.API :
RML.OHMM :
RI. :
RXO.OHMM :
CALI.CM :
DEN.GM/CC :
~A
# ...
  135.7500    -3.2910    58.2570    19.2000    17.7090    17.8710    24.2040     2.5060 
  135.8750    -3.3710    58.1020    18.8580    17.3320    18.0600    24.1680     2.4970 
  136.0000    -3.4390    58.0830    18.6570    17.0450    17.8500    24.1750     2.4870 
  136.1250    -3.5140    58.9360    18.8300    17.0710    17.5910    24.2420     2.4810 
  136.2500    -3.5980    59.7010    19.3920    17.4620    18.2450    24.3290     2.4820 
  136.3750    -3.6780    58.6710    20.2280    18.1670    19.8910    24.3730     2.4900 
  136.5000    -3.7400    55.7740    21.0810    18.9990    21.6390    24.3550     2.5000 
  136.6250    -3.7520    54.1490    21.5640    19.6140    22.2840    24.3510     2.5080 
  136.7500    -3.7490    54.0230    21.5530    19.7970    21.7240    24.3910     2.5120 
  136.8750    -3.7370    54.3480    21.1320    19.5530    20.3660    24.4890     2.5130 
  137.0000    -3.7060    53.9480    20.5530    19.0950    18.9100    24.5580     2.5120 
  137.1250    -3.6290    53.8040    20.1200    18.7250    18.2120    24.6040     2.5110 
  137.2500    -3.5370    55.4030    19.9000    18.5420    18.5000    24.6560     2.5090 
  137.3750    -3.4590    57.5760    19.7680    18.4540    19.5030    24.7160     2.5070 
  137.5000    -3.3980    58.2720    19.5320    18.2810    20.4720    24.7870     2.5060 
  137.6250    -3.3620    57.5160    19.0240    17.8410    20.1140    24.8330     2.5110 
  137.7500    -3.3200    57.3900    18.3440    17.2180    18.3050    24.8480     2.5200 
  137.8750    -3.2520    58.1360    17.6710    16.5810    16.0940    24.8470     2.5290 
  138.0000    -3.1490    58.2570    17.1810    16.1000    15.0020    24.8470     2.5310 
  138.1250    -3.0630    57.5650    17.0100    15.9050    15.9270    24.8350     2.5180 
  138.2500    -3.0160    57.3310    17.0740    15.9360    17.5630    24.8650     2.4970 
  138.3750    -2.9590    57.4470    17.2840    16.1210    18.6720    24.8860     2.4760 
  138.5000    -2.8760    55.9900    17.5490    16.3780    18.8410    24.8690     2.4620 
  138.6250    -2.7880    54.1900    17.8190    16.6450    18.7350    24.8500     2.4610 
  138.7500    -2.7340    55.5740    18.1000    16.9120    19.1220    24.8150     2.4690 
  138.8750    -2.7110    59.3260    18.4200    17.2140    19.9110    24.7520     2.4820 
  139.0000    -2.7260    60.9160    18.7910    17.5730    20.6550    24.7000     2.4940 
  139.1250    -2.7600    58.7960    19.1960    17.9750    21.0910    24.7900     2.5020 
  139.2500    -2.7870    58.6060    19.5870    18.3640    21.6090    24.8630     2.5040 
  139.3750    -2.8040    61.2320    19.9360    18.7040    22.4520    24.8720     2.5030 
  139.5000    -2.8420    62.7170    20.2370    18.9810    23.2550    24.8570     2.5000 
  139.6250    -2.8920    60.8340    20.4860    19.1860    23.3120    24.8510     2.5000 
  139.7500    -2.9020    58.1540    20.6810    19.3280    22.9240    24.8420     2.5000 
  139.8750    -2.8870    56.2080    20.7880    19.3830    22.6580    24.8280     2.4960 
  140.0000    -2.8530    55.1750    20.7610    19.3100    22.5890    24.8380     2.4940 
  140.1250    -2.8080    54.9540    20.5430    19.0520    22.2250    24.8330     2.4980 
  140.2500    -2.7580    55.2090    20.1950    18.6630    21.2820    24.8010     2.5070 
  140.3750    -2.7110    55.5970    19.8100    18.2200    19.9610    24.7510     2.5190 
  140.5000    -2.6620    55.8800    19.5160    17.8360    18.8380    24.7290     2.5310 
  140.6250    -2.6200    57.2040    19.4790    17.6690    18.6570    24.7700     2.5400 
  140.7500    -2.5720    60.4000    19.7030    17.7440    19.1860    24.7870     2.5430 
  140.8750    -2.4940    63.6990    20.1360    18.0250    19.9640    24.7670     2.5400 
  141.0000    -2.4070    63.5090    20.6720    18.4330    20.7550    24.7190     2.5310 
  141.1250    -2.3300    61.3190    21.1710    18.8520    21.3320    24.6480     2.5200 
  141.2500    -2.2620    60.3160    21.5430    19.1750    21.6120    24.5240     2.5090 
  141.3750    -2.1810    59.4130    21.7620    19.3580    21.9370    24.3860     2.5000 
  141.5000    -2.0760    57.5840    21.8510    19.4090    22.6060    24.4250     2.4970 
  141.6250    -1.9500    56.7010    21.8600    19.3630    23.0450    24.6420     2.4990 
  141.7500    -1.8650    57.2740    21.8740    19.2980    22.6320    24.7660     2.5060 
  141.8750    -1.8400    57.5250    21.9480    19.2720    21.7290    24.7790     2.5130 
  142.0000    -1.8380    58.0670    22.1050    19.3190    21.1630    24.7460     2.5160 
  142.1250    -1.8500    59.3610    22.3290    19.4360    21.3660    24.7390     2.5160 
  142.2500    -1.8880    58.9560    22.5390    19.5600    21.9300    24.7580     2.5170 
  142.3750    -1.9340    57.4890    22.6640    19.6330    22.5270    24.7790     2.5230 
  142.5000    -1.9780    58.0030    22.6540    19.6060    22.8170    24.7850     2.5340 
  142.6250    -2.0330    60.8450    22.4740    19.4370    22.5420    24.7660     2.5480 
  142.7500    -2.1200    62.1690    22.1800    19.1660    22.1470    24.7500     2.5560 
  142.8750    -2.2370    60.8030    21.8130    18.8250    22.0610    24.7530     2.5540 
  143.0000    -2.3600    58.3760    21.4210    18.4480    22.2560    24.7590     2.5410 
  143.1250    -2.4150    56.5640    21.0750    18.0860    22.1070    24.7650     2.5260 
  143.2500    -2.3950    55.3980    20.8380    17.8030    21.4280    24.7660     2.5160 
  143.3750    -2.3880    54.3700    20.7550    17.6420    20.7090    24.7470     2.5140 
  143.5000    -2.4070    54.9730    20.8250    17.6120    20.5060    24.7320     2.5130 
  143.6250    -2.4300    57.1900    21.0010    17.6920    20.7860    24.7290     2.5090 
  143.7500    -2.4130    57.9400    21.1700    17.8020    20.8960    24.7320     2.5020 
  143.8750    -2.3560    56.0770    21.2560    17.8890    20.6530    24.7310     2.4960 
  144.0000    -2.3020    53.8330    21.2140    17.9180    20.3940    24.7230     2.4980 
  144.1250    -2.3330    53.7980    21.0060    17.8550    20.3660    24.7120     2.5040 
  144.2500    -2.4420    53.6820    20.6770    17.7150    20.4220    24.6930     2.5110 
  144.3750    -2.5810    52.5840    20.3000    17.5370    20.4310    24.6560     2.5130 
  144.5000    -2.7260    51.3380    20.0020    17.3980    20.2070    24.6290     2.5130 
  144.6250    -2.8290    52.2590    20.0150    17.4660    19.6550    24.6060     2.5080 
  144.7500    -2.9050    55.8860    20.3690    17.8230    19.2820    24.6280     2.4920 
  144.8750    -2.9740    61.4110    20.8580    18.3810    19.5230    24.6440     2.4620 
  145.0000    -3.0210    66.5010    20.9940    18.7380    20.2540    24.6000     2.4190 
  145.1250    -3.0300    67.7840    20.0000    18.0620    20.5610    24.4260     2.3780 
  145.2500    -3.0010    66.0310    17.8400    16.1830    19.4890    24.3000     2.3550 
  145.3750    -2.9160    63.4960    14.9060    13.5300    16.5320    24.2740     2.3540 
  145.5000    -2.7600    62.1970    11.8940    10.8500    12.2970    24.2560     2.3700 
  145.6250    -2.5730    61.9060     9.5700     8.8220     8.7540    24.1750     2.3930 
  145.7500    -2.3920    62.2970     8.0880     7.4970     7.0020    24.1040     2.4130 
  145.8750    -2.2200    64.4810     7.3490     6.7840     6.6230    24.0550     2.4280 
  146.0000    -2.0880    67.9390     7.1290     6.5370     6.6890    24.0350     2.4350 
  146.1250    -1.9880    72.2380     7.2000     6.6170     6.7110    23.9990     2.4300 
  146.2500    -1.9020    77.2370     7.3240     6.7900     6.7950    23.9910     2.4190 
  146.3750    -1.8600    82.2340     7.4210     6.9470     7.0200    24.0550     2.4090 
  146.5000    -1.8960    86.1590     7.4880     7.0590     7.2840    24.1730     2.4050 
  146.6250    -1.9950    88.0280     7.5690     7.1520     7.4600    24.3330     2.4110 
  146.7500    -2.1230    88.8350     7.6950     7.2600     7.6460    24.4660     2.4220 
  146.8750    -2.2720    88.7880     7.8700     7.3940     7.9700    24.5790     2.4330 
