~V
VERS. 2.00: Ver 2.00
~W
STRT.M 50.0000:
STOP.M 221.0000:
STEP.M 0.1250:
NULL. -999.2500:
UWI. F10611:
~C
DEPT.M :
SP.MV :
GR.API :
RML.OHMM :
RI. :
RXO.OHMM :
CALI.CM :
DEN.GM/CC :
~A
# ...
  173.7500   -26.0590    56.4800    10.8660    10.1120     7.7100    23.4050     2.4750 
  173.8750   -25.6790    53.7890     7.5840     7.0800     4.4090    23.1700     2.3920 
  174.0000   -25.3720    49.7390     6.2320     5.6260     3.8340    23.1420     2.3300 
  174.1250   -25.1430    50.3830     6.0200     5.2100     4.1420    23.3090     2.3010 
  174.2500   -25.0210    51.8690     6.2840     5.2980     4.5060    23.6420     2.3040 
  174.3750   -25.0270    48.8830     6.7050     5.6300     4.7690    23.9330     2.3270 
  174.5000   -25.1460    42.5310     6.9910     5.9590     5.1420    24.0990     2.3450 
  174.6250   -25.3910    38.5630     6.9060     6.0480     5.3610    24.2210     2.3320 
  174.7500   -25.7260    38.6600     6.5780     5.9050     5.0090    24.4710     2.2950 
  174.8750   -26.1630    42.3380     6.2120     5.6460     4.6470    24.7620     2.2550 
  175.0000   -26.6970    47.1390     6.0020     5.4290     4.3850    24.8520     2.2310 
  175.1250   -27.2920    50.1130     6.1300     5.4330     4.6560    24.6420     2.2380 
  175.2500   -27.9330    53.4200     6.5860     5.6990     5.4590    24.5100     2.2640 
  175.3750   -28.5780    57.5140     7.3390     6.2200     6.5230    24.7240     2.2970 
  175.5000   -29.2110    59.6280     8.3030     6.9180     7.7100    25.0120     2.3300 
  175.6250   -29.8460    57.9780     9.2920     7.6230     9.0300    25.1760     2.3560 
  175.7500   -30.4140    56.9490    10.0760     8.1490     9.5980    25.2400     2.3690 
  175.8750   -30.9310    59.7370    10.5290     8.4120     9.8200    25.2770     2.3720 
  176.0000   -31.3290    65.8740    10.6840     8.4490     9.9060    25.2830     2.3690 
  176.1250   -31.6650    72.2730    10.7600     8.4190     9.7220    25.2790     2.3650 
  176.2500   -31.9210    74.9530    11.0620     8.5240     9.6680    25.2590     2.3590 
  176.3750   -32.0770    74.5180    11.8160     8.9050    10.0890    25.2260     2.3480 
  176.5000   -32.1840    73.9590    13.1960     9.6760    11.1620    25.1720     2.3340 
  176.6250   -32.1790    74.5730    15.4320    11.0090    13.5430    25.1140     2.3280 
  176.7500   -32.1560    74.1980    18.6820    12.8580    15.7820    25.0420     2.3420 
  176.8750   -32.1240    72.3170    21.7110    15.1640    17.1050    24.9350     2.3780 
  177.0000   -32.1040    69.2630    22.3960    17.7880    19.6630    24.7870     2.4290 
  177.1250   -32.0970    65.4160    25.7630    20.5080    25.2100    24.6670     2.4700 
  177.2500   -32.1010    60.8420    28.7600    23.0530    30.0610    24.5590     2.4850 
  177.3750   -32.1470    57.0060    31.2510    25.2790    31.1380    24.5080     2.4740 
  177.5000   -32.2200    56.1170    33.2520    27.1370    29.5920    24.4810     2.4450 
  177.6250   -32.3620    58.4880    34.8180    28.5840    29.1040    24.4330     2.4100 
  177.7500   -32.5500    59.4300    36.1870    29.7760    28.5100    24.3450     2.3790 
  177.8750   -32.7420    57.7920    37.5490    30.8670    27.7710    24.2540     2.3540 
  178.0000   -32.9770    56.2290    39.0820    32.0220    26.1360    24.1290     2.3300 
  178.1250   -33.2050    56.3180    40.9800    33.4360    24.6890    23.9700     2.3050 
  178.2500   -33.4410    57.1960    43.2130    35.1440    25.0700    23.9460     2.2820 
  178.3750   -33.6730    57.1990    45.5660    37.0620    28.6410    24.2210     2.2620 
  178.5000   -33.8620    55.3250    47.5980    38.9220    35.8480    24.6140     2.2520 
  178.6250   -34.0450    52.5370    48.7370    40.2820    40.7620    24.8290     2.2530 
  178.7500   -34.1550    51.8710    49.1330    41.0890    40.5570    24.9050     2.2610 
  178.8750   -34.2420    53.0750    49.2880    41.5970    38.2040    24.9470     2.2700 
  179.0000   -34.2470    54.0270    49.8850    42.2970    37.4390    24.9970     2.2740 
  179.1250   -34.1810    54.7630    51.5980    43.8320    39.2650    25.0910     2.2690 
  179.2500   -34.0610    55.9300    54.2300    46.2270    43.6790    25.1810     2.2620 
  179.3750   -33.8810    57.1850    57.3240    49.1740    46.2770    25.1870     2.2620 
  179.5000   -33.7100    58.8310    60.3570    52.1480    46.9520    25.0680     2.2720 
  179.6250   -33.4750    59.0560    63.0130    54.6880    47.6820    25.0480     2.2860 
  179.7500   -33.2520    55.9160    65.5030    56.9290    48.7000    25.0880     2.2920 
  179.8750   -33.0150    50.2750    68.0910    59.1860    50.2800    25.1200     2.2910 
  180.0000   -32.8000    46.1910    70.8670    61.6680    54.5580    25.1180     2.2850 
  180.1250   -32.6380    46.8040    73.5920    64.2590    61.9080    25.1350     2.2830 
  180.2500   -32.4830    49.6010    75.9760    66.6110    63.5490    25.2150     2.2830 
  180.3750   -32.3590    52.5560    78.1090    68.6800    55.7920    25.3300     2.2820 
  180.5000   -32.2330    53.7930    80.5750    70.8890    49.0880    25.3920     2.2780 
  180.6250   -32.1430    52.6750    84.5750    74.2570    51.2040    25.3690     2.2690 
  180.7500   -32.0860    51.1360    90.6400    79.3460    59.1220    25.3050     2.2560 
  180.8750   -32.0390    50.5690    98.7780    86.2610    65.3350    25.2490     2.2390 
  181.0000   -32.0370    51.0850   108.1640    94.3660    71.3480    25.2000     2.2210 
  181.1250   -32.0360    50.3580   116.8610   102.0960    78.9030    25.3080     2.2080 
  181.2500   -32.0800    48.2610   123.2650   108.0500    87.2870    25.5160     2.2050 
  181.3750   -32.1330    45.9160   127.0660   111.8230    94.5300    25.7230     2.2090 
  181.5000   -32.1780    44.6140   129.0020   113.9020    93.1770    25.9170     2.2130 
  181.6250   -32.2020    46.8880   130.0490   115.1230    85.1900    26.0940     2.2140 
  181.7500   -32.1650    50.2210   130.9540   116.3100    80.0530    26.2030     2.2130 
  181.8750   -32.0970    51.3030   131.7160   117.6070    87.3750    26.2430     2.2070 
  182.0000   -31.9760    49.1260   132.0070   118.7840    95.8430    26.2360     2.1980 
  182.1250   -31.8360    46.3160   131.2150   119.1830    91.1360    26.3060     2.1930 
  182.2500   -31.6310    46.5330   129.1090   118.3640    82.0790    26.4900     2.1930 
  182.3750   -31.4180    49.1130   125.4920   116.0690    81.3100    26.5510     2.1980 
  182.5000   -31.2010    51.8330   120.3570   112.3430    85.1080    26.2800     2.2030 
  182.6250   -31.0070    51.8900   113.9200   107.4350    89.1220    25.8440     2.2000 
  182.7500   -30.8560    49.8760   107.2570   102.1940    86.8720    25.5300     2.1860 
  182.8750   -30.7190    48.9000   101.4410    97.3680    78.5460    25.3490     2.1640 
  183.0000   -30.6150    50.6030    97.4700    93.7530    68.2060    25.1810     2.1460 
  183.1250   -30.4890    53.6060    96.3150    92.3780    58.3760    25.0370     2.1420 
  183.2500   -30.4290    54.7320    97.2580    93.0400    54.0650    24.8320     2.1500 
  183.3750   -30.3880    53.0450    99.3770    95.1180    47.2690    24.5040     2.1670 
  183.5000   -30.3650    50.3900   101.5040    97.5550    35.0330    24.0270     2.1830 
  183.6250   -30.3730    49.2250   102.2640    98.9850    25.6340    23.6010     2.1920 
  183.7500   -30.3710    50.1940   101.1860    98.7140    24.7440    23.5810     2.1970 
  183.8750   -30.4110    51.7400    98.3640    96.6380    29.6600    23.9800     2.2070 
  184.0000   -30.4140    52.0270    94.4860    93.2990    38.6860    24.4660     2.2200 
  184.1250   -30.4380    51.3540    90.5560    89.6430    49.7710    24.8690     2.2310 
  184.2500   -30.4050    51.9590    87.3800    86.5460    54.4810    25.2090     2.2350 
  184.3750   -30.3250    52.6740    85.4080    84.4550    52.5840    25.4160     2.2250 
  184.5000   -30.2060    51.2170    84.7050    83.4770    52.6620    25.4810     2.1980 
  184.6250   -30.0280    47.8660    84.7750    83.2750    59.2440    25.4910     2.1610 
  184.7500   -29.8030    45.4610    84.4660    82.9290    62.5170    25.5120     2.1360 
  184.8750   -29.5150    44.7340    83.0510    81.8930    63.7500    25.5470     2.1340 
