~V
VERS. 2.00: Ver 2.00
~W
STRT.M 55.0000:
STOP.M 213.0000:
STEP.M 0.1250:
NULL. -999.2500:
UWI. F10686:
~C
DEPT.M :
SP.MV :
DEN.GM/CC :
GR.API :
RML.OHMM :
RI. :
RXO.OHMM :
CALI.CM :
~A
# ...
   66.2500    -5.2720     2.2740    63.0080     7.0310     7.0060     6.1840    23.0160 
   66.3750    -5.4280     2.2830    69.3730     6.8670     6.7370     6.1090    23.5650 
   66.5000    -5.6460     2.2910    70.3480     6.9100     6.6630     6.2040    23.8060 
   66.6250    -5.8360     2.2900    62.2800     7.1620     6.7970     6.9040    23.8160 
   66.7500    -6.0240     2.2820    55.7660     7.5310     7.0590     7.7320    23.7320 
   66.8750    -6.2800     2.2700    55.5690     7.9430     7.3860     7.8650    23.6680 
   67.0000    -6.5170     2.2600    57.7010     8.3070     7.7050     7.9410    23.5420 
   67.1250    -6.7460     2.2580    57.8350     8.5130     7.9220     8.0800    23.2210 
   67.2500    -7.0140     2.2620    56.4860     8.5600     8.0160     7.4260    22.8130 
   67.3750    -7.2680     2.2680    56.0590     8.5020     8.0100     6.6470    22.5540 
   67.5000    -7.4430     2.2710    56.6390     8.4380     7.9630     6.3490    22.4920 
   67.6250    -7.6030     2.2690    58.4480     8.4570     7.9370     6.3530    22.4550 
   67.7500    -7.7690     2.2670    60.5670     8.5280     7.9340     6.2310    22.2660 
   67.8750    -7.8520     2.2630    62.1340     8.5490     7.8950     6.1070    21.5890 
   68.0000    -7.9300     2.2560    62.7480     8.3910     7.7280     6.0650    20.5230 
   68.1250    -8.0480     2.2410    61.4190     7.9350     7.3320     6.1500    19.8480 
   68.2500    -8.1510     2.2230    59.5470     7.2980     6.7780     5.9540    19.7400 
   68.3750    -8.2780     2.2090    58.4770     6.6610     6.1940     5.5380    20.3320 
   68.5000    -8.4590     2.2080    58.4060     6.2230     5.7370     5.3330    21.6260 
   68.6250    -8.6660     2.2260    59.0250     6.1920     5.5810     5.5860    22.7830 
   68.7500    -8.8940     2.2500    60.0270     6.5640     5.7480     5.7550    23.2500 
   68.8750    -9.1590     2.2720    60.5810     7.2880     6.2250     6.0900    23.2790 
   69.0000    -9.4210     2.2830    59.1780     8.2110     6.9260     6.4480    23.2090 
   69.1250    -9.6830     2.2840    56.9900     9.0220     7.6420     6.6450    23.1800 
   69.2500    -9.9510     2.2810    55.6380     9.4300     8.1080     6.7640    23.2650 
   69.3750   -10.1920     2.2770    55.6050     9.3270     8.1810     6.8290    23.4140 
   69.5000   -10.4330     2.2720    57.2510     8.8400     7.8980     6.8070    23.7220 
   69.6250   -10.6930     2.2740    60.2340     8.2720     7.4580     6.8380    23.8790 
   69.7500   -10.9140     2.2890    62.7650     7.8920     7.1020     6.6900    23.9080 
   69.8750   -11.1260     2.3160    63.3980     7.7890     6.9230     6.4550    23.9080 
   70.0000   -11.4010     2.3450    61.8020     7.9520     6.9390     6.6500    23.8860 
   70.1250   -11.7290     2.3530    58.9670     8.3110     7.1210     7.5020    23.7430 
   70.2500   -12.0720     2.3330    56.9500     8.7140     7.3640     7.8000    23.5280 
   70.3750   -12.4740     2.2950    56.1890     9.0730     7.6040     7.3460    23.3200 
   70.5000   -12.9320     2.2570    54.8320     9.3420     7.8020     6.8660    23.1410 
   70.6250   -13.4130     2.2400    53.1040     9.5020     7.9350     6.7370    22.8040 
   70.7500   -13.9160     2.2430    52.5950     9.6020     8.0230     6.8450    22.7470 
   70.8750   -14.4470     2.2550    51.3380     9.6850     8.0890     7.0210    22.8270 
   71.0000   -14.9130     2.2610    48.2230     9.8030     8.1630     7.2160    22.9870 
   71.1250   -15.3050     2.2530    46.1740    10.0390     8.2980     7.3190    23.0120 
   71.2500   -15.6970     2.2400    48.1810    10.4280     8.5280     7.3490    22.8850 
   71.3750   -16.0150     2.2280    52.0990    10.9600     8.8580     7.5030    22.6360 
   71.5000   -16.2300     2.2240    55.3900    11.5600     9.2480     8.3350    22.4140 
   71.6250   -16.3810     2.2310    56.7040    12.0700     9.5910    10.1750    22.2780 
   71.7500   -16.4550     2.2420    56.6240    12.3880     9.8020    11.1130    22.0810 
   71.8750   -16.4240     2.2530    57.3780    12.5290     9.8740     9.9570    21.8030 
   72.0000   -16.3260     2.2570    58.2980    12.6230     9.8840     8.9080    21.6070 
   72.1250   -16.1160     2.2470    58.0350    12.8920     9.9840     8.6040    21.5770 
   72.2500   -15.9360     2.2270    56.7540    13.4540    10.2790     8.4560    21.5770 
   72.3750   -15.7860     2.2010    55.7550    14.3390    10.8180     8.2230    21.6140 
   72.5000   -15.5230     2.1750    54.8170    15.4920    11.5950     8.3470    21.6330 
   72.6250   -15.2260     2.1600    52.9280    16.8250    12.5760     8.7420    21.6360 
   72.7500   -15.0240     2.1650    51.8370    18.2090    13.6620     9.1860    21.6360 
   72.8750   -14.9070     2.1980    52.3580    19.5720    14.7960     9.2750    21.6360 
   73.0000   -14.8300     2.2560    55.7950    20.7940    15.8920     8.8060    21.6360 
   73.1250   -14.7800     2.3190    60.7800    21.5840    16.7370     8.4830    21.6360 
   73.2500   -14.7600     2.3550    63.0120    21.7260    17.1320     8.3460    21.6350 
   73.3750   -14.7520     2.3470    61.9100    21.0860    16.9230     8.3120    21.6320 
   73.5000   -14.7430     2.2980    58.8660    19.7530    16.1170     8.1440    21.6100 
   73.6250   -14.7590     2.2260    56.1150    18.0440    14.8960     7.7270    21.5740 
   73.7500   -14.8110     2.1600    53.9010    16.4410    13.6510     7.2270    21.5670 
   73.8750   -14.9420     2.1110    52.9620    15.1900    12.6050     6.8230    21.5700 
   74.0000   -15.1390     2.0810    53.6400    14.3830    11.8780     6.6510    21.5780 
   74.1250   -15.3050     2.0650    53.2180    14.0480    11.5490     6.7120    21.6240 
   74.2500   -15.3720     2.0570    50.1480    14.0230    11.5140     6.8160    21.7340 
   74.3750   -15.4060     2.0550    46.5780    14.2280    11.7130     6.9430    21.7970 
   74.5000   -15.4380     2.0610    47.6860    14.6100    12.0950     7.0610    21.8380 
   74.6250   -15.4130     2.0770    53.2690    15.1220    12.6280     7.2080    22.0210 
   74.7500   -15.4000     2.1010    55.2040    15.6060    13.1920     7.4560    22.1570 
   74.8750   -15.4240     2.1290    51.9430    15.8480    13.6260     7.9110    22.1840 
   75.0000   -15.4610     2.1610    50.3480    15.6130    13.7210     8.5260    22.2080 
   75.1250   -15.5960     2.1970    55.5210    14.6500    13.2170     8.8930    22.3460 
   75.2500   -15.8230     2.2350    60.0280    13.1650    12.2170     9.0090    22.5610 
   75.3750   -16.0360     2.2700    60.3250    11.4440    10.9210     8.5070    22.7040 
   75.5000   -16.2280     2.2940    59.7540     9.8100     9.5920     7.6140    22.7630 
   75.6250   -16.4130     2.2990    60.9930     8.5590     8.4850     6.8450    22.8000 
   75.7500   -16.5660     2.2900    61.8740     7.7080     7.6690     6.3200    22.8060 
   75.8750   -16.6950     2.2740    61.9620     7.2300     7.1570     5.9580    22.8080 
   76.0000   -16.8180     2.2600    60.6280     7.0650     6.9200     5.8240    22.8150 
   76.1250   -16.8450     2.2550    58.4740     7.1600     6.9360     5.7870    22.8530 
   76.2500   -16.7840     2.2590    57.4290     7.3820     7.0880     5.7440    22.8820 
   76.3750   -16.7170     2.2690    57.3210     7.6230     7.2860     5.9130    22.8620 
   76.5000   -16.6640     2.2810    55.6620     7.7570     7.4160     6.1590    22.7330 
   76.6250   -16.5170     2.2880    54.4920     7.6230     7.3230     6.4100    22.8450 
   76.7500   -16.3390     2.2870    57.5860     7.2300     6.9910     6.3960    23.1050 
   76.8750   -16.1390     2.2750    61.8510     6.6820     6.4870     6.1510    23.4080 
   77.0000   -15.8620     2.2570    61.2130     6.1800     5.9660     5.8640    23.6390 
   77.1250   -15.5610     2.2450    57.8470     6.0550     5.6830     5.6490    23.6760 
   77.2500   -15.2270     2.2540    57.2410     6.5060     5.8100     5.6260    23.6780 
   77.3750   -14.8050     2.2920    58.6410     7.7170     6.4890     6.2620    23.6480 
