~V
VERS. 2.00: Ver 2.00
~W
STRT.M 56.0000:
STOP.M 256.0000:
STEP.M 0.1250:
NULL. -999.2500:
UWI. F10668:
~C
DEPT.M :
SP.MV :
GR.API :
RML.OHMM :
RI. :
RXO.OHMM :
CALI.CM :
DEN.GM/CC :
~A
   56.0000     8.6230    46.9570     0.0690     0.3390     0.3320    25.0550     2.6690 
   56.1250     4.8380    50.6500     0.1140     0.3490     0.5190    24.8500     2.5700 
   56.2500     1.0900    55.9150     0.2500     0.4210     1.2510    25.2920     2.3640 
   56.3750    -2.3360    61.4180     0.5710     0.5870     2.0450    27.6970     2.1260 
   56.5000    -5.4480    64.6190     1.1170     0.8570     3.1030    31.9970     1.9110 
   56.6250    -8.2710    65.7330     1.8560     1.2410     3.6160    36.9270     1.7440 
   56.7500   -10.7840    67.3370     2.6130     1.7180     3.7560    39.6510     1.6560 
   56.8750   -12.8430    69.6980     3.1260     2.2290     3.7210    37.6790     1.6850 
   57.0000   -14.4220    72.0280     3.4240     2.7040     3.6650    32.0540     1.8140 
   57.1250   -15.5310    76.2220     3.6520     3.1270     3.9150    26.5000     2.0100 
   57.2500   -16.2970    82.7480     3.9210     3.5110     4.4100    23.3410     2.1980 
   57.3750   -17.0030    86.3240     4.2630     3.8710     4.5400    22.4420     2.2940 
   57.5000   -17.7240    83.3670     4.6610     4.2470     4.4380    22.1550     2.3230 
   57.6250   -18.4540    76.0400     5.1570     4.7100     4.4150    22.0990     2.3290 
   57.7500   -19.1440    68.5630     5.8220     5.3480     4.8290    22.0980     2.3460 
   57.8750   -19.8210    65.2260     6.7520     6.2510     5.7920    22.1020     2.3930 
   58.0000   -20.5190    64.9980     7.8620     7.3170     7.2860    22.1000     2.4590 
   58.1250   -21.2490    65.0210     8.9970     8.3600     9.4380    22.1440     2.5170 
   58.2500   -22.0090    63.2200     9.9250     9.1510    12.8190    22.3330     2.5410 
   58.3750   -22.8050    60.5500    10.3950     9.4770    15.6740    22.8910     2.5260 
   58.5000   -23.6340    60.0710    10.4960     9.4590    15.3690    23.6170     2.5020 
   58.6250   -24.4900    60.9400    10.3700     9.2350    12.5570    24.1070     2.4780 
   58.7500   -25.3750    60.9740    10.1160     8.9100    10.6460    24.1010     2.4420 
   58.8750   -26.2630    59.6160     9.7460     8.5050    12.4180    24.1300     2.3790 
   59.0000   -27.1370    57.1620     9.2810     8.0370    13.2000    24.3740     2.2980 
   59.1250   -27.9500    54.7170     8.7700     7.5390    10.2550    24.7940     2.2180 
   59.2500   -28.7030    52.8270     8.2930     7.0660     8.0650    25.2680     2.1660 
   59.3750   -29.3450    52.4990     7.9550     6.6960     7.4270    25.8940     2.1510 
   59.5000   -29.8830    53.0010     7.7780     6.4550     7.4650    26.5000     2.1500 
   59.6250   -30.2970    52.9870     7.7430     6.3440     7.6090    26.7780     2.1430 
   59.7500   -30.6040    52.9980     7.7940     6.3350     7.6780    26.6120     2.1230 
   59.8750   -30.8010    53.4340     7.8700     6.3810     7.6290    26.1990     2.1060 
   60.0000   -30.9130    52.0720     7.9290     6.4370     7.5170    25.8030     2.1060 
   60.1250   -30.9700    51.1010     7.9550     6.4840     7.5760    25.3260     2.1290 
   60.2500   -30.9970    54.4120     7.9450     6.5040     7.9790    24.8720     2.1600 
   60.3750   -31.0010    60.2480     7.8990     6.4790     8.1720    24.4230     2.1750 
   60.5000   -30.9860    62.0770     7.8380     6.4190     8.1690    23.9630     2.1690 
   60.6250   -30.9620    59.2730     7.7770     6.3370     8.0460    23.6460     2.1530 
   60.7500   -30.9260    57.6390     7.7300     6.2580     7.9550    23.4300     2.1380 
   60.8750   -30.9120    60.2260     7.7300     6.2110     7.9500    23.3070     2.1300 
   61.0000   -30.8970    63.1530     7.7900     6.2070     7.9860    23.2500     2.1300 
   61.1250   -30.9100    64.0120     7.9090     6.2460     8.0450    23.2280     2.1350 
   61.2500   -30.9350    62.6500     8.0620     6.3110     8.1670    23.2030     2.1450 
   61.3750   -30.9870    60.1670     8.2070     6.3800     8.3070    23.1310     2.1570 
   61.5000   -31.0610    58.3580     8.3100     6.4270     8.5140    23.1010     2.1630 
   61.6250   -31.1490    57.5200     8.3580     6.4410     8.4920    23.3210     2.1590 
   61.7500   -31.2420    56.4670     8.3520     6.4200     8.2020    23.9600     2.1460 
   61.8750   -31.3380    54.5740     8.3040     6.3720     8.1000    24.6000     2.1360 
   62.0000   -31.4360    53.7210     8.2430     6.3150     8.0690    24.9760     2.1370 
   62.1250   -31.5290    55.1060     8.1890     6.2610     8.1170    24.8820     2.1500 
   62.2500   -31.6110    57.5250     8.1520     6.2160     8.1260    24.4140     2.1690 
   62.3750   -31.6700    59.2590     8.1340     6.1820     8.1070    23.8930     2.1830 
   62.5000   -31.7010    59.4240     8.1290     6.1580     8.1080    23.6990     2.1870 
   62.6250   -31.7180    58.4100     8.1430     6.1520     8.1460    23.7990     2.1910 
   62.7500   -31.7290    57.8050     8.1900     6.1690     8.0280    24.1670     2.2040 
   62.8750   -31.7090    58.2990     8.2920     6.2230     7.9010    24.6360     2.2230 
   63.0000   -31.6760    58.5070     8.4370     6.3060     7.9230    25.3190     2.2290 
   63.1250   -31.5920    56.4090     8.5970     6.4070     8.1810    26.0860     2.2130 
   63.2500   -31.4940    52.3540     8.7340     6.5080     9.3810    26.5230     2.1780 
   63.3750   -31.3490    50.3260     8.8100     6.5870    12.2650    26.0700     2.1400 
   63.5000   -31.1960    52.3540     8.8300     6.6320    13.9280    25.3780     2.1200 
   63.6250   -31.0150    55.9390     8.8100     6.6380    11.0940    24.8680     2.1190 
   63.7500   -30.8310    56.7910     8.7670     6.6080     9.0130    24.7430     2.1290 
   63.8750   -30.6410    54.5960     8.7110     6.5450     8.6240    24.8920     2.1370 
   64.0000   -30.4600    53.2790     8.6490     6.4620     8.6860    25.0830     2.1450 
   64.1250   -30.3020    53.5340     8.5770     6.3650     8.6420    25.2730     2.1530 
   64.2500   -30.1310    54.3300     8.4980     6.2630     8.5770    25.4190     2.1610 
   64.3750   -29.9890    55.4520     8.4140     6.1680     8.4940    25.5180     2.1620 
   64.5000   -29.8580    57.1210     8.3290     6.0870     8.4450    25.5660     2.1590 
   64.6250   -29.7730    57.4870     8.2460     6.0250     8.3820    25.5770     2.1550 
   64.7500   -29.7070    56.5590     8.1770     5.9820     8.3610    25.5660     2.1550 
   64.8750   -29.6780    57.6470     8.1480     5.9580     8.3170    25.5400     2.1590 
   65.0000   -29.6470    60.5190     8.1560     5.9470     8.2760    25.5080     2.1640 
   65.1250   -29.6340    60.5580     8.1880     5.9460     8.1850    25.4650     2.1650 
   65.2500   -29.6360    56.1890     8.2230     5.9490     8.1120    25.3820     2.1620 
   65.3750   -29.6490    52.4680     8.2300     5.9420     8.0970    25.2780     2.1580 
   65.5000   -29.6610    52.5230     8.2040     5.9190     8.1410    25.2140     2.1580 
   65.6250   -29.6420    55.6780     8.1520     5.8750     8.1750    25.1990     2.1610 
   65.7500   -29.6080    58.9530     8.0820     5.8110     8.0950    25.2030     2.1650 
   65.8750   -29.5490    58.9180     7.9960     5.7310     7.8890    25.1640     2.1710 
   66.0000   -29.5170    57.1190     7.9030     5.6460     7.7520    25.0420     2.1760 
   66.1250   -29.4770    55.7700     7.8150     5.5660     7.6950    24.9080     2.1790 
   66.2500   -29.4450    56.4790     7.7440     5.4960     7.6010    24.8640     2.1810 
   66.3750   -29.3920    58.6490     7.6990     5.4440     7.4960    24.9430     2.1830 
   66.5000   -29.3670    60.2870     7.6820     5.4130     7.4480    25.0880     2.1820 
   66.6250   -29.3460    60.4740     7.6980     5.4080     7.5250    25.3710     2.1770 
   66.7500   -29.3380    58.4250     7.7480     5.4350     7.5310    25.7480     2.1690 
   66.8750   -29.3130    56.2270     7.8400     5.4990     7.5670    26.0550     2.1640 
   67.0000   -29.2690    56.2530     7.9710     5.5920     7.8270    26.0360     2.1740 
   67.1250   -29.2210    57.9880     8.1360     5.7040     8.3860    25.7810     2.1970 
