~V
VERS. 2.00: Ver 2.00
~W
STRT.M 55.0000:
STOP.M 228.0000:
STEP.M 0.1250:
NULL. -999.2500:
UWI. F10621:
~C
DEPT.M :
GR.API :
RML.OHMM :
RI. :
RXO.OHMM :
CALI.CM :
DEN.GM/CC :
SP.MV :
~A
# ...
  212.5000    30.0350     4.3300     3.9850     4.5080    24.3410     2.3350    -8.1690 
  212.6250    28.6050     4.2400     3.9080     4.3960    24.3250     2.3220    -8.1340 
  212.7500    28.9630     4.1840     3.8580     4.3570    24.3110     2.3250    -8.1140 
  212.8750    30.0410     4.1580     3.8330     4.3480    24.2870     2.3440    -8.0890 
  213.0000    30.5080     4.1500     3.8260     4.3520    24.2480     2.3740    -8.0560 
  213.1250    30.8730     4.1490     3.8260     4.3620    24.1840     2.3960    -8.0460 
  213.2500    30.9390     4.1440     3.8260     4.3620    24.1530     2.3940    -8.0690 
  213.3750    29.4300     4.1360     3.8220     4.3410    24.1260     2.3680    -8.0810 
  213.5000    27.0080     4.1280     3.8170     4.3040    24.0780     2.3330    -8.0670 
  213.6250    26.8670     4.1230     3.8150     4.2720    24.0300     2.3090    -8.0130 
  213.7500    29.2390     4.1230     3.8150     4.2480    24.0100     2.3050    -7.9580 
  213.8750    32.1990     4.1220     3.8140     4.2560    24.0070     2.3150    -7.9370 
  214.0000    34.2340     4.1160     3.8100     4.2820    24.0090     2.3250    -7.9490 
  214.1250    33.8680     4.1010     3.7990     4.2950    24.1080     2.3250    -7.9550 
  214.2500    31.8260     4.0860     3.7880     4.2780    24.3330     2.3180    -7.9640 
  214.3750    30.0170     4.0810     3.7830     4.2760    24.5530     2.3140    -7.9910 
  214.5000    29.9120     4.0910     3.7900     4.3140    24.6470     2.3170    -8.0360 
  214.6250    30.0030     4.1150     3.8120     4.3600    24.6470     2.3280    -8.1380 
  214.7500    29.1980     4.1380     3.8400     4.4030    24.6470     2.3440    -8.2430 
  214.8750    28.3340     4.1470     3.8660     4.4240    24.6450     2.3640    -8.3100 
  215.0000    27.8150     4.1400     3.8810     4.4190    24.6350     2.3840    -8.3660 
  215.1250    27.9310     4.1200     3.8800     4.4010    24.6000     2.4040    -8.4300 
  215.2500    28.3690     4.1000     3.8690     4.3830    24.5340     2.4180    -8.4780 
  215.3750    28.9130     4.0900     3.8550     4.3700    24.4440     2.4190    -8.5310 
  215.5000    28.7350     4.0970     3.8480     4.3560    24.3460     2.4080    -8.5680 
  215.6250    27.9450     4.1200     3.8510     4.3320    24.3460     2.3860    -8.5880 
  215.7500    28.4270     4.1480     3.8610     4.3240    24.4340     2.3690    -8.6090 
  215.8750    30.1320     4.1680     3.8750     4.3270    24.5500     2.3650    -8.6450 
  216.0000    31.1130     4.1730     3.8860     4.3350    24.6250     2.3740    -8.6620 
  216.1250    30.3910     4.1550     3.8890     4.3210    24.6430     2.3870    -8.6860 
  216.2500    29.8520     4.1220     3.8820     4.3060    24.6460     2.3940    -8.7100 
  216.3750    30.5470     4.0840     3.8690     4.2890    24.6390     2.3900    -8.7260 
  216.5000    31.7290     4.0520     3.8530     4.2690    24.6180     2.3800    -8.7470 
  216.6250    32.0180     4.0400     3.8410     4.2430    24.5730     2.3760    -8.7590 
  216.7500    31.0500     4.0450     3.8310     4.1980    24.5350     2.3800    -8.7690 
  216.8750    29.6620     4.0550     3.8160     4.1440    24.5090     2.3880    -8.7760 
  217.0000    29.6110     4.0510     3.7840     4.1260    24.4880     2.3930    -8.7880 
  217.1250    31.5810     4.0090     3.7230     4.1470    24.4590     2.3870    -8.8180 
  217.2500    32.3410     3.9340     3.6420     4.1770    24.4480     2.3750    -8.8550 
  217.3750    30.5060     3.8560     3.5610     4.1930    24.4440     2.3620    -8.8810 
  217.5000    28.4250     3.8260     3.5200     4.2040    24.4500     2.3570    -8.9200 
  217.6250    29.2200     3.9260     3.5830     4.3380    24.4400     2.3630    -8.9780 
  217.7500    29.2200     4.1730     3.7700     4.7230    24.4350     2.3770    -9.0710 
  217.8750    29.2200     4.5520     4.0770     5.4010    24.4330     2.3940    -9.1840 
  218.0000    29.2200     5.0010     4.4670     6.2310    24.4330     2.4090    -9.3030 
  218.1250    29.2200     5.4140     4.8640     7.0480    24.4330     2.4190    -9.4350 
  218.2500    29.2200     5.7050     5.1880     7.4330    24.4330     2.4260    -9.6110 
  218.3750    29.2200     5.8510     5.4000     7.3180    24.4330     2.4290    -9.8020 
  218.5000    29.2200     5.8820     5.5070     7.0720    24.4330     2.4320    -9.9720 
  218.6250    29.2200     5.8720     5.5500     7.1280    24.4330     2.4340   -10.1400 
  218.7500    29.2200     5.8900     5.5910     7.4790    24.4330     2.4390   -10.2990 
  218.8750    29.2200     5.9480     5.6490     7.7970    24.4330     2.4450   -10.4550 
  219.0000    29.2200     6.0150     5.7070     7.9750    24.4330     2.4520   -10.6220 
  219.1250    29.2200     6.0120     5.7060     8.1360    24.4330     2.4520   -10.7750 
  219.2500    29.2200     5.8910     5.6070     8.0230    24.4330     2.4430   -10.8960 
  219.3750    29.2200     5.6440     5.3970     7.5690    24.4330     2.4260   -11.0050 
  219.5000    29.2200     5.3070     5.0980     6.9870    24.4350     2.4040   -11.1180 
  219.6250    29.2200     4.9490     4.7630     6.2690    24.4490     2.3870   -11.2070 
  219.7500    29.2200     4.6450     4.4600     5.4100    24.4750     2.3780   -11.2740 
  219.8750    29.2200     4.4290     4.2240     4.8310    24.4970     2.3760   -11.3450 
  220.0000    29.2200     4.3000     4.0660     4.6210    24.5060     2.3790   -11.4270 
  220.1250    29.2200     4.2400     3.9800     4.5600    24.5120     2.3810   -11.5320 
  220.2500    29.2200     4.2060     3.9320     4.4640    24.5260     2.3790   -11.6220 
  220.3750    29.2200     4.1830     3.9050     4.3370    24.5540     2.3700   -11.6970 
  220.5000    29.2200     4.1660     3.8890     4.2500    24.5880     2.3530   -11.7890 
  220.6250    29.2200     4.1570     3.8810     4.2420    24.6080     2.3340   -11.8760 
  220.7500    29.2200     4.1550     3.8780     4.3150    24.5910     2.3190   -11.9180 
  220.8750    29.2200     4.1560     3.8770     4.4330    24.5460     2.3140   -11.9020 
  221.0000    29.2200     4.1560     3.8770     4.5440    24.5210     2.3180   -11.7900 
  221.1250    29.2200     4.1560     3.8770     4.5860    24.5090     2.3290   -11.5710 
  221.2500    29.2200     4.1540     3.8780     4.6040    24.4740     2.3400   -11.3560 
  221.3750    29.2200     4.1530     3.8780     4.6150    24.4550     2.3500   -11.1520 
  221.5000    29.2200     4.1520     3.8780     4.5990    24.4770     2.3590   -10.9350 
  221.6250    29.2200     4.1490     3.8780     4.6210    24.4990     2.3700   -10.7340 
  221.7500    29.2200     4.1460     3.8790     4.6580    24.5110     2.3800   -10.5680 
  221.8750    29.2200     4.1450     3.8780     4.6710    24.5230     2.3880   -10.4460 
  222.0000    29.2200     4.1450     3.8780     4.6440    24.5450     2.3910   -10.4110 
  222.1250    29.2200     4.1490     3.8780     4.6280    24.5650     2.3910   -10.4170 
  222.2500    29.2200     4.1550     3.8780     4.6560    24.5960     2.3940   -10.4220 
  222.3750    29.2200     4.1640     3.8790     4.7340    24.6290     2.4010   -10.4190 
  222.5000    29.2200     4.1720     3.8800     4.8740    24.5870     2.4080   -10.4180 
  222.6250    29.2200     4.1800     3.8820     5.0450    24.4230     2.4070   -10.4440 
  222.7500    29.2200     4.1850     3.8840     5.1910    24.3180     2.3940   -10.4820 
  222.8750    29.2200     4.1870     3.8840     5.2580    24.2840     2.3690   -10.4960 
  223.0000    29.2200     4.1870     3.8840     5.2360    24.2810     2.3400   -10.4800 
  223.1250    29.2200     4.1830     3.8820     5.0940    24.2810     2.3090   -10.4730 
  223.2500    29.2200     4.1790     3.8810     4.9210    24.2810     2.2790   -10.4540 
  223.3750    29.2200     4.1750     3.8810     4.7810    24.2710     2.2510   -10.4470 
  223.5000    29.2200     4.1750     3.8810     4.7040    24.2330     2.2230   -10.4400 
  223.6250    29.2200     4.1760     3.8810     4.6890    24.1020     2.1980   -10.3960 
