~V
VERS. 2.00: Ver 2.00
~W
STRT.M 49.0000:
STOP.M 217.0000:
STEP.M 0.1250:
NULL. -999.2500:
UWI. F10685:
~C
DEPT.M :
SP.MV :
DEN.GM/CC :
GR.API :
RML.OHMM :
RI. :
RXO.OHMM :
CALI.CM :
~A
# ...
   60.2500     4.1810     2.2220    88.8320     3.8420     4.2740     8.5690    24.5980 
   60.3750    -1.3610     2.2500    95.7790     3.2360     4.7280     8.0080    24.4780 
   60.5000    -5.8040     2.2840   103.9280     2.9590     4.8170     7.5840    24.5630 
   60.6250    -9.0710     2.3090   110.1330     3.3100     4.8640     7.4180    24.5360 
   60.7500   -11.4470     2.3220   110.6820     4.0930     5.0790     7.3980    24.4400 
   60.8750   -13.1960     2.3230   104.7440     5.3500     5.5790     7.4400    24.4020 
   61.0000   -14.5870     2.3140    94.9070     7.3670     6.5250     8.3180    24.5570 
   61.1250   -15.8200     2.2900    84.7260     8.7790     8.2940    12.1710    24.6340 
   61.2500   -17.0710     2.2530    77.1580    13.1670    10.9720    20.1570    24.6810 
   61.3750   -18.3780     2.2060    71.7180    17.3290    14.4400    23.9820    24.9880 
   61.5000   -19.6840     2.1590    67.6600    21.6830    18.0690    24.0890    25.3600 
   61.6250   -20.9850     2.1220    63.8920    24.7830    20.6530    22.3990    25.5560 
   61.7500   -22.1980     2.1000    63.3680    26.2330    21.8610    22.9630    25.6840 
   61.8750   -23.3250     2.0890    64.7090    26.5050    22.0880    24.4960    25.7880 
   62.0000   -24.4750     2.0840    62.6630    26.3150    21.9290    25.7170    25.7960 
   62.1250   -25.5890     2.0820    58.5990    26.0530    21.7110    24.4210    25.7090 
   62.2500   -26.5500     2.0820    59.0790    25.7410    21.4510    22.3520    25.7020 
   62.3750   -27.3700     2.0840    63.8850    25.3610    21.1340    21.2990    25.7070 
   62.5000   -28.1550     2.0880    66.0030    24.9810    20.8180    21.0470    25.7550 
   62.6250   -28.9640     2.0950    63.1890    24.6720    20.5600    20.7210    25.7980 
   62.7500   -29.8030     2.1030    61.1860    24.3990    20.3320    20.3750    25.7500 
   62.8750   -30.7340     2.1080    61.3460    24.0820    20.0690    20.2200    25.5230 
   63.0000   -31.6710     2.1080    63.9590    23.6670    19.7220    20.0670    25.4170 
   63.1250   -32.5910     2.0990    68.4900    23.1750    19.3130    20.1970    25.4730 
   63.2500   -33.5970     2.0850    71.7040    22.7260    18.9390    19.8820    25.3100 
   63.3750   -34.6890     2.0670    72.2610    22.4180    18.6820    19.4070    25.2710 
   63.5000   -35.7730     2.0520    71.7060    22.3510    18.6260    18.8930    25.3690 
   63.6250   -36.6590     2.0550    70.1760    22.6940    18.9120    18.4210    25.3240 
   63.7500   -37.3170     2.0890    66.4570    23.4030    19.5030    18.2670    25.2830 
   63.8750   -37.7500     2.1600    62.6510    24.1570    20.1310    18.0650    25.1880 
   64.0000   -38.0310     2.2600    62.7110    24.2200    20.1830    17.8050    25.0260 
   64.1250   -38.1440     2.3590    66.1760    22.4400    18.7000    17.9240    24.8660 
   64.2500   -38.0950     2.4210    70.9320    19.1190    15.9330    17.9720    24.7020 
   64.3750   -37.8360     2.4330    79.9720    15.2560    12.7130    15.5690    24.4980 
   64.5000   -37.3840     2.4070    93.2620    11.9130     9.9270     9.5470    24.7350 
   64.6250   -36.8790     2.3660   101.1950     9.8010     8.1670     6.8820    24.9310 
   64.7500   -36.3980     2.3300   100.5010     8.7160     7.2630     6.5700    24.8870 
   64.8750   -35.8530     2.3020    96.1400     8.4360     7.0300     7.7850    24.7480 
   65.0000   -35.1620     2.2830    92.8260     8.6800     7.2330     8.2260    24.7620 
   65.1250   -34.2390     2.2700    89.2150     9.1140     7.5950     7.6900    24.8090 
   65.2500   -33.0750     2.2610    86.2600     9.4140     7.8450     7.1470    24.7920 
   65.3750   -31.7690     2.2540    87.1250     9.5080     7.9230     7.0250    24.8240 
   65.5000   -30.3340     2.2500    90.1690     9.4940     7.9120     7.1130    24.8880 
   65.6250   -28.7170     2.2550    90.9830     9.5230     7.9360     7.0610    24.8580 
   65.7500   -26.9160     2.2720    90.1370     9.6280     8.0230     7.0420    24.7760 
   65.8750   -24.9560     2.2970    89.3130     9.7640     8.1370     7.0560    24.7670 
   66.0000   -22.8580     2.3180    86.9580     9.8900     8.2410     7.3930    24.7970 
   66.1250   -20.7210     2.3170    82.1050     9.9630     8.3030     8.0360    24.6620 
   66.2500   -18.6890     2.2980    78.6220     9.9340     8.2790     8.3470    24.4530 
   66.3750   -16.8030     2.2720    78.3220     9.7480     8.1230     7.8340    24.3750 
   66.5000   -15.0940     2.2530    79.3380     9.4130     7.8440     7.5480    24.4760 
   66.6250   -13.6430     2.2590    80.8100     9.0310     7.5260     7.7200    24.2050 
   66.7500   -12.4630     2.2880    84.6060     8.7460     7.2880     7.7020    23.8600 
   66.8750   -11.5680     2.3330    89.2180     8.6430     7.2020     7.5090    23.7410 
   67.0000   -10.9440     2.3750    90.6490     8.7430     7.2860     7.6370    23.5580 
   67.1250   -10.5970     2.3880    86.3250     9.0230     7.5190     8.4780    23.5680 
   67.2500   -10.3820     2.3700    82.0310     9.3680     7.8070     9.2860    23.6480 
   67.3750   -10.2310     2.3280    82.1690     9.7090     8.0910     8.8830    23.6090 
   67.5000   -10.1320     2.2820    84.0010     9.9770     8.3140     8.4190    23.6060 
   67.6250   -10.0520     2.2480    82.1210    10.0410     8.3670     8.7410    23.7090 
   67.7500    -9.9940     2.2280    77.8700     9.8660     8.2220     8.7450    23.7650 
   67.8750    -9.9590     2.2190    75.0600     9.5190     7.9330     8.3160    23.8630 
   68.0000    -9.9730     2.2140    75.0490     9.1550     7.6300     8.0370    24.2220 
   68.1250   -10.0450     2.2080    74.6440     8.9820     7.4850     7.7480    24.6250 
   68.2500   -10.1560     2.2020    71.9890     9.0600     7.5500     7.3640    24.5250 
   68.3750   -10.2400     2.2030    68.7610     9.3560     7.7960     7.7230    24.1570 
   68.5000   -10.2970     2.2130    68.2940     9.7260     8.1050     8.6750    23.8430 
   68.6250   -10.2810     2.2300    72.3140     9.9710     8.3090     8.7880    23.5570 
   68.7500   -10.2260     2.2440    76.0950    10.0260     8.3550     7.8130    23.3970 
   68.8750   -10.1440     2.2510    77.1510     9.9150     8.2620     7.2800    23.0060 
   69.0000   -10.0770     2.2500    73.8540     9.6730     8.0610     7.2690    22.5100 
   69.1250    -9.9980     2.2470    68.1030     9.2980     7.7480     7.6060    21.6000 
   69.2500    -9.9060     2.2450    66.1470     8.8280     7.3570     7.8540    20.9660 
   69.3750    -9.8190     2.2410    69.4030     8.3180     6.9320     7.4590    20.9250 
   69.5000    -9.7960     2.2290    74.7150     7.8740     6.5620     6.6340    21.4240 
   69.6250    -9.9010     2.2060    78.3890     7.6930     6.4110     6.1490    22.3090 
   69.7500   -10.0800     2.1830    79.8900     7.8580     6.5480     6.2790    22.8470 
   69.8750   -10.2910     2.1690    79.0570     8.3820     6.9850     6.7860    23.2830 
   70.0000   -10.4610     2.1740    76.3040     9.1610     7.6340     7.6100    23.5280 
   70.1250   -10.5830     2.2000    72.9770     9.8660     8.2220     8.2160    23.4610 
   70.2500   -10.6600     2.2320    69.1460    10.0990     8.4160     8.7480    23.5330 
   70.3750   -10.6860     2.2580    67.0270     9.7330     8.1100     8.9260    23.5660 
   70.5000   -10.6200     2.2760    68.9090     9.0320     7.5260     8.6310    23.6590 
   70.6250   -10.4870     2.2990    72.2210     8.5450     7.1210     8.1370    23.8760 
   70.7500   -10.3450     2.3440    74.8650     8.6790     7.2330     7.9960    23.8220 
   70.8750   -10.2360     2.4190    78.6290     9.7720     8.1440     9.1510    23.6700 
   71.0000   -10.2170     2.5130    80.6160    12.2430    10.2030    13.4010    23.4140 
   71.1250   -10.3040     2.5900    75.6880    16.8880    14.0740    23.7090    23.2770 
   71.2500   -10.5130     2.6150    68.7120    23.3060    19.4210    35.8020    23.1650 
   71.3750   -10.8500     2.5760    65.0340    29.9480    24.9560    42.8590    23.0110 
