~V
VERS. 2.00: Ver 2.00
~W
STRT.M 50.0000:
STOP.M 263.0000:
STEP.M 0.1250:
NULL. -999.2500:
UWI. F10656:
~C
DEPT.M :
DEN.GM/CC :
GR.API :
RML.OHMM :
RI. :
RXO.OHMM :
CALI.CM :
SP.MV :
~A
# ...
   61.2500     2.1150    63.6030     6.7330     7.4490     7.4480    20.0190   -20.9440 
   61.3750     2.1340    66.4680     6.7380     7.4020     7.1290    18.4140   -20.7400 
   61.5000     2.1460    67.6470     6.7440     7.3490     7.1700    17.2250   -20.3920 
   61.6250     2.1460    66.9700     6.7240     7.2710     7.1550    16.7610   -19.9020 
   61.7500     2.1350    66.5230     6.6690     7.1690     7.0230    16.6400   -19.3390 
   61.8750     2.1210    65.8140     6.5990     7.0600     7.0520    16.6390   -18.6800 
   62.0000     2.1100    64.6900     6.5660     6.9860     7.3490    16.7270   -17.9690 
   62.1250     2.1120    65.9010     6.6610     7.0300     7.6770    16.9240   -17.2820 
   62.2500     2.1270    68.4520     6.9130     7.2210     7.7980    17.2950   -16.7540 
   62.3750     2.1550    68.6620     7.2960     7.5440     7.7470    17.9020   -16.4090 
   62.5000     2.1920    65.9690     7.7240     7.9300     7.6080    18.7340   -16.2290 
   62.6250     2.2300    62.9130     8.0330     8.2440     7.4510    19.7000   -16.1560 
   62.7500     2.2540    60.6830     8.1080     8.3750     7.3050    20.5560   -16.1500 
   62.8750     2.2530    59.9370     7.9180     8.2720     7.3480    21.1890   -16.2670 
   63.0000     2.2280    60.5790     7.5320     7.9640     7.5010    21.4890   -16.3570 
   63.1250     2.1940    60.3550     7.0850     7.5330     7.4770    21.5560   -16.4180 
   63.2500     2.1710    60.1430     6.6930     7.0990     7.3860    21.5520   -16.4640 
   63.3750     2.1670    63.3900     6.3960     6.7200     7.1790    21.5460   -16.4640 
   63.5000     2.1810    68.8620     6.2020     6.4230     6.9100    21.5440   -16.3940 
   63.6250     2.2020    71.0640     6.1380     6.2400     6.6540    21.5830   -16.2570 
   63.7500     2.2190    71.2150     6.2020     6.1690     6.5390    21.6580   -16.1620 
   63.8750     2.2290    70.5000     6.4110     6.2240     6.5150    21.7320   -16.1320 
   64.0000     2.2320    68.0000     6.7580     6.4080     6.7210    21.7800   -16.2350 
   64.1250     2.2290    65.1990     7.2090     6.7030     7.1400    21.8220   -16.4630 
   64.2500     2.2220    63.2960     7.6750     7.0300     7.5240    21.8760   -16.7750 
   64.3750     2.2090    60.4190     8.0810     7.3240     7.8740    21.9290   -17.1520 
   64.5000     2.1930    56.6630     8.3740     7.5290     8.1430    21.9790   -17.5840 
   64.6250     2.1770    56.1470     8.5030     7.6040     8.3590    22.0130   -18.0940 
   64.7500     2.1720    58.0960     8.5140     7.5860     8.4920    22.0280   -18.5060 
   64.8750     2.1840    59.3880     8.4300     7.5070     8.4660    22.0320   -18.7350 
   65.0000     2.2150    60.0120     8.2750     7.3960     8.3380    22.0320   -18.8480 
   65.1250     2.2530    61.9530     8.1260     7.2660     8.1450    22.0380   -18.9150 
   65.2500     2.2780    62.5910     8.0080     7.1250     8.0470    22.0430   -18.9180 
   65.3750     2.2770    62.4290     7.8920     6.9780     8.0130    22.0290   -18.8570 
   65.5000     2.2520    62.3760     7.7890     6.8410     8.0030    21.9950   -18.7260 
   65.6250     2.2180    60.1740     7.7080     6.7420     7.9940    21.9290   -18.4970 
   65.7500     2.1910    56.0280     7.6350     6.6930     7.9900    21.7970   -18.2800 
   65.8750     2.1770    54.1830     7.5950     6.6960     7.9430    21.5860   -18.1090 
   66.0000     2.1740    56.2950     7.6060     6.7380     7.8740    21.4070   -17.9630 
   66.1250     2.1750    60.0040     7.6870     6.7980     7.8020    21.3370   -17.7340 
   66.2500     2.1770    62.5800     7.7660     6.8570     7.7180    21.3310   -17.4380 
   66.3750     2.1790    64.1160     7.8310     6.9090     7.6350    21.3640   -17.0910 
   66.5000     2.1810    65.9180     7.8510     6.9520     7.5300    21.4160   -16.6750 
   66.6250     2.1790    69.3910     7.8330     6.9600     7.4620    21.4910   -16.1710 
   66.7500     2.1750    72.5430     7.7450     6.8920     7.3830    21.5650   -15.5490 
   66.8750     2.1720    72.4740     7.5350     6.6980     7.2190    21.6190   -14.7980 
   67.0000     2.1790    70.3520     7.1680     6.3470     6.8940    21.6620   -13.8670 
   67.1250     2.2030    76.6510     6.5980     5.8350     6.3910    21.7350   -12.8520 
   67.2500     2.2380    91.3930     5.9270     5.2640     5.6960    21.8730   -11.7310 
   67.3750     2.2760   106.2400     5.3070     4.7240     4.9460    22.0960   -10.5360 
   67.5000     2.3070   111.4770     4.8450     4.2920     4.3900    22.3770    -9.3690 
   67.6250     2.3240   106.8470     4.6070     4.0310     4.1690    22.5610    -8.3650 
   67.7500     2.3330   103.4740     4.5280     3.9030     4.1100    22.6070    -7.5010 
   67.8750     2.3400   104.8170     4.5430     3.8670     4.1240    22.5750    -6.7980 
   68.0000     2.3480   107.7710     4.5840     3.8760     4.1940    22.5730    -6.2620 
   68.1250     2.3590   107.0640     4.5890     3.8840     4.2660    22.6550    -5.8940 
   68.2500     2.3730   104.7080     4.5440     3.8700     4.3260    22.8160    -5.7370 
   68.3750     2.3840   103.6780     4.4660     3.8390     4.3910    23.0540    -5.7130 
   68.5000     2.3910   102.4030     4.3950     3.8150     4.4260    23.3740    -5.7430 
   68.6250     2.3890    99.0320     4.4260     3.8610     4.4400    23.7160    -5.7740 
   68.7500     2.3840    97.4720     4.6340     4.0330     4.5320    23.9800    -5.8260 
   68.8750     2.3820    97.8280     5.0610     4.3680     4.8070    24.1180    -5.9050 
   69.0000     2.3870    95.6270     5.6710     4.8550     5.4480    24.0950    -6.0120 
   69.1250     2.3970    87.0830     6.3270     5.4050     6.6860    23.9790    -6.1900 
   69.2500     2.3980    77.5300     6.8240     5.8520     8.2380    23.8880    -6.3780 
   69.3750     2.3830    72.3440     7.0130     6.0610     9.5920    23.8870    -6.5750 
   69.5000     2.3530    72.2280     6.8480     5.9700     9.8780    23.9450    -6.7380 
   69.6250     2.3200    76.7420     6.4000     5.6080     7.7320    24.0630    -6.8710 
   69.7500     2.2980    80.9410     5.9160     5.1770     6.0520    24.2110    -7.0370 
   69.8750     2.2900    82.8640     5.5600     4.8200     5.4120    24.2770    -7.1990 
   70.0000     2.2910    82.8810     5.4400     4.6340     5.3170    24.2040    -7.3550 
   70.1250     2.2920    80.9690     5.6600     4.7070     5.5470    24.0480    -7.4920 
   70.2500     2.2860    76.7650     6.2020     5.0330     6.0500    23.9290    -7.6350 
   70.3750     2.2780    71.3500     7.0990     5.6470     7.2060    23.8870    -7.8250 
   70.5000     2.2740    69.6830     8.3880     6.5990     9.3010    23.8820    -8.0690 
   70.6250     2.2910    71.8420    10.1250     7.9840    12.5210    23.8580    -8.2700 
   70.7500     2.3320    72.1260    12.1370     9.6910    16.1380    23.8030    -8.4320 
   70.8750     2.3950    70.3540    14.2200    11.5720    18.9890    23.7270    -8.6030 
   71.0000     2.4680    68.7010    16.0980    13.3840    20.2490    23.6690    -8.8010 
   71.1250     2.5340    69.3090    17.3580    14.7430    19.8260    23.6740    -9.0190 
   71.2500     2.5780    71.8580    17.8800    15.4590    18.6680    23.7130    -9.2530 
   71.3750     2.5940    73.0370    17.6310    15.4500    17.2770    23.7640    -9.5460 
   71.5000     2.5830    69.4860    16.6960    14.7770    15.8220    23.8000    -9.9670 
   71.6250     2.5450    63.0070    15.2400    13.5700    14.3490    23.7920   -10.5930 
   71.7500     2.4880    60.2190    13.5860    12.1840    12.8470    23.7260   -11.2640 
   71.8750     2.4190    60.8830    11.9830    10.8490    11.2560    23.6610   -11.9720 
   72.0000     2.3460    62.7340    10.6380     9.7390     9.8170    23.6830   -12.6950 
   72.1250     2.2860    67.6380     9.7430     8.9980     9.1380    23.8290   -13.3790 
   72.2500     2.2490    75.6150     9.4420     8.5660     8.9280    23.8970   -14.0010 
   72.3750     2.2380    83.8710     9.3760     8.3760     8.9030    23.7660   -14.4590 
