~V
VERS. 2.00: Ver 2.00
~W
STRT.M 58.0000:
STOP.M 240.0000:
STEP.M 0.1250:
NULL. -999.2500:
UWI. F10642:
~C
DEPT.M :
SP.MV :
GR.API :
RML.OHMM :
RI. :
RXO.OHMM :
CALI.CM :
DEN.GM/CC :
~A
# ...
  226.7500   -21.0750    24.8790     3.4780     2.8040     3.3260    23.8740     2.3570 
  226.8750   -20.9490    24.9320     3.5630     2.8730     3.4110    23.8690     2.3860 
  227.0000   -20.8310    25.2980     3.6920     2.9770     3.4750    23.8820     2.4170 
  227.1250   -20.7350    25.2650     3.8240     3.0840     3.5680    23.9670     2.4370 
  227.2500   -20.6180    25.1990     3.9160     3.1580     3.6050    24.1090     2.4350 
  227.3750   -20.5180    25.6450     3.9360     3.1740     3.5910    24.2160     2.4100 
  227.5000   -20.4280    26.2080     3.8800     3.1290     3.5010    24.2870     2.3720 
  227.6250   -20.3510    26.0360     3.7630     3.0340     3.3950    24.3190     2.3400 
  227.7500   -20.2540    26.2220     3.6330     2.9300     3.2850    24.3140     2.3270 
  227.8750   -20.1350    26.4300     3.5290     2.8460     3.1960    24.2940     2.3310 
  228.0000   -20.0010    25.3620     3.4710     2.7990     3.1870    24.2730     2.3430 
  228.1250   -19.8330    23.6700     3.4540     2.7860     3.2070    24.2180     2.3470 
  228.2500   -19.6810    23.9610     3.4560     2.7870     3.2410    24.1390     2.3360 
  228.3750   -19.5600    26.9460     3.4670     2.7960     3.2490    24.1240     2.3140 
  228.5000   -19.4460    30.1760     3.4820     2.8080     3.2030    24.1590     2.2890 
  228.6250   -19.3880    30.0950     3.4920     2.8160     3.1760    24.2070     2.2680 
  228.7500   -19.4180    27.8270     3.4870     2.8120     3.1760    24.2600     2.2510 
  228.8750   -19.4720    25.8600     3.4700     2.7980     3.2240    24.3030     2.2360 
  229.0000   -19.5370    25.0250     3.4520     2.7840     3.2840    24.3350     2.2230 
  229.1250   -19.6170    24.4060     3.4590     2.7890     3.3050    24.3770     2.2210 
  229.2500   -19.7110    24.8800     3.5010     2.8230     3.3130    24.3420     2.2370 
  229.3750   -19.7920    25.5290     3.5780     2.8850     3.3770    24.3050     2.2720 
  229.5000   -19.8730    25.5290     3.6770     2.9650     3.4350    24.2760     2.3130 
  229.6250   -19.9280    25.5290     3.7840     3.0510     3.4650    24.2300     2.3400 
  229.7500   -19.9220    25.5290     3.8770     3.1260     3.5530    24.1610     2.3490 
  229.8750   -19.8930    25.5290     3.9420     3.1790     3.7030    24.1110     2.3480 
  230.0000   -19.8120    25.5290     3.9670     3.1990     3.8020    24.1320     2.3460 
  230.1250   -19.6850    25.5290     3.9460     3.1820     3.8360    24.1700     2.3540 
  230.2500   -19.5160    25.5290     3.8970     3.1420     3.8520    24.1800     2.3650 
  230.3750   -19.2820    25.5290     3.8350     3.0930     3.8450    24.1860     2.3740 
  230.5000   -19.0060    25.5290     3.7790     3.0470     3.7980    24.2190     2.3710 
  230.6250   -18.7380    25.5290     3.7470     3.0220     3.7650    24.2280     2.3520 
  230.7500   -18.5120    25.5290     3.7540     3.0270     3.7590    24.1560     2.3260 
  230.8750   -18.3460    25.5290     3.8080     3.0710     3.8110    24.0420     2.3060 
  231.0000   -18.2490    25.5290     3.9130     3.1560     3.8940    23.9960     2.3040 
  231.1250   -18.2560    25.5290     4.0620     3.2760     3.9490    24.1040     2.3280 
  231.2500   -18.3560    25.5290     4.2170     3.4000     4.1170    24.1650     2.3640 
  231.3750   -18.5620    25.5290     4.3470     3.5050     4.3060    24.1550     2.3930 
  231.5000   -18.8230    25.5290     4.4360     3.5770     4.3630    24.1120     2.3990 
  231.6250   -19.0630    25.5290     4.4800     3.6130     4.2520    24.0740     2.3760 
  231.7500   -19.2810    25.5290     4.4980     3.6280     4.2640    24.0490     2.3410 
  231.8750   -19.4810    25.5290     4.5050     3.6330     4.3290    23.9610     2.3080 
  232.0000   -19.6350    25.5290     4.5110     3.6380     4.4030    23.8790     2.2920 
  232.1250   -19.7130    25.5290     4.5260     3.6500     4.5430    23.8600     2.3010 
  232.2500   -19.7080    25.5290     4.5470     3.6670     4.6470    23.8750     2.3230 
  232.3750   -19.6350    25.5290     4.5690     3.6840     4.6860    23.8620     2.3490 
  232.5000   -19.5190    25.5290     4.5760     3.6900     4.6550    23.8050     2.3690 
  232.6250   -19.3940    25.5290     4.5540     3.6730     4.4740    23.7390     2.3810 
  232.7500   -19.2410    25.5290     4.5120     3.6380     4.2460    23.7160     2.3850 
  232.8750   -19.0700    25.5290     4.4630     3.5990     4.1330    23.7470     2.3810 
  233.0000   -18.9030    25.5290     4.4260     3.5700     4.1180    23.7850     2.3680 
  233.1250   -18.7000    25.5290     4.4170     3.5620     4.1030    23.7750     2.3470 
  233.2500   -18.5090    25.5290     4.4260     3.5700     4.0510    23.7590     2.3220 
  233.3750   -18.3180    25.5290     4.4440     3.5840     3.9370    23.7680     2.3020 
  233.5000   -18.1460    25.5290     4.4570     3.5940     3.8060    23.7980     2.2960 
  233.6250   -18.0100    25.5290     4.4620     3.5980     3.7890    23.7780     2.3050 
  233.7500   -17.9200    25.5290     4.4670     3.6020     3.8740    23.7030     2.3210 
  233.8750   -17.8300    25.5290     4.4780     3.6120     3.9050    23.6040     2.3330 
  234.0000   -17.7430    25.5290     4.4990     3.6290     3.8130    23.6560     2.3340 
  234.1250   -17.7280    25.5290     4.5190     3.6440     3.7050    23.7410     2.3300 
  234.2500   -17.7460    25.5290     4.5270     3.6500     3.6520    23.7990     2.3300 
  234.3750   -17.7870    25.5290     4.5220     3.6470     3.6170    23.8200     2.3410 
  234.5000   -17.8650    25.5290     4.5100     3.6370     3.5980    23.8610     2.3590 
  234.6250   -17.9430    25.5290     4.4980     3.6280     3.5780    23.9010     2.3590 
  234.7500   -18.0270    25.5290     4.4940     3.6240     3.5700    23.9160     2.3120 
  234.8750   -18.1150    25.5290     4.4960     3.6260     3.5690    23.8490     2.2230 
  235.0000   -18.1950    25.5290     4.4950     3.6250     3.5770    23.7250     2.1150 
  235.1250   -18.2420    25.5290     4.4800     3.6130     3.5710    23.5050     2.0180 
  235.2500   -18.2590    25.5290     4.4680     3.6030     3.5590    22.6890     1.9550 
  235.3750   -18.2430    25.5290     4.4680     3.6030     3.6170    20.7160     1.9350 
  235.5000   -18.1700    25.5290     4.4680     3.6030     3.7980    17.9260     1.9340 
  235.6250   -18.0720    25.5290     4.4680     3.6030     3.8860    15.7360     1.9700 
  235.7500   -17.9410    25.5290     4.4680     3.6030     4.0410    14.3770     1.9880 
  235.8750   -17.8050    25.5290     4.4680     3.6030     4.0710    13.5530     1.9960 
  236.0000   -17.7000    25.5290     4.4680     3.6030     3.8990    13.1510     1.9980 
  236.1250   -17.5950    25.5290     4.4680     3.6030     3.7720    13.1070     1.9970 
  236.2500   -17.5020    25.5290     4.4680     3.6030     3.8090    13.2290     1.9960 
  236.3750   -17.4220    25.5290     4.4680     3.6030     4.0530    13.3290     1.9900 
  236.5000   -17.3400    25.5290     4.4680     3.6030     4.3680    13.3830     1.9780 
  236.6250   -17.1650    25.5290     4.4680     3.6030     4.2010    13.3730     1.9640 
  236.7500   -16.9680    25.5290     4.4680     3.6030     4.0490    13.2810     1.9550 
  236.8750   -16.7800    25.5290     4.4680     3.6030     3.9630    13.1410     1.9490 
  237.0000   -16.5830    25.5290     4.4680     3.6030     4.0100    13.0200     1.9380 
  237.1250   -16.3770    25.5290     4.4680     3.6030     3.9780    13.0120     1.9180 
  237.2500   -16.1740    25.5290     4.4680     3.6030     3.9420    13.0700     1.8990 
  237.3750   -15.9800    25.5290     4.4680     3.6030     3.7280    13.1190     1.8920 
  237.5000   -15.8320    25.5290     4.4680     3.6030     3.5840    13.0050     1.9000 
  237.6250   -15.8320    25.5290     4.4680     3.6030     3.7090    12.4870     1.9180 
  237.7500   -15.8320    25.5290     4.4680     3.6030     3.7320    11.7670     1.9340 
  237.8750  -999.2500    25.5290     4.4680     3.6030     3.7720    11.2720     1.9420 
