~V
VERS. 2.00: Ver 2.00
~W
STRT.M 52.0000:
STOP.M 240.0000:
STEP.M 0.1250:
NULL. -999.2500:
UWI. F10646:
~C
DEPT.M :
GR.API :
RML.OHMM :
RI. :
RXO.OHMM :
CALI.CM :
DEN.GM/CC :
SP.MV :
~A
# ...
   85.7500    65.6250     9.6240     7.1000     7.9620    24.5570     2.1570   -20.2820 
   85.8750    64.8660     9.7390     7.0800     8.1010    24.0620     2.1710   -20.2600 
   86.0000    62.6820     9.9220     7.1180     8.1780    23.8220     2.1770   -20.2420 
   86.1250    60.4320    10.0480     7.1430     8.3020    23.7280     2.1770   -20.2730 
   86.2500    59.0080    10.0380     7.1120     8.5000    23.7020     2.1750   -20.3500 
   86.3750    59.3750     9.9010     7.0320     8.5490    23.6940     2.1630   -20.3960 
   86.5000    60.6660     9.8390     7.0120     8.5320    23.6910     2.1320   -20.4120 
   86.6250    61.2530    10.1880     7.2360     8.7280    23.7580     2.0930   -20.4880 
   86.7500    59.3910    11.3290     7.9250     9.9680    23.9430     2.0700   -20.5790 
   86.8750    56.2360    13.6410     9.3370    14.4020    24.1250     2.1000   -20.5990 
   87.0000    55.5560    17.6390    11.9370    26.1600    24.2470     2.2220   -20.6290 
   87.1250    57.8670    22.8320    15.6480    39.1900    24.3580     2.4020   -20.6280 
   87.2500    60.5430    28.0850    19.9310    46.6720    24.4110     2.5810   -20.5630 
   87.3750    59.5530    31.3010    23.2600    50.1840    24.4990     2.7000   -20.4970 
   87.5000    53.5550    29.6870    23.0330    52.9340    24.5180     2.7170   -20.4090 
   87.6250    48.7430    24.4800    19.6930    46.6410    24.4780     2.6610   -20.2630 
   87.7500    49.8360    18.1810    15.1310    29.2160    24.5030     2.5550   -20.1080 
   87.8750    56.9340    12.8880    11.0460    14.1780    24.7730     2.4350   -19.9740 
   88.0000    63.8610     9.5910     8.2650     9.5140    24.9130     2.3370   -19.7750 
   88.1250    68.5510     7.7160     6.4880     7.3240    24.8470     2.2850   -19.6060 
   88.2500    72.3540     6.8340     5.4750     6.3420    24.7030     2.2820   -19.4870 
   88.3750    75.2730     6.5930     5.0170     6.0660    24.6300     2.3060   -19.3600 
   88.5000    77.3640     6.7750     4.9900     6.3530    24.6210     2.3250   -19.3010 
   88.6250    78.1850     7.1270     5.1850     6.7990    24.6190     2.3280   -19.3270 
   88.7500    75.9930     7.5290     5.5020     7.1420    24.6170     2.3200   -19.3580 
   88.8750    71.2040     7.9200     5.8750     7.2030    24.6160     2.3140   -19.3860 
   89.0000    67.1780     8.3160     6.2940     7.1430    24.6010     2.3110   -19.4870 
   89.1250    65.8940     8.8060     6.7750     7.2030    24.5620     2.3060   -19.6310 
   89.2500    65.7480     9.4480     7.3420     7.5530    24.5030     2.2910   -19.7610 
   89.3750    64.7060    10.1980     7.9650     7.9360    24.4580     2.2640   -19.8880 
   89.5000    62.7040    10.8250     8.5000     8.0410    24.4500     2.2310   -20.0140 
   89.6250    61.6090    11.0490     8.7630     7.9500    24.3690     2.1970   -20.0690 
   89.7500    63.7480    10.6970     8.6180     8.0500    24.2000     2.1650   -20.0790 
   89.8750    68.8220     9.8120     8.0640     8.3920    24.1070     2.1400   -20.1040 
   90.0000    73.3320     8.6590     7.2470     7.9270    24.1730     2.1360   -20.0710 
   90.1250    75.1430     7.6050     6.4420     7.1150    24.2900     2.1550   -19.9610 
   90.2500    75.4430     6.8080     5.7820     6.5730    24.4130     2.1940   -19.8290 
   90.3750    74.9520     6.3030     5.3210     5.7130    24.5330     2.2360   -19.6480 
   90.5000    72.9160     6.0940     5.0870     5.8700    24.5390     2.2640   -19.4290 
   90.6250    71.0030     6.0570     5.0050     5.9590    24.4640     2.2770   -19.2310 
   90.7500    71.5920     6.1040     5.0130     5.6160    24.4200     2.2820   -19.0280 
   90.8750    75.2160     6.1680     5.0540     5.3100    24.4390     2.2840   -18.7650 
   91.0000    79.6680     6.2160     5.0870     5.5180    24.3820     2.2910   -18.5240 
   91.1250    82.4520     6.2630     5.1100     5.7960    24.2440     2.3010   -18.3330 
   91.2500    83.1060     6.3130     5.1290     5.5130    24.3020     2.3120   -18.1360 
   91.3750    81.7930     6.3480     5.1400     5.2560    24.5960     2.3180   -17.9670 
   91.5000    80.3450     6.3250     5.1040     5.6100    24.7860     2.3120   -17.8350 
   91.6250    78.7040     6.2380     5.0050     6.0360    24.7710     2.3000   -17.6940 
   91.7500    76.2370     6.1310     4.8690     5.9760    24.6590     2.2910   -17.5610 
   91.8750    75.5430     6.1080     4.7660     5.4370    24.5950     2.2920   -17.4810 
   92.0000    76.6800     6.3720     4.8340     5.3260    24.6100     2.3050   -17.4600 
   92.1250    75.9990     7.0710     5.1740     6.0980    24.5780     2.3120   -17.4060 
   92.2500    72.8500     8.3800     5.9030     7.1180    24.4500     2.2960   -17.3560 
   92.3750    70.5870    10.4420     7.1390     7.9690    24.2180     2.2600   -17.3480 
   92.5000    69.6150    13.3780     9.0550     9.1380    23.9660     2.2350   -17.2860 
   92.6250    67.0050    16.7510    11.4590    10.5120    23.8160     2.2500   -17.2060 
   92.7500    64.0400    19.9750    14.0160    12.6930    23.6750     2.3070   -17.1530 
   92.8750    62.2290    22.3590    16.2030    16.7480    23.5850     2.3700   -17.0640 
   93.0000    59.9310    23.2360    17.3810    19.4570    23.7190     2.3800   -16.8890 
   93.1250    57.3390    22.9410    17.6100    16.6680    23.9770     2.3360   -16.7260 
   93.2500    55.8010    21.8130    17.0840    13.1230    24.2130     2.2740   -16.5490 
   93.3750    54.3990    20.1000    15.9930    11.7440    24.5050     2.2210   -16.3570 
   93.5000    53.7480    17.9340    14.4510    11.5400    24.8380     2.1840   -16.2250 
   93.6250    54.5190    15.6810    12.7700    10.8870    24.9940     2.1630   -16.1110 
   93.7500    55.7890    13.6960    11.2220     9.6220    25.0180     2.1620   -16.0020 
   93.8750    57.7710    12.2920    10.0360     7.9410    24.8820     2.1800   -15.9630 
   94.0000    62.6070    11.7380     9.4160     6.9470    24.7650     2.1930   -15.9780 
   94.1250    68.6870    11.7790     9.2400     7.5390    24.8930     2.1780   -15.9730 
   94.2500    70.0730    12.1170     9.3510     8.7920    25.1890     2.1370   -16.0170 
   94.3750    64.6170    12.4120     9.5380     9.5000    25.3680     2.0900   -16.1170 
   94.5000    59.3620    12.3080     9.5470     9.1150    25.1810     2.0800   -16.2120 
   94.6250    60.3910    11.8140     9.2910     8.3380    24.9960     2.1160   -16.3440 
   94.7500    64.9220    11.1510     8.8570     7.5400    24.8890     2.1770   -16.5170 
   94.8750    67.3240    10.6390     8.4430     7.3500    24.8230     2.2250   -16.7050 
   95.0000    66.7430    10.5940     8.2990     7.4630    24.8300     2.2330   -16.8980 
   95.1250    65.0140    11.0390     8.5010     7.4600    24.8370     2.2190   -17.1150 
   95.2500    61.6720    11.9880     9.0830     7.7090    24.7460     2.2060   -17.3550 
   95.3750    56.8430    13.3830    10.0240     8.9020    24.7050     2.2020   -17.5800 
   95.5000    52.7760    14.9550    11.1810     9.7500    24.8090     2.1980   -17.8260 
   95.6250    52.0930    16.1400    12.1520     9.9890    24.9350     2.1880   -18.1270 
   95.7500    55.1700    16.4120    12.5290    10.4120    24.9610     2.1860   -18.4420 
   95.8750    60.8660    15.5030    12.0600    12.3780    24.8270     2.2060   -18.7590 
   96.0000    65.5310    13.5540    10.7760    14.6110    24.5100     2.2480   -19.1380 
   96.1250    67.6450    11.4120     9.2530    12.6660    24.2630     2.2820   -19.5320 
   96.2500    67.7180     9.6040     7.8650     8.8570    24.1430     2.2850   -19.8950 
   96.3750    69.0270     8.3390     6.7890     7.0170    24.1000     2.2630   -20.2380 
   96.5000    74.5770     7.6570     6.1020     6.5090    24.2910     2.2590   -20.5130 
   96.6250    80.5920     7.3530     5.7030     6.5300    24.4750     2.2970   -20.6700 
   96.7500    82.7110     7.3040     5.5350     6.9920    24.4890     2.3620   -20.7660 
   96.8750    81.6740     7.4190     5.5350     7.2550    24.4090     2.4100   -20.8440 
