~V
VERS. 2.00: Ver 2.00
~W
STRT.M 55.0000:
STOP.M 213.0000:
STEP.M 0.1250:
NULL. -999.2500:
UWI. F10686:
~C
DEPT.M :
SP.MV :
DEN.GM/CC :
GR.API :
RML.OHMM :
RI. :
RXO.OHMM :
CALI.CM :
~A
# ...
  100.0000    -5.8180     2.0530    48.0040    30.7630    26.9320    10.6860    22.3570 
  100.1250    -5.5010     2.0450    49.6370    31.4480    27.3060    11.0960    22.1380 
  100.2500    -5.1430     2.0470    47.9400    32.2790    27.7970    11.2870    21.9820 
  100.3750    -4.7530     2.0560    43.6700    33.2010    28.3730    11.4720    21.9910 
  100.5000    -4.3940     2.0630    41.1180    34.1430    28.9870    11.9490    21.9720 
  100.6250    -4.0780     2.0620    42.5770    35.0220    29.5800    12.5290    21.7610 
  100.7500    -3.7980     2.0560    43.3680    35.7920    30.1150    12.2520    21.5820 
  100.8750    -3.5920     2.0580    42.0820    36.4280    30.5630    11.4550    21.6010 
  101.0000    -3.4890     2.0720    41.9300    36.9190    30.9050    11.1960    21.8290 
  101.1250    -3.4540     2.0910    45.0950    37.2440    31.1120    11.8950    22.0310 
  101.2500    -3.4700     2.1020    46.6170    37.4360    31.2110    12.6080    21.9450 
  101.3750    -3.6050     2.1030    44.8270    37.5140    31.2130    12.3760    21.7030 
  101.5000    -3.7800     2.1030    43.4190    37.5120    31.1380    11.4390    21.5130 
  101.6250    -3.9330     2.1140    43.7270    37.4690    31.0110    11.0400    21.5030 
  101.7500    -4.1460     2.1300    43.6270    37.4170    30.8640    11.6250    21.5280 
  101.8750    -4.4180     2.1360    43.4360    37.3310    30.6990    12.7130    21.5170 
  102.0000    -4.7130     2.1230    44.9660    37.1440    30.4930    12.9130    21.4050 
  102.1250    -5.0940     2.0970    47.0490    36.7490    30.1840    11.7530    21.3380 
  102.2500    -5.5390     2.0760    46.7790    36.1640    29.7690    10.8940    21.4050 
  102.3750    -6.0070     2.0690    44.8570    35.4620    29.2930    10.9030    21.6490 
  102.5000    -6.5720     2.0710    43.4260    34.7590    28.8450    11.7620    21.8890 
  102.6250    -7.2260     2.0710    43.6340    34.2240    28.5680    13.1940    22.1750 
  102.7500    -7.8740     2.0670    43.8570    33.9350    28.5200    14.2910    22.3440 
  102.8750    -8.5320     2.0660    44.2710    33.9100    28.7110    14.8720    22.4240 
  103.0000    -9.1640     2.0780    47.0200    34.0810    29.0960    15.9830    22.2060 
  103.1250    -9.6720     2.1120    50.1990    34.1250    29.4990    17.3270    21.8790 
  103.2500   -10.1610     2.1650    49.6890    33.4120    29.4230    17.6860    21.6590 
  103.3750   -10.7150     2.2270    46.9310    31.2610    28.2010    17.4490    21.6000 
  103.5000   -11.2620     2.2840    45.8690    27.4040    25.4100    17.2700    21.4850 
  103.6250   -11.8080     2.3170    47.3650    22.3560    21.3050    16.5630    21.5210 
  103.7500   -12.3660     2.3240    50.3620    17.5180    17.1440    14.0180    21.6620 
  103.8750   -12.9060     2.3140    55.9260    14.2790    13.6870    10.6950    21.8750 
  104.0000   -13.4150     2.3070    61.6940    11.7900    11.2180     8.1940    21.9970 
  104.1250   -13.9070     2.3200    62.7340    10.3260     9.7680     7.4700    22.0160 
  104.2500   -14.3480     2.3430    61.7900     9.5140     8.9110     7.6600    22.0090 
  104.3750   -14.6420     2.3630    62.7900     9.0070     8.3970     8.0820    21.9800 
  104.5000   -14.8110     2.3700    67.3310     8.5660     8.0230     7.6980    22.0040 
  104.6250   -14.9140     2.3640    73.4390     8.0950     7.6710     6.7890    22.0160 
  104.7500   -14.9530     2.3520    77.3010     7.6580     7.3360     6.3060    22.0190 
  104.8750   -14.9510     2.3380    76.9770     7.3340     7.0700     5.9130    22.0210 
  105.0000   -14.9740     2.3200    74.3410     7.1420     6.9000     5.7490    22.0330 
  105.1250   -14.9990     2.3000    72.2370     7.0440     6.8170     5.9070    22.1300 
  105.2500   -15.0160     2.2800    69.7660     6.9760     6.7660     6.1860    22.3760 
  105.3750   -15.0870     2.2660    67.5910     6.9320     6.7280     6.2620    22.9050 
  105.5000   -15.2100     2.2610    69.1840     6.9510     6.7180     6.0660    23.4640 
  105.6250   -15.2980     2.2640    73.9530     7.1140     6.7910     6.1190    23.9530 
  105.7500   -15.3860     2.2720    76.6050     7.4400     6.9750     6.3880    24.2410 
  105.8750   -15.4970     2.2790    74.5810     7.9350     7.2910     6.7940    24.2830 
  106.0000   -15.5930     2.2830    70.5080     8.5730     7.7340     7.0870    24.2850 
  106.1250   -15.7130     2.2830    67.1500     9.2810     8.2650     7.5160    24.2760 
  106.2500   -15.8610     2.2830    65.7620     9.9040     8.7580     8.3100    24.2270 
  106.3750   -15.9940     2.2870    65.6140    10.3000     9.0860     9.1330    24.1150 
  106.5000   -16.0920     2.2950    65.8440    10.3890     9.1650     9.5120    24.0720 
  106.6250   -16.2240     2.2970    65.1780    10.2220     8.9940     9.8490    24.0650 
  106.7500   -16.4020     2.2840    62.5080    10.1180     8.7980     9.2130    24.0650 
  106.8750   -16.5570     2.2560    59.0780    10.4010     8.8130     8.1860    24.0570 
  107.0000   -16.6940     2.2190    58.4180    11.3330     9.2430     7.9300    24.0250 
  107.1250   -16.8670     2.1900    60.2170    12.9540    10.3160     8.7050    23.8750 
  107.2500   -17.0200     2.1810    59.8860    14.7220    11.9290    10.9110    23.7860 
  107.3750   -17.1580     2.1930    56.9430    17.1600    13.8390    14.9850    23.7400 
  107.5000   -17.3270     2.2160    55.4500    19.0230    15.5310    17.7860    23.7190 
  107.6250   -17.4710     2.2280    57.9130    19.4850    16.2390    16.5110    23.6790 
  107.7500   -17.5850     2.2230    60.8630    18.9160    16.0260    13.9110    23.6730 
  107.8750   -17.7090     2.2080    62.7340    18.1280    15.4160    12.5920    23.6710 
  108.0000   -17.8130     2.1970    64.2750    18.0130    15.0820    12.5000    23.6710 
  108.1250   -17.8690     2.1980    64.2230    19.4990    15.7620    13.7440    23.6710 
  108.2500   -17.9440     2.2000    62.4060    22.6890    17.6890    17.3070    23.6710 
  108.3750   -17.9910     2.1920    60.1690    27.6040    21.0570    21.2380    23.6710 
  108.5000   -17.9640     2.1690    57.7290    33.9280    25.8550    26.9190    23.6710 
  108.6250   -17.9330     2.1370    53.7780    40.6510    31.6030    36.1210    23.6710 
  108.7500   -17.8750     2.1060    48.6960    46.0090    36.8130    43.1560    23.6710 
  108.8750   -17.7340     2.0840    45.8090    48.6830    40.1780    44.8950    23.6780 
  109.0000   -17.5600     2.0720    45.8020    48.3270    41.0490    42.2400    23.7020 
  109.1250   -17.4320     2.0710    47.4870    45.5400    39.4900    39.9760    23.8420 
  109.2500   -17.3080     2.0800    49.6640    42.1270    36.9250    37.5810    23.8680 
  109.3750   -17.1840     2.0960    51.7900    39.1540    34.3290    34.6690    23.8020 
  109.5000   -17.1120     2.1120    53.4870    37.2650    32.3780    31.0910    23.7650 
  109.6250   -17.0920     2.1190    54.2690    37.0200    31.6470    26.6240    23.7600 
  109.7500   -17.0900     2.1110    54.4130    38.1960    32.0970    25.1400    23.7660 
  109.8750   -17.1380     2.0880    52.7840    40.5300    33.6280    29.0550    23.8080 
  110.0000   -17.2690     2.0520    49.3980    43.5480    35.9530    38.1780    23.8820 
  110.1250   -17.3660     2.0130    46.2420    46.5950    38.6220    40.6640    23.9610 
  110.2500   -17.4420     1.9870    43.2450    49.0690    41.0350    37.5240    23.9710 
  110.3750   -17.5550     1.9820    40.9650    50.6780    42.8220    35.7010    23.9550 
  110.5000   -17.6520     2.0030    41.2870    51.4410    43.8630    38.5330    24.0790 
  110.6250   -17.7140     2.0440    45.7180    51.6040    44.2680    44.1840    24.3050 
  110.7500   -17.7880     2.0880    49.9210    51.6360    44.4650    42.3960    24.4300 
  110.8750   -17.8530     2.1180    51.3870    51.7090    44.6680    36.8670    24.4470 
  111.0000   -17.8760     2.1260    51.1710    51.7080    44.8590    33.4060    24.4480 
  111.1250   -17.9210     2.1130    49.7170    51.0250    44.6000    34.6570    24.4320 
