~V
VERS. 2.00: Ver 2.00
~W
STRT.M 51.0000:
STOP.M 221.0000:
STEP.M 0.1250:
NULL. -999.2500:
UWI. F10616:
~C
DEPT.M :
GR.API :
RML.OHMM :
RI. :
RXO.OHMM :
CALI.CM :
DEN.GM/CC :
SP.MV :
~A
# ...
  208.5000    40.3440     6.1090     4.7640     6.0280    24.8950     2.4050   -13.5210 
  208.6250    39.6520     6.2260     4.9430     6.4930    24.8340     2.4200   -13.8680 
  208.7500    37.9900     6.2750     5.0620     6.6850    24.7910     2.4210   -14.2330 
  208.8750    37.4410     6.3830     5.1680     6.6650    24.7770     2.4080   -14.6000 
  209.0000    38.0970     6.6650     5.3380     6.5960    24.7750     2.3920   -14.9120 
  209.1250    38.5870     7.1450     5.6280     6.7630    24.7740     2.3860   -15.1910 
  209.2500    38.3420     7.7450     6.0460     7.3030    24.7720     2.4000   -15.4070 
  209.3750    38.7100     8.2360     6.4850     8.2940    24.7660     2.4320   -15.5500 
  209.5000    38.4540     8.3860     6.7270     9.3570    24.7520     2.4590   -15.5970 
  209.6250    37.2880     8.0650     6.6010    10.3970    24.7630     2.4650   -15.5400 
  209.7500    36.1000     7.3220     6.0870     9.4990    24.8530     2.4480   -15.3970 
  209.8750    36.1970     6.4050     5.3320     6.8810    25.1420     2.4200   -15.1480 
  210.0000    37.0840     5.6240     4.6120     5.1540    25.5220     2.3990   -14.8550 
  210.1250    37.3270     5.0930     4.0690     4.3400    25.5760     2.3890   -14.5310 
  210.2500    37.6670     4.8200     3.7630     4.1510    25.2190     2.3820   -14.2150 
  210.3750    37.5690     4.7720     3.7330     4.1910    24.9750     2.3660   -13.9380 
  210.5000    36.4440     4.8580     3.9020     4.3940    24.9200     2.3420   -13.7380 
  210.6250    35.7860     5.0540     4.2120     4.7430    24.9330     2.3170   -13.6370 
  210.7500    35.7150     5.3390     4.5770     5.3820    24.9480     2.2990   -13.6200 
  210.8750    35.7150     5.6390     4.8580     5.8450    24.9650     2.3020   -13.6690 
  211.0000    35.7150     5.8090     4.9590     5.9630    24.9780     2.3180   -13.7190 
  211.1250    35.7150     5.7500     4.8510     5.6990    24.9900     2.3340   -13.7540 
  211.2500    35.7150     5.4540     4.5770     4.9830    25.0140     2.3370   -13.7010 
  211.3750    35.7150     5.0260     4.2330     4.3310    25.1020     2.3240   -13.5980 
  211.5000    35.7150     4.6610     3.9260     4.0780    25.2450     2.3110   -13.4830 
  211.6250    35.7150     4.4540     3.6970     3.9540    25.3460     2.3120   -13.3170 
  211.7500    35.7150     4.4350     3.5480     3.8430    25.3650     2.3330   -13.0930 
  211.8750    35.7150     4.5700     3.4690     3.7930    25.3770     2.3580   -12.8960 
  212.0000    35.7150     4.7130     3.4260     3.7440    25.4030     2.3610   -12.7590 
  212.1250    35.7150     4.7650     3.4070     3.7110    25.5290     2.3360   -12.6540 
  212.2500    35.7150     4.7130     3.4130     3.7010    25.8300     2.2980   -12.6070 
  212.3750    35.7150     4.6270     3.4560     3.7100    26.1140     2.2720   -12.5780 
  212.5000    35.7150     4.5640     3.5240     3.7720    25.9870     2.2700   -12.5410 
  212.6250    35.7150     4.5200     3.5980     3.8460    25.6430     2.2840   -12.5330 
  212.7500    35.7150     4.4800     3.6570     3.8630    25.4730     2.2830   -12.5610 
  212.8750    35.7150     4.4580     3.6890     3.9030    25.6100     2.2520   -12.5800 
  213.0000    35.7150     4.4770     3.6930     3.9940    25.9000     2.2040   -12.5960 
  213.1250    35.7150     4.5290     3.6670     4.0100    26.0490     2.1650   -12.5890 
  213.2500    35.7150     4.5660     3.6110     3.9070    25.9230     2.1690   -12.5630 
  213.3750    35.7150     4.5170     3.5230     3.7960    25.6180     2.2300   -12.5330 
  213.5000    35.7150     4.4160     3.4350     3.6570    25.5100     2.3040   -12.4760 
  213.6250    35.7150     4.3620     3.3930     3.5220    25.6260     2.3470   -12.3730 
  213.7500    35.7150     4.4540     3.4430     3.5790    25.7670     2.3470   -12.2420 
  213.8750    35.7150     4.7400     3.6320     4.0910    25.6840     2.3270   -12.1340 
  214.0000    35.7150     5.0900     3.9160     4.9830    25.3640     2.3230   -12.0110 
  214.1250    35.7150     5.3690     4.2340     6.1560    25.0560     2.3440   -11.9250 
  214.2500    35.7150     5.4980     4.5100     7.2390    24.8860     2.3750   -11.8660 
  214.3750    35.7150     5.4930     4.6760     8.7380    24.7560     2.3890   -11.8300 
  214.5000    35.7150     5.4640     4.7540     9.2360    24.5320     2.3770   -11.8400 
  214.6250    35.7150     5.4390     4.7800     7.8120    24.2410     2.3470   -11.9090 
  214.7500    35.7150     5.4160     4.7910     5.6960    24.1600     2.3170   -12.0030 
  214.8750    35.7150     5.4050     4.7990     4.3770    24.6110     2.3030   -12.0900 
  215.0000    35.7150     5.4480     4.8040     3.9680    25.0580     2.3100   -12.1630 
  215.1250    35.7150     5.5870     4.8050     3.8510    25.3330     2.3330   -12.1940 
  215.2500    35.7150     5.7990     4.8000     3.8050    25.5680     2.3570   -12.2130 
  215.3750    35.7150     5.9800     4.7880     3.7690    25.7270     2.3550   -12.2130 
  215.5000    35.7150     6.0640     4.7690     3.6780    25.6570     2.3300   -12.0860 
  215.6250    35.7150     6.0700     4.7480     3.5990    25.8140     2.3000   -11.8620 
  215.7500    35.7150     6.0440     4.7310     3.5960    26.2910     2.2790   -11.6290 
  215.8750    35.7150     6.0100     4.7220     3.6630    26.5610     2.2800   -11.3760 
  216.0000    35.7150     5.9820     4.7200     3.7220    26.0140     2.2900   -11.1450 
  216.1250    35.7150     5.9740     4.7200     3.7580    25.3580     2.2960   -10.9410 
  216.2500    35.7150     5.9880     4.7240     3.7770    25.1910     2.2940   -10.7460 
  216.3750    35.7150     6.0180     4.7320     3.7810    25.4500     2.2920   -10.5930 
  216.5000    35.7150     6.0470     4.7440     3.7560    25.4280     2.3030   -10.6040 
  216.6250    35.7150     6.0560     4.7490     3.7410    25.2200     2.3320   -10.6150 
  216.7500    35.7150     6.0560     4.7490     3.7500    24.8990     2.3730   -10.6180 
  216.8750    35.7150     6.0560     4.7490     3.8070    24.8120     2.4050  -999.2500 
  217.0000    35.7150     6.0560     4.7490     3.9870    24.7900     2.4050  -999.2500 
  217.1250    35.7150     6.0560     4.7490     4.2610    24.9020     2.3740  -999.2500 
  217.2500    35.7150     6.0560     4.7490     4.4420    25.1780     2.3210  -999.2500 
  217.3750    35.7150     6.0560     4.7490     4.2670    25.1810     2.2630  -999.2500 
  217.5000    35.7150     6.0560     4.7490     3.9890    24.5570     2.2140  -999.2500 
  217.6250    35.7150     6.0560     4.7490     3.7960    23.8150     2.1800  -999.2500 
  217.7500    35.7150     6.0560     4.7490     3.7320    23.4540     2.1650  -999.2500 
  217.8750    35.7150     6.0560     4.7490     3.9190    23.2110     2.1790  -999.2500 
  218.0000    35.7150     6.0560     4.7490     4.3300    22.9260     2.2170  -999.2500 
  218.1250    35.7150     6.0560     4.7490     4.8650    22.6870     2.2690  -999.2500 
  218.2500    35.7150     6.0560     4.7490     5.2570    22.5220     2.3210  -999.2500 
  218.3750    35.7150     6.0560     4.7490     5.3180    22.3240     2.3620  -999.2500 
  218.5000    35.7150     6.0560     4.7490     5.1030    22.0230     2.3870  -999.2500 
  218.6250    35.7150     6.0560     4.7490     4.9070    21.6190     2.3690  -999.2500 
  218.7500    35.7150     6.0560     4.7490     4.7260    20.9200     2.2980  -999.2500 
  218.8750    35.7150     6.0560     4.7490     4.5600    19.2610     2.1900  -999.2500 
  219.0000    35.7150     6.0560     4.7490     4.0610    16.9390     2.0840  -999.2500 
  219.1250    35.7150     6.0560     4.7490     3.7330    15.1680     1.9990  -999.2500 
  219.2500    35.7150     6.0560     4.7490     3.6310    14.4850     1.9440  -999.2500 
  219.3750    35.7150     6.0560     4.7490     3.6440    14.4420     1.9200  -999.2500 
  219.5000    35.7150     6.0560     4.7490     3.6520    14.4360     1.9130  -999.2500 
  219.6250    35.7150     6.0560     4.7490     3.6430    14.4290     1.9120  -999.2500 
