~V
VERS. 2.00: Ver 2.00
~W
STRT.M 55.0000:
STOP.M 213.0000:
STEP.M 0.1250:
NULL. -999.2500:
UWI. F10686:
~C
DEPT.M :
SP.MV :
DEN.GM/CC :
GR.API :
RML.OHMM :
RI. :
RXO.OHMM :
CALI.CM :
~A
# ...
  190.0000   -23.4810     2.3490    66.7380     9.8650     9.2630    11.8260    22.3060 
  190.1250   -23.7340     2.3300    64.7980     9.8610     9.3250    12.0200    22.2600 
  190.2500   -24.0080     2.3070    65.8120     9.8200     9.2780    11.7560    22.2730 
  190.3750   -24.2960     2.2910    71.9460     9.7030     9.1130    11.2770    22.2990 
  190.5000   -24.5470     2.2890    77.5620     9.2960     8.8350    10.9450    22.3860 
  190.6250   -24.7250     2.2970    79.2270     8.8990     8.4630    10.4140    22.5720 
  190.7500   -24.8300     2.3050    79.3070     8.4900     8.0710     9.7810    22.8600 
  190.8750   -24.8390     2.3040    77.4040     8.1250     7.7110     9.3320    23.0640 
  191.0000   -24.7470     2.2900    73.0760     7.8370     7.4150     9.1650    23.2080 
  191.1250   -24.5880     2.2680    69.0740     7.6280     7.1940     8.8960    23.2290 
  191.2500   -24.3400     2.2520    68.0570     7.4360     7.0080     8.3880    23.2280 
  191.3750   -24.0190     2.2470    66.9840     7.2050     6.8140     7.6910    23.1850 
  191.5000   -23.6520     2.2530    64.5370     6.9040     6.5760     7.6840    23.0190 
  191.6250   -23.2000     2.2580    63.5400     6.5370     6.2760     7.6770    22.9040 
  191.7500   -22.6630     2.2550    62.7750     6.1690     5.9520     6.9040    23.5940 
  191.8750   -22.1020     2.2500    59.9950     5.8580     5.6520     6.0650    23.9680 
  192.0000   -21.5630     2.2590    55.3790     5.6470     5.4230     5.7870    24.0710 
  192.1250   -21.0700     2.2960    51.2240     5.5720     5.3110     6.3800    24.0320 
  192.2500   -20.5920     2.3470    48.5170     5.5920     5.2950     7.9550    23.8240 
  192.3750   -20.1550     2.3880    47.0400     5.6630     5.3390     9.6640    23.4200 
  192.5000   -19.8280     2.4000    47.6950     5.7340     5.3930     8.1450    23.0810 
  192.6250   -19.6610     2.3790    51.6910     5.7670     5.4000     6.8170    22.9420 
  192.7500   -19.5710     2.3500    55.3360     5.7710     5.3520     6.0790    22.8870 
  192.8750   -19.5170     2.3310    56.4010     5.7750     5.2720     5.8120    22.8840 
  193.0000   -19.4780     2.3300    56.2970     5.8150     5.1990     5.7080    23.0640 
  193.1250   -19.3730     2.3470    55.9930     5.9150     5.1730     5.6230    23.2690 
  193.2500   -19.2450     2.3660    53.1130     6.0550     5.2000     5.7020    23.3130 
  193.3750   -19.0860     2.3760    48.7400     6.2180     5.2720     5.9350    23.3740 
  193.5000   -18.8110     2.3750    46.2190     6.3910     5.3730     6.1620    23.5540 
  193.6250   -18.4110     2.3640    45.4320     6.5640     5.4830     6.1930    23.7840 
  193.7500   -17.9740     2.3530    43.7860     6.7170     5.5810     6.0620    23.8330 
  193.8750   -17.5690     2.3430    41.9880     6.8280     5.6590     5.9350    23.7760 
  194.0000   -17.2230     2.3340    42.0020     6.8800     5.7080     5.9900    23.6410 
  194.1250   -16.9720     2.3250    43.7490     6.8720     5.7230     6.3390    23.5870 
  194.2500   -16.7610     2.3170    45.7130     6.8410     5.7220     6.7800    23.7420 
  194.3750   -16.5860     2.3130    46.8090     6.8290     5.7300     7.0440    24.1630 
  194.5000   -16.4940     2.3160    45.3670     6.8870     5.7780     7.2470    24.4290 
  194.6250   -16.4830     2.3290    42.0450     7.0690     5.9020     7.6780    24.4190 
  194.7500   -16.5210     2.3480    41.4510     7.3490     6.0890     8.2210    24.4120 
  194.8750   -16.4950     2.3690    44.6500     7.6780     6.3160     8.6810    24.4060 
  195.0000   -16.3400     2.3850    48.4370     7.9860     6.5400     8.7580    24.4160 
  195.1250   -16.0980     2.3870    49.4360     8.1770     6.6950     8.9280    24.4870 
  195.2500   -15.8390     2.3790    48.2590     8.2260     6.7490     9.4660    24.6460 
  195.3750   -15.5650     2.3650    46.0650     8.1400     6.7010     9.3640    24.7110 
  195.5000   -15.2760     2.3490    44.5500     7.9580     6.5740     8.6940    24.7220 
  195.6250   -14.9950     2.3380    45.5360     7.7380     6.4100     7.8290    24.7220 
  195.7500   -14.7170     2.3340    46.6600     7.5540     6.2630     7.1710    24.7220 
  195.8750   -14.4570     2.3370    45.5690     7.4590     6.1680     6.9220    24.7220 
  196.0000   -14.2980     2.3460    44.2260     7.4910     6.1550     7.0400    24.7230 
  196.1250   -14.2460     2.3540    44.1570     7.6650     6.2420     7.0350    24.7280 
  196.2500   -14.2420     2.3590    42.8220     7.8900     6.3790     7.0730    24.7230 
  196.3750   -14.2610     2.3590    39.7280     8.0700     6.5090     7.2880    24.7220 
  196.5000   -14.2840     2.3580    36.7020     8.1100     6.5640     7.6010    24.7220 
  196.6250   -14.2790     2.3570    35.4570     7.9540     6.4870     7.6670    24.7300 
  196.7500   -14.2710     2.3570    36.7620     7.6960     6.3180     7.4080    24.7590 
  196.8750   -14.3270     2.3560    41.4610     7.4370     6.1190     7.2150    24.7830 
  197.0000   -14.4350     2.3520    47.2720     7.2630     5.9480     7.1160    24.7870 
  197.1250   -14.5140     2.3450    48.8340     7.2290     5.8610     7.1640    24.7870 
  197.2500   -14.5250     2.3360    45.9940     7.2880     5.8490     7.2710    24.7870 
  197.3750   -14.5100     2.3280    43.2180     7.3880     5.8890     7.4350    24.7870 
  197.5000   -14.4760     2.3230    44.4230     7.4750     5.9430     7.6790    24.7870 
  197.6250   -14.3650     2.3250    47.8910     7.5150     5.9810     8.1550    24.7870 
  197.7500   -14.2000     2.3310    48.0580     7.5220     5.9950     8.4620    24.7870 
  197.8750   -13.9800     2.3380    44.1830     7.5150     5.9890     8.2860    24.7870 
  198.0000   -13.6680     2.3430    40.6130     7.5050     5.9720     8.0950    24.7870 
  198.1250   -13.3140     2.3470    40.2290     7.4820     5.9450     7.9070    24.7870 
  198.2500   -12.9900     2.3500    40.5130     7.4230     5.8980     7.5680    24.7870 
  198.3750   -12.6790     2.3520    40.9580     7.3090     5.8140     7.1290    24.7870 
  198.5000   -12.3660     2.3490    41.5430     7.1390     5.6880     6.8000    24.7870 
  198.6250   -12.1170     2.3390    41.7110     6.9430     5.5280     6.5230    24.7870 
  198.7500   -11.9140     2.3230    41.9040     6.7750     5.3750     6.2500    24.7870 
  198.8750   -11.7510     2.3070    43.6110     6.6670     5.2590     6.0920    24.7870 
  199.0000   -11.6500     2.2980    45.7230     6.6320     5.2000     6.2950    24.7820 
  199.1250   -11.5170     2.3010    45.0770     6.6550     5.2000     6.5380    24.7540 
  199.2500   -11.3720     2.3080    42.7910     6.6820     5.2240     6.4800    24.7270 
  199.3750   -11.2170     2.3160    41.6340     6.6790     5.2400     6.2400    24.7220 
  199.5000   -11.0500     2.3190    42.0880     6.6260     5.2240     6.1240    24.7220 
  199.6250   -10.9130     2.3180    41.4840     6.5100     5.1570     5.8880    24.7220 
  199.7500   -10.8210     2.3150    39.5970     6.3460     5.0580     5.6190    24.7210 
  199.8750   -10.7150     2.3130    38.0380     6.1570     4.9420     5.4250    24.7150 
  200.0000   -10.5540     2.3100    37.7370     5.9720     4.8230     5.5900    24.6850 
  200.1250   -10.4970     2.3040    36.5440     5.8100     4.7060     5.6920    24.6430 
  200.2500   -10.4680     2.2970    34.3070     5.6660     4.5990     5.1900    24.6360 
  200.3750   -10.3880     2.2950    33.2110     5.5320     4.5030     4.4620    24.6280 
  200.5000   -10.2900     2.2960    33.6670     5.4100     4.4180     4.0270    24.6050 
  200.6250   -10.1520     2.2970    33.9320     5.3160     4.3430     3.8890    24.4700 
  200.7500   -10.0270     2.2900    33.1760     5.2540     4.2740     3.9080    24.4160 
  200.8750    -9.9610     2.2770    31.7930     5.2220     4.2090     3.9920    24.4070 
  201.0000    -9.9520     2.2620    31.2220     5.2030     4.1520     4.1180    24.4180 
  201.1250    -9.9260     2.2550    32.3360     5.1880     4.1070     4.3240    24.3490 
