~V
VERS. 2.00: Ver 2.00
~W
STRT.M 49.0000:
STOP.M 221.0000:
STEP.M 0.1250:
NULL. -999.2500:
UWI. F10615:
~C
DEPT.M :
DEN.GM/CC :
GR.API :
RML.OHMM :
RI. :
RXO.OHMM :
CALI.CM :
SP.MV :
~A
# ...
  172.7500     2.2690    54.3240    32.6630    28.4720    29.6480    23.5230   -23.1890 
  172.8750     2.2740    54.8160    32.8050    28.4190    29.6620    23.8580   -23.0470 
  173.0000     2.2770    56.1400    32.9780    28.3820    28.1800    23.9050   -22.9260 
  173.1250     2.2770    55.8980    33.2160    28.4040    26.4130    23.6570   -22.8550 
  173.2500     2.2740    54.1540    33.6210    28.5650    24.6730    23.3060   -22.8190 
  173.3750     2.2730    53.3870    34.3090    28.9450    22.6680    22.9430   -22.8270 
  173.5000     2.2780    53.9570    35.4480    29.6460    21.4040    22.6290   -22.8760 
  173.6250     2.2880    53.0510    36.9820    30.6330    22.1770    22.4930   -22.9400 
  173.7500     2.3020    51.7290    38.7660    31.8480    23.7160    22.5500   -23.0220 
  173.8750     2.3140    52.8280    40.4120    33.0880    24.9430    22.6400   -23.1440 
  174.0000     2.3200    56.9670    41.0650    33.8160    26.3330    22.5270   -23.2970 
  174.1250     2.3190    60.2340    40.2410    33.5880    29.7100    22.4520   -23.4530 
  174.2500     2.3160    61.5230    37.8910    32.2220    31.0540    22.6250   -23.6040 
  174.3750     2.3180    62.9710    34.5510    29.9620    27.7340    22.9740   -23.7180 
  174.5000     2.3300    65.5720    31.1990    27.4250    23.9570    23.1180   -23.8460 
  174.6250     2.3500    67.5610    28.6860    25.3500    19.8200    23.0630   -23.9780 
  174.7500     2.3820    67.7240    27.3170    24.1020    16.9180    22.9350   -24.0220 
  174.8750     2.4320    66.2960    26.8710    23.6480    14.3710    22.6470   -23.9990 
  175.0000     2.5010    64.0400    26.7250    23.6100    12.5540    22.0840   -23.9530 
  175.1250     2.5710    62.3780    26.2410    23.4250    12.8910    21.8040   -23.8400 
  175.2500     2.6210    61.2850    25.2020    22.8500    14.9710    22.0000   -23.6130 
  175.3750     2.6380    60.2030    23.5960    21.8070    16.7500    22.4190   -23.3090 
  175.5000     2.6170    59.5740    21.4710    20.2410    14.7880    22.7970   -22.9570 
  175.6250     2.5740    60.1770    18.9790    18.2470    15.0720    23.0670   -22.5560 
  175.7500     2.5190    60.5950    16.1290    15.8260    18.7250    23.2720   -22.1180 
  175.8750     2.4620    58.3350    13.0560    13.1090    19.9150    23.2300   -21.6370 
  176.0000     2.4100    52.9110    10.2110    10.4900    14.4570    23.0000   -21.1640 
  176.1250     2.3720    47.2360     7.9470     8.3120     8.4730    22.9030   -20.7980 
  176.2500     2.3530    42.9460     6.3780     6.7020     6.2800    23.1420   -20.5640 
  176.3750     2.3520    41.6920     5.4720     5.6710     5.8650    23.5180   -20.4590 
  176.5000     2.3710    44.5000     5.2080     5.2490     5.7350    23.7270   -20.5250 
  176.6250     2.4000    47.8080     5.3490     5.2550     5.5860    23.8070   -20.7520 
  176.7500     2.4290    50.1110     5.7940     5.5990     5.6430    23.8560   -21.1350 
  176.8750     2.4500    52.6810     6.4620     6.2040     6.4960    23.9150   -21.6670 
  177.0000     2.4550    57.5600     7.2420     7.0020     7.4370    23.9810   -22.3220 
  177.1250     2.4500    64.3170     7.9480     7.8280     8.2930    24.0170   -22.9950 
  177.2500     2.4390    72.1870     8.4460     8.5380     8.8700    24.0810   -23.6540 
  177.3750     2.4260    79.9700     8.6930     9.0260     9.1440    24.1390   -24.3100 
  177.5000     2.4170    84.3890     8.7610     9.2330     9.3950    24.1680   -24.8900 
  177.6250     2.4130    85.7980     8.8150     9.2710     9.3770    24.1680   -25.3450 
  177.7500     2.4090    87.7110     8.9250     9.2220     9.3300    24.1650   -25.7170 
  177.8750     2.4060    91.0240     9.0790     9.1410     9.4090    24.1580   -26.0130 
  178.0000     2.4040    94.3390     9.2000     9.0480     9.4210    24.1360   -26.1610 
  178.1250     2.4060    96.4590     9.2260     8.9270     9.4140    24.1120   -26.1630 
  178.2500     2.4140    97.4530     9.1380     8.7440     9.4130    24.0950   -26.0860 
  178.3750     2.4260    98.4260     8.9550     8.4690     9.4350    24.0890   -25.9520 
  178.5000     2.4380    98.3360     8.7520     8.1190     9.3000    24.0890   -25.7250 
  178.6250     2.4410    98.2000     8.6510     7.8110     9.0900    24.0830   -25.4850 
  178.7500     2.4360    98.1320     8.7990     7.6830     8.9850    24.0660   -25.2910 
  178.8750     2.4270    96.6560     9.3860     7.8940     9.2260    24.0260   -25.1530 
  179.0000     2.4310    92.0440    10.8010     8.7450    10.6670    23.9860   -25.0930 
  179.1250     2.4490    84.4370    13.2020    10.3680    14.0340    23.9350   -25.1430 
  179.2500     2.4660    76.3600    16.7530    12.9480    18.4610    23.8960   -25.3130 
  179.3750     2.4610    69.9910    21.4800    16.6100    21.5270    23.8800   -25.5740 
  179.5000     2.4190    65.3640    27.2610    21.4350    25.6440    23.8750   -25.9200 
  179.6250     2.3590    63.3850    33.3600    26.8130    31.1860    23.8900   -26.3180 
  179.7500     2.3030    63.9170    39.1660    32.1470    34.6930    24.0000   -26.7300 
  179.8750     2.2660    65.1080    44.1710    36.9120    37.2380    24.1420   -27.1300 
  180.0000     2.2570    62.4930    47.7650    40.5250    41.8200    24.1710   -27.4840 
  180.1250     2.2620    56.8460    49.8620    42.8420    47.2420    24.1280   -27.8110 
  180.2500     2.2700    53.6730    50.4470    43.7830    49.2980    24.0630   -28.0680 
  180.3750     2.2750    56.0020    49.7560    43.4900    47.0900    24.0200   -28.2100 
  180.5000     2.2840    59.5630    48.0590    42.1380    42.3320    23.9900   -28.3140 
  180.6250     2.3020    60.3330    45.9870    40.3140    39.2820    23.9550   -28.3720 
  180.7500     2.3280    59.2780    44.0360    38.4760    38.8270    23.9170   -28.3340 
  180.8750     2.3500    58.6350    42.7730    37.1290    38.3090    23.8690   -28.2530 
  181.0000     2.3470    59.2610    43.2180    37.1100    35.6360    23.8250   -28.1800 
  181.1250     2.3210    60.8450    45.8380    38.8700    32.5610    23.7790   -28.0640 
  181.2500     2.2820    63.1240    50.8730    42.7570    31.9150    23.7700   -27.9200 
  181.3750     2.2490    63.7270    57.8990    48.6400    39.1950    23.8050   -27.8380 
  181.5000     2.2340    60.2320    65.2040    55.4300    58.4120    23.8030   -27.7830 
  181.6250     2.2370    55.5220    69.9290    60.6770    73.6550    23.7680   -27.7370 
  181.7500     2.2500    52.5450    70.2140    62.4830    70.6250    23.7030   -27.7510 
  181.8750     2.2680    53.0380    66.5690    60.6860    57.7810    23.6470   -27.8260 
  182.0000     2.2820    56.1070    61.8260    57.1300    47.7340    23.5640   -27.9630 
  182.1250     2.2860    59.8300    58.7730    54.4330    45.9340    23.6160   -28.1520 
  182.2500     2.2820    62.3270    58.1900    53.6090    46.9130    23.7810   -28.4100 
  182.3750     2.2740    62.2840    59.7640    54.6830    46.8220    23.9420   -28.7170 
  182.5000     2.2660    60.0120    62.5970    57.0660    49.9890    24.0180   -29.0250 
  182.6250     2.2540    58.3470    65.3800    59.5800    56.6040    24.0870   -29.3700 
  182.7500     2.2360    58.0060    67.6000    61.6830    64.0000    24.1780   -29.7650 
  182.8750     2.2120    58.2600    74.9770    63.3340    65.2650    24.2490   -30.1270 
  183.0000     2.1850    59.9860    79.4640    64.9370    60.6910    24.3040   -30.4110 
  183.1250     2.1610    61.6640    84.4080    67.2120    59.1510    24.3500   -30.7040 
  183.2500     2.1470    60.6300    90.6570    70.8610    65.1960    24.3660   -30.9510 
  183.3750     2.1440    56.7190    98.0520    76.2930    81.1950    24.3700   -31.1030 
  183.5000     2.1510    54.3230   107.5250    83.4890    93.3260    24.3830   -31.2450 
  183.6250     2.1640    54.2710   117.2090    91.2440    99.6220    24.4070   -31.3350 
  183.7500     2.1800    53.4210   125.5140    98.3860   113.4460    24.4380   -31.3160 
  183.8750     2.1980    50.9390   131.2530   103.9140   125.2470    24.4660   -31.2440 
