~V
VERS. 2.00: Ver 2.00
~W
STRT.M 61.0000:
STOP.M 247.0000:
STEP.M 0.1250:
NULL. -999.2500:
UWI. F10600:
~C
DEPT.M :
GR.API :
RML.OHMM :
RI. :
RXO.OHMM :
CALI.CM :
DEN.GM/CC :
SP.MV :
~A
# ...
  229.7500    57.9330     6.7500     5.7900     6.9420    25.2350     2.4590   -26.0530 
  229.8750    56.8660     6.6160     5.5650     6.8820    25.2350     2.4530   -26.0810 
  230.0000    54.7590     6.3990     5.4040     6.8780    25.2340     2.4480   -26.1600 
  230.1250    52.8090     6.1930     5.3430     6.8750    25.2330     2.4460   -26.2100 
  230.2500    51.8540     6.1210     5.3740     6.8850    25.2320     2.4480   -26.2630 
  230.3750    53.0670     6.1660     5.4910     6.8990    25.2310     2.4530   -26.3110 
  230.5000    55.5690     6.2480     5.6760     6.9660    25.2310     2.4580   -26.3270 
  230.6250    57.6530     6.3880     5.8960     7.0640    25.2330     2.4550   -26.3230 
  230.7500    59.0980     6.5770     6.0950     7.1650    25.2330     2.4440   -26.2320 
  230.8750    60.9250     6.7620     6.2320     7.1320    25.2260     2.4260   -26.0630 
  231.0000    63.7010     6.8710     6.2840     7.0570    25.2120     2.4070   -25.8430 
  231.1250    66.7130     6.8810     6.2470     6.8770    25.1910     2.3970   -25.5190 
  231.2500    68.6460     6.8790     6.1670     6.5240    25.1830     2.3960   -25.1600 
  231.3750    68.2570     6.9000     6.0810     6.0450    25.1800     2.4030   -24.7600 
  231.5000    66.2880     6.8930     6.0150     5.7930    25.1800     2.4090   -24.3270 
  231.6250    64.6730     6.8690     5.9840     5.8360    25.1800     2.4080   -23.8550 
  231.7500    64.2130     6.8520     5.9740     5.8570    25.1760     2.4000   -23.4230 
  231.8750    64.3220     6.8500     5.9690     5.7870    25.1550     2.3910   -23.0320 
  232.0000    63.8920     6.8570     5.9560     5.7290    25.0950     2.3870   -22.6690 
  232.1250    61.2560     6.8830     5.9340     5.7220    25.0240     2.3930   -22.4130 
  232.2500    57.4150     6.9410     5.9170     5.7780    24.9650     2.4050   -22.2410 
  232.3750    53.4800     7.0230     5.9210     5.8350    24.9400     2.4170   -22.1750 
  232.5000    50.3650     7.1310     5.9580     5.8200    24.9340     2.4250   -22.1930 
  232.6250    49.5710     7.2140     6.0290     5.8310    24.9570     2.4270   -22.3220 
  232.7500    50.8230     7.2750     6.1060     5.8820    25.0300     2.4300   -22.4980 
  232.8750    53.1280     7.2350     6.1530     5.9300    25.1480     2.4390   -22.7170 
  233.0000    55.1520     7.1200     6.1390     6.0940    25.2470     2.4570   -22.9630 
  233.1250    56.2020     6.9570     6.0480     6.3370    25.2820     2.4760   -23.2030 
  233.2500    56.0570     6.8900     5.9400     6.4940    25.2890     2.4890   -23.3790 
  233.3750    54.9840     6.9320     5.8870     6.5570    25.2900     2.4940   -23.4720 
  233.5000    53.9740     7.0560     5.9410     6.8710    25.2900     2.4960   -23.4860 
  233.6250    52.3460     7.1240     6.1150     8.1340    25.2900     2.5000   -23.4290 
  233.7500    50.5400     7.1210     6.3030    10.8130    25.2900     2.5040   -23.3750 
  233.8750    50.3020     7.0320     6.3950    13.9560    25.2900     2.5010   -23.3100 
  234.0000    52.4970     6.8560     6.3070    13.6290    25.2900     2.4870   -23.2240 
  234.1250    55.7160     6.7220     6.0070     9.6920    25.2790     2.4630   -23.0400 
  234.2500    57.4360     6.6240     5.6220     7.5020    25.2490     2.4380   -22.8360 
  234.3750    57.5470     6.5560     5.2610     6.6000    25.2030     2.4190   -22.6670 
  234.5000    56.4920     6.5000     5.0130     6.2420    25.1620     2.4110   -22.5740 
  234.6250    54.5900     6.4630     4.9490     5.8030    25.1340     2.4140   -22.5280 
  234.7500    53.3720     6.4650     5.0310     5.6510    25.1390     2.4230   -22.5260 
  234.8750    53.3720     6.5970     5.2240     5.6900    25.1630     2.4350   -22.5960 
  235.0000    53.3720     6.8160     5.4840     5.7030    25.1860     2.4470   -22.7170 
  235.1250    53.3720     7.0260     5.7680     5.6640    25.1890     2.4540   -22.9410 
  235.2500    53.3720     7.1340     6.0350     5.8050    25.1880     2.4570   -23.1930 
  235.3750    53.3720     7.1640     6.2560     6.0860    25.1870     2.4560   -23.4330 
  235.5000    53.3720     7.1110     6.4150     6.4590    25.1870     2.4520   -23.6290 
  235.6250    53.3720     7.0620     6.4910     6.6820    25.1880     2.4470   -23.8080 
  235.7500    53.3720     7.0200     6.5040     6.8460    25.1870     2.4430   -23.9230 
  235.8750    53.3720     6.9780     6.4650     6.9310    25.1810     2.4410   -24.0020 
  236.0000    53.3720     6.9340     6.3900     7.0690    25.1760     2.4410   -24.0500 
  236.1250    53.3720     6.8650     6.2800     7.2840    25.1740     2.4430   -24.0790 
  236.2500    53.3720     6.7640     6.1410     7.4910    25.1740     2.4440   -24.1490 
  236.3750    53.3720     6.6960     5.9790     7.4420    25.1740     2.4440   -24.2240 
  236.5000    53.3720     6.7050     5.8110     7.1010    25.1740     2.4440   -24.3110 
  236.6250    53.3720     6.8040     5.6910     6.6710    25.1740     2.4450   -24.4210 
  236.7500    53.3720     6.9570     5.6810     6.9600    25.1740     2.4450   -24.5770 
  236.8750    53.3720     7.2220     5.8360     7.3540    25.1740     2.4440   -24.7280 
  237.0000    53.3720     7.5910     6.1780     7.4920    25.1800     2.4410   -24.8830 
  237.1250    53.3720     7.9210     6.6910     7.3880    25.1790     2.4390   -25.0160 
  237.2500    53.3720     8.3220     7.2420     7.4010    25.1550     2.4430   -25.1210 
  237.3750    53.3720     8.6940     7.7050     7.9370    25.1070     2.4500   -25.1660 
  237.5000    53.3720     8.9170     7.9620     8.8670    25.0730     2.4530   -25.1370 
  237.6250    53.3720     8.8720     7.8880     9.3500    25.0660     2.4420   -25.0750 
  237.7500    53.3720     8.6190     7.5390     8.3750    25.0590     2.4240   -24.9260 
  237.8750    53.3720     8.2310     6.9920     7.4050    25.0410     2.4070   -24.6880 
  238.0000    53.3720     7.8100     6.3580     6.8560    25.0050     2.4010   -24.4070 
  238.1250    53.3720     7.3440     5.7690     6.2860    24.9880     2.4090   -24.1250 
  238.2500    53.3720     6.7970     5.3150     5.7990    24.9820     2.4200   -23.8830 
  238.3750    53.3720     6.2610     5.0280     5.5960    24.9860     2.4230   -23.7240 
  238.5000    53.3720     5.9430     4.8980     5.6910    24.9940     2.4160   -23.6450 
  238.6250    53.3720     5.8410     4.8950     6.2550    25.0040     2.4040   -23.5560 
  238.7500    53.3720     5.8460     4.9490     6.9120    24.9960     2.3990   -23.4980 
  238.8750    53.3720     5.8820     5.0300     6.8980    24.9900     2.4020   -23.5360 
  239.0000    53.3720     5.9550     5.1330     6.5470    24.9890     2.4140   -23.6290 
  239.1250    53.3720     6.0590     5.2620     6.3490    24.9890     2.4270   -23.7420 
  239.2500    53.3720     6.1920     5.4110     6.3460    24.9910     2.4370   -23.8080 
  239.3750    53.3720     6.3270     5.5630     6.5530    24.9940     2.4410   -23.8140 
  239.5000    53.3720     6.4940     5.7030     7.1700    24.9950     2.4390   -23.8040 
  239.6250    53.3720     6.6190     5.8180     7.3970    24.9780     2.4310   -23.7920 
  239.7500    53.3720     6.7230     5.9090     6.9430    24.9410     2.4220   -23.7600 
  239.8750    53.3720     6.8130     5.9710     6.2170    24.8960     2.4160   -23.6930 
  240.0000    53.3720     6.8970     5.9940     5.7130    24.8710     2.4140   -23.6210 
  240.1250    53.3720     7.0140     5.9720     5.6180    24.8660     2.4150   -23.5060 
  240.2500    53.3720     7.1230     5.9400     5.6700    24.8660     2.4120   -23.3870 
  240.3750    53.3720     7.1970     5.9370     5.7880    24.8660     2.4020   -23.3100 
  240.5000    53.3720     7.2450     5.9930     6.1350    24.8670     2.3910   -23.2090 
  240.6250    53.3720     7.2940     6.0920     6.5500    24.8600     2.3840   -23.1290 
  240.7500    53.3720     7.3360     6.1680     6.2500    24.8340     2.3820   -23.1010 
  240.8750    53.3720     7.3510     6.1950     5.7660    24.7850     2.3860   -23.0800 
