~V
VERS. 2.00: Ver 2.00
~W
STRT.M 50.0000:
STOP.M 219.0000:
STEP.M 0.1250:
NULL. -999.2500:
UWI. F10688:
~C
DEPT.M :
SP.MV :
DEN.GM/CC :
GR.API :
RML.OHMM :
RI. :
RXO.OHMM :
CALI.CM :
~A
# ...
  151.2500    -4.7970     2.4390    68.9500    17.8140    14.9180    11.9390    23.9860 
  151.3750    -4.8610     2.4510    69.6510    18.9240    15.8970    13.7490    23.6890 
  151.5000    -4.9740     2.4620    68.5230    19.6190    16.5960    16.6900    23.3730 
  151.6250    -5.0140     2.4630    67.1620    19.6760    16.7770    18.4420    23.0860 
  151.7500    -4.9680     2.4520    66.4490    19.4880    16.6860    17.6550    22.8850 
  151.8750    -4.9220     2.4320    66.1030    19.5110    16.6550    15.1570    22.8260 
  152.0000    -4.8160     2.4130    67.1620    20.0730    16.9660    14.3670    22.9300 
  152.1250    -4.6430     2.4050    70.3710    21.2430    17.7650    16.7310    23.1950 
  152.2500    -4.5040     2.4070    73.2210    22.5030    18.7630    20.5200    23.5030 
  152.3750    -4.4300     2.4160    73.6280    23.3060    19.5790    22.6880    23.7660 
  152.5000    -4.3640     2.4290    72.4850    23.2700    19.8570    21.3790    23.9240 
  152.6250    -4.2830     2.4420    73.1060    22.3310    19.3940    18.2100    23.9100 
  152.7500    -4.2690     2.4530    75.1230    21.0470    18.5260    16.6760    23.7520 
  152.8750    -4.3200     2.4570    76.5920    19.7850    17.5440    15.1530    23.4790 
  153.0000    -4.4250     2.4500    76.7080    18.7020    16.6290    13.4590    23.1640 
  153.1250    -4.5680     2.4340    75.7350    17.7590    15.8330    11.6870    22.8820 
  153.2500    -4.6970     2.4170    73.2790    16.8290    15.0890    10.5170    22.6800 
  153.3750    -4.8110     2.4050    68.7160    15.9510    14.4020     9.8830    22.5820 
  153.5000    -4.9500     2.4000    64.5430    15.3060    13.8720     9.7640    22.5820 
  153.6250    -5.1300     2.4040    64.6970    15.2380    13.7420     9.3760    22.6560 
  153.7500    -5.3280     2.4130    66.4710    15.8550    14.1120     9.3800    22.7460 
  153.8750    -5.5040     2.4200    66.3090    17.1790    15.0340    10.0090    22.8330 
  154.0000    -5.6400     2.4190    64.9500    19.0350    16.4270    12.3860    22.9070 
  154.1250    -5.7770     2.4100    64.4740    20.9680    18.0070    16.2970    22.9650 
  154.2500    -5.9480     2.3980    65.5090    22.4020    19.2970    17.4260    23.0210 
  154.3750    -6.0780     2.3940    68.1810    23.0660    20.0160    16.1590    23.0860 
  154.5000    -6.1340     2.3990    70.9100    23.1080    20.1970    14.7200    23.1450 
  154.6250    -6.2380     2.4050    71.6090    23.1090    20.2230    14.2600    23.1360 
  154.7500    -6.3320     2.4030    71.1510    23.6590    20.5960    14.8160    23.0600 
  154.8750    -6.3810     2.3930    71.2870    24.9410    21.5370    17.6250    22.9260 
  155.0000    -6.4640     2.3770    72.8250    26.7880    22.9780    21.4170    22.7440 
  155.1250    -6.5140     2.3630    75.6660    28.7380    24.5440    24.9830    22.5350 
  155.2500    -6.4700     2.3550    79.1720    30.2820    25.7610    26.8020    22.3410 
  155.3750    -6.4160     2.3540    81.1190    31.2430    26.4590    25.9750    22.1920 
  155.5000    -6.4330     2.3590    81.6450    31.7340    26.7520    24.2870    22.1380 
  155.6250    -6.4250     2.3680    83.1350    32.0160    26.9030    22.9830    22.2360 
  155.7500    -6.4210     2.3760    84.6360    32.3140    27.1080    23.9780    22.4180 
  155.8750    -6.4900     2.3780    85.4630    32.6580    27.3720    27.1400    22.6350 
  156.0000    -6.5490     2.3740    85.4050    33.0100    27.6260    29.2040    22.8670 
  156.1250    -6.6420     2.3710    83.4340    33.2920    27.7840    25.7930    23.0890 
  156.2500    -6.8390     2.3760    80.3550    33.4840    27.8560    21.0190    23.2750 
  156.3750    -7.1180     2.3920    79.0800    33.6270    27.9130    20.3360    23.4200 
  156.5000    -7.3970     2.4130    80.6490    33.7610    28.0370    24.8050    23.5320 
  156.6250    -7.6710     2.4250    82.0570    33.8680    28.2570    27.9790    23.6140 
  156.7500    -7.9650     2.4200    81.2960    33.9150    28.4940    24.4230    23.7030 
  156.8750    -8.2500     2.4030    80.0530    33.9130    28.6920    21.4760    23.8100 
  157.0000    -8.5330     2.3850    79.1030    33.9280    28.8610    21.0950    23.9330 
  157.1250    -8.8090     2.3740    77.7350    34.0870    29.0940    21.4520    24.0630 
  157.2500    -9.0820     2.3710    76.6340    34.4120    29.4480    22.6350    24.1870 
  157.3750    -9.2860     2.3720    77.2670    34.8070    29.8600    24.5920    24.2980 
  157.5000    -9.3990     2.3760    79.1050    35.1130    30.1730    24.5680    24.3910 
  157.6250    -9.4880     2.3820    79.6920    35.2040    30.2350    23.5150    24.4580 
  157.7500    -9.5030     2.3900    80.8930    35.1420    30.1160    23.0720    24.5150 
  157.8750    -9.4770     2.3930    83.7350    34.9920    29.9000    23.0110    24.5680 
  158.0000    -9.4730     2.3900    84.7220    34.8360    29.6620    22.5460    24.6180 
  158.1250    -9.4190     2.3820    80.5680    34.8460    29.4960    23.8080    24.6470 
  158.2500    -9.2900     2.3750    76.3200    35.1350    29.4580    25.6520    24.6600 
  158.3750    -9.1420     2.3720    75.5450    35.7520    29.5800    27.1550    24.6650 
  158.5000    -8.9600     2.3720    78.0920    36.6970    29.8910    26.3910    24.6520 
  158.6250    -8.7080     2.3750    80.2740    37.9560    30.4520    26.7180    24.5850 
  158.7500    -8.5110     2.3780    80.0520    39.3690    31.2060    29.4580    24.4340 
  158.8750    -8.3330     2.3780    79.1490    40.8030    32.0850    30.8140    24.1800 
  159.0000    -8.1120     2.3740    79.6160    42.1150    32.9900    27.8190    23.8660 
  159.1250    -7.9250     2.3700    80.4120    43.1860    33.8340    24.5500    23.5920 
  159.2500    -7.8000     2.3680    78.4300    44.0970    34.6430    24.4580    23.4340 
  159.3750    -7.7070     2.3660    74.6180    44.9940    35.5260    26.0690    23.4120 
  159.5000    -7.6660     2.3610    73.0490    45.9900    36.5720    29.4900    23.5380 
  159.6250    -7.6970     2.3510    75.1260    47.0080    37.7390    34.8300    23.8010 
  159.7500    -7.7640     2.3390    77.6070    47.7390    38.7550    41.1040    24.0940 
  159.8750    -7.8490     2.3260    79.2560    47.6240    39.1890    44.3440    24.3370 
  160.0000    -7.9770     2.3140    80.5890    45.7310    38.2690    40.0250    24.4660 
  160.1250    -8.1710     2.3100    81.0970    40.5680    34.6030    29.2240    24.4480 
  160.2500    -8.3680     2.3120    80.3350    32.8570    28.6020    21.1430    24.3710 
  160.3750    -8.5280     2.3190    80.3740    24.3030    21.6510    19.0230    24.3220 
  160.5000    -8.6850     2.3280    82.2570    16.8120    15.3870    15.5280    24.3410 
  160.6250    -8.8360     2.3340    82.9780    11.7320    10.9790     9.1300    24.4370 
  160.7500    -8.8410     2.3340    81.8490     8.5640     8.1190     5.0980    24.5850 
  160.8750    -8.7590     2.3300    80.5820     6.7950     6.4470     4.0490    24.7440 
  161.0000    -8.6240     2.3290    80.4920     5.9900     5.6280     3.9770    24.8710 
  161.1250    -8.3690     2.3360    82.8140     5.9550     5.5030     4.2810    24.9430 
  161.2500    -8.0840     2.3470    85.7750     6.3660     5.7880     4.8070    24.9730 
  161.3750    -7.8490     2.3620    86.8580     7.0300     6.3270     5.2480    24.9730 
  161.5000    -7.6110     2.3720    85.6450     7.7400     6.9570     5.8310    24.9670 
  161.6250    -7.3670     2.3720    85.4580     8.2910     7.5080     6.9060    24.9660 
  161.7500    -7.1900     2.3660    86.3810     8.6520     7.9170     7.9850    24.9640 
  161.8750    -7.0130     2.3650    85.7650     8.8960     8.2120     7.9810    24.9620 
  162.0000    -6.8910     2.3810    83.6210     9.1410     8.4610     7.7050    24.9610 
  162.1250    -6.8800     2.4190    79.7090     9.4940     8.7210     8.4120    24.9640 
  162.2500    -6.8660     2.4540    75.4720     9.9500     8.9860     9.4320    24.9700 
  162.3750    -6.8020     2.4630    73.5000    10.4640     9.2290    11.1150    24.9810 
