~V
VERS. 2.00: Ver 2.00
~W
STRT.M 50.0000:
STOP.M 217.0000:
STEP.M 0.1250:
NULL. -999.2500:
UWI. F10606:
~C
DEPT.M :
DEN.GM/CC :
GR.API :
RML.OHMM :
RI. :
RXO.OHMM :
CALI.CM :
SP.MV :
~A
# ...
   83.7500     2.3080    77.9150     8.8160     6.7830     7.4180    23.0030   -21.2980 
   83.8750     2.3320    77.8330     8.8570     6.8650     7.9470    22.7960   -21.1410 
   84.0000     2.3330    76.9560     8.5780     6.7050     8.4150    22.6110   -20.9590 
   84.1250     2.3190    76.4370     8.0130     6.3000     7.9800    22.5680   -20.7490 
   84.2500     2.3110    77.3970     7.3810     5.8070     7.0910    22.7940   -20.5260 
   84.3750     2.3200    79.2980     6.8360     5.3460     6.3490    23.2670   -20.3220 
   84.5000     2.3390    81.9710     6.4650     4.9960     5.7220    23.8730   -20.1420 
   84.6250     2.3560    85.8100     6.3130     4.8180     5.5540    24.1850   -20.0350 
   84.7500     2.3590    88.6490     6.3070     4.7730     5.7740    24.1490   -19.9580 
   84.8750     2.3450    89.5850     6.4040     4.8230     6.1060    23.9550   -19.9000 
   85.0000     2.3170    90.6390     6.5700     4.9370     6.1900    23.8740   -19.8910 
   85.1250     2.2820    93.1480     6.7780     5.0880     6.0460    23.8710   -19.9290 
   85.2500     2.2500    92.7720     6.9860     5.2490     6.0460    23.6990   -20.0100 
   85.3750     2.2350    87.8470     7.1700     5.4040     6.4380    23.2110   -20.1140 
   85.5000     2.2410    82.9430     7.3190     5.5440     6.8070    22.5330   -20.2210 
   85.6250     2.2680    82.7080     7.4210     5.6570     6.3180    22.0150   -20.3230 
   85.7500     2.2960    84.1090     7.4760     5.7320     5.9290    21.7820   -20.3980 
   85.8750     2.3140    84.6700     7.4820     5.7620     5.9450    21.6830   -20.4730 
   86.0000     2.3190    84.7720     7.4470     5.7450     6.2160    21.6020   -20.5380 
   86.1250     2.3120    85.2290     7.3900     5.6890     6.1890    21.5900   -20.5640 
   86.2500     2.3000    86.9620     7.3390     5.6230     6.0340    21.6150   -20.5810 
   86.3750     2.2890    90.7950     7.3020     5.5660     5.9110    21.6460   -20.5430 
   86.5000     2.2820    93.6850     7.2820     5.5240     6.0160    21.6350   -20.5080 
   86.6250     2.2840    90.2660     7.3290     5.5200     6.3190    21.6690   -20.4090 
   86.7500     2.2950    83.5860     7.5440     5.6130     6.6860    21.7780   -20.2970 
   86.8750     2.3210    79.7500     8.0280     5.8760     6.9620    21.9620   -20.1950 
   87.0000     2.3640    80.9380     8.8040     6.3470     6.9980    22.1040   -20.0560 
   87.1250     2.4140    82.8150     9.7500     6.9930     7.4990    22.1140   -19.9480 
   87.2500     2.4520    80.2890    10.5080     7.5970     9.3940    22.1100   -19.8330 
   87.3750     2.4610    75.4320    10.7150     7.9100    12.7740    22.2400   -19.7370 
   87.5000     2.4430    74.2640    10.1910     7.7540    11.5130    22.5970   -19.6720 
   87.6250     2.4080    80.4150     9.1260     7.1560     7.9220    23.0350   -19.6550 
   87.7500     2.3710    88.4830     8.1060     6.4780     6.5760    23.4220   -19.6690 
   87.8750     2.3360    91.8590     7.4440     5.9530     6.4960    23.7220   -19.7010 
   88.0000     2.3000    87.8910     7.2300     5.6980     6.6890    23.8900   -19.7510 
   88.1250     2.2640    78.8110     7.4290     5.7600     6.7270    23.8700   -19.8120 
   88.2500     2.2350    72.3830     7.7830     6.0020     7.0540    23.7550   -19.8730 
   88.3750     2.2150    72.6360     8.1210     6.2990     7.8230    23.7570   -19.9340 
   88.5000     2.2050    76.1410     8.3370     6.5440     8.1070    23.9840   -19.9580 
   88.6250     2.2020    77.7760     8.3680     6.6530     8.1040    24.2800   -19.9600 
   88.7500     2.2040    78.2660     8.2460     6.6250     7.9870    24.4630   -19.9430 
   88.8750     2.2130    78.1330     7.9970     6.4740     7.9000    24.5440   -19.8940 
   89.0000     2.2320    78.6050     7.6710     6.2330     7.5410    24.5760   -19.8610 
   89.1250     2.2580    81.7520     7.3480     5.9540     7.1200    24.6120   -19.7880 
   89.2500     2.2820    86.4480     7.0870     5.6950     6.8540    24.6290   -19.7390 
   89.3750     2.2960    88.0230     6.8930     5.4700     6.9420    24.6330   -19.6990 
   89.5000     2.2970    85.0700     6.7260     5.2690     6.6100    24.6220   -19.6960 
   89.6250     2.3000    84.4970     6.5280     5.0710     6.5700    24.5230   -19.7650 
   89.7500     2.3170    88.2980     6.3130     4.8810     6.4310    24.3220   -19.8640 
   89.8750     2.3440    90.2090     6.1680     4.7430     6.1860    24.0090   -20.0410 
   90.0000     2.3590    86.5110     6.2140     4.7260     5.6060    23.7340   -20.2450 
   90.1250     2.3370    81.4260     6.6140     4.9320     5.5700    23.5770   -20.5110 
   90.2500     2.2890    79.3970     7.3480     5.3670     6.5120    23.5360   -20.8010 
   90.3750     2.2350    77.0490     8.3420     6.0110     8.1750    23.5620   -21.1000 
   90.5000     2.1960    71.0590     9.4220     6.7780     9.2590    23.4820   -21.3990 
   90.6250     2.1820    65.6490    10.2720     7.4790     9.3950    23.1560   -21.6430 
   90.7500     2.1850    64.5300    10.6860     7.9230     9.4310    22.9110   -21.8930 
   90.8750     2.1900    66.2040    10.6520     8.0440     9.6320    23.0450   -22.1340 
   91.0000     2.1940    67.4160    10.3500     7.9230     9.9900    23.5700   -22.3750 
   91.1250     2.1950    66.5980    10.0630     7.7280     9.9330    24.0740   -22.6610 
   91.2500     2.1910    62.6210     9.9700     7.6170     9.5790    24.3200   -22.9670 
   91.3750     2.1780    56.9490    10.1080     7.6540     9.8660    24.4490   -23.3060 
   91.5000     2.1570    52.9180    10.4300     7.8470    10.8880    24.7250   -23.6690 
   91.6250     2.1380    52.6270    10.8370     8.1670    11.8000    25.1310   -24.0450 
   91.7500     2.1300    53.1300    11.1850     8.5060    11.9800    25.4690   -24.4050 
   91.8750     2.1340    53.0360    11.3770     8.7840    11.8570    25.6120   -24.7010 
   92.0000     2.1420    54.3310    11.3660     8.9430    11.5980    25.6140   -24.9570 
   92.1250     2.1460    56.7680    11.1690     8.9650    11.5280    25.5090   -25.0790 
   92.2500     2.1440    56.9540    10.9330     8.9210    11.4710    25.2790   -25.0850 
   92.3750     2.1400    54.8070    10.7650     8.8680    11.4130    25.0320   -24.9860 
   92.5000     2.1350    51.8770    10.7370     8.8500    11.4510    24.9060   -24.7560 
   92.6250     2.1270    50.1060    10.8770     8.8950    11.4330    24.9440   -24.4430 
   92.7500     2.1140    50.0680    11.0500     8.9480    11.2140    25.0720   -23.9930 
   92.8750     2.0990    52.6880    11.0620     8.9000    10.9660    25.1420   -23.4600 
   93.0000     2.0920    55.7250    10.7010     8.6090    10.8600    25.1460   -22.8580 
   93.1250     2.1090    58.7070     9.7630     7.9270    10.5390    25.1630   -22.1910 
   93.2500     2.1540    65.3610     8.4510     6.9720     9.5930    25.1170   -21.5420 
   93.3750     2.2180    75.7670     7.1010     5.9530     7.9940    24.8350   -20.9170 
   93.5000     2.2890    86.0530     6.1160     5.1260     6.4450    24.4790   -20.3920 
   93.6250     2.3650    90.0600     5.9210     4.7800     6.0090    24.2240   -20.0380 
   93.7500     2.4440    89.1070     6.5500     4.9760     6.3040    24.1070   -19.8550 
   93.8750     2.5040    83.3070     8.0340     5.7750     8.1900    24.0720   -19.8500 
   94.0000     2.5060    73.0710    10.2340     7.1680    13.3050    24.0950   -20.0190 
   94.1250     2.4330    62.7630    12.5370     8.9220    22.9750    24.2060   -20.3670 
   94.2500     2.3260    57.6070    13.9240    10.3220    22.6010    24.3790   -20.8220 
   94.3750     2.2220    58.1670    13.9150    10.8490    15.8510    24.5980   -21.3450 
   94.5000     2.1470    59.7640    12.9070    10.5470    12.1440    24.7840   -21.8870 
   94.6250     2.1150    58.3750    11.8100     9.9260    11.6380    24.9210   -22.3420 
   94.7500     2.1100    55.9310    11.2090     9.4870    11.8970    25.0760   -22.7360 
   94.8750     2.1170    53.0330    11.1410     9.3570    12.2070    25.2490   -23.0240 
