~V
VERS. 2.00: Ver 2.00
~W
STRT.M 50.0000:
STOP.M 263.0000:
STEP.M 0.1250:
NULL. -999.2500:
UWI. F10656:
~C
DEPT.M :
DEN.GM/CC :
GR.API :
RML.OHMM :
RI. :
RXO.OHMM :
CALI.CM :
SP.MV :
~A
# ...
  117.5000     2.3320    80.7240     5.8200     5.3150     5.9190    23.7870    -2.4540 
  117.6250     2.3260    79.3470     5.5060     5.0690     5.5210    23.7900    -2.4510 
  117.7500     2.3280    79.8310     5.2160     4.8080     5.2780    23.8160    -2.4960 
  117.8750     2.3350    81.4380     5.0180     4.6010     5.1630    23.8310    -2.5050 
  118.0000     2.3460    83.5260     4.9370     4.4840     5.1140    23.8370    -2.4900 
  118.1250     2.3530    86.0700     4.9710     4.4700     5.0550    23.8470    -2.4760 
  118.2500     2.3520    87.1470     5.0510     4.5110     5.0160    23.8650    -2.4810 
  118.3750     2.3440    86.4230     5.1270     4.5680     5.0150    23.8840    -2.5090 
  118.5000     2.3330    86.9450     5.1580     4.6020     5.0450    23.8920    -2.5390 
  118.6250     2.3260    90.8820     5.1100     4.5810     5.0790    23.8870    -2.5450 
  118.7500     2.3280    92.4480     5.0080     4.5150     5.0570    23.8710    -2.5050 
  118.8750     2.3370    90.2180     4.8920     4.4280     4.9890    23.8420    -2.4570 
  119.0000     2.3480    89.5770     4.8200     4.3570     4.9540    23.8110    -2.4230 
  119.1250     2.3580    92.6640     4.8660     4.3640     5.0280    23.7810    -2.4150 
  119.2500     2.3670    94.6090     5.0370     4.4660     5.1820    23.7680    -2.4080 
  119.3750     2.3790    92.6380     5.3090     4.6600     5.4340    23.7600    -2.3910 
  119.5000     2.3920    89.1160     5.6270     4.9080     5.7930    23.7480    -2.3560 
  119.6250     2.3970    87.8560     5.8910     5.1390     6.2540    23.7310    -2.3530 
  119.7500     2.3850    87.3340     6.0320     5.2860     6.5670    23.7130    -2.3740 
  119.8750     2.3580    85.5210     6.0240     5.3210     6.4850    23.7030    -2.4280 
  120.0000     2.3270    82.9580     5.9040     5.2610     6.2310    23.6980    -2.4960 
  120.1250     2.3090    82.3340     5.7690     5.1720     5.9470    23.6790    -2.5670 
  120.2500     2.3110    83.4270     5.7310     5.1440     5.8860    23.6520    -2.6860 
  120.3750     2.3270    84.9220     5.8380     5.2220     6.0340    23.6270    -2.8370 
  120.5000     2.3450    86.4760     6.0680     5.4010     6.3630    23.5760    -3.0150 
  120.6250     2.3440    87.9290     6.3290     5.6260     6.8810    23.4500    -3.1910 
  120.7500     2.3200    87.2050     6.5010     5.8020     7.3860    23.2730    -3.3630 
  120.8750     2.2830    83.2520     6.5180     5.8660     7.5680    23.0730    -3.5130 
  121.0000     2.2490    77.7510     6.3800     5.8020     7.2880    22.8930    -3.6380 
  121.1250     2.2320    76.1440     6.1560     5.6450     6.6140    22.8180    -3.7170 
  121.2500     2.2310    78.6460     5.9670     5.4910     6.1530    22.8240    -3.7230 
  121.3750     2.2370    80.4180     5.8760     5.4030     5.9720    22.8750    -3.6740 
  121.5000     2.2410    78.9740     5.8930     5.4070     6.0190    22.9390    -3.6320 
  121.6250     2.2390    76.6080     5.9860     5.4930     6.1240    22.9690    -3.5740 
  121.7500     2.2360    77.2540     6.0850     5.6020     6.2620    22.9500    -3.5000 
  121.8750     2.2390    81.2950     6.1560     5.6950     6.3040    22.9050    -3.4130 
  122.0000     2.2470    84.6870     6.2010     5.7570     6.2230    22.8950    -3.2960 
  122.1250     2.2560    83.8590     6.2350     5.7860     6.1070    22.9740    -3.1660 
  122.2500     2.2580    81.2050     6.2610     5.7930     6.0140    23.0800    -3.0610 
  122.3750     2.2520    79.1800     6.2550     5.7660     6.0030    23.1530    -3.0290 
  122.5000     2.2430    78.0530     6.1710     5.6800     6.0660    23.1550    -3.0090 
  122.6250     2.2400    78.0350     5.9600     5.4970     6.0810    23.0800    -2.9860 
  122.7500     2.2450    81.0820     5.6610     5.2460     5.9760    22.9510    -2.9690 
  122.8750     2.2550    86.4880     5.3660     4.9900     5.7500    22.8040    -3.0120 
  123.0000     2.2600    91.8390     5.2270     4.8380     5.5720    22.6430    -3.1370 
  123.1250     2.2530    93.2000     5.5160     5.0050     5.7240    22.5070    -3.3570 
  123.2500     2.2420    88.7260     6.3310     5.6020     6.3670    22.4470    -3.6350 
  123.3750     2.2390    81.5150     7.6750     6.6770     7.6370    22.4900    -3.9350 
  123.5000     2.2510    75.5230     9.3650     8.1360     9.5890    22.6250    -4.2720 
  123.6250     2.2680    70.1150    10.9390     9.6550    12.0810    22.8180    -4.6650 
  123.7500     2.2750    63.8300    11.8940    10.7570    14.3170    22.9750    -5.1480 
  123.8750     2.2610    58.2870    11.9540    11.1190    15.1130    23.0850    -5.6780 
  124.0000     2.2310    57.2880    11.2120    10.7080    13.8060    23.0980    -6.2680 
  124.1250     2.2010    59.3700    10.1210     9.8170    11.7040    22.9410    -6.8760 
  124.2500     2.1820    60.2410     9.2450     8.9670     9.9640    22.7680    -7.4680 
  124.3750     2.1720    61.0600     8.7740     8.3870     9.0980    22.6610    -8.0090 
  124.5000     2.1660    63.5240     8.6720     8.1200     8.9860    22.6020    -8.4780 
  124.6250     2.1600    64.6850     8.7960     8.1130     9.2250    22.5900    -8.9050 
  124.7500     2.1510    61.8940     8.9420     8.2020     9.4290    22.6580    -9.2500 
  124.8750     2.1420    58.8670     9.0300     8.2990     9.4290    22.8230    -9.5350 
  125.0000     2.1380    60.5480     9.0530     8.3690     9.2480    23.0270    -9.7590 
  125.1250     2.1460    64.3630     9.0570     8.4200     8.9690    23.2090    -9.9880 
  125.2500     2.1600    65.7510     9.1070     8.4980     8.9090    23.3480   -10.2600 
  125.3750     2.1720    64.4940     9.2220     8.6270     9.3610    23.3870   -10.5730 
  125.5000     2.1740    61.3920     9.3900     8.8080    10.0720    23.3640   -10.9010 
  125.6250     2.1590    58.8640     9.5700     9.0170    10.6980    23.3540   -11.2140 
  125.7500     2.1370    57.3350     9.7150     9.2050    11.0670    23.3740   -11.5230 
  125.8750     2.1160    55.3990     9.8000     9.3420    11.2970    23.3920   -11.8190 
  126.0000     2.1040    52.2620     9.8220     9.4130    11.4030    23.3830   -12.0790 
  126.1250     2.1040    49.2500     9.7910     9.4140    11.3670    23.3570   -12.2650 
  126.2500     2.1110    49.3520     9.7310     9.3700    11.3230    23.3240   -12.3690 
  126.3750     2.1220    51.6170     9.6510     9.2960    11.2880    23.2960   -12.3720 
  126.5000     2.1350    53.8840     9.5530     9.1990    11.2930    23.2770   -12.3050 
  126.6250     2.1470    53.2880     9.4450     9.0880    11.2830    23.2230   -12.2020 
  126.7500     2.1570    51.2070     9.3510     8.9810    11.2090    23.1880   -12.0700 
  126.8750     2.1620    51.2570     9.2930     8.9000    11.0590    23.2510   -11.8870 
  127.0000     2.1620    54.6770     9.2940     8.8650    10.8750    23.3520   -11.6880 
  127.1250     2.1600    58.8820     9.3650     8.8950    10.8660    23.3800   -11.5310 
  127.2500     2.1580    61.8250     9.4730     8.9730    10.9660    23.3580   -11.4290 
  127.3750     2.1600    63.0110     9.5840     9.0730    11.1180    23.3430   -11.3590 
  127.5000     2.1640    61.4290     9.6660     9.1650    11.2500    23.3350   -11.3220 
  127.6250     2.1700    57.8870     9.6880     9.2130    11.2900    23.3340   -11.2840 
  127.7500     2.1750    55.4710     9.6620     9.2070    11.2690    23.3660   -11.2550 
  127.8750     2.1760    55.4910     9.6050     9.1520    11.2180    23.4270   -11.2440 
  128.0000     2.1750    54.2010     9.5400     9.0660    11.1900    23.5000   -11.2670 
  128.1250     2.1690    50.6280     9.4860     8.9720    11.2110    23.5670   -11.2640 
  128.2500     2.1640    49.9390     9.4530     8.8990    11.1940    23.5840   -11.1880 
  128.3750     2.1620    54.4550     9.4450     8.8610    11.1550    23.4930   -11.1250 
  128.5000     2.1640    60.3510     9.4600     8.8640    11.1510    23.3310   -11.0660 
  128.6250     2.1710    61.1560     9.5010     8.9130    11.2170    23.1820   -11.0340 
