~V
VERS. 2.00: Ver 2.00
~W
STRT.M 50.0000:
STOP.M 219.0000:
STEP.M 0.1250:
NULL. -999.2500:
UWI. F10688:
~C
DEPT.M :
SP.MV :
DEN.GM/CC :
GR.API :
RML.OHMM :
RI. :
RXO.OHMM :
CALI.CM :
~A
# ...
  196.2500   -25.0120     2.5480    58.1900    69.0260    62.6390    18.8570    24.7980 
  196.3750   -24.3680     2.5440    63.3560    55.8930    51.2430    22.1820    24.2150 
  196.5000   -23.7850     2.5040    69.1370    44.8660    41.3260    23.9610    23.7330 
  196.6250   -23.2410     2.4610    72.6330    37.0580    34.0740    23.3970    23.4230 
  196.7500   -22.7870     2.4300    74.8140    31.8900    29.1280    19.6420    23.2700 
  196.8750   -22.3340     2.4130    76.2000    29.0060    26.1880    16.9090    23.2340 
  197.0000   -21.9120     2.4130    75.9810    28.0170    24.8990    17.0070    23.2620 
  197.1250   -21.4690     2.4330    73.3090    28.7120    25.1040    18.2470    23.3120 
  197.2500   -21.0020     2.4600    70.5910    30.2760    26.1740    20.2430    23.3740 
  197.3750   -20.5260     2.4790    69.4610    32.0220    27.5950    22.7570    23.4440 
  197.5000   -20.0260     2.4820    69.8780    33.2160    28.7580    23.5630    23.5090 
  197.6250   -19.5220     2.4750    70.1300    33.3500    29.1470    19.9600    23.5520 
  197.7500   -19.0340     2.4750    69.1540    32.9190    29.0170    20.8560    23.5830 
  197.8750   -18.5820     2.4950    66.9550    32.3510    28.6700    20.5210    23.6090 
  198.0000   -18.1270     2.5310    62.9960    31.5230    28.0360    17.5090    23.6570 
  198.1250   -17.6330     2.5340    57.2000    29.3370    26.2350    17.7920    23.7470 
  198.2500   -17.0650     2.4650    51.5690    25.1300    22.7110    21.7740    23.8860 
  198.3750   -16.4750     2.3270    46.9040    19.3140    17.7980    24.4440    24.2320 
  198.5000   -15.9120     2.1610    43.4120    13.3840    12.7240    17.9970    25.0750 
  198.6250   -15.4330     2.0290    40.7230     9.0200     8.8310    10.0500    26.4840 
  198.7500   -14.9930     1.9560    38.2230     6.3240     6.2520     4.6940    28.2280 
  198.8750   -14.5950     1.9360    35.7730     4.6520     4.7750     3.1220    30.1360 
  199.0000   -14.2330     1.9450    32.9660     4.0650     4.0960     3.0280    32.0260 
  199.1250   -13.9660     1.9550    30.5090     4.0770     3.9820     3.0310    33.6600 
  199.2500   -13.8400     1.9570    29.3280     4.2550     4.1070     3.0490    34.9180 
  199.3750   -13.7730     1.9560    29.9370     4.4890     4.3350     3.1610    35.7170 
  199.5000   -13.8120     1.9630    31.1440     4.7200     4.5860     3.3760    36.0090 
  199.6250   -13.8920     1.9880    31.2170     4.9020     4.7980     3.5760    35.9390 
  199.7500   -13.9650     2.0260    31.4440     5.0320     4.9610     3.4990    35.6310 
  199.8750   -14.0700     2.0580    32.5190     5.1190     5.0860     3.3910    35.0850 
  200.0000   -14.1970     2.0620    32.3400     5.1760     5.1800     3.3730    34.4940 
  200.1250   -14.3680     2.0260    29.5710     5.2010     5.2240     3.4600    34.0700 
  200.2500   -14.5510     1.9720    27.5220     5.1810     5.1980     3.5170    33.8450 
  200.3750   -14.7160     1.9260    28.3720     5.1120     5.0890     3.5340    33.8430 
  200.5000   -14.8380     1.9060    30.2580     5.0140     4.9170     3.5210    34.0620 
  200.6250   -14.9440     1.9160    30.8490     4.9310     4.7310     3.4380    34.5110 
  200.7500   -15.0360     1.9370    30.7710     4.8950     4.5810     3.4030    35.0960 
  200.8750   -15.0770     1.9530    30.6290     4.9040     4.4840     3.3990    35.6430 
  201.0000   -15.1060     1.9570    29.5180     4.9370     4.4380     3.3820    35.9610 
  201.1250   -15.1180     1.9490    28.6360     4.9650     4.4250     3.3150    36.0090 
  201.2500   -15.1240     1.9380    30.1230     4.9690     4.4190     3.2400    36.0090 
  201.3750   -15.1350     1.9310    31.8020     4.9470     4.4040     3.1110    36.0090 
  201.5000   -15.1120     1.9320    31.0010     4.9110     4.3750     3.0080    36.0090 
  201.6250   -15.0440     1.9360    29.1410     4.8770     4.3330     2.9850    36.0090 
  201.7500   -14.9840     1.9420    29.6090     4.8510     4.2910     2.9980    36.0090 
  201.8750   -14.9470     1.9480    31.1480     4.8340     4.2580     2.9920    36.0090 
  202.0000   -14.9350     1.9580    30.4860     4.8330     4.2410     2.9630    36.0090 
  202.1250   -14.9580     1.9690    28.2540     4.8660     4.2400     3.0160    36.0090 
  202.2500   -14.9810     1.9750    26.8830     4.9350     4.2460     3.0890    36.0090 
  202.3750   -15.0180     1.9730    26.4580     5.0350     4.2500     3.0740    35.9600 
  202.5000   -15.0630     1.9690    26.4950     5.1400     4.2420     3.0080    35.8040 
  202.6250   -15.0860     1.9670    26.7660     5.1980     4.2140     2.9530    35.2440 
  202.7500   -15.1240     1.9670    27.4690     5.1840     4.1650     2.8330    34.0590 
  202.8750   -15.2180     1.9700    29.1870     5.1190     4.1020     2.6940    32.3800 
  203.0000   -15.3260     1.9870    32.5530     5.0690     4.0560     2.6920    30.4100 
  203.1250   -15.3580     2.0380    37.1730     5.1510     4.0940     2.7200    28.6170 
  203.2500   -15.3810     2.1120    39.3930     5.4110     4.2520     2.7770    27.4340 
  203.3750   -15.4490     2.1760    38.0170     5.8260     4.5270     2.8930    27.0730 
  203.5000   -15.5760     2.1900    35.1830     6.3000     4.8630     3.1360    27.6250 
  203.6250   -15.7870     2.1340    34.2140     6.6370     5.1300     3.2180    29.0670 
  203.7500   -16.0090     2.0530    34.0690     6.7150     5.2240     3.2030    31.0100 
  203.8750   -16.2090     1.9880    32.5360     6.5220     5.1170     3.1250    32.9300 
  204.0000   -16.4060     1.9580    30.2890     6.1590     4.8680     3.0960    34.4720 
  204.1250   -16.6320     1.9490    29.4020     5.7810     4.5850     3.0870    35.4100 
  204.2500   -16.8150     1.9370    28.5400     5.4980     4.3580     3.0410    35.8430 
  204.3750   -16.9160     1.9220    26.2220     5.3380     4.2150     2.9520    35.9910 
  204.5000   -16.9680     1.9170    24.0980     5.2830     4.1500     2.9270    36.0090 
  204.6250   -16.9770     1.9420    24.8560     5.3170     4.1500     2.9830    35.9830 
  204.7500   -16.9460     1.9900    26.7660     5.4030     4.1930     3.0280    35.8030 
  204.8750   -16.8880     2.0440    27.6740     5.5350     4.2770     3.0370    35.4780 
  205.0000   -16.8330     2.0800    27.6040     5.6960     4.3940     3.0290    35.0450 
  205.1250   -16.7630     2.0870    28.3060     5.8650     4.5320     3.0400    34.6310 
  205.2500   -16.6870     2.0740    30.3690     6.0140     4.6680     3.0840    34.3010 
  205.3750   -16.6060     2.0400    32.2870     6.1230     4.7820     3.2040    34.0690 
  205.5000   -16.5040     1.9850    32.2770     6.1690     4.8460     3.2500    33.9460 
  205.6250   -16.3740     1.9190    29.6830     6.1160     4.8280     3.1660    34.0540 
  205.7500   -16.2600     1.8700    27.2410     5.9860     4.7350     3.1750    34.3600 
  205.8750   -16.1820     1.8700    26.3270     5.8170     4.5930     3.3070    34.7560 
  206.0000   -16.0950     1.9360    26.0750     5.6580     4.4410     3.3040    35.1250 
  206.1250   -16.0020     2.0460    25.4370     5.5660     4.3270     3.2110    35.4030 
  206.2500   -15.9670     2.1310    24.6960     5.5470     4.2680     3.1390    35.6160 
  206.3750   -16.0320     2.1510    24.3700     5.5850     4.2620     3.1380    35.8030 
  206.5000   -16.1740     2.1010    24.7250     5.6510     4.2890     3.1800    35.9540 
  206.6250   -16.3820     2.0160    24.9780     5.7080     4.3280     3.2790    35.9800 
  206.7500   -16.6380     1.9500    24.5500     5.7410     4.3600     3.2330    35.9170 
  206.8750   -16.9170     1.9210    22.6430     5.7480     4.3850     3.1610    35.8630 
  207.0000   -17.2240     1.9220    21.0100     5.7370     4.4070     3.3170    35.8230 
  207.1250   -17.5690     1.9340    20.1850     5.7270     4.4310     3.8550    35.8050 
  207.2500   -17.9050     1.9380    18.7970     5.7270     4.4580     4.0350    35.8080 
  207.3750   -18.1900     1.9300    18.7970     5.7420     4.4830     3.5700    35.8310 
