~V
VERS. 2.00: Ver 2.00
~W
STRT.M 55.0000:
STOP.M 226.0000:
STEP.M 0.1250:
NULL. -999.2500:
UWI. F10689:
~C
DEPT.M :
DEN.GM/CC :
GR.API :
RML.OHMM :
RI. :
RXO.OHMM :
CALI.CM :
SP.MV :
~A
# ...
  178.7500     2.2430    61.0890    25.8310    23.2070    24.5840    24.1390   -22.7040 
  178.8750     2.2480    58.4360    25.6880    22.9930    25.4880    24.0970   -22.6170 
  179.0000     2.2520    56.7630    25.5880    22.8400    25.1750    24.0930   -22.4820 
  179.1250     2.2520    59.1180    25.5420    22.7260    23.8710    24.1380   -22.3050 
  179.2500     2.2460    61.8430    25.6290    22.6720    23.4010    24.1820   -22.1370 
  179.3750     2.2370    61.8760    25.9790    22.7700    24.8560    24.2520   -22.0190 
  179.5000     2.2310    59.9970    26.6580    23.1090    27.5430    24.3160   -21.9750 
  179.6250     2.2370    59.8510    27.6750    23.7760    26.1060    24.3500   -21.9950 
  179.7500     2.2560    60.1400    28.8800    24.6890    24.6730    24.4110   -22.0450 
  179.8750     2.2800    56.5720    30.1770    25.7660    26.9000    24.4920   -22.1320 
  180.0000     2.2960    50.4510    31.4620    26.8780    31.0570    24.5620   -22.2740 
  180.1250     2.2930    49.5800    32.6060    27.8620    33.4510    24.5680   -22.4920 
  180.2500     2.2750    53.2250    33.5440    28.6460    31.7690    24.4850   -22.7650 
  180.3750     2.2520    55.0230    34.2730    29.2290    30.5140    24.4620   -23.0610 
  180.5000     2.2320    51.5950    34.9020    29.7050    30.7700    24.4560   -23.3670 
  180.6250     2.2220    48.7060    35.7140    30.2820    31.5000    24.4180   -23.6780 
  180.7500     2.2220    50.1240    36.9050    31.1000    32.7450    24.4360   -24.0200 
  180.8750     2.2310    53.3980    38.5020    32.1810    34.8800    24.4400   -24.3890 
  181.0000     2.2440    54.8170    40.4020    33.4600    37.7750    24.5500   -24.7770 
  181.1250     2.2480    52.4130    42.4530    34.8510    40.2750    24.5980   -25.1500 
  181.2500     2.2340    50.6190    44.4930    36.2690    42.2760    24.5420   -25.5270 
  181.3750     2.2030    51.5660    46.4860    37.7130    45.4280    24.4050   -25.9000 
  181.5000     2.1710    52.5120    48.5020    39.2570    50.9380    24.4000   -26.2780 
  181.6250     2.1710    51.1650    50.6320    41.0450    51.5300    24.4960   -26.6660 
  181.7500     2.2230    49.9980    52.6550    42.9760    52.3780    24.5570   -27.0470 
  181.8750     2.3260    50.7670    54.0470    44.7020    55.2600    24.6320   -27.4100 
  182.0000     2.4620    51.1770    54.2880    45.7390    64.2950    24.6920   -27.7310 
  182.1250     2.5860    49.6310    53.2450    45.7260    77.7810    24.5290   -28.0160 
  182.2500     2.6660    49.0950    52.0170    45.3050    70.7480    24.0140   -28.2220 
  182.3750     2.7020    51.3710    51.6010    45.3190    62.6870    23.6520   -28.3460 
  182.5000     2.7080    55.8180    52.2450    46.2970    69.9940    24.0380   -28.3590 
  182.6250     2.6950    59.1980    52.2700    47.3300    74.0810    24.0010   -28.2710 
  182.7500     2.6600    60.7120    48.6670    45.6080    89.2340    23.9220   -28.0690 
  182.8750     2.5950    62.1440    39.8060    38.8820   101.4240    23.7780   -27.7860 
  183.0000     2.5000    64.0410    27.6700    28.3290    60.9050    23.2890   -27.4500 
  183.1250     2.3900    63.7480    20.2450    18.4050    21.7810    22.7040   -27.0790 
  183.2500     2.2880    61.6990    12.6470    11.4970     8.4980    21.9710   -26.7020 
  183.3750     2.2100    59.4030     8.1280     7.3890     4.9220    21.2830   -26.3620 
  183.5000     2.1620    56.6540     5.7130     5.1940     4.2900    20.7460   -26.0830 
  183.6250     2.1500    54.1770     4.6950     4.2680     4.2850    20.6380   -25.8490 
  183.7500     2.1610    55.2800     4.3680     3.9710     4.2060    20.4880   -25.6680 
  183.8750     2.1860    60.7030     4.5060     4.0970     4.1940    20.1020   -25.5000 
  184.0000     2.2160    67.4120     4.9750     4.5230     4.2780    18.7760   -25.3380 
  184.1250     2.2470    70.7400     5.7130     5.1930     4.8520    17.6880   -25.1610 
  184.2500     2.2770    69.3620     6.5960     5.9970     5.6660    18.2970   -25.0210 
  184.3750     2.3040    64.4720     7.5230     6.8390     6.4660    19.9430   -24.9260 
  184.5000     2.3250    59.9690     8.3520     7.5920     6.9520    21.8890   -24.8740 
  184.6250     2.3380    60.0910     8.8830     8.0760     7.2600    23.5280   -24.8590 
  184.7500     2.3410    62.9040     9.0970     8.2700     7.5080    23.9340   -24.8590 
  184.8750     2.3380    65.3790     9.0480     8.2250     7.5820    24.0000   -24.9090 
  185.0000     2.3310    66.5170     8.8470     8.0420     7.5670    23.9900   -24.9960 
  185.1250     2.3260    69.3750     8.6030     7.8200     7.7890    23.9140   -25.1260 
  185.2500     2.3240    75.7090     8.3910     7.6280     7.9680    23.8570   -25.2530 
  185.3750     2.3270    81.6270     8.2310     7.4830     7.9030    23.8220   -25.3340 
  185.5000     2.3310    83.0510     8.1100     7.3730     7.5850    23.7060   -25.3380 
  185.6250     2.3340    81.1770     7.9630     7.2390     7.6160    23.5840   -25.2770 
  185.7500     2.3410    80.6400     7.7290     7.0270     7.7870    23.2980   -25.2130 
  185.8750     2.3570    82.9960     7.4110     6.7370     7.8390    22.9850   -25.1310 
  186.0000     2.3910    87.9390     7.1010     6.4550     7.8080    22.8900   -25.0330 
  186.1250     2.4370    92.5210     7.0440     6.4040     7.7200    23.0800   -24.8650 
  186.2500     2.4780    91.9950     7.4530     6.7760     7.8460    23.4770   -24.6450 
  186.3750     2.4960    86.8070     8.5650     7.7860     8.7880    23.7860   -24.3940 
  186.5000     2.4850    80.1690    10.6490     9.6810    11.5130    24.0050   -24.1420 
  186.6250     2.4510    72.0540    15.2490    12.9320    19.6100    24.1740   -23.9040 
  186.7500     2.4120    62.0910    23.4670    17.4190    30.6640    24.2240   -23.6600 
  186.8750     2.3750    54.3500    29.4740    22.7270    39.1460    24.1920   -23.4290 
  187.0000     2.3430    51.6210    34.6890    27.9190    42.2540    24.1790   -23.2020 
  187.1250     2.3170    50.1880    37.9230    31.6680    43.2770    24.1550   -23.0250 
  187.2500     2.2980    48.3150    39.3410    33.7520    43.8920    24.1000   -22.8810 
  187.3750     2.2880    50.6780    39.2980    34.3820    45.3170    24.0920   -22.7610 
  187.5000     2.2850    55.5190    38.1230    33.8550    43.1230    24.0820   -22.6590 
  187.6250     2.2870    56.4550    36.0770    32.3620    36.5200    24.0270   -22.5470 
  187.7500     2.2880    56.3210    33.8890    30.5220    31.1510    24.0160   -22.4450 
  187.8750     2.2870    58.4700    32.1610    28.8620    28.5760    23.9960   -22.3430 
  188.0000     2.2830    61.0210    31.3470    27.8490    27.4070    23.9230   -22.2560 
  188.1250     2.2760    58.6030    31.8180    27.9480    27.1530    23.8650   -22.1640 
  188.2500     2.2680    54.4980    33.2970    29.0430    27.7560    23.8550   -22.0730 
  188.3750     2.2600    51.8010    35.4920    30.9470    30.0630    23.8530   -21.9990 
  188.5000     2.2530    49.9160    37.9190    33.2660    34.0390    23.8530   -21.9450 
  188.6250     2.2500    50.1140    39.8450    35.3730    35.1750    23.8600   -21.9230 
  188.7500     2.2500    52.3060    40.8220    36.7690    35.2270    23.9010   -21.9140 
  188.8750     2.2550    54.4260    40.6880    37.2010    35.0710    23.9810   -21.9090 
  189.0000     2.2650    52.5480    39.5680    36.6440    34.8190    24.0800   -21.9020 
  189.1250     2.2780    47.0900    37.8090    35.2750    33.7950    24.1210   -21.9260 
  189.2500     2.2930    44.4520    36.0580    33.7250    33.9070    24.1650   -21.9630 
  189.3750     2.3040    46.4690    34.7510    32.4530    32.4280    24.1770   -21.9860 
  189.5000     2.3080    49.4650    34.2970    31.8530    29.3460    24.1810   -21.9930 
  189.6250     2.3030    50.8990    35.3430    32.4860    28.4140    24.1820   -21.9920 
  189.7500     2.2920    51.2130    37.9270    34.4490    34.0040    24.1830   -21.9840 
  189.8750     2.2780    50.4090    41.9510    37.7930    40.1370    24.1880   -21.9810 
