~V
VERS. 2.00: Ver 2.00
~W
STRT.M 50.0000:
STOP.M 212.0000:
STEP.M 0.1250:
NULL. -999.2500:
UWI. F10691:
~C
DEPT.M :
GR.API :
RML.OHMM :
RI. :
RXO.OHMM :
CALI.CM :
SP.MV :
DEN.GM/CC :
~A
# ...
   95.0000    53.9430    20.0850    18.7330    14.6860    23.1170   -13.3790     2.0280 
   95.1250    55.8280    20.5420    19.0780    19.5560    23.4600   -13.5320     2.0400 
   95.2500    52.9910    20.9070    19.4080    23.0480    23.9800   -13.6820     2.0830 
   95.3750    48.0150    20.9270    19.5050    22.5930    24.2590   -13.8230     2.1380 
   95.5000    44.2920    20.4510    19.1880    18.6370    24.3070   -13.9610     2.1850 
   95.6250    44.3380    19.5330    18.4230    14.0940    24.0000   -14.0870     2.2060 
   95.7500    45.4680    18.5600    17.5240    11.7150    23.6270   -14.1670     2.1980 
   95.8750    46.2060    17.7890    16.7330    10.8740    23.5100   -14.1790     2.1670 
   96.0000    47.1510    17.3480    16.1990    10.8630    23.6130   -14.1720     2.1270 
   96.1250    47.6920    17.2780    16.0050    11.1170    23.6940   -14.1570     2.0970 
   96.2500    47.8950    17.4180    16.0360    11.3810    23.8000   -14.1360     2.0860 
   96.3750    48.0380    17.6390    16.1890    11.5380    23.9110   -14.0970     2.0960 
   96.5000    47.0860    17.8480    16.3650    11.5460    23.9800   -14.0520     2.1190 
   96.6250    45.0200    18.0120    16.5090    11.4650    23.9320   -13.9980     2.1440 
   96.7500    43.8320    18.1640    16.6320    11.4240    23.7140   -13.9470     2.1570 
   96.8750    46.0540    18.3320    16.7560    11.5260    23.4130   -13.9180     2.1560 
   97.0000    50.7660    18.5320    16.8990    11.6630    23.0180   -13.8960     2.1450 
   97.1250    53.8780    18.7630    17.0650    11.7990    22.8460   -13.8810     2.1330 
   97.2500    53.6420    19.0000    17.2400    11.9440    23.2270   -13.8700     2.1300 
   97.3750    52.2130    19.2240    17.4050    12.0440    23.6470   -13.8490     2.1360 
   97.5000    52.5580    19.4250    17.5500    12.1650    23.7520   -13.7950     2.1470 
   97.6250    52.6020    19.5930    17.6770    12.3210    23.7440   -13.7530     2.1540 
   97.7500    50.4940    19.6880    17.7720    12.3810    23.6590   -13.7200     2.1530 
   97.8750    47.5240    19.6320    17.7640    12.1480    23.5630   -13.6920     2.1450 
   98.0000    46.3400    19.3810    17.5810    11.8770    23.5420   -13.6820     2.1340 
   98.1250    48.9920    19.0020    17.2250    11.9370    23.5350   -13.6700     2.1260 
   98.2500    52.3280    18.7090    16.8700    11.9210    23.5030   -13.6830     2.1180 
   98.3750    54.3750    18.6190    16.6440    11.2370    23.4710   -13.7320     2.1060 
   98.5000    55.9540    18.6980    16.5630    10.4640    23.4650   -13.8190     2.0870 
   98.6250    58.1610    18.6880    16.4780    11.1660    23.4640   -13.9230     2.0680 
   98.7500    59.5350    18.2770    16.1430    12.5020    23.4580   -14.0000     2.0580 
   98.8750    57.9450    17.3120    15.4110    12.6120    23.4190   -14.0260     2.0640 
   99.0000    55.6010    15.9350    14.3470    11.2670    23.2650   -14.0100     2.0830 
   99.1250    54.9700    14.6490    13.2800     9.8270    23.0980   -13.9580     2.1050 
   99.2500    56.5440    13.9860    12.6030     9.7800    23.0760   -13.8590     2.1190 
   99.3750    59.8010    14.2770    12.5920    10.6000    23.0700   -13.7420     2.1220 
   99.5000    62.2600    15.6600    13.4330    11.4680    23.0630   -13.6530     2.1190 
   99.6250    60.9140    18.0870    15.2930    12.2290    23.0760   -13.6310     2.1210 
   99.7500    57.0100    20.6880    17.6400    13.9930    23.1420   -13.7030     2.1350 
   99.8750    53.9570    22.3600    19.5780    15.7650    23.2000   -13.8720     2.1630 
  100.0000    53.4890    22.0550    19.9920    16.4500    23.2030   -14.1010     2.1990 
  100.1250    55.7790    19.4030    18.1920    15.0840    23.1570   -14.3670     2.2260 
  100.2500    59.6710    16.0180    15.4580    12.2400    23.1500   -14.6610     2.2400 
  100.3750    61.5990    13.1530    12.8950     9.3950    23.1480   -14.9500     2.2440 
  100.5000    61.0940    11.4180    11.0990     7.9150    23.1480   -15.2020     2.2430 
  100.6250    61.0360    10.9670    10.3090     7.7180    23.1480   -15.3750     2.2420 
  100.7500    62.1710    11.2840    10.2250     8.0890    23.1480   -15.4870     2.2350 
  100.8750    61.9590    11.9930    10.6160     8.9690    23.1480   -15.5450     2.2230 
  101.0000    59.9400    12.6860    11.1810    10.1000    23.1480   -15.5650     2.2090 
  101.1250    61.4610    12.9180    11.5240    10.2160    23.1480   -15.5790     2.2060 
  101.2500    65.9590    12.6510    11.4760     9.5690    23.1480   -15.5880     2.2130 
  101.3750    69.9180    12.0650    11.1030     8.5670    23.1480   -15.6010     2.2270 
  101.5000    70.2070    11.4210    10.5900     7.7260    23.1480   -15.6230     2.2400 
  101.6250    67.9080    10.9510    10.1380     7.3890    23.1480   -15.6450     2.2430 
  101.7500    66.5010    10.6800     9.8240     7.3030    23.1480   -15.6580     2.2400 
  101.8750    66.1360    10.5560     9.6410     7.3090    23.1480   -15.6570     2.2350 
  102.0000    67.5730    10.5090     9.5410     7.3390    23.1550   -15.6560     2.2280 
  102.1250    70.2370    10.4890     9.4810     7.2470    23.1950   -15.6720     2.2180 
  102.2500    70.8220    10.4720     9.4260     7.1590    23.2750   -15.6910     2.2020 
  102.3750    67.4840    10.4630     9.3810     7.0460    23.2880   -15.7190     2.1830 
  102.5000    63.4310    10.4670     9.3560     6.8980    23.2900   -15.7500     2.1670 
  102.6250    63.8860    10.4770     9.3560     6.8470    23.2900   -15.7690     2.1630 
  102.7500    66.7860    10.4790     9.3680     6.9900    23.2900   -15.7630     2.1700 
  102.8750    67.6460    10.4810     9.3840     7.1580    23.2910   -15.7490     2.1890 
  103.0000    65.8830    10.5040     9.4090     7.1760    23.2970   -15.7220     2.2130 
  103.1250    63.7810    10.5950     9.4670     7.1930    23.3400   -15.6770     2.2390 
  103.2500    62.7040    10.7680     9.5700     7.1840    23.4280   -15.6260     2.2590 
  103.3750    62.9320    11.0100     9.7210     7.1730    23.4730   -15.5560     2.2720 
  103.5000    64.3200    11.2650     9.8870     7.1990    23.5490   -15.4810     2.2750 
  103.6250    66.9400    11.4150     9.9820     7.2510    23.6060   -15.3960     2.2740 
  103.7500    66.9570    11.3710     9.9210     7.2890    23.6160   -15.3020     2.2720 
  103.8750    64.7970    11.0900     9.6450     7.3710    23.6200   -15.1850     2.2710 
  104.0000    63.3070    10.6320     9.1800     7.4110    23.6320   -15.0320     2.2660 
  104.1250    64.4980    10.2140     8.6740     7.2580    23.6990   -14.8320     2.2500 
  104.2500    67.4500    10.1130     8.3550     6.9420    23.7480   -14.5840     2.2210 
  104.3750    68.5200    10.5470     8.4000     6.6500    23.7480   -14.3130     2.1790 
  104.5000    66.3200    11.6300     8.9310     6.7170    23.6950   -14.0390     2.1280 
  104.6250    60.6420    13.4500    10.0860     7.6290    23.6860   -13.7970     2.0790 
  104.7500    53.1450    15.8140    11.7570     9.3540    23.6830   -13.6100     2.0440 
  104.8750    48.1280    18.7430    13.9330    11.5520    23.6830   -13.4970     2.0370 
  105.0000    47.0920    23.8010    16.7060    13.2040    23.6830   -13.4680     2.0750 
  105.1250    48.4740    29.1520    20.5120    14.2190    23.6900   -13.5330     2.1730 
  105.2500    49.1120    35.6310    25.3750    16.3890    23.7420   -13.6980     2.3130 
  105.3750    49.1990    41.9170    30.6760    22.8420    23.9550   -13.9230     2.4660 
  105.5000    48.8530    45.1120    34.4720    40.3930    24.1910   -14.1730     2.5940 
  105.6250    48.0450    41.0550    33.1820    55.1720    24.2290   -14.4220     2.6500 
  105.7500    49.1940    32.0890    27.5300    42.1680    24.2180   -14.6560     2.6370 
  105.8750    54.5930    22.5960    20.5140    21.7790    24.1270   -14.8670     2.5710 
  106.0000    60.0770    15.5860    14.7220    11.5180    24.0820   -15.0240     2.4780 
  106.1250    62.0350    11.8880    11.2230     9.0260    24.0640   -15.1140     2.3810 
