~V
VERS. 2.00: Ver 2.00
~W
STRT.M 50.0000:
STOP.M 265.0000:
STEP.M 0.1250:
NULL. -999.2500:
UWI. F10671:
~C
DEPT.M :
GR.API :
RML.OHMM :
RI. :
RXO.OHMM :
CALI.CM :
DEN.GM/CC :
SP.MV :
~A
# ...
   95.0000    85.2490     5.4910     4.8160     5.2510    24.2500     2.2630    -5.9510 
   95.1250    91.7820     5.2950     4.6620     5.0760    24.2290     2.2820    -5.8530 
   95.2500   101.3600     5.0980     4.4910     4.8770    24.2010     2.3050    -5.8370 
   95.3750   109.9340     4.9840     4.3640     4.6590    24.1800     2.3190    -5.8720 
   95.5000   111.6860     5.0130     4.3330     4.5740    24.1730     2.3180    -5.9920 
   95.6250   103.6680     5.2040     4.4260     4.7370    24.1550     2.3000    -6.1610 
   95.7500    93.1670     5.4590     4.5880     5.0620    24.1060     2.2790    -6.4130 
   95.8750    85.9850     5.6870     4.7590     5.3940    24.0350     2.2650    -6.7140 
   96.0000    82.0520     5.8230     4.8890     5.5760    23.9800     2.2630    -7.0160 
   96.1250    82.3580     5.8490     4.9460     5.5340    23.9540     2.2690    -7.4060 
   96.2500    85.9180     5.8510     4.9710     5.4070    23.9120     2.2720    -7.8210 
   96.3750    89.0590     5.9000     5.0100     5.3430    23.8460     2.2650    -8.2400 
   96.5000    88.1990     6.0350     5.1000     5.4080    23.7620     2.2470    -8.5950 
   96.6250    82.2100     6.2440     5.2530     5.7060    23.7300     2.2210    -8.8610 
   96.7500    77.0080     6.4560     5.4320     5.9910    23.7870     2.1990    -9.0490 
   96.8750    75.9940     6.6240     5.6020     6.1490    23.8880     2.1880    -9.0740 
   97.0000    77.2830     6.7160     5.7330     6.1870    23.9310     2.1950    -8.9910 
   97.1250    75.9620     6.7020     5.7840     6.1390    23.8350     2.2290    -8.7580 
   97.2500    76.5820     6.5910     5.7470     6.0290    23.6560     2.2780    -8.3640 
   97.3750    82.2000     6.3860     5.6190     5.8470    23.4950     2.3260    -7.8970 
   97.5000    89.0090     6.1060     5.4120     5.5660    23.4610     2.3570    -7.4270 
   97.6250    90.4710     5.7960     5.1570     5.2270    23.6490     2.3590    -6.9900 
   97.7500    89.8800     5.5250     4.9100     4.9510    23.8270     2.3440    -6.6300 
   97.8750    89.5300     5.3380     4.7140     4.8440    23.9050     2.3230    -6.3880 
   98.0000    87.5960     5.2520     4.5930     4.8680    23.9070     2.3050    -6.2600 
   98.1250    85.6960     5.2760     4.5710     4.9360    23.8830     2.2940    -6.1950 
   98.2500    88.4010     5.3800     4.6290     4.9680    23.8720     2.2900    -6.1950 
   98.3750    92.5080     5.5410     4.7510     5.0150    23.8600     2.2960    -6.2680 
   98.5000    92.7990     5.7300     4.9100     5.1520    23.8320     2.3140    -6.3250 
   98.6250    89.9880     5.8950     5.0630     5.4380    23.7590     2.3410    -6.3950 
   98.7500    90.0150     5.9900     5.1680     5.7570    23.6110     2.3650    -6.4770 
   98.8750    93.2520     5.9930     5.2010     5.9680    23.3790     2.3760    -6.5870 
   99.0000    95.2980     5.9130     5.1600     6.0280    23.1520     2.3710    -6.7510 
   99.1250    93.3460     5.7740     5.0630     5.5920    23.0450     2.3530    -6.9580 
   99.2500    89.4100     5.6160     4.9530     5.4610    22.9790     2.3320    -7.2320 
   99.3750    85.5260     5.4850     4.8660     5.6130    22.9010     2.3130    -7.5250 
   99.5000    82.7830     5.4350     4.8490     5.7910    22.7940     2.3020    -7.8300 
   99.6250    82.0760     5.6570     4.9980     5.8500    22.7000     2.3070    -8.1510 
   99.7500    85.4910     6.1820     5.3510     6.0460    22.6550     2.3280    -8.4640 
   99.8750    88.7880     7.0160     5.9010     7.0610    22.6700     2.3560    -8.7990 
  100.0000    84.7630     8.0080     6.5560     9.1060    22.7950     2.3770    -9.1770 
  100.1250    73.7710     8.6350     7.0850    11.5590    23.0930     2.3690    -9.5030 
  100.2500    66.8860     8.7960     7.2680    13.3410    23.5030     2.3360    -9.6830 
  100.3750    66.9100     8.3820     6.9930    12.6170    23.8920     2.2960    -9.6800 
  100.5000    70.8130     7.5010     6.3170     9.1800    24.1290     2.2690    -9.5420 
  100.6250    77.2960     6.4230     5.4400     6.9110    24.2140     2.2640    -9.3420 
  100.7500    84.1750     5.4790     4.6330     5.6810    24.2490     2.2720    -9.1380 
  100.8750    89.4930     4.8770     4.0560     5.0760    24.2700     2.2860    -8.9810 
  101.0000    94.4970     4.8240     3.8510     4.9730    24.2770     2.3060    -8.8200 
  101.1250    98.7490     5.7450     4.3230     5.7310    24.2760     2.3470    -8.8340 
  101.2500    98.5180     7.6910     5.5720     8.2750    24.2730     2.4140    -9.1400 
  101.3750    91.9180    10.5240     7.6020    13.2890    24.2640     2.4980    -9.7580 
  101.5000    80.8960    13.6740    10.1110    20.0800    24.2430     2.5730   -10.7110 
  101.6250    68.6650    15.9260    12.2950    26.6650    24.2000     2.5930   -11.9710 
  101.7500    60.4990    16.3680    13.2980    28.7220    24.1480     2.5470   -13.3740 
  101.8750    58.9690    14.8360    12.7460    23.9840    24.1140     2.4540   -14.8330 
  102.0000    62.4360    12.1920    11.0470    16.0590    24.1210     2.3490   -16.2330 
  102.1250    66.5340     9.8630     9.1800    10.8890    24.2660     2.2660   -17.5050 
  102.2500    66.4130     8.4470     7.8110     8.9840    24.4960     2.2130   -18.5700 
  102.3750    61.8410     7.8510     7.0200     8.6190    24.7240     2.1890   -19.4190 
  102.5000    57.8080     7.7880     6.6930     8.6360    24.9190     2.1820   -20.0650 
  102.6250    59.1430     7.9920     6.6940     8.5630    25.0970     2.1800   -20.4410 
  102.7500    61.9140     8.2170     6.8190     8.4500    25.1600     2.1740   -20.6350 
  102.8750    62.0540     8.3840     6.9780     8.3440    25.0580     2.1630   -20.5900 
  103.0000    60.6020     8.4940     7.1320     8.2830    24.9600     2.1490   -20.4540 
  103.1250    62.1230     8.5950     7.2830     8.2500    24.9150     2.1370   -20.1950 
  103.2500    64.7130     8.7230     7.4440     8.2540    24.7760     2.1290   -19.8120 
  103.3750    65.3090     8.8750     7.6100     8.2500    24.5380     2.1270   -19.3190 
  103.5000    62.9270     9.0130     7.7570     8.2330    24.2910     2.1270   -18.6270 
  103.6250    59.0420     9.0540     7.8210     8.3010    24.1050     2.1310   -17.6500 
  103.7500    58.2410     8.9440     7.7620     8.3170    24.0280     2.1420   -16.4870 
  103.8750    61.8400     8.6590     7.5560     8.2000    24.0140     2.1640   -15.2010 
  104.0000    67.8300     8.2340     7.2210     7.8560    24.0310     2.1950   -13.8470 
  104.1250    70.1240     7.7600     6.8190     7.2140    24.0790     2.2320   -12.5480 
  104.2500    70.6450     7.3700     6.4560     6.5200    24.1600     2.2630   -11.3650 
  104.3750    73.2410     7.1450     6.2030     6.0210    24.2230     2.2790   -10.3510 
  104.5000    75.8930     7.1100     6.0940     5.7990    24.2640     2.2790    -9.5360 
  104.6250    75.5240     7.2310     6.1270     5.8650    24.2740     2.2660    -8.9910 
  104.7500    73.7590     7.3680     6.2110     6.1250    24.2400     2.2510    -8.6630 
  104.8750    72.3480     7.4220     6.2690     6.3690    24.1350     2.2430    -8.4810 
  105.0000    71.7460     7.3350     6.2460     6.3980    23.9520     2.2450    -8.3320 
  105.1250    74.5230     7.1080     6.1170     6.1830    23.7210     2.2600    -8.1840 
  105.2500    79.7150     6.8410     5.9350     5.8740    23.6140     2.2820    -8.0570 
  105.3750    82.0850     6.6080     5.7490     5.6620    23.7410     2.3030    -7.8890 
  105.5000    79.8470     6.4520     5.5990     5.7120    23.9930     2.3190    -7.7450 
  105.6250    77.4890     6.3960     5.5160     6.0170    24.2310     2.3260    -7.7260 
  105.7500    77.6540     6.4340     5.5140     6.2860    24.4030     2.3220    -7.7590 
  105.8750    77.5770     6.6090     5.6300     6.4150    24.5250     2.3030    -7.9350 
  106.0000    75.0350     6.9960     5.9240     6.5090    24.5720     2.2650    -8.3230 
  106.1250    71.6640     7.7110     6.4980     6.8500    24.5590     2.2140    -8.7690 
