~V
VERS. 2.00: Ver 2.00
~W
STRT.M 61.0000:
STOP.M 247.0000:
STEP.M 0.1250:
NULL. -999.2500:
UWI. F10600:
~C
DEPT.M :
GR.API :
RML.OHMM :
RI. :
RXO.OHMM :
CALI.CM :
DEN.GM/CC :
SP.MV :
~A
# ...
  184.7500    68.6310    25.1320    24.4990    27.5570    25.5290     2.2940   -21.1540 
  184.8750    71.7680    25.4690    24.9410    26.3870    25.5240     2.2880   -21.1750 
  185.0000    74.1510    25.7690    25.3220    25.1030    25.5220     2.2790   -21.2410 
  185.1250    71.8810    26.1040    25.7540    26.0720    25.5230     2.2670   -21.2570 
  185.2500    69.4260    26.5630    26.2500    26.7340    25.5230     2.2550   -21.2760 
  185.3750    69.5940    27.2350    26.7700    27.5880    25.5050     2.2430   -21.3320 
  185.5000    69.7910    28.1580    27.2610    28.6790    25.4830     2.2360   -21.3600 
  185.6250    68.9710    29.2470    27.6930    29.8550    25.4600     2.2360   -21.3820 
  185.7500    67.3390    30.2500    28.0950    29.1660    25.4160     2.2410   -21.3990 
  185.8750    64.7520    30.9640    28.4910    29.2390    25.3520     2.2450   -21.3990 
  186.0000    63.2190    31.2870    28.8800    30.5730    25.2690     2.2480   -21.4230 
  186.1250    65.5680    31.2090    29.2250    31.8620    25.1580     2.2500   -21.4550 
  186.2500    68.2490    30.9340    29.5060    32.0190    25.1120     2.2510   -21.4470 
  186.3750    68.1560    30.6410    29.7490    30.9610    25.1330     2.2500   -21.4330 
  186.5000    66.4870    30.5590    30.0360    30.3360    25.1680     2.2430   -21.3990 
  186.6250    66.7920    31.0570    30.5640    30.4640    25.2280     2.2220   -21.3680 
  186.7500    66.5650    32.2580    31.4930    31.1340    25.3240     2.1920   -21.3720 
  186.8750    64.0550    34.1390    32.9410    32.6120    25.4020     2.1690   -21.3460 
  187.0000    61.6210    36.4240    34.8980    35.3830    25.4270     2.1780   -21.2490 
  187.1250    61.1290    38.5650    37.1660    38.0890    25.3750     2.2390   -21.1610 
  187.2500    60.9390    40.0550    39.2340    40.2650    25.2840     2.3240   -21.1260 
  187.3750    60.5060    40.5870    40.6180    42.6750    25.2620     2.3940   -21.0660 
  187.5000    60.5060    40.0510    40.9450    44.3380    25.3750     2.4160   -21.0110 
  187.6250    60.4950    38.4560    39.9480    43.2900    25.5690     2.3770   -21.0170 
  187.7500    60.8430    36.3370    38.1050    41.9480    25.6620     2.3140   -20.9910 
  187.8750    62.2480    34.1050    35.8390    39.3080    25.6920     2.2600   -20.9650 
  188.0000    63.9970    32.0860    33.5310    35.2200    25.6940     2.2320   -21.0110 
  188.1250    65.0040    30.4080    31.4370    31.5420    25.7250     2.2310   -21.0580 
  188.2500    65.5530    28.8370    29.5370    30.8160    25.7470     2.2430   -21.0380 
  188.3750    65.6530    27.1860    27.7530    30.2500    25.7010     2.2570   -21.0190 
  188.5000    66.0510    25.4660    26.0710    28.3890    25.5840     2.2700   -21.0580 
  188.6250    68.4070    24.0170    24.6730    26.7830    25.5230     2.2790   -21.0600 
  188.7500    71.8390    23.2080    23.7860    24.2450    25.5080     2.2870   -21.0380 
  188.8750    73.2300    23.2980    23.6900    21.7620    25.5080     2.2930   -21.0460 
  189.0000    71.8420    24.3970    24.6320    20.9940    25.5110     2.2930   -21.0420 
  189.1250    69.4660    26.6320    26.9590    25.7830    25.5100     2.2820   -21.0250 
  189.2500    67.2760    29.8860    30.3830    31.4970    25.4490     2.2660   -21.0860 
  189.3750    64.8090    34.2090    34.5590    37.7010    25.2940     2.2580   -21.1770 
  189.5000    62.5000    39.6440    38.9420    42.1450    25.1490     2.2730   -21.1930 
  189.6250    60.4080    43.4760    42.7560    43.2500    25.1500     2.3260   -21.2150 
  189.7500    56.4730    46.1770    45.4480    44.2360    25.2580     2.4060   -21.2960 
  189.8750    51.7030    47.3820    46.4980    46.7390    25.3750     2.4910   -21.3600 
  190.0000    50.8290    46.3100    45.4780    49.5770    25.4370     2.5550   -21.3680 
  190.1250    57.4490    41.4400    42.0120    49.6980    25.4460     2.5670   -21.4090 
  190.2500    65.4420    33.9230    37.1550    45.6420    25.4440     2.5310   -21.4470 
  190.3750    69.7910    28.1930    31.9840    35.9590    25.4400     2.4620   -21.4610 
  190.5000    70.5570    25.0850    27.5410    26.0660    25.4440     2.3830   -21.4710 
  190.6250    70.9770    24.5900    24.7840    21.2120    25.4270     2.3190   -21.4790 
  190.7500    70.3260    24.7510    23.6790    22.1060    25.3830     2.2850   -21.4590 
  190.8750    67.4200    25.5560    24.0960    23.7890    25.3450     2.2890   -21.4210 
  191.0000    63.7730    26.7950    25.6810    26.8250    25.3310     2.3340   -21.4550 
  191.1250    61.6100    28.2250    27.8090    33.1080    25.3310     2.4030   -21.5050 
  191.2500    61.2210    29.4470    29.5290    40.3390    25.3310     2.4630   -21.5030 
  191.3750    63.6440    29.7650    30.2670    40.5360    25.3310     2.4850   -21.5070 
  191.5000    68.8140    29.0230    29.8880    34.5180    25.3310     2.4640   -21.5980 
  191.6250    72.6700    27.6260    28.6510    28.7780    25.3310     2.4070   -21.7470 
  191.7500    72.7900    26.3310    27.2900    26.3850    25.3310     2.3450   -21.9110 
  191.8750    71.9550    25.5290    26.2600    26.6680    25.3290     2.2950   -22.0940 
  192.0000    70.9940    25.3800    25.8300    27.3850    25.3080     2.2680   -22.2170 
  192.1250    67.6830    25.9570    26.1800    27.9440    25.1990     2.2720   -22.3500 
  192.2500    65.0210    26.9950    27.0970    28.9010    24.9950     2.3000   -22.5420 
  192.3750    65.9110    28.2790    28.3860    31.0060    24.8160     2.3390   -22.7110 
  192.5000    68.9790    29.5670    29.8050    33.4150    24.7410     2.3690   -22.8280 
  192.6250    69.2200    30.5950    31.0810    34.6950    24.7360     2.3720   -22.9110 
  192.7500    67.1350    31.2900    32.0600    34.1510    24.7360     2.3500   -22.9510 
  192.8750    65.6130    31.6430    32.6640    33.2180    24.7360     2.3170   -22.9730 
  193.0000    64.8420    31.6570    32.8540    32.7010    24.7360     2.2890   -23.0500 
  193.1250    63.5940    31.2240    32.5360    34.0740    24.7360     2.2750   -23.0740 
  193.2500    62.4810    30.3300    31.7700    34.2270    24.7450     2.2710   -23.0460 
  193.3750    62.5710    28.9850    30.5970    31.7930    24.7960     2.2690   -23.0660 
  193.5000    64.9120    27.3650    29.1540    27.9630    24.9150     2.2660   -23.0740 
  193.6250    68.0100    25.8710    27.7190    26.1420    25.0460     2.2640   -23.0300 
  193.7500    69.1220    24.9020    26.6320    25.4660    25.0690     2.2650   -23.0380 
  193.8750    67.8670    24.7350    26.1740    24.8140    25.0490     2.2690   -23.0760 
  194.0000    65.6620    25.5160    26.5540    25.0910    25.0370     2.2730   -23.0500 
  194.1250    65.0530    27.3570    27.9850    26.5900    25.0550     2.2700   -23.0440 
  194.2500    65.0430    29.8010    30.1050    30.0710    25.1080     2.2610   -23.0940 
  194.3750    64.5320    32.3290    32.4460    36.3690    25.1890     2.2490   -23.1130 
  194.5000    63.9150    34.2760    34.3500    43.1950    25.2670     2.2400   -23.1130 
  194.6250    64.0270    34.8110    34.9640    43.6810    25.3040     2.2440   -23.1430 
  194.7500    65.0920    33.9780    34.2630    38.5890    25.3160     2.2580   -23.1730 
  194.8750    65.9780    32.1330    32.5570    32.7490    25.3180     2.2770   -23.2090 
  195.0000    65.6810    29.8460    30.3840    29.4360    25.3190     2.2920   -23.2480 
  195.1250    64.4280    27.7020    28.2920    27.8660    25.3210     2.2990   -23.2480 
  195.2500    62.9870    25.9880    26.5380    27.0410    25.3220     2.2950   -23.2090 
  195.3750    61.5160    24.7740    25.1720    26.1550    25.3230     2.2840   -23.1990 
  195.5000    61.6130    24.0270    24.1750    25.2740    25.3240     2.2710   -23.2240 
  195.6250    64.4110    23.7030    23.5740    23.6910    25.3240     2.2650   -23.2200 
  195.7500    67.2900    23.5950    23.2660    22.8140    25.3240     2.2760   -23.2010 
  195.8750    67.5670    23.5470    23.1660    23.3010    25.3240     2.3060   -23.1990 
