~V
VERS. 2.00: Ver 2.00
~W
STRT.M 50.0000:
STOP.M 221.0000:
STEP.M 0.1250:
NULL. -999.2500:
UWI. F10611:
~C
DEPT.M :
SP.MV :
GR.API :
RML.OHMM :
RI. :
RXO.OHMM :
CALI.CM :
DEN.GM/CC :
~A
   50.0000    75.5000  -999.2500  -999.2500  -999.2500  -999.2500  -999.2500  -999.2500 
   50.1250    75.0320  -999.2500  -999.2500  -999.2500  -999.2500  -999.2500  -999.2500 
   50.2500    74.5450  -999.2500  -999.2500  -999.2500  -999.2500  -999.2500  -999.2500 
   50.3750    74.0490  -999.2500  -999.2500  -999.2500  -999.2500  -999.2500  -999.2500 
   50.5000    73.5350  -999.2500  -999.2500  -999.2500  -999.2500  -999.2500  -999.2500 
   50.6250    73.0100  -999.2500  -999.2500  -999.2500  -999.2500  -999.2500  -999.2500 
   50.7500    72.4880  -999.2500  -999.2500  -999.2500  -999.2500  -999.2500  -999.2500 
   50.8750    71.9890  -999.2500  -999.2500  -999.2500  -999.2500  -999.2500  -999.2500 
   51.0000    71.5270  -999.2500  -999.2500  -999.2500  -999.2500  -999.2500  -999.2500 
   51.1250    71.1420  -999.2500  -999.2500  -999.2500  -999.2500  -999.2500  -999.2500 
   51.2500    70.8310  -999.2500  -999.2500  -999.2500  -999.2500  -999.2500  -999.2500 
   51.3750    70.6070  -999.2500  -999.2500  -999.2500  -999.2500  -999.2500  -999.2500 
   51.5000    70.4650  -999.2500  -999.2500  -999.2500  -999.2500  -999.2500  -999.2500 
   51.6250    70.4530  -999.2500  -999.2500  -999.2500  -999.2500  -999.2500  -999.2500 
   51.7500    70.5110  -999.2500  -999.2500  -999.2500  -999.2500  -999.2500  -999.2500 
   51.8750    70.6420  -999.2500  -999.2500  -999.2500  -999.2500  -999.2500  -999.2500 
   52.0000    70.8070  -999.2500  -999.2500  -999.2500  -999.2500  -999.2500  -999.2500 
   52.1250    71.0340  -999.2500  -999.2500  -999.2500  -999.2500  -999.2500  -999.2500 
   52.2500    71.2920  -999.2500  -999.2500  -999.2500  -999.2500  -999.2500  -999.2500 
   52.3750    71.5770  -999.2500  -999.2500  -999.2500  -999.2500  -999.2500  -999.2500 
   52.5000    71.8810  -999.2500  -999.2500  -999.2500  -999.2500  -999.2500     1.9540 
   52.6250    72.1920    35.2890     0.7890     0.1750     0.2400    25.2380     1.9540 
   52.7500    72.5370    35.2890     0.7890     0.1750     0.2400    25.2380     1.9480 
   52.8750    72.9320    34.4380     0.8000     0.1960     0.2590    25.2390     1.9310 
   53.0000    73.4010    33.3070     0.7980     0.2220     0.2660    25.2350     1.9080 
   53.1250    73.9180    32.5940     0.7470     0.2340     0.2670    25.2340     1.8850 
   53.2500    74.5180    31.6290     0.6770     0.2400     0.2630    25.2400     1.8660 
   53.3750    75.2040    30.7540     0.6290     0.2440     0.2630    25.2570     1.8540 
   53.5000    76.0070    30.7250     0.6320     0.2390     0.2630    25.2830     1.8450 
   53.6250    76.9730    30.9050     0.6760     0.2190     0.2630    25.3030     1.8380 
   53.7500    78.1060    31.1850     0.7140     0.1890     0.2650    25.3160     1.8310 
   53.8750    79.4050    32.2520     0.7170     0.1650     0.2690    25.3320     1.8260 
   54.0000    80.8900    34.9280     0.6830     0.1590     0.2730    25.3620     1.8250 
   54.1250    82.6340    37.3600     0.6390     0.1740     0.2680    25.3890     1.8390 
   54.2500    84.5490    37.9370     0.6100     0.1970     0.2620    25.4120     1.8840 
   54.3750    86.6290    37.1030     0.6040     0.2190     0.2580    25.4350     1.9660 
   54.5000    88.8120    36.1050     0.6080     0.2320     0.2560    25.4250     2.0720 
   54.6250    91.0260    36.0050     0.6030     0.2310     0.2460    25.2960     2.1690 
   54.7500    93.1330    36.0950     0.5810     0.2190     0.2360    25.1430     2.2400 
   54.8750    95.0760    34.8070     0.5410     0.1980     0.2410    25.1720     2.2880 
   55.0000    96.7830    32.2690     0.4920     0.1780     0.2510    25.2190     2.3220 
   55.1250    98.0590    32.2500     0.4450     0.1690     0.2430    24.9440     2.3550 
   55.2500    98.8920    36.0450     0.4140     0.1760     0.2070    24.5300     2.3930 
   55.3750    99.1710    40.6970     0.3980     0.1930     0.1980    24.2350     2.4310 
   55.5000    98.8770    42.8060     0.3880     0.2140     0.2030    24.1000     2.4630 
   55.6250    97.8530    42.4140     0.3660     0.2320     0.1980    24.0720     2.4840 
   55.7500    96.2060    41.7290     0.3240     0.2450     0.1910    24.0720     2.4910 
   55.8750    93.8410    40.2580     0.2800     0.2480     0.1880    24.0900     2.4870 
   56.0000    90.6740    38.3210     0.2500     0.2330     0.1760    24.1300     2.4890 
   56.1250    86.4330    37.4940     0.2330     0.1980     0.1600    24.1650     2.5340 
   56.2500    81.1830    37.7020     0.2080     0.1610     0.1730    24.1980     2.6320 
   56.3750    74.8660    38.4090     0.1670     0.1370     0.2000    24.2190     2.7300 
   56.5000    67.4010    39.3860     0.1190     0.1280     0.2530    24.2540     2.7240 
   56.6250    58.5860    40.8800     0.0870     0.1310     0.4790    24.3940     2.5790 
   56.7500    48.9200    43.6200     0.1070     0.1620     1.1320    24.8560     2.3810 
   56.8750    38.8550    47.6030     0.2450     0.2700     2.2240    26.2290     2.1830 
   57.0000    28.8210    50.9950     0.6110     0.5410     3.3620    29.3610     2.0160 
   57.1250    19.3340    51.0340     1.4540     1.1650     3.6570    33.1930     1.9000 
   57.2500    10.6230    49.0830     2.7690     2.2020     3.3290    34.7940     1.8360 
   57.3750     2.8960    48.9530     4.2090     3.5810     2.8940    33.3820     1.8450 
   57.5000    -3.6800    52.9640     5.2940     5.0620     2.9380    30.4840     1.9430 
   57.6250    -8.7340    60.6930     6.0220     6.4310     4.1220    28.0570     2.1310 
   57.7500   -12.6590    67.5620     6.7320     7.6560     6.9340    26.6700     2.3120 
   57.8750   -15.7360    71.4140     7.3610     8.6160    11.6680    25.9540     2.4040 
   58.0000   -18.2070    72.9040     7.6120     9.0560    12.5540    25.7990     2.3990 
   58.1250   -20.2010    73.9910     7.2740     8.7550     8.4580    26.1710     2.3450 
   58.2500   -21.8630    74.9440     6.6930     8.0750     6.4890    26.5850     2.2900 
   58.3750   -23.2450    74.5520     6.2110     7.3880     6.0960    26.7950     2.2420 
   58.5000   -24.3350    73.2860     6.0630     6.9910     6.0740    26.8780     2.2030 
   58.6250   -25.1480    75.1540     6.4160     7.1180     6.2510    26.8580     2.1800 
   58.7500   -25.7510    79.5020     7.1710     7.6940     6.4120    26.5470     2.1690 
   58.8750   -26.1840    80.4260     8.2360     8.6300     7.2320    25.7310     2.1630 
   59.0000   -26.5010    74.4630     9.4690     9.7900     9.0780    24.9010     2.1560 
   59.1250   -26.7410    65.8170    10.6440    10.9720     9.5120    24.7660     2.1510 
   59.2500   -26.9770    62.0590    11.5750    11.9770     9.6690    24.9680     2.1550 
   59.3750   -27.1910    62.3090    12.2510    12.7330     9.6020    25.2820     2.1630 
   59.5000   -27.4230    62.6660    12.8270    13.3130     9.4120    25.5030     2.1620 
   59.6250   -27.6640    59.9200    13.5470    13.8800    11.3570    25.8080     2.1480 
   59.7500   -27.9360    55.4110    14.4560    14.5210    12.8350    26.1240     2.1370 
   59.8750   -28.2300    50.9840    15.4040    15.1600    13.0390    26.3090     2.1410 
   60.0000   -28.5340    49.4040    16.1120    15.6190    12.4680    26.3550     2.1580 
   60.1250   -28.8220    51.9870    16.2630    15.6800    12.5200    26.3600     2.1740 
   60.2500   -29.0740    54.7470    16.0220    15.4480    12.3890    26.4760     2.1760 
   60.3750   -29.3120    54.8290    15.7290    15.1660    11.8710    26.6990     2.1600 
   60.5000   -29.5040    54.3800    15.7520    15.1230    11.1700    26.7430     2.1410 
   60.6250   -29.6770    54.9820    16.3560    15.5720    10.6940    26.3310     2.1490 
   60.7500   -29.8250    54.5190    17.3510    16.4030    11.4480    25.7300     2.1970 
   60.8750   -29.9500    53.0460    18.4440    17.3830    13.7030    25.1370     2.2710 
   61.0000   -30.0720    53.8100    19.2100    18.1450    18.9390    24.5040     2.3300 
   61.1250   -30.1820    56.8470    19.1530    18.1850    25.0870    23.8550     2.3300 
