~V
VERS. 2.00: Ver 2.00
~W
STRT.M 55.0000:
STOP.M 213.0000:
STEP.M 0.1250:
NULL. -999.2500:
UWI. F10686:
~C
DEPT.M :
SP.MV :
DEN.GM/CC :
GR.API :
RML.OHMM :
RI. :
RXO.OHMM :
CALI.CM :
~A
# ...
   88.7500   -17.2760     2.4080    66.8890     8.1410     6.2880     5.8050    22.9950 
   88.8750   -17.3730     2.4160    65.3260     8.8050     6.8710     6.3660    22.6060 
   89.0000   -17.4060     2.3960    64.4480     8.9520     7.1650     6.4170    22.2310 
   89.1250   -17.4270     2.3520    64.9720     8.4940     7.0040     5.9580    22.3570 
   89.2500   -17.4140     2.3080    65.7860     7.8330     6.6070     5.8280    23.0010 
   89.3750   -17.3280     2.2790    65.4870     7.2590     6.1840     5.8900    23.4380 
   89.5000   -17.2270     2.2660    64.9270     6.9340     5.8880     5.7700    23.7890 
   89.6250   -17.1490     2.2620    64.8120     6.9120     5.8050     5.6400    23.9450 
   89.7500   -17.0490     2.2560    64.5110     7.0540     5.8610     5.8460    23.9740 
   89.8750   -16.9170     2.2480    64.8110     7.2810     5.9960     6.1310    23.9780 
   90.0000   -16.7980     2.2460    65.0200     7.5600     6.1800     6.3560    23.9780 
   90.1250   -16.6740     2.2610    64.6210     7.8760     6.4080     6.4810    23.9780 
   90.2500   -16.5130     2.2930    64.3360     8.1850     6.6410     6.4470    23.9780 
   90.3750   -16.3850     2.3370    65.0500     8.4360     6.8330     6.6260    23.9780 
   90.5000   -16.2650     2.3790    65.5830     8.5720     6.9350     7.3490    23.9780 
   90.6250   -16.1000     2.3980    64.3200     8.5090     6.8800     8.0690    23.9780 
   90.7500   -15.9620     2.3880    62.8600     8.2660     6.6810     7.4760    23.9780 
   90.8750   -15.8660     2.3540    63.7040     7.8880     6.3700     6.4710    23.9780 
   91.0000   -15.7810     2.3110    68.0450     7.4590     6.0070     6.1870    23.9780 
   91.1250   -15.7060     2.2770    72.0990     7.1750     5.7240     6.3200    23.9940 
   91.2500   -15.6740     2.2620    72.3240     7.2770     5.6830     6.3870    24.0700 
   91.3750   -15.6500     2.2750    69.9520     8.0490     6.0680     6.5170    24.1390 
   91.5000   -15.6820     2.3180    67.4580     9.7710     7.0820     6.8810    24.1370 
   91.6250   -15.7560     2.3890    64.0540    12.7820     9.0820     9.1140    24.0380 
   91.7500   -15.7880     2.4610    59.8730    16.5590    11.9310    15.2100    23.8250 
   91.8750   -15.8240     2.5020    59.5190    19.9960    15.0370    23.7310    23.6310 
   92.0000   -15.8750     2.4890    62.4610    21.3670    17.0190    26.4650    23.3390 
   92.1250   -15.8870     2.4170    63.8090    19.2620    16.2260    18.5530    22.8590 
   92.2500   -15.8530     2.3290    62.6410    15.6330    13.7890    11.6940    22.7080 
   92.3750   -15.8190     2.2590    61.9840    12.3030    11.1670     8.2570    22.9710 
   92.5000   -15.7580     2.2220    63.3600    10.0780     9.1590     6.6780    23.0960 
   92.6250   -15.6520     2.2220    65.9110     8.9810     7.9710     6.4700    23.1270 
   92.7500   -15.5580     2.2410    68.9450     8.4330     7.2760     6.6080    23.1750 
   92.8750   -15.4600     2.2600    70.7550     8.1960     6.9180     6.6640    23.2270 
   93.0000   -15.3160     2.2680    69.9520     8.2180     6.8310     6.4980    23.3910 
   93.1250   -15.2010     2.2610    66.2400     8.7030     7.1060     6.4450    23.4860 
   93.2500   -15.1510     2.2430    62.4810     9.8070     7.8100     6.6440    23.5000 
   93.3750   -15.0950     2.2210    58.6710    11.6890     9.0760     7.3400    23.4750 
   93.5000   -15.0640     2.2000    54.3460    14.3320    10.9990     8.8950    23.4470 
   93.6250   -15.0960     2.1840    51.0320    17.2990    13.4980    11.0100    23.4420 
   93.7500   -15.1330     2.1720    49.0350    19.5160    15.8000    12.5800    23.4420 
   93.8750   -15.1850     2.1650    48.5470    20.1270    16.5720    13.2710    23.4420 
   94.0000   -15.2640     2.1690    48.1110    20.0030    17.0890    14.3110    23.4460 
   94.1250   -15.3060     2.1860    50.2820    18.1750    16.1310    14.9110    23.4850 
   94.2500   -15.3180     2.2090    55.1580    15.8150    14.3770    13.4310    23.5940 
   94.3750   -15.3710     2.2210    59.3000    14.0200    12.7670    10.3140    23.6220 
   94.5000   -15.4210     2.2090    60.4810    13.3630    11.8640     8.2940    23.4280 
   94.6250   -15.4280     2.1600    60.0130    14.1410    12.0080     8.4260    23.1950 
   94.7500   -15.4380     2.0960    58.5650    15.9730    13.0370     9.5650    23.0430 
   94.8750   -15.4390     2.0370    54.5690    18.5550    14.8320    10.7720    23.0870 
   95.0000   -15.4250     2.0030    49.8670    21.4690    17.1350    12.1190    23.5350 
   95.1250   -15.4670     2.0090    48.9080    24.2490    19.5790    13.2480    23.7660 
   95.2500   -15.5610     2.0380    49.3730    26.7760    21.9020    14.1290    23.7690 
   95.3750   -15.6370     2.0700    48.8030    29.2410    24.1500    14.8830    23.7060 
   95.5000   -15.6610     2.0860    47.3750    31.9100    26.5000    15.7030    23.6880 
   95.6250   -15.6820     2.0810    46.6010    34.9460    29.1280    18.0340    23.7770 
   95.7500   -15.7150     2.0690    44.3310    38.0710    31.9000    23.6150    24.0350 
   95.8750   -15.6930     2.0640    41.8660    40.7940    34.4560    27.9550    24.0690 
   96.0000   -15.6290     2.0700    42.7920    42.5370    36.2960    26.8220    23.8100 
   96.1250   -15.5380     2.0900    45.0060    42.6400    36.7910    26.1580    23.7570 
   96.2500   -15.3750     2.1120    43.8330    41.4370    36.1190    28.6800    23.7270 
   96.3750   -15.1970     2.1260    40.3310    39.4980    34.7090    27.4220    23.6850 
   96.5000   -15.0290     2.1260    39.3610    37.5320    33.1600    21.5070    23.6600 
   96.6250   -14.8240     2.1060    43.8200    36.1970    32.0290    16.6090    23.5950 
   96.7500   -14.6010     2.0790    48.0120    35.5910    31.4510    15.4080    23.5830 
   96.8750   -14.3960     2.0590    48.6180    35.5920    31.3970    15.8630    23.5620 
   97.0000   -14.1850     2.0540    46.8920    35.8580    31.6670    16.6360    23.4530 
   97.1250   -13.9890     2.0700    45.0880    35.8790    31.8810    16.3030    23.2590 
   97.2500   -13.8360     2.0910    45.0270    35.4440    31.7720    15.2890    23.1560 
   97.3750   -13.6560     2.1100    46.4400    34.6620    31.3520    14.8370    23.1210 
   97.5000   -13.4570     2.1210    48.2010    33.8020    30.8110    15.1920    23.1140 
   97.6250   -13.2810     2.1250    48.9480    33.1320    30.3830    15.1160    23.1100 
   97.7500   -13.0870     2.1320    47.4140    32.6790    30.1190    14.8260    23.0830 
   97.8750   -12.8510     2.1470    45.2260    32.3950    29.9770    14.5670    22.9160 
   98.0000   -12.5940     2.1800    44.3880    32.2300    29.9050    14.3110    22.7070 
   98.1250   -12.2600     2.2390    46.6660    32.1300    29.8530    14.0160    22.4990 
   98.2500   -11.8400     2.3060    49.4190    31.9960    29.7510    13.9700    22.4240 
   98.3750   -11.3370     2.3520    49.2010    31.7300    29.5260    13.8110    22.3950 
   98.5000   -10.8160     2.3500    47.2720    31.2520    29.1070    12.9380    22.3190 
   98.6250   -10.2420     2.2890    45.8150    30.5300    28.4410    11.6810    22.2280 
   98.7500    -9.6070     2.2090    44.8800    29.7330    27.6520    10.9660    22.5120 
   98.8750    -9.0220     2.1450    45.6210    29.0470    26.8980    10.6460    22.8190 
   99.0000    -8.4950     2.1110    47.9600    28.6230    26.3200    10.7620    22.9510 
   99.1250    -8.0040     2.1010    49.6850    28.5630    26.0440    10.8860    22.9620 
   99.2500    -7.5970     2.0960    49.0050    28.7460    26.0070    10.8540    22.9660 
   99.3750    -7.2690     2.0870    47.7840    29.0470    26.1190    10.7450    22.9680 
   99.5000    -6.9430     2.0790    47.9850    29.3530    26.2780    10.5890    22.9540 
   99.6250    -6.6650     2.0740    48.2600    29.6230    26.4130    10.3150    22.8460 
   99.7500    -6.4270     2.0700    47.3720    29.9080    26.5380    10.1420    22.5650 
   99.8750    -6.1420     2.0630    46.6340    30.2690    26.6960    10.2970    22.4220 
