~V
VERS. 2.00: Ver 2.00
~W
STRT.M 55.0000:
STOP.M 242.0000:
STEP.M 0.1250:
NULL. -999.2500:
UWI. F10652:
~C
DEPT.M :
SP.MV :
GR.API :
RML.OHMM :
RI. :
RXO.OHMM :
CALI.CM :
DEN.GM/CC :
~A
   55.0000   131.1760    41.8140     0.0980     0.0360     0.4150    23.7450     2.3680 
   55.1250   130.4710    41.6020     0.1310     0.0470     0.4430    23.6580     2.3690 
   55.2500   129.5350    41.4660     0.1680     0.0570     0.4550    23.5380     2.3500 
   55.3750   128.3000    40.2580     0.2120     0.0680     0.4570    23.5130     2.3070 
   55.5000   126.7390    38.2000     0.2500     0.0810     0.4390    23.6810     2.2440 
   55.6250   124.6690    36.8930     0.2510     0.0970     0.4680    23.9150     2.1700 
   55.7500   122.1340    37.7440     0.2120     0.1150     0.5420    24.2280     2.0980 
   55.8750   119.1880    39.5650     0.1540     0.1290     0.5730    24.5990     2.0390 
   56.0000   115.8990    38.9180     0.1090     0.1380     0.6000    24.9930     1.9990 
   56.1250   112.4140    35.3750     0.0980     0.1440     0.6610    25.3120     1.9800 
   56.2500   108.9660    34.2630     0.1100     0.1500     0.8330    25.5960     1.9740 
   56.3750   105.6130    37.2130     0.1380     0.1550     1.0050    25.7210     1.9780 
   56.5000   102.3680    40.8710     0.1850     0.1590     1.2350    25.7480     1.9880 
   56.6250    99.2580    41.2390     0.2480     0.1600     0.7260    25.7510     2.0000 
   56.7500    96.2280    40.0490     0.2920     0.1570     1.0030    25.7520     2.0080 
   56.8750    93.1060    40.4490     0.2850     0.1480     1.9690    25.7450     2.0120 
   57.0000    89.6600    41.7750     0.2170     0.1300     5.4620    25.7340     2.0320 
   57.1250    85.5890    41.0120     0.1230     0.1070     4.8300    25.7120     2.1380 
   57.2500    80.7740    38.9790     0.0550     0.0860     1.9140    25.6700     2.3370 
   57.3750    75.1070    38.8280     0.0260     0.0700     0.7510    25.6010     2.5350 
   57.5000    68.4450    40.2710     0.0310     0.0640     0.5330    25.4940     2.6370 
   57.6250    60.5470    42.2210     0.0690     0.0790     0.6460    25.2640     2.6230 
   57.7500    51.6480    45.7960     0.1460     0.1460     1.2270    24.8200     2.5640 
   57.8750    42.1080    49.5220     0.3030     0.3310     2.9950    24.2030     2.5120 
   58.0000    32.4280    51.5710     0.6360     0.7790     6.1220    23.6540     2.5040 
   58.1250    23.0670    53.6220     1.5360     1.9800    11.8110    23.4770     2.5570 
   58.2500    14.2610    57.5300     3.6410     4.4440    18.1050    23.5420     2.6180 
   58.3750     6.2060    58.7030     7.5740     8.4680    24.9610    23.5950     2.6470 
   58.5000    -0.8910    54.2300    12.2010    13.2410    31.2060    23.5590     2.6460 
   58.6250    -6.6920    49.8430    14.2430    16.3310    36.1870    23.4980     2.6450 
   58.7500   -11.3160    49.8570    13.6190    16.6730    35.7030    23.4740     2.6420 
   58.8750   -14.9920    52.0000    11.5260    14.8220    26.5930    23.5060     2.6130 
   59.0000   -18.0050    52.6110     9.1270    12.0250    14.6410    23.5580     2.5380 
   59.1250   -20.5260    52.5740     7.2900     9.4690     8.2050    23.4540     2.4260 
   59.2500   -22.7080    54.4280     6.1490     7.6230     6.2920    23.3660     2.3140 
   59.3750   -24.6020    55.3710     5.5950     6.5010     6.0460    23.3230     2.2210 
   59.5000   -26.2270    54.0160     5.4310     5.9640     6.2960    23.4540     2.1610 
   59.6250   -27.5790    51.7270     5.5010     5.8810     6.4560    23.9670     2.1400 
   59.7500   -28.7440    51.1660     5.6400     6.0040     6.6340    24.5620     2.1410 
   59.8750   -29.7090    53.1510     5.8030     6.2020     6.8540    24.8960     2.1540 
   60.0000   -30.5050    56.0970     5.9740     6.3820     7.0330    24.9410     2.1650 
   60.1250   -31.1230    58.6870     6.1130     6.4880     7.1530    24.9420     2.1630 
   60.2500   -31.6100    60.2520     6.1930     6.5240     7.1580    25.0140     2.1500 
   60.3750   -31.9590    62.1230     6.2100     6.5080     7.0490    25.1090     2.1340 
   60.5000   -32.1590    65.3470     6.1870     6.4570     6.7720    25.0930     2.1260 
   60.6250   -32.2330    67.7290     6.1540     6.3810     6.3460    24.7050     2.1260 
   60.7500   -32.1870    66.3130     6.1090     6.2930     6.0690    24.0100     2.1270 
   60.8750   -32.0310    62.4360     6.0480     6.2070     5.9990    23.5880     2.1270 
   61.0000   -31.7990    59.6740     5.9840     6.1420     6.0430    23.8420     2.1310 
   61.1250   -31.4620    60.0050     5.9570     6.1330     6.3110    24.3870     2.1440 
   61.2500   -31.0700    60.8900     6.0000     6.1900     6.7240    24.8340     2.1620 
   61.3750   -30.6410    59.8190     6.1250     6.3190     6.8920    25.0250     2.1760 
   61.5000   -30.2250    57.0240     6.3210     6.5110     6.8730    25.1220     2.1750 
   61.6250   -29.7610    55.5990     6.5420     6.7150     6.9380    25.2470     2.1560 
   61.7500   -29.2450    55.4160     6.6910     6.8370     6.9730    25.3080     2.1340 
   61.8750   -28.7020    55.3820     6.6600     6.7890     6.9740    25.2790     2.1230 
   62.0000   -28.0820    54.8590     6.3770     6.5180     6.8260    25.1800     2.1360 
   62.1250   -27.4600    58.5900     5.8590     6.0210     6.4330    24.9100     2.1750 
   62.2500   -26.8160    66.4240     5.2990     5.4440     5.7870    24.5330     2.2230 
   62.3750   -26.1950    74.9130     4.8300     4.9080     5.2410    24.1870     2.2670 
   62.5000   -25.6040    80.5030     4.5270     4.5060     4.8310    23.9660     2.2960 
   62.6250   -25.1200    82.3590     4.4440     4.3200     4.6780    23.9030     2.3070 
   62.7500   -24.7740    81.6490     4.5360     4.3200     4.6670    23.8960     2.3090 
   62.8750   -24.5470    78.8560     4.7880     4.4790     4.8580    23.9040     2.3010 
   63.0000   -24.4810    75.7850     5.1820     4.7700     5.2360    23.9090     2.2820 
   63.1250   -24.5480    73.9640     5.7410     5.2140     5.6520    23.8970     2.2570 
   63.2500   -24.7220    72.7260     6.4490     5.8110     5.9920    23.8930     2.2430 
   63.3750   -24.9420    71.8800     7.2810     6.5620     6.2780    23.8900     2.2570 
   63.5000   -25.1950    70.3900     8.1390     7.3970     7.0720    23.8890     2.3050 
   63.6250   -25.4360    68.1560     8.7550     8.1100     9.3720    23.8990     2.3670 
   63.7500   -25.6320    65.1190     8.9530     8.4960    12.1490    23.9650     2.4010 
   63.8750   -25.7900    63.2500     8.7260     8.4620    12.1110    24.1110     2.3910 
   64.0000   -25.8730    64.7570     8.2550     8.0830     8.8340    24.2200     2.3510 
   64.1250   -25.9050    68.3550     7.7780     7.5440     7.0760    24.2330     2.3040 
   64.2500   -25.8670    70.1720     7.4080     7.0360     6.7020    24.2150     2.2620 
   64.3750   -25.7870    69.1670     7.1230     6.6120     6.6540    24.2550     2.2220 
   64.5000   -25.6470    67.8080     6.8450     6.2490     6.3580    24.3570     2.1840 
   64.6250   -25.4640    66.9570     6.5010     5.8900     5.8410    24.3470     2.1570 
   64.7500   -25.2680    66.8960     6.1350     5.5170     5.4360    24.1680     2.1500 
   64.8750   -25.0640    69.1320     5.8750     5.1970     5.3890    23.9730     2.1670 
   65.0000   -24.8840    73.2790     5.8750     5.0390     5.3650    23.8800     2.2020 
   65.1250   -24.7160    76.6150     6.2980     5.1960     5.1980    23.8360     2.2580 
   65.2500   -24.6250    76.6270     7.0990     5.6710     5.5650    23.7190     2.3240 
   65.3750   -24.5740    72.6910     8.2120     6.4340     6.6810    23.4900     2.3810 
   65.5000   -24.5970    66.2510     9.4780     7.3800     9.1530    23.2180     2.4010 
   65.6250   -24.6690    60.8400    10.5770     8.2790    11.5400    23.0540     2.3650 
   65.7500   -24.7950    57.5190    11.2550     8.9020    10.6240    23.2810     2.3020 
   65.8750   -24.9360    55.9680    11.4790     9.1710     8.7530    23.8800     2.2370 
   66.0000   -25.1040    56.8850    11.4030     9.1650     8.3210    24.6260     2.1860 
   66.1250   -25.2670    58.1170    11.2530     9.0470     8.7900    25.0820     2.1530 
