~V
VERS. 2.00: Ver 2.00
~W
STRT.M 58.0000:
STOP.M 240.0000:
STEP.M 0.1250:
NULL. -999.2500:
UWI. F10642:
~C
DEPT.M :
SP.MV :
GR.API :
RML.OHMM :
RI. :
RXO.OHMM :
CALI.CM :
DEN.GM/CC :
~A
# ...
  170.5000   -28.2160    54.6130    26.2680    23.0690    28.6660    23.8980     2.2810 
  170.6250   -28.2420    53.8920    31.4400    27.6460    37.1430    23.3710     2.4050 
  170.7500   -28.2410    53.5060    35.8820    31.5770    47.2140    22.7780     2.5530 
  170.8750   -28.1890    51.4880    38.7230    34.0910    51.5920    22.4180     2.6180 
  171.0000   -28.1070    47.9170    39.5900    34.8580    46.2970    22.2550     2.5650 
  171.1250   -27.9570    46.1060    38.8140    34.1720    37.0280    22.1410     2.4430 
  171.2500   -27.7560    47.7500    37.7430    33.2240    30.2140    22.0600     2.3190 
  171.3750   -27.5450    50.6750    37.1110    32.6650    25.6780    22.0150     2.2200 
  171.5000   -27.3310    53.3580    37.1090    32.6630    24.7430    22.3260     2.1580 
  171.6250   -27.1250    55.9470    37.4930    33.0030    26.3150    23.1050     2.1380 
  171.7500   -26.9260    58.0890    37.7180    33.2010    27.8080    23.7540     2.1400 
  171.8750   -26.7490    59.0310    37.4360    32.9520    28.9350    24.1390     2.1540 
  172.0000   -26.5930    58.1580    36.5130    32.1360    29.0380    24.2870     2.1720 
  172.1250   -26.4820    55.8420    34.9590    30.7600    28.9300    24.3100     2.1910 
  172.2500   -26.4280    53.9110    33.1130    29.1260    28.7340    24.2860     2.2020 
  172.3750   -26.4020    54.8530    31.2470    27.4750    27.7550    24.2510     2.2020 
  172.5000   -26.3850    58.6730    29.6420    26.0550    25.8850    24.2880     2.1900 
  172.6250   -26.3950    62.1430    28.6700    25.1950    23.5250    24.3840     2.1750 
  172.7500   -26.4130    63.2680    28.4260    24.9780    21.3180    24.3210     2.1680 
  172.8750   -26.4450    61.9410    28.8850    25.3850    19.5240    23.7640     2.1700 
  173.0000   -26.4830    60.3190    29.6930    26.1000    18.8420    22.7890     2.1780 
  173.1250   -26.5430    60.3290    29.7980    26.1930    16.9200    21.8580     2.1830 
  173.2500   -26.5900    60.0830    28.2320    24.8070    15.7790    21.3060     2.1880 
  173.3750   -26.6330    58.8890    24.8170    21.7850    14.9490    21.1480     2.2020 
  173.5000   -26.6910    58.5870    20.3720    17.8510    13.3650    21.2620     2.2320 
  173.6250   -26.7200    61.8320    16.2390    14.1940     9.8930    21.4540     2.2740 
  173.7500   -26.7300    65.8730    13.1000    11.4160     7.1510    21.6480     2.3140 
  173.8750   -26.7040    68.7750    11.0040     9.5610     6.2690    21.9280     2.3440 
  174.0000   -26.6660    70.1030     9.7530     8.4540     6.2660    22.3030     2.3650 
  174.1250   -26.5940    70.5440     9.1520     7.9220     6.3550    22.4960     2.3850 
  174.2500   -26.5260    70.0710     8.8330     7.6400     6.3780    22.5340     2.4060 
  174.3750   -26.4160    68.6580     8.6180     7.4490     6.3770    22.6390     2.4240 
  174.5000   -26.3060    67.4940     8.4330     7.2860     6.2420    22.8150     2.4380 
  174.6250   -26.1950    68.8450     8.3590     7.2200     5.9250    22.9620     2.4590 
  174.7500   -26.1080    69.4510     8.5010     7.3460     5.8330    23.0670     2.4890 
  174.8750   -26.0480    65.9920     8.9530     7.7460     6.3670    23.1750     2.5180 
  175.0000   -26.0190    61.2860     9.7670     8.4660     7.9150    23.2040     2.5290 
  175.1250   -26.0270    60.3020    11.0200     9.5750     9.6210    23.0310     2.5090 
  175.2500   -26.0620    60.7730    12.6810    11.0450    10.9330    22.8480     2.4660 
  175.3750   -26.1660    59.5620    14.8660    12.9790    12.3630    22.7050     2.4050 
  175.5000   -26.2880    57.7360    17.8320    15.6040    14.9370    22.6410     2.3340 
  175.6250   -26.4570    56.4670    22.2610    19.5230    18.9830    22.6550     2.2690 
  175.7500   -26.6390    54.5560    28.4320    24.9840    25.5890    22.7950     2.2270 
  175.8750   -26.8390    53.0660    36.4300    32.0620    34.5640    23.1280     2.2190 
  176.0000   -27.0320    53.1360    45.6190    40.1940    41.4210    23.4990     2.2500 
  176.1250   -27.2110    52.9900    53.8620    47.4880    46.0850    23.7520     2.3160 
  176.2500   -27.3470    50.8180    58.2340    51.3580    50.7370    23.7170     2.3870 
  176.3750   -27.4230    47.7250    56.3410    49.6820    50.6830    23.5710     2.4410 
  176.5000   -27.4600    45.3750    48.0450    42.3410    52.4990    23.3920     2.4610 
  176.6250   -27.4250    46.6750    36.3470    31.9890    45.1210    23.1070     2.4410 
  176.7500   -27.3440    51.4930    25.8240    22.6760    27.8010    22.9810     2.4050 
  176.8750   -27.2030    58.0000    18.0880    15.8300    14.6210    23.2150     2.3720 
  177.0000   -27.0260    63.5860    13.1050    11.4200     8.5480    23.4790     2.3580 
  177.1250   -26.8070    67.5150    10.3870     9.0150     7.1000    23.5500     2.3630 
  177.2500   -26.5870    71.4370     8.8590     7.6630     6.6780    23.5130     2.3720 
  177.3750   -26.3630    74.9940     8.1000     6.9910     6.5380    23.4390     2.3830 
  177.5000   -26.1470    77.3190     7.8250     6.7480     6.3630    23.3080     2.3990 
  177.6250   -25.9400    76.8430     7.8320     6.7540     6.2750    23.2340     2.4200 
  177.7500   -25.7780    73.8640     7.9040     6.8180     6.3560    23.1780     2.4410 
  177.8750   -25.6760    72.0090     7.9540     6.8620     6.4600    23.1260     2.4510 
  178.0000   -25.6220    72.7530     7.9500     6.8590     6.4240    23.0690     2.4450 
  178.1250   -25.6390    75.0960     7.8960     6.8100     6.2470    22.9560     2.4250 
  178.2500   -25.7050    77.7450     7.8290     6.7520     6.0090    22.6670     2.4050 
  178.3750   -25.8160    79.0960     7.7750     6.7040     5.8230    22.1880     2.3950 
  178.5000   -25.9700    78.6910     7.7400     6.6720     5.7020    21.7200     2.3970 
  178.6250   -26.1530    77.1550     7.7180     6.6530     5.6830    21.4770     2.4100 
  178.7500   -26.3270    75.5950     7.6980     6.6360     5.8360    21.2090     2.4230 
  178.8750   -26.4790    72.2450     7.6860     6.6250     6.0590    20.8270     2.4310 
  179.0000   -26.6170    67.0330     7.6930     6.6310     6.3550    20.4810     2.4320 
  179.1250   -26.7130    65.3370     7.7350     6.6690     6.6050    20.2750     2.4260 
  179.2500   -26.7610    67.1490     7.8040     6.7290     6.7850    20.1210     2.4150 
  179.3750   -26.7810    68.7500     7.8740     6.7910     6.9170    20.0510     2.4030 
  179.5000   -26.7460    66.3950     7.9180     6.8300     6.8100    20.2080     2.3910 
  179.6250   -26.6850    63.0760     7.9010     6.8150     6.4990    20.6340     2.3800 
  179.7500   -26.5900    65.9280     7.8270     6.7500     6.2180    20.9860     2.3680 
  179.8750   -26.4820    73.0570     7.7160     6.6510     6.1100    21.1530     2.3550 
  180.0000   -26.3490    77.8900     7.6060     6.5540     6.2270    21.1900     2.3470 
  180.1250   -26.2150    78.1020     7.5630     6.5160     6.6500    21.1380     2.3520 
  180.2500   -26.0680    78.4160     7.6100     6.5580     7.1100    21.0580     2.3700 
  180.3750   -25.9260    78.1790     7.7380     6.6710     7.3640    21.0310     2.3920 
  180.5000   -25.7930    74.3170     7.8930     6.8080     7.3820    21.0580     2.4090 
  180.6250   -25.7140    68.9530     7.9790     6.8840     7.7740    21.1530     2.4150 
  180.7500   -25.6710    65.1790     7.9580     6.8650     7.7900    21.3040     2.4150 
  180.8750   -25.6790    64.1410     7.8580     6.7770     7.5390    21.4350     2.4120 
  181.0000   -25.7140    65.2100     7.7840     6.7120     6.8960    21.5250     2.4050 
  181.1250   -25.8160    67.2810     7.9430     6.8520     6.7700    21.6810     2.3930 
  181.2500   -25.9700    68.5430     8.4800     7.3280     7.5540    21.9890     2.3760 
  181.3750   -26.1610    67.9850     9.5250     8.2520     9.5810    22.5150     2.3590 
  181.5000   -26.3850    66.7350    11.1550     9.6950    12.8380    23.1670     2.3430 
  181.6250   -26.6230    66.1900    13.3990    11.6800    16.6860    23.6740     2.3300 
