~V
VERS. 2.00: Ver 2.00
~W
STRT.M 57.0000:
STOP.M 204.0000:
STEP.M 0.1250:
NULL. -999.2500:
UWI. F10604:
~C
DEPT.M :
SP.MV :
GR.API :
RML.OHMM :
RI. :
RXO.OHMM :
CALI.CM :
DEN.GM/CC :
~A
# ...
  169.5000    -4.7490    58.1290     6.5550     6.7960     9.1150    24.4640     2.4460 
  169.6250    -4.2430    58.5900     6.0820     6.3370     7.9140    24.4430     2.4360 
  169.7500    -3.8420    59.7350     5.8800     6.1730     6.8570    24.4280     2.4380 
  169.8750    -3.5790    63.3720     6.0110     6.3420     6.4960    24.4340     2.4470 
  170.0000    -3.4790    69.6920     6.5010     6.8900     7.2000    24.4950     2.4580 
  170.1250    -3.4850    73.9210     7.3090     7.8630     8.8190    24.5950     2.4620 
  170.2500    -3.5260    75.1330     8.1850     9.0410    10.3330    24.6550     2.4610 
  170.3750    -3.5970    78.6110     8.9250    10.1540    11.1010    24.6860     2.4590 
  170.5000    -3.6820    86.1430     9.3930    10.9260    11.0920    24.7040     2.4600 
  170.6250    -3.7660    94.6090     9.5440    11.1640    10.8090    24.7150     2.4660 
  170.7500    -3.8390   101.2010     9.5460    11.0820    10.7280    24.7200     2.4690 
  170.8750    -3.9160   106.5580     9.5240    10.8760    10.8310    24.7220     2.4670 
  171.0000    -3.9950   112.9140     9.5510    10.6720    10.9280    24.7220     2.4580 
  171.1250    -4.1110   120.0130     9.6370    10.4980    10.8870    24.7260     2.4440 
  171.2500    -4.2620   124.4970     9.7220    10.3130    10.7310    24.7150     2.4330 
  171.3750    -4.4260   124.3300     9.7510    10.0710    10.4360    24.7080     2.4270 
  171.5000    -4.5980   122.7930     9.6770     9.7350     9.9850    24.7050     2.4280 
  171.6250    -4.7450   123.5450     9.5010     9.3060     9.4430    24.7010     2.4380 
  171.7500    -4.8590   124.8420     9.3830     8.9240     8.9650    24.6960     2.4560 
  171.8750    -4.9520   123.8800     9.5880     8.7960     8.6610    24.6880     2.4790 
  172.0000    -5.0510   120.9690    10.4520     9.1670     8.6180    24.6620     2.4970 
  172.1250    -5.2040   114.7900    12.7240    10.5180     9.7320    24.6150     2.4950 
  172.2500    -5.4040   106.1960    16.8740    13.1610    12.9320    24.5400     2.4680 
  172.3750    -5.6350    96.4040    23.0730    17.5180    17.8940    24.4630     2.4250 
  172.5000    -5.8920    86.3060    30.7540    23.7310    22.7140    24.3910     2.3800 
  172.6250    -6.2090    77.2370    38.6230    31.2150    25.8480    24.3740     2.3480 
  172.7500    -6.5990    72.1470    45.3750    38.1540    29.2000    24.3330     2.3310 
  172.8750    -7.0370    72.1250    50.4920    43.3960    34.7650    24.2440     2.3200 
  173.0000    -7.4690    74.9290    54.1510    46.9290    41.3870    24.1440     2.3120 
  173.1250    -7.7980    75.2540    57.0670    49.5540    45.4600    24.0990     2.3030 
  173.2500    -8.0220    73.0050    59.9210    52.1110    46.7190    24.1290     2.2960 
  173.3750    -8.1780    70.2150    62.6190    54.5560    47.3230    24.1950     2.2930 
  173.5000    -8.2690    69.3060    64.7570    56.5320    48.8700    24.2450     2.2910 
  173.6250    -8.2990    70.5520    65.8980    57.6530    50.9090    24.2490     2.2820 
  173.7500    -8.2890    72.1240    66.3000    58.1520    52.5370    24.2170     2.2710 
  173.8750    -8.2270    72.5420    66.2830    58.3550    53.5720    24.1510     2.2630 
  174.0000    -8.1180    73.6000    66.0670    58.5130    54.1320    24.1050     2.2700 
  174.1250    -7.9920    74.5350    65.4780    58.5190    54.5010    24.1570     2.2910 
  174.2500    -7.8950    73.4770    64.1880    57.9730    54.4150    24.2910     2.3140 
  174.3750    -7.8330    69.4380    61.9700    56.5220    53.7200    24.4250     2.3270 
  174.5000    -7.8170    65.5750    58.9830    54.1760    52.6750    24.5130     2.3230 
  174.6250    -7.8140    67.2540    55.9240    51.4990    51.7460    24.5270     2.3050 
  174.7500    -7.8050    72.7040    53.7270    49.4400    50.9850    24.5690     2.2860 
  174.8750    -7.8050    77.8690    53.0150    48.6570    50.5870    24.6460     2.2740 
  175.0000    -7.7990    79.1090    54.1670    49.5490    50.9990    24.6960     2.2720 
  175.1250    -7.8020    76.5640    57.8850    52.5660    51.9540    24.7090     2.2770 
  175.2500    -7.8340    74.1490    63.6530    57.2770    52.3650    24.7170     2.2800 
  175.3750    -7.9140    73.1370    70.7130    63.3340    52.9060    24.7360     2.2770 
  175.5000    -8.0080    73.2260    78.1380    70.2100    54.9480    24.7460     2.2700 
  175.6250    -8.0860    72.0050    85.0550    77.1470    58.0630    24.7710     2.2650 
  175.7500    -8.1640    70.2000    90.7310    83.1780    60.3780    24.7890     2.2670 
  175.8750    -8.2380    67.6830    94.1640    87.3230    61.8900    24.7920     2.2770 
  176.0000    -8.2800    65.3750    94.5890    88.7320    64.8450    24.7580     2.2880 
  176.1250    -8.3200    64.7490    91.5690    86.6880    70.0060    24.7130     2.2920 
  176.2500    -8.3210    65.4060    86.6610    82.5030    73.8500    24.6950     2.2870 
  176.3750    -8.2620    66.6550    81.2850    77.5290    74.4790    24.7010     2.2760 
  176.5000    -8.1640    67.6230    76.7630    73.1260    72.4850    24.7070     2.2620 
  176.6250    -8.0430    69.1920    74.3480    70.6160    71.3270    24.7070     2.2500 
  176.7500    -7.8860    71.0700    74.0570    70.1600    73.7070    24.7070     2.2410 
  176.8750    -7.7430    71.8980    75.7020    71.6730    78.8720    24.7080     2.2340 
  177.0000    -7.6720    70.8790    78.7790    74.7420    84.8730    24.7150     2.2290 
  177.1250    -7.6300    69.2860    82.5850    78.7250    92.2350    24.7330     2.2270 
  177.2500    -7.6400    69.0900    86.2430    82.6680   102.5790    24.7450     2.2290 
  177.3750    -7.6760    69.6700    89.3840    86.1110   113.0500    24.7330     2.2310 
  177.5000    -7.7180    68.9630    92.0630    89.0070   118.4700    24.7200     2.2330 
  177.6250    -7.8220    66.9070    94.8390    91.8140   119.3460    24.7150     2.2340 
  177.7500    -7.9730    65.6480    98.4290    95.3080   122.6200    24.7140     2.2360 
  177.8750    -8.1280    66.0690   103.2510   100.0320   129.2990    24.7240     2.2430 
  178.0000    -8.2860    67.2520   109.1670   106.0040   135.1580    24.7460     2.2570 
  178.1250    -8.4850    66.5880   115.0950   112.2510   137.6000    24.7480     2.2790 
  178.2500    -8.6890    64.4780   119.4060   116.9450   142.1750    24.7270     2.3010 
  178.3750    -8.8810    63.5770   121.0530   118.7870   151.9260    24.6850     2.3170 
  178.5000    -9.0570    64.3480   120.0680   117.6870   161.3900    24.6350     2.3190 
  178.6250    -9.2230    63.1230   117.6940   114.9490   157.7070    24.6260     2.3040 
  178.7500    -9.3680    61.1350   116.1190   112.9290   143.0040    24.6760     2.2800 
  178.8750    -9.4650    61.0990   116.7190   113.0730   129.3580    24.7320     2.2560 
  179.0000    -9.5100    62.6740   120.1240   116.1160   128.4140    24.7590     2.2410 
  179.1250    -9.4530    63.6600   126.2610   122.2720   141.7040    24.7700     2.2430 
  179.2500    -9.3360    63.2590   133.0170   129.5340   155.9320    24.7800     2.2620 
  179.3750    -9.2010    60.9010   138.1350   135.5150   163.3920    24.7960     2.2930 
  179.5000    -9.0690    57.9320   139.6160   137.8390   163.5950    24.7950     2.3270 
  179.6250    -8.9010    58.5090   136.1530   134.7870   159.3700    24.7750     2.3520 
  179.7500    -8.6860    62.1620   129.8740   128.5390   150.9600    24.7740     2.3620 
  179.8750    -8.4410    64.4650   122.9630   121.4080   137.5980    24.7620     2.3570 
  180.0000    -8.1700    62.4480   117.3800   115.4820   123.5720    24.7420     2.3430 
  180.1250    -7.9630    59.3460   114.6780   112.4500   117.0200    24.7370     2.3320 
  180.2500    -7.8280    58.2290   114.2980   111.8650   118.6800    24.6700     2.3290 
  180.3750    -7.7020    58.5020   115.1280   112.6630   124.8380    24.5320     2.3310 
  180.5000    -7.6080    58.1280   115.5970   113.1940   131.8370    24.4370     2.3330 
  180.6250    -7.5670    58.6860   113.9730   111.4960   134.6030    24.4930     2.3280 
