~V
VERS. 2.00: Ver 2.00
~W
STRT.M 48.0000:
STOP.M 229.0000:
STEP.M 0.1250:
NULL. -999.2500:
UWI. F10623:
~C
DEPT.M :
GR.API :
RML.OHMM :
RI. :
RXO.OHMM :
CALI.CM :
DEN.GM/CC :
SP.MV :
~A
# ...
  149.2500    55.4270    22.1630    20.7400    19.4890    23.7480     2.4900    -5.6170 
  149.3750    56.8480    22.2590    20.9190    20.2110    23.8010     2.4950    -5.6200 
  149.5000    55.6070    22.0760    20.8340    20.8020    23.9190     2.4960    -5.6240 
  149.6250    52.6560    21.6720    20.5140    20.8570    23.9450     2.4950    -5.6250 
  149.7500    51.3280    21.2180    20.1130    20.5080    23.8980     2.4900    -5.6330 
  149.8750    52.6600    20.8390    19.7480    20.0160    23.8490     2.4840    -5.6380 
  150.0000    53.6380    20.6160    19.5020    19.6170    23.8900     2.4780    -5.6480 
  150.1250    52.5120    20.5770    19.4160    19.7610    23.9070     2.4760    -5.6820 
  150.2500    51.3390    20.6200    19.4130    20.1550    23.9470     2.4790    -5.7300 
  150.3750    50.7520    20.6470    19.4180    20.5400    24.0040     2.4850    -5.7720 
  150.5000    52.2510    20.5910    19.3690    20.5170    24.0430     2.4920    -5.7840 
  150.6250    54.7520    20.4580    19.2560    19.5260    24.0230     2.4980    -5.7480 
  150.7500    55.9850    20.3530    19.1550    18.3920    23.9620     2.5010    -5.6890 
  150.8750    56.3180    20.3550    19.1340    17.9340    23.9040     2.5020    -5.6350 
  151.0000    56.4710    20.4920    19.2260    18.6840    23.9150     2.5030    -5.6010 
  151.1250    58.2700    20.7220    19.4170    19.8470    23.9420     2.5020    -5.5820 
  151.2500    59.6340    20.9270    19.6140    20.9210    23.9550     2.4980    -5.5570 
  151.3750    59.1060    21.0340    19.7450    21.1840    23.9520     2.4930    -5.5280 
  151.5000    57.8190    21.0220    19.7740    20.1710    23.9430     2.4870    -5.5080 
  151.6250    57.6520    20.9070    19.6890    18.9170    23.9060     2.4830    -5.4990 
  151.7500    58.6480    20.7430    19.5310    18.3140    23.8550     2.4830    -5.4780 
  151.8750    58.4130    20.5430    19.3140    18.0910    23.8050     2.4880    -5.4230 
  152.0000    57.2520    20.2940    19.0400    18.0560    23.7500     2.4950    -5.3270 
  152.1250    58.1610    19.9650    18.7030    17.8530    23.6350     2.5000    -5.2020 
  152.2500    59.1320    19.5690    18.3230    17.2210    23.4930     2.4960    -5.0630 
  152.3750    58.2990    19.1360    17.9240    16.1830    23.3110     2.4840    -4.9190 
  152.5000    55.7610    18.7010    17.5280    14.9830    23.0160     2.4640    -4.7660 
  152.6250    53.0750    18.2850    17.1430    14.0190    22.6570     2.4380    -4.6040 
  152.7500    51.3970    17.8720    16.7500    13.2790    22.2080     2.4090    -4.4620 
  152.8750    49.1510    17.4310    16.3260    12.7370    21.7360     2.3800    -4.3620 
  153.0000    47.1450    16.9350    15.8560    12.1620    21.2790     2.3560    -4.3060 
  153.1250    48.4400    16.3920    15.3510    11.4060    20.9290     2.3450    -4.2810 
  153.2500    51.6030    15.8700    14.8700    10.6820    20.6460     2.3450    -4.2700 
  153.3750    53.6340    15.4570    14.4790    10.0610    20.3540     2.3500    -4.2580 
  153.5000    52.6330    15.2460    14.2520     9.3570    20.0160     2.3550    -4.2550 
  153.6250    50.5900    15.3630    14.2920     9.1780    19.7480     2.3570    -4.2740 
  153.7500    49.9960    15.7640    14.5780     9.5090    19.8200     2.3640    -4.2970 
  153.8750    51.1910    16.3660    15.0530    10.1990    20.2030     2.3770    -4.3260 
  154.0000    53.4130    17.0050    15.5950    11.1290    20.6470     2.3970    -4.3630 
  154.1250    55.0150    17.4220    15.9900    12.3540    21.0420     2.4180    -4.3830 
  154.2500    55.5140    17.4750    16.0930    13.2850    21.5050     2.4350    -4.3870 
  154.3750    55.6920    17.1420    15.8550    13.4880    21.9970     2.4460    -4.3850 
  154.5000    54.0960    16.5390    15.3490    12.9990    22.4050     2.4570    -4.3790 
  154.6250    51.4100    15.8890    14.7460    12.1370    22.5830     2.4690    -4.3800 
  154.7500    49.4280    15.4020    14.2470    11.3360    22.5390     2.4830    -4.4010 
  154.8750    48.2440    15.1600    13.9420    10.6050    22.3080     2.4950    -4.4150 
  155.0000    46.8870    15.1470    13.8400    10.0520    21.9990     2.5040    -4.4110 
  155.1250    44.6160    15.3000    13.9030     9.8800    21.7310     2.5050    -4.3990 
  155.2500    45.1110    15.4920    14.0230    10.0940    21.6640     2.4990    -4.3850 
  155.3750    48.5800    15.6620    14.1430    10.3490    21.6580     2.4890    -4.3600 
  155.5000    51.6820    15.7880    14.2340    10.4560    21.6200     2.4750    -4.3220 
  155.6250    51.9580    15.8660    14.2870    10.4480    21.6300     2.4630    -4.2720 
  155.7500    50.7840    15.9150    14.3140    10.5580    21.7350     2.4560    -4.2060 
  155.8750    49.8530    15.9490    14.3230    10.7600    21.8680     2.4560    -4.1390 
  156.0000    49.6180    15.9890    14.3320    10.9590    21.9000     2.4630    -4.0780 
  156.1250    51.2100    16.0590    14.3630    11.0090    21.7510     2.4740    -4.0170 
  156.2500    53.4390    16.1640    14.4270    11.1060    21.5780     2.4810    -3.9630 
  156.3750    52.9920    16.2820    14.5090    11.4310    21.4860     2.4830    -3.9470 
  156.5000    50.3470    16.3600    14.5680    11.9130    21.5400     2.4810    -3.9750 
  156.6250    50.1280    16.3040    14.5280    12.4040    21.7340     2.4780    -4.0310 
  156.7500    51.8930    16.0920    14.3610    12.4770    21.9350     2.4780    -4.0830 
  156.8750    51.9690    15.7370    14.0690    12.0630    22.0020     2.4820    -4.1140 
  157.0000    49.6130    15.2990    13.6930    11.3410    21.9450     2.4890    -4.1320 
  157.1250    48.7670    14.8730    13.3010    10.8900    21.8150     2.4940    -4.1650 
  157.2500    50.5780    14.5240    12.9560    10.7290    21.7160     2.4960    -4.2170 
  157.3750    53.5730    14.2690    12.6790    10.7060    21.7230     2.4970    -4.2790 
  157.5000    56.0460    14.0910    12.4670    10.5690    21.7870     2.4970    -4.3330 
  157.6250    55.6020    13.9560    12.2990    10.3610    21.7990     2.4980    -4.3760 
  157.7500    52.4530    13.8260    12.1430    10.2430    21.7890     2.4970    -4.4250 
  157.8750    49.5020    13.6930    11.9920    10.1530    21.8180     2.4940    -4.4860 
  158.0000    49.6940    13.5670    11.8550     9.9940    21.9030     2.4910    -4.5480 
  158.1250    51.5920    13.4850    11.7660     9.8300    22.0400     2.4880    -4.5950 
  158.2500    52.6510    13.4840    11.7540     9.8530    22.1670     2.4860    -4.6290 
  158.3750    52.6430    13.5980    11.8480    10.1470    22.2460     2.4840    -4.6600 
  158.5000    52.5020    13.8530    12.0660    10.5680    22.2820     2.4810    -4.7030 
  158.6250    52.6570    14.2730    12.4280    11.0180    22.3530     2.4770    -4.7670 
  158.7500    52.6670    14.7970    12.8850    11.4810    22.4980     2.4730    -4.8440 
  158.8750    53.0780    15.3500    13.3780    11.9860    22.7060     2.4690    -4.9320 
  159.0000    54.8420    15.8090    13.8110    12.4320    22.9590     2.4660    -5.0350 
  159.1250    57.4140    15.9480    13.9980    12.8100    23.1760     2.4580    -5.1710 
  159.2500    58.5890    15.6600    13.8340    13.2500    23.2970     2.4460    -5.3330 
  159.3750    58.9480    14.9240    13.2780    13.6260    23.3050     2.4300    -5.5150 
  159.5000    60.6640    13.8500    12.3990    13.6140    23.2720     2.4150    -5.7150 
  159.6250    65.3960    12.6710    11.3720    12.7860    23.2810     2.4070    -5.9170 
  159.7500    71.9050    11.6600    10.4400    11.2800    23.3420     2.4040    -6.1160 
  159.8750    78.2920    10.9680     9.7460     9.6280    23.3920     2.4020    -6.3120 
  160.0000    81.9090    10.6390     9.3550     8.9320    23.3980     2.3940    -6.4970 
  160.1250    81.5150    10.6690     9.2950     9.1040    23.4010     2.3770    -6.6610 
  160.2500    81.4330    10.9010     9.4510     9.4220    23.4240     2.3560    -6.8130 
  160.3750    84.6990    11.2230     9.7310     9.7690    23.4390     2.3360    -6.9300 
