~V
VERS. 2.00: Ver 2.00
~W
STRT.M 50.0000:
STOP.M 224.0000:
STEP.M 0.1250:
NULL. -999.2500:
UWI. F10690:
~C
DEPT.M :
SP.MV :
DEN.GM/CC :
GR.API :
RML.OHMM :
RI. :
RXO.OHMM :
CALI.CM :
~A
# ...
  185.0000   -33.5930     2.3710    73.8670     7.7430     7.4370     6.3740    26.3780 
  185.1250   -33.5700     2.3930    76.0520     7.5320     7.2300     6.4280    26.3750 
  185.2500   -33.5240     2.4140    78.1730     7.5090     7.2080     6.5180    26.3520 
  185.3750   -33.4620     2.4300    78.9730     7.7990     7.4920     7.0080    26.2760 
  185.5000   -33.3900     2.4390    78.4930     8.4950     8.1740     8.1890    26.1170 
  185.6250   -33.3060     2.4370    76.2330     9.7680     9.4200    10.8180    25.8630 
  185.7500   -33.2170     2.4250    71.4810    11.6020    11.2170    14.4120    25.6590 
  185.8750   -33.1440     2.4100    64.4180    14.0200    13.5840    17.1730    25.5780 
  186.0000   -33.1090     2.3980    58.5000    16.9670    16.4710    19.6050    25.5660 
  186.1250   -33.1270     2.3860    55.6470    20.2870    19.7230    24.1510    25.5670 
  186.2500   -33.1690     2.3660    54.4210    23.5900    22.9570    31.1430    25.5680 
  186.3750   -33.2190     2.3440    53.7570    26.5950    25.9010    35.6520    25.5670 
  186.5000   -33.2670     2.3290    54.2370    29.1820    28.4350    34.5050    25.5660 
  186.6250   -33.3150     2.3260    55.0610    31.3630    30.5710    31.5290    25.5670 
  186.7500   -33.3590     2.3260    54.3340    33.3520    32.5190    31.1830    25.5680 
  186.8750   -33.3950     2.3230    53.2400    35.2220    34.3510    34.7690    25.5670 
  187.0000   -33.4160     2.3150    52.9160    36.8610    35.9560    39.5750    25.5670 
  187.1250   -33.4300     2.3060    52.1230    37.8090    36.8840    40.1750    25.5680 
  187.2500   -33.4430     2.3040    50.2240    37.8840    36.9580    38.2920    25.5670 
  187.3750   -33.4570     2.3090    49.8840    37.2450    36.3320    34.9570    25.5660 
  187.5000   -33.4600     2.3140    52.0330    36.4040    35.5090    31.9130    25.5660 
  187.6250   -33.4370     2.3160    52.8880    36.0910    35.2020    31.1310    25.5660 
  187.7500   -33.3880     2.3210    51.1010    36.6430    35.7430    31.9990    25.5630 
  187.8750   -33.3260     2.3290    48.7580    38.1810    37.2490    34.9800    25.5430 
  188.0000   -33.2660     2.3290    48.3000    40.6800    39.6960    38.6890    25.4630 
  188.1250   -33.2280     2.3090    50.0540    43.9530    42.9020    40.3010    25.2880 
  188.2500   -33.2110     2.2780    51.3180    47.0640    45.9490    37.0650    25.0890 
  188.3750   -33.2100     2.2460    51.1440    48.8540    47.7020    31.4870    24.9640 
  188.5000   -33.2070     2.2250    49.9480    48.3940    47.2520    25.2520    24.9300 
  188.6250   -33.1840     2.2230    49.7520    45.6150    44.5300    23.0950    24.9900 
  188.7500   -33.1400     2.2340    51.1400    42.3120    41.2950    26.2070    25.1460 
  188.8750   -33.0870     2.2470    52.3430    39.8640    38.8970    34.3920    25.3650 
  189.0000   -33.0380     2.2520    52.0540    39.0930    38.1420    33.3170    25.5480 
  189.1250   -32.9980     2.2480    50.6930    40.3150    39.3390    41.6940    25.6110 
  189.2500   -32.9580     2.2460    50.4770    42.4430    41.4230    63.0860    25.6170 
  189.3750   -32.9140     2.2490    51.9510    44.2180    43.1610    81.7290    25.5890 
  189.5000   -32.8640     2.2540    52.7840    44.4270    43.3670    57.6560    25.5240 
  189.6250   -32.8090     2.2550    51.1960    42.5340    41.5120    42.3450    25.4440 
  189.7500   -32.7420     2.2490    49.5840    40.0630    39.0920    33.9860    25.3570 
  189.8750   -32.6620     2.2380    50.9800    38.5270    37.5880    29.6000    25.2610 
  190.0000   -32.5690     2.2290    55.2290    39.0020    38.0530    28.3850    25.1540 
  190.1250   -32.4860     2.2300    57.2490    42.4690    41.4480    29.9000    24.9680 
  190.2500   -32.4230     2.2350    54.8510    48.5330    47.3880    31.0420    24.7490 
  190.3750   -32.3760     2.2390    50.2170    56.5360    55.2260    34.7210    24.6590 
  190.5000   -32.3320     2.2410    47.4730    64.8520    63.3710    44.1510    24.8060 
  190.6250   -32.2760     2.2440    47.6300    70.6610    69.0610    56.5440    25.1160 
  190.7500   -32.2180     2.2470    46.5240    73.1370    71.4860    61.7940    25.3720 
  190.8750   -32.1690     2.2470    45.0000    73.0100    71.3620    59.3000    25.4800 
  191.0000   -32.1320     2.2450    45.9010    71.3710    69.7560    58.2570    25.4860 
  191.1250   -32.1000     2.2460    48.7760    68.4460    66.8910    58.2620    25.4560 
  191.2500   -32.0610     2.2560    48.9100    64.1700    62.7030    62.7620    25.4260 
  191.3750   -32.0200     2.2730    46.2930    58.4930    57.1430    63.2950    25.3980 
  191.5000   -31.9880     2.2880    44.3040    52.0370    50.8200    49.2900    25.3680 
  191.6250   -31.9740     2.2920    45.2760    46.9980    45.1290    34.3550    25.3530 
  191.7500   -31.9720     2.2890    48.2040    42.8390    41.1170    29.3300    25.3370 
  191.8750   -31.9780     2.2880    50.7430    40.9090    39.2570    29.6370    25.3170 
  192.0000   -31.9910     2.2890    50.9030    41.3520    39.6840    30.7960    25.3030 
  192.1250   -32.0050     2.2830    50.3060    44.5450    42.7620    29.9710    25.2960 
  192.2500   -32.0080     2.2700    51.9270    49.8200    47.8500    33.0720    25.2770 
  192.3750   -31.9870     2.2590    54.4390    56.4900    54.2820    39.5990    25.2280 
  192.5000   -31.9370     2.2560    53.2010    63.4550    60.9980    43.5620    25.1630 
  192.6250   -31.8840     2.2500    48.8270    69.3020    66.6370    43.7540    25.1370 
  192.7500   -31.8570     2.2340    46.2540    73.5850    70.7660    42.7560    25.1450 
  192.8750   -31.8740     2.2160    46.6870    76.4490    73.5280    47.0190    25.1760 
  193.0000   -31.9160     2.2060    48.0130    78.2900    75.3040    54.0770    25.2060 
  193.1250   -31.9460     2.2090    48.4530    79.2380    76.2180    58.5760    25.2160 
  193.2500   -31.9360     2.2210    49.0430    79.4320    76.4050    61.0090    25.2150 
  193.3750   -31.8870     2.2450    49.5710    79.0260    76.0130    63.1020    25.1860 
  193.5000   -31.8200     2.2800    49.5780    78.5160    75.5220    58.3190    25.1320 
  193.6250   -31.7550     2.3170    48.2480    78.6400    75.6410    50.8350    25.1440 
  193.7500   -31.6910     2.3470    45.9710    79.3900    76.3650    49.7590    25.2840 
  193.8750   -31.6230     2.3610    43.5970    80.1160    77.0650    58.3830    25.4270 
  194.0000   -31.5460     2.3410    43.2050    79.9470    76.9010    72.2240    25.5210 
  194.1250   -31.4750     2.2920    45.9300    78.4620    75.4690    75.1180    25.5530 
  194.2500   -31.4160     2.2640    48.7910    76.8250    73.8910    61.7890    25.5590 
  194.3750   -31.3640     2.2850    48.7160    76.5740    73.6490    54.7360    25.5360 
  194.5000   -31.3060     2.3560    45.5610    79.3350    76.3110    55.5920    25.4770 
  194.6250   -31.2290     2.4680    43.0450    87.4230    84.1110    73.3360    25.3810 
  194.7500   -31.1300     2.5940    43.5780   100.8710    97.0790   108.5800    25.2300 
  194.8750   -31.0150     2.6990    45.5790   118.7400   114.3100   131.7040    25.0130 
  195.0000   -30.8880     2.7470    46.5140   137.0330   131.9500   144.8860    24.8090 
  195.1250   -30.7640     2.7320    44.7250   145.8650   140.4680   136.7850    24.8490 
  195.2500   -30.6510     2.6880    42.0020   140.0940   134.9030   132.2790    25.0780 
  195.3750   -30.5560     2.6220    41.8720   122.3390   117.7810   120.5550    25.2790 
  195.5000   -30.4800     2.5340    45.2290   100.6980    96.9120   111.6080    25.3470 
  195.6250   -30.4200     2.4260    49.7920    83.0670    79.9100    75.1110    25.3150 
  195.7500   -30.3580     2.3280    52.5560    71.1030    68.3730    59.2230    25.2560 
  195.8750   -30.2900     2.2690    53.4760    63.9040    61.4310    58.9190    25.2040 
  196.0000   -30.2110     2.2630    54.4050    59.7870    57.4610    62.9780    25.1690 
  196.1250   -30.1250     2.3010    54.5900    56.8950    54.6730    57.8690    25.1310 
