~V
VERS. 2.00: Ver 2.00
~W
STRT.M 50.0000:
STOP.M 265.0000:
STEP.M 0.1250:
NULL. -999.2500:
UWI. F10671:
~C
DEPT.M :
GR.API :
RML.OHMM :
RI. :
RXO.OHMM :
CALI.CM :
DEN.GM/CC :
SP.MV :
~A
# ...
  196.2500    46.3390     6.8770     5.9260     6.3300    24.0890     2.4340    -4.6700 
  196.3750    45.8400     6.6800     5.7740     6.2040    24.0760     2.4270    -4.6460 
  196.5000    45.9180     6.4840     5.6210     6.0180    24.0090     2.4210    -4.6630 
  196.6250    44.2360     6.2920     5.4970     5.8010    23.9520     2.4180    -4.5970 
  196.7500    42.6630     6.1080     5.4120     5.6240    23.9270     2.4190    -4.5580 
  196.8750    42.5610     5.9550     5.3620     5.5050    23.8910     2.4240    -4.5790 
  197.0000    43.7420     5.8660     5.3360     5.4290    23.8410     2.4290    -4.5570 
  197.1250    44.9610     5.8530     5.3210     5.3840    23.7850     2.4330    -4.5300 
  197.2500    45.1240     5.8650     5.3100     5.3400    23.7240     2.4350    -4.5690 
  197.3750    44.6350     5.9030     5.3090     5.2790    23.6500     2.4340    -4.6080 
  197.5000    46.6400     5.9820     5.3310     5.2400    23.6260     2.4330    -4.6480 
  197.6250    52.4870     6.1050     5.3940     5.2900    23.6820     2.4320    -4.7970 
  197.7500    58.0150     6.2370     5.4950     5.4080    23.7340     2.4300    -4.9580 
  197.8750    63.4670     6.3650     5.6190     5.5840    23.7370     2.4280    -5.0920 
  198.0000    70.1540     6.4810     5.7400     5.8150    23.7160     2.4250    -5.2690 
  198.1250    77.5900     6.5320     5.8150     6.0420    23.6950     2.4200    -5.4650 
  198.2500    83.3230     6.5010     5.8230     6.2100    23.6960     2.4130    -5.5850 
  198.3750    85.5900     6.3940     5.7550     6.2410    23.7250     2.4050    -5.6920 
  198.5000    85.3700     6.2320     5.6190     5.9880    23.8170     2.3990    -5.8100 
  198.6250    83.4360     6.0550     5.4400     5.8250    23.9640     2.3960    -5.8820 
  198.7500    81.3570     5.9230     5.2760     5.6720    24.0560     2.3960    -5.9620 
  198.8750    78.8400     5.9020     5.1870     5.5900    24.0700     2.3990    -6.0790 
  199.0000    77.1980     6.0550     5.2270     5.6630    24.0510     2.3990    -6.1810 
  199.1250    78.6000     6.4370     5.4550     6.0200    24.0320     2.3940    -6.3170 
  199.2500    82.3290     6.9540     5.8180     6.7620    24.0450     2.3830    -6.5100 
  199.3750    86.2270     7.4850     6.2430     7.8070    24.1040     2.3690    -6.6670 
  199.5000    86.8040     7.8990     6.6390     8.7490    24.1560     2.3530    -6.8690 
  199.6250    82.3820     8.1120     6.9270     9.2370    24.1970     2.3390    -7.0990 
  199.7500    76.8310     8.2640     7.1670     9.1740    24.2390     2.3260    -7.2410 
  199.8750    74.2440     8.5830     7.5000     9.2810    24.2730     2.3130    -7.3870 
  200.0000    74.4650     9.3250     8.1230     9.9610    24.2870     2.2990    -7.5640 
  200.1250    75.5290    10.7720     9.3100    11.5820    24.2870     2.2820    -7.6380 
  200.2500    76.8130    12.7600    11.0130    14.1560    24.2860     2.2670    -7.6730 
  200.3750    76.6380    14.9340    13.0330    17.0210    24.2850     2.2590    -7.7300 
  200.5000    74.1590    16.7780    14.9630    19.2670    24.2810     2.2650    -7.7150 
  200.6250    72.3990    17.5590    16.1120    20.9450    24.2690     2.2890    -7.6550 
  200.7500    74.1460    17.2100    16.2120    22.0490    24.2430     2.3230    -7.6380 
  200.8750    78.0220    16.0050    15.3400    21.7410    24.1950     2.3590    -7.5660 
  201.0000    82.6810    14.5800    13.9100    18.8690    24.1300     2.3850    -7.4450 
  201.1250    88.0720    13.3990    12.4450    14.3040    24.0460     2.3950    -7.3730 
  201.2500    91.2660    12.5220    11.2690    11.4720    23.9220     2.3950    -7.3220 
  201.3750    90.2960    11.7490    10.4420    10.7960    23.7820     2.3900    -7.2350 
  201.5000    86.0970    11.2970     9.9070    10.7140    23.7260     2.3870    -7.1690 
  201.6250    80.4810    11.0030     9.5750    10.1250    23.7300     2.3890    -7.1390 
  201.7500    74.4290    10.7340     9.3280     9.4330    23.7040     2.3960    -7.0640 
  201.8750    71.0200    10.5000     9.1500     8.9440    23.6570     2.4050    -7.0170 
  202.0000    72.2400    10.3790     9.0810     8.6860    23.6520     2.4150    -7.0150 
  202.1250    75.9010    10.4930     9.2120     8.7860    23.7740     2.4270    -6.9790 
  202.2500    77.0120    10.8290     9.5400     9.4940    23.9590     2.4370    -6.9130 
  202.3750    74.9660    11.3200    10.0210    10.6670    24.1280     2.4410    -6.8750 
  202.5000    72.5410    11.8220    10.5440    11.8120    24.2380     2.4340    -6.8120 
  202.6250    71.8160    12.0960    10.9040    12.2810    24.2920     2.4170    -6.7460 
  202.7500    70.9430    12.0100    10.9590    11.6590    24.3120     2.4000    -6.7320 
  202.8750    70.0830    11.5330    10.6560    11.4830    24.3140     2.3870    -6.6760 
  203.0000    72.5010    10.7630    10.0560    11.2590    24.3090     2.3800    -6.5910 
  203.1250    77.2610     9.9290     9.3340    10.2170    24.3080     2.3740    -6.5720 
  203.2500    77.8010     9.3020     8.7320     8.9610    24.3110     2.3640    -6.5710 
  203.3750    76.1450     9.0650     8.4160     8.5300    24.3210     2.3500    -6.5480 
  203.5000    77.5820     9.3270     8.5060     8.8630    24.3370     2.3350    -6.5710 
  203.6250    80.2550    10.1830     9.1340     9.7100    24.3680     2.3210    -6.5980 
  203.7500    78.4820    11.4050    10.1490    10.9790    24.3950     2.3080    -6.5640 
  203.8750    73.3000    12.7300    11.3480    12.6710    24.4150     2.2980    -6.5850 
  204.0000    68.8530    13.8160    12.4270    14.5650    24.4220     2.2910    -6.6730 
  204.1250    66.1110    14.2310    12.9670    16.1440    24.4230     2.2890    -6.6820 
  204.2500    67.0270    13.9740    12.8860    15.8800    24.4250     2.2930    -6.6720 
  204.3750    71.4160    13.2480    12.3140    14.5880    24.4300     2.3030    -6.7360 
  204.5000    74.1710    12.4520    11.5720    13.1070    24.4420     2.3150    -6.7880 
  204.6250    72.9460    12.1380    11.1240    11.9310    24.4620     2.3230    -6.8500 
  204.7500    72.7940    12.5890    11.2590    12.2130    24.4810     2.3260    -6.9970 
  204.8750    75.3220    13.9910    12.1750    14.0080    24.4890     2.3240    -7.1180 
  205.0000    76.6320    16.4750    14.0320    16.7840    24.4900     2.3150    -7.2380 
  205.1250    74.6400    20.3240    17.1620    21.0110    24.4900     2.2930    -7.4770 
  205.2500    72.0550    25.2850    21.4170    26.7260    24.4900     2.2630    -7.7160 
  205.3750    69.5870    31.0690    26.6200    33.4410    24.4900     2.2310    -7.9100 
  205.5000    66.2510    37.1280    32.3410    40.9520    24.4900     2.2040    -8.1330 
  205.6250    61.6190    42.5020    37.7700    48.5720    24.4900     2.1870    -8.3220 
  205.7500    56.7620    46.4880    42.1350    54.1100    24.4900     2.1800    -8.5080 
  205.8750    54.4550    48.7580    44.9760    56.4240    24.4900     2.1800    -8.7170 
  206.0000    56.9980    49.4490    46.2460    56.3510    24.4890     2.1850    -8.8280 
  206.1250    61.8920    48.9050    46.1100    55.1530    24.4870     2.1930    -8.8460 
  206.2500    62.7250    47.8320    45.2820    54.0380    24.4810     2.2020    -8.8970 
  206.3750    58.7050    46.5230    44.1320    52.8140    24.4660     2.2110    -8.9210 
  206.5000    54.1810    45.1330    42.8990    51.3520    24.4390     2.2190    -8.9000 
  206.6250    52.5070    43.7530    41.7390    49.5240    24.3960     2.2250    -8.8900 
  206.7500    53.5330    42.4360    40.7000    47.9120    24.3650     2.2290    -8.7890 
  206.8750    56.5770    41.1660    39.7550    46.3330    24.3520     2.2320    -8.6330 
  207.0000    58.1760    39.8450    38.8020    44.8730    24.3490     2.2360    -8.5260 
  207.1250    57.7430    38.2410    37.6040    43.4560    24.3490     2.2450    -8.4550 
  207.2500    59.6330    36.2030    35.9850    42.1920    24.3500     2.2610    -8.3020 
  207.3750    64.0380    33.6690    33.8460    40.6040    24.3510     2.2790    -8.1450 
