~V
VERS. 2.00: Ver 2.00
~W
STRT.M 52.0000:
STOP.M 260.0000:
STEP.M 0.1250:
NULL. -999.2500:
UWI. F10654:
~C
DEPT.M :
SP.MV :
GR.API :
RML.OHMM :
RI. :
RXO.OHMM :
CALI.CM :
DEN.GM/CC :
~A
# ...
  254.5000    -2.9420    63.8350     4.7840     4.0830     6.5290    24.0090     1.9440 
  254.6250    -2.9130    63.8350     4.7800     4.0970     7.3930    23.9890     1.9320 
  254.7500    -2.8630    63.8350     4.7830     4.1060     8.1130    23.9670     1.9180 
  254.8750    -2.8210    63.8350     4.7890     4.1090     8.2160    23.9290     1.9070 
  255.0000    -2.7480    63.8350     4.7970     4.1050     7.3670    23.9000     1.9030 
  255.1250    -2.6820    63.8350     4.8080     4.0980     6.1590    23.9020     1.9050 
  255.2500    -2.6160    63.8350     4.8200     4.0900     5.3700    23.9310     1.9100 
  255.3750    -2.5770    63.8350     4.8320     4.0840     5.3550    23.9410     1.9110 
  255.5000    -2.5620    63.8350     4.8390     4.0810     5.7540    23.8910     1.9040 
  255.6250    -2.5420    63.8350     4.8420     4.0800     6.0070    23.7710     1.8930 
  255.7500    -2.5450    63.8350     4.8420     4.0800     5.8330    23.5470     1.8820 
  255.8750    -2.5350    63.8350     4.8420     4.0800     5.5100    23.2510     1.8770 
  256.0000    -2.5080    63.8350     4.8420     4.0800     5.2240    23.1400     1.8810 
  256.1250    -2.4750    63.8350     4.8420     4.0800     5.0380    23.4030     1.8890 
  256.2500    -2.4620    63.8350     4.8420     4.0800     5.0560    23.7480     1.8960 
  256.3750    -2.4300    63.8350     4.8420     4.0800     5.2070    23.9240     1.8990 
  256.5000    -2.4200    63.8350     4.8420     4.0800     5.3020    23.9640     1.8980 
  256.6250    -2.4430    63.8350     4.8420     4.0800     5.2390    23.9960     1.8950 
  256.7500    -2.4480    63.8350     4.8420     4.0800     4.9990    24.0380     1.8930 
  256.8750    -2.4780    63.8350     4.8420     4.0800     4.8100    24.0710     1.8920 
  257.0000    -2.5080    63.8350     4.8420     4.0800     4.8020    24.0670     1.8910 
  257.1250    -2.5270    63.8350     4.8420     4.0800     4.8710    24.0460     1.8910 
  257.2500    -2.5400    63.8350     4.8420     4.0800     4.9270    24.0210     1.8950 
  257.3750    -2.5940    63.8350     4.8420     4.0800     4.9570    24.0030     1.9030 
  257.5000    -2.6240    63.8350     4.8420     4.0800     5.0310    23.9690     1.9100 
  257.6250    -2.6200    63.8350     4.8420     4.0800     5.1300    23.8680     1.9120 
  257.7500    -2.6050    63.8350     4.8420     4.0800     5.2490    23.5590     1.9060 
  257.8750    -2.5910    63.8350     4.8420     4.0800     5.3670    22.8100     1.8960 
  258.0000    -2.5510    63.8350     4.8420     4.0800     5.2060    21.2940     1.8910 
  258.1250    -2.5040    63.8350     4.8420     4.0800     4.5880    18.7530     1.8900 
  258.2500    -2.4500    63.8350     4.8420     4.0800     3.8970    15.4310     1.8930 
  258.3750    -2.3700    63.8350     4.8420     4.0800     3.6280    13.1880     1.8930 
  258.5000    -2.2790    63.8350     4.8420     4.0800     3.5950    12.4740     1.8900 
  258.6250    -2.1940    63.8350     4.8420     4.0800     3.6030    12.4210     1.8840 
  258.7500    -2.1370    63.8350     4.8420     4.0800     3.6030    12.4160     1.8800 
  258.8750    -2.0680    63.8350     4.8420     4.0800     3.6020    12.4160     1.8780 
  259.0000    -2.0490    63.8350     4.8420     4.0800     3.6020    12.4170     1.8770 
  259.1250    -2.0540    63.8350     4.8420     4.0800     3.6020    12.4150     1.8780 
  259.2500  -999.2500    63.8350     4.8420     4.0800     3.6010    12.4140     1.8780 
  259.3750  -999.2500    63.8350     4.8420     4.0800     3.6010    12.4140     1.8790 
  259.5000  -999.2500    63.8350     4.8420     4.0800     3.6010    12.4130     1.8790 
  259.6250  -999.2500    63.8350     4.8420     4.0800     3.6000    12.4120     1.8780 
  259.7500  -999.2500    63.8350     4.8420     4.0800     3.5990    12.4080     1.8760 
  259.8750  -999.2500    63.8350     4.8420     4.0800     3.5980    12.4000     1.8740 
  260.0000  -999.2500    63.8350     4.8420     4.0800     3.5970    12.3840     1.8740 
