~V
VERS. 2.00: Ver 2.00
~W
STRT.M 57.0000:
STOP.M 204.0000:
STEP.M 0.1250:
NULL. -999.2500:
UWI. F10604:
~C
DEPT.M :
SP.MV :
GR.API :
RML.OHMM :
RI. :
RXO.OHMM :
CALI.CM :
DEN.GM/CC :
~A
# ...
  147.0000    -2.3890    88.3220     8.0760     7.5440     8.4350    24.6720     2.4370 
  147.1250    -2.4520    86.0500     8.2810     7.6730     8.9270    24.7560     2.4290 
  147.2500    -2.4940    82.5090     8.4620     7.7540     9.4040    24.8100     2.4100 
  147.3750    -2.4970    80.3590     8.6230     7.7920     9.8790    24.8270     2.3870 
  147.5000    -2.4590    81.2520     8.7960     7.8190    10.2580    24.8000     2.3670 
  147.6250    -2.4310    83.4500     9.0470     7.9080    10.4440    24.7600     2.3620 
  147.7500    -2.4100    83.9870     9.4160     8.1060    10.6770    24.7380     2.3730 
  147.8750    -2.3880    83.3040     9.9240     8.4360    11.2520    24.7370     2.3960 
  148.0000    -2.3720    82.5070    10.5610     8.8960    12.1810    24.7310     2.4220 
  148.1250    -2.4170    82.7970    11.3130     9.4810    13.2110    24.7270     2.4470 
  148.2500    -2.5050    84.1960    12.1320    10.1470    14.0980    24.7200     2.4640 
  148.3750    -2.6290    84.7180    13.0030    10.8740    14.6920    24.7000     2.4660 
  148.5000    -2.7950    82.9840    13.9090    11.6510    14.9480    24.6430     2.4510 
  148.6250    -2.9690    79.6080    14.7970    12.4560    14.9880    24.5490     2.4170 
  148.7500    -3.0940    77.1560    15.5650    13.2020    15.0930    24.4520     2.3780 
  148.8750    -3.1660    75.2010    16.0910    13.7770    15.0320    24.3710     2.3420 
  149.0000    -3.1900    72.7470    16.2810    14.0760    14.2250    24.2450     2.3130 
  149.1250    -3.1200    73.0490    16.0560    13.9940    12.4790    24.0060     2.2940 
  149.2500    -2.9890    76.8820    15.5600    13.6440    10.8220    23.8980     2.2820 
  149.3750    -2.8070    81.5410    14.9270    13.1450    10.0460    24.0270     2.2770 
  149.5000    -2.5520    83.6980    14.2940    12.6220    10.0820    24.3050     2.2790 
  149.6250    -2.2340    82.1570    13.8050    12.2020    10.3040    24.5600     2.2820 
  149.7500    -1.9310    80.6690    13.5140    11.9560    10.4160    24.6960     2.2830 
  149.8750    -1.6500    80.1800    13.4450    11.9170    10.5930    24.7760     2.2820 
  150.0000    -1.4090    80.5480    13.5730    12.0750    10.9590    24.8230     2.2780 
  150.1250    -1.1990    79.5860    13.8400    12.3840    11.5250    24.8290     2.2750 
  150.2500    -0.9920    77.8040    14.1260    12.7240    12.1570    24.8240     2.2740 
  150.3750    -0.7980    77.5510    14.3540    13.0070    12.6330    24.8300     2.2750 
  150.5000    -0.6270    79.0710    14.4850    13.1760    12.7210    24.8310     2.2780 
  150.6250    -0.4930    80.6150    14.5120    13.2090    12.4870    24.8210     2.2830 
  150.7500    -0.3800    80.8990    14.4600    13.1460    12.3340    24.8190     2.2870 
  150.8750    -0.2800    80.0800    14.3000    12.9780    12.3870    24.8040     2.2910 
  151.0000    -0.1980    77.7430    13.9630    12.6460    12.4870    24.7900     2.2990 
  151.1250    -0.1630    75.3210    13.3860    12.0700    12.2670    24.7860     2.3170 
  151.2500    -0.1710    76.4240    12.7360    11.3950    11.6370    24.7890     2.3410 
  151.3750    -0.1980    81.4860    12.3000    10.8650    10.8260    24.7820     2.3610 
  151.5000    -0.2270    85.8390    12.4130    10.7500    10.3330    24.7630     2.3650 
  151.6250    -0.2560    83.5410    13.5830    11.4050    11.6330    24.7340     2.3440 
  151.7500    -0.2870    77.6480    15.8800    12.9030    15.9270    24.7200     2.3100 
  151.8750    -0.3280    71.9640    19.1580    15.3080    22.3230    24.7180     2.2780 
  152.0000    -0.3660    68.2310    22.8920    18.4490    27.3880    24.7230     2.2570 
  152.1250    -0.3630    66.3670    26.2180    21.7390    28.0230    24.7370     2.2510 
  152.2500    -0.3050    65.3220    28.6040    24.3780    27.0550    24.7600     2.2500 
  152.3750    -0.2250    65.2100    29.9000    25.9650    27.4780    24.7830     2.2500 
  152.5000    -0.1510    66.2990    30.2220    26.5200    29.3990    24.8020     2.2530 
  152.6250    -0.0770    66.6610    29.7840    26.2360    30.6120    24.8090     2.2620 
  152.7500     0.0020    65.0690    28.9960    25.5320    30.0270    24.7840     2.2780 
  152.8750     0.0780    64.5020    28.0750    24.5910    27.9010    24.7490     2.3010 
  153.0000     0.1560    65.6130    27.2480    23.6170    24.8230    24.7300     2.3290 
  153.1250     0.2210    66.2840    26.8380    22.9330    21.8480    24.7210     2.3600 
  153.2500     0.2490    66.1300    26.9530    22.7020    19.9230    24.7160     2.3860 
  153.3750     0.2760    67.6920    27.5970    22.9730    19.1410    24.6920     2.4040 
  153.5000     0.3300    69.7890    28.6980    23.7210    19.0280    24.6200     2.4170 
  153.6250     0.4160    68.8960    30.2430    24.9860    19.4080    24.4970     2.4340 
  153.7500     0.5390    67.7380    32.1470    26.6840    20.5670    24.4140     2.4590 
  153.8750     0.7100    68.0680    34.3920    28.7960    23.1320    24.4510     2.4840 
  154.0000     0.9040    67.4960    36.8450    31.2460    27.8690    24.5550     2.4950 
  154.1250     1.1110    63.3880    39.0390    33.7090    34.7250    24.6590     2.4770 
  154.2500     1.3220    59.8790    40.3580    35.5360    40.4730    24.6880     2.4380 
  154.3750     1.4670    60.1670    40.3380    36.1270    42.5340    24.7000     2.3910 
  154.5000     1.5420    62.6530    38.9330    35.2810    40.9870    24.7130     2.3470 
  154.6250     1.5490    63.8740    36.5670    33.3190    37.8470    24.7330     2.3130 
  154.7500     1.5130    63.8870    34.2440    31.2310    35.1140    24.7510     2.2870 
  154.8750     1.4250    64.4000    32.5940    29.6520    33.4260    24.7770     2.2640 
  155.0000     1.2980    66.5440    31.8910    28.9130    32.7430    24.8080     2.2430 
  155.1250     1.1560    69.0930    32.0970    29.0910    33.1460    24.8410     2.2200 
  155.2500     1.0000    69.7520    32.6240    29.6940    35.2680    24.8370     2.1990 
  155.3750     0.8780    68.1710    33.0780    30.3330    38.9470    24.8190     2.1940 
  155.5000     0.8110    67.1920    33.2840    30.7500    42.3190    24.8200     2.2290 
  155.6250     0.7650    67.6230    33.3940    30.9780    43.5600    24.8170     2.3170 
  155.7500     0.7070    67.5200    33.7970    31.3900    43.9490    24.7970     2.4280 
  155.8750     0.6660    65.2350    34.7370    32.2740    44.5330    24.7380     2.5160 
  156.0000     0.6550    60.2740    36.1940    33.7050    45.0350    24.6160     2.5410 
  156.1250     0.6390    56.7170    37.8070    35.4680    45.1350    24.6890     2.4840 
  156.2500     0.6230    58.0760    39.0120    36.9990    44.8480    24.7520     2.3890 
  156.3750     0.5900    62.4940    39.4610    37.8550    44.3490    24.7750     2.2950 
  156.5000     0.4870    65.1130    39.1020    37.8630    43.7540    24.8180     2.2310 
  156.6250     0.3780    66.1780    38.1230    37.1530    43.1960    24.9050     2.2110 
  156.7500     0.3010    67.4790    36.9730    36.2160    42.6650    24.9290     2.2180 
  156.8750     0.2110    67.7460    35.8310    35.2550    42.1010    24.9160     2.2370 
  157.0000     0.0980    66.4500    34.7090    34.2950    41.5150    24.8920     2.2570 
  157.1250    -0.0090    66.3770    33.5280    33.2390    40.9770    24.8580     2.2690 
  157.2500    -0.1130    68.7800    32.2980    32.0740    40.4690    24.8060     2.2770 
  157.3750    -0.2220    72.0730    31.1510    30.9200    39.8390    24.7550     2.2820 
  157.5000    -0.3310    72.4560    30.2840    29.9990    39.1520    24.7230     2.2880 
  157.6250    -0.4660    68.9450    29.9420    29.5960    38.4580    24.6880     2.2920 
  157.7500    -0.6180    68.2360    30.0430    29.6570    37.5190    24.6670     2.2930 
  157.8750    -0.7610    72.2090    30.4270    30.0410    36.7910    24.6900     2.2890 
  158.0000    -0.9110    74.9330    30.8730    30.5390    36.7190    24.6820     2.2820 
  158.1250    -1.0820    72.3820    31.1750    30.9120    36.3520    24.5430     2.2750 
