~V
VERS. 2.00: Ver 2.00
~W
STRT.M 52.0000:
STOP.M 239.0000:
STEP.M 0.1250:
NULL. -999.2500:
UWI. F10645:
~C
DEPT.M :
SP.MV :
GR.API :
RML.OHMM :
RI. :
RXO.OHMM :
CALI.CM :
DEN.GM/CC :
~A
# ...
  198.2500   -25.4980    66.0260    32.2730    27.7440    41.0390    23.6720     2.3110 
  198.3750   -25.6100    69.1800    26.1880    23.5320    25.1050    23.6170     2.3380 
  198.5000   -25.6990    74.0380    21.2050    19.4610    15.1800    23.6020     2.3450 
  198.6250   -25.7630    77.8260    18.0020    16.5070    11.7920    23.5970     2.3340 
  198.7500   -25.7840    80.1410    16.5470    14.9420    11.4120    23.6720     2.3200 
  198.8750   -25.7860    83.5300    16.0880    14.2790    11.4750    23.8220     2.3110 
  199.0000   -25.7560    87.1690    16.2210    14.2190    11.5530    24.0120     2.3070 
  199.1250   -25.7290    87.4700    16.6410    14.5010    12.0790    24.1640     2.3090 
  199.2500   -25.6990    86.1040    17.2120    14.9720    12.8920    24.2490     2.3130 
  199.3750   -25.7120    87.3410    18.0130    15.6200    13.1190    24.3140     2.3090 
  199.5000   -25.7150    88.4120    19.3660    16.6600    12.9850    24.3620     2.2970 
  199.6250   -25.7670    87.1540    21.7370    18.4600    13.3360    24.3200     2.2870 
  199.7500   -25.8810    83.1200    26.0980    21.8730    14.8200    24.0790     2.3040 
  199.8750   -26.0640    77.6940    32.9960    27.5340    18.4550    23.8130     2.3400 
  200.0000   -26.3030    70.0700    43.1810    36.2520    27.6580    23.6980     2.3590 
  200.1250   -26.5690    62.1770    57.0180    48.3390    46.2520    23.8350     2.3330 
  200.2500   -26.8880    58.5520    73.5150    62.6620    72.0840    24.3000     2.2600 
  200.3750   -27.1930    57.2550    87.9490    75.1930    91.3750    24.6520     2.1720 
  200.5000   -27.5380    56.2210    95.4800    82.2880   107.3660    24.5480     2.1060 
  200.6250   -27.8710    54.4900    94.4190    82.5230   107.5510    24.0690     2.0890 
  200.7500   -28.1810    54.4450    87.1730    77.0770    80.4820    23.7170     2.1270 
  200.8750   -28.4430    56.9390    78.9540    70.0510    57.8640    23.5760     2.1850 
  201.0000   -28.6810    60.1750    72.0300    63.6300    50.3440    23.5500     2.2380 
  201.1250   -28.8920    63.7010    67.5790    59.1300    52.2200    23.5440     2.2750 
  201.2500   -29.0710    65.6130    66.8690    57.8600    50.5420    23.5140     2.2920 
  201.3750   -29.2320    65.3850    69.8840    59.9330    44.2750    23.4870     2.2920 
  201.5000   -29.3520    63.1630    77.0360    65.8280    40.9340    23.6080     2.2760 
  201.6250   -29.4190    61.4420    88.5730    75.8770    53.3850    23.9580     2.2450 
  201.7500   -29.4430    60.7920   104.6260    90.1570    86.4620    24.5250     2.2060 
  201.8750   -29.4690    58.6460   122.2600   105.8700   115.7080    24.8210     2.1720 
  202.0000   -29.4680    56.3680   137.7050   119.7870   115.7760    24.8950     2.1520 
  202.1250   -29.4820    56.8700   147.4530   128.9980   106.3240    24.8870     2.1460 
  202.2500   -29.4540    58.8650   150.3270   132.2050   101.7990    24.8910     2.1500 
  202.3750   -29.4190    58.1630   150.7800   132.8170   104.8550    24.9200     2.1560 
  202.5000   -29.3800    55.0590   152.0570   133.6470   107.7380    24.9880     2.1630 
  202.6250   -29.3620    52.1660   155.7910   136.3910   108.3800    25.0980     2.1730 
  202.7500   -29.3990    50.7310   162.1580   141.5940   105.0500    25.1120     2.1860 
  202.8750   -29.4180    50.2240   168.3730   147.3050    94.5300    25.0060     2.1920 
  203.0000   -29.4740    51.9400   170.6820   150.6890    92.1830    24.8520     2.1830 
  203.1250   -29.5170    54.1410   166.1320   149.0470   108.7030    24.7370     2.1580 
  203.2500   -29.5940    54.4640   154.7630   141.2120   122.0400    24.5780     2.1310 
  203.3750   -29.6980    54.8590   142.0440   130.9880   112.4800    24.3190     2.1270 
  203.5000   -29.7880    56.3700   131.7550   121.8530    92.1750    23.9280     2.1540 
  203.6250   -29.8730    57.4820   126.0470   116.4380    76.6170    23.7250     2.1970 
  203.7500   -29.8900    56.0420   126.1610   116.6280    90.4040    24.0340     2.2250 
  203.8750   -29.9170    54.4020   130.0430   120.7880   110.5760    24.5770     2.2210 
  204.0000   -29.9110    54.4660   135.4220   126.8830   111.2620    24.8630     2.1910 
  204.1250   -29.9050    53.6940   139.1190   132.0460   104.5260    24.8830     2.1470 
  204.2500   -29.8520    51.9530   136.6520   132.0200    97.0260    24.7610     2.1020 
  204.3750   -29.7810    51.9750   127.8350   125.8180    75.8250    24.4300     2.0640 
  204.5000   -29.6870    53.8860   114.9550   114.7650    52.1380    23.7890     2.0440 
  204.6250   -29.6020    55.4740   101.5390   101.8800    41.6960    23.0680     2.0590 
  204.7500   -29.5450    54.5250    91.2850    90.8460    38.4820    22.7610     2.1240 
  204.8750   -29.4960    53.6330    85.7340    83.8810    34.6970    22.6850     2.2060 
  205.0000   -29.4430    52.9920    85.8460    82.3590    34.0680    22.7040     2.2650 
  205.1250   -29.3600    53.2960    92.2160    87.1250    40.7880    22.7750     2.2850 
  205.2500   -29.3210    55.1400   106.2050    99.5170    59.9880    22.8950     2.2920 
  205.3750   -29.2690    56.2130   125.9020   117.3270    90.8830    22.9580     2.3210 
  205.5000   -29.2640    55.1300   148.2870   137.4310   134.0770    22.9720     2.3670 
  205.6250   -29.2340    54.8610   167.7620   154.8130   196.7890    23.0340     2.3960 
  205.7500   -29.2070    57.7450   177.0900   163.2920   181.5000    23.1520     2.3650 
  205.8750   -29.1520    59.8140   177.8040   163.8390   151.1170    23.1880     2.2950 
  206.0000   -29.1030    58.8420   174.2040   159.8790   133.8700    23.1530     2.2200 
  206.1250   -29.0890    56.2930   169.9830   155.0050   141.1760    23.2340     2.1690 
  206.2500   -29.0260    53.1930   166.0360   150.8530   155.9540    23.5090     2.1470 
  206.3750   -28.9840    51.0640   160.9030   146.4960   148.7210    23.7180     2.1370 
  206.5000   -28.8960    51.2010   153.3330   140.7020   115.9950    23.7230     2.1330 
  206.6250   -28.7980    52.5890   143.3820   133.0530    89.1170    23.6090     2.1360 
  206.7500   -28.6420    54.0360   132.3610   124.1770    79.9890    23.4920     2.1510 
  206.8750   -28.4820    54.6310   121.9870   115.4800    79.2970    23.4240     2.1700 
  207.0000   -28.2900    53.5350   113.0130   107.7250    76.7610    23.3420     2.1820 
  207.1250   -28.0500    52.0260   105.4570   101.1250    74.3120    23.2620     2.1840 
  207.2500   -27.7820    52.8550    98.3910    95.0820    69.6690    23.2430     2.1850 
  207.3750   -27.4800    53.6700    90.2140    88.2020    65.4400    23.2680     2.2030 
  207.5000   -27.1510    51.4300    80.2720    79.6790    59.4060    23.2980     2.2450 
  207.6250   -26.8250    48.8850    69.2530    69.7880    53.2280    23.2960     2.3040 
  207.7500   -26.5380    52.0870    59.0680    60.0350    45.0340    23.3250     2.3680 
  207.8750   -26.2220    58.6760    51.0310    51.9390    32.7890    23.5120     2.4300 
  208.0000   -25.9410    63.9960    45.5410    46.1400    28.0690    23.8700     2.4900 
  208.1250   -25.6670    64.6420    42.4220    42.6370    29.9070    24.1330     2.5400 
  208.2500   -25.4430    59.9530    41.5310    41.3360    39.8870    24.1710     2.5680 
  208.3750   -25.2650    54.0610    42.0750    41.4830    44.0270    24.2110     2.5730 
  208.5000   -25.1610    52.6960    43.6180    42.7050    39.5650    24.3600     2.5660 
  208.6250   -25.1320    57.9290    45.6330    44.5270    31.7640    24.4850     2.5630 
  208.7500   -25.1450    65.1520    47.4820    46.3260    34.5470    24.4640     2.5700 
  208.8750   -25.2400    70.0210    48.8350    47.6840    40.8310    24.3530     2.5690 
  209.0000   -25.3580    72.3920    49.7490    48.5850    42.1870    24.2340     2.5440 
  209.1250   -25.5190    71.3150    50.5670    49.2930    39.4450    24.2680     2.4970 
  209.2500   -25.7370    66.2080    51.8980    50.3350    33.2800    24.3630     2.4420 
  209.3750   -25.9250    60.9400    53.9720    52.0200    33.5430    24.3850     2.3960 
