~V
VERS. 2.00: Ver 2.00
~W
STRT.M 50.0000:
STOP.M 224.0000:
STEP.M 0.1250:
NULL. -999.2500:
UWI. F10690:
~C
DEPT.M :
SP.MV :
DEN.GM/CC :
GR.API :
RML.OHMM :
RI. :
RXO.OHMM :
CALI.CM :
~A
# ...
  162.5000   -24.6480     2.4390    64.1110     8.4850     8.0380     8.2770    25.5190 
  162.6250   -24.5780     2.4680    61.9020     8.7160     8.2630     8.4920    25.5110 
  162.7500   -24.4880     2.4970    61.0770     9.0180     8.5570    10.3270    25.4920 
  162.8750   -24.3970     2.5040    60.6240     9.3090     8.8400    12.0460    25.4750 
  163.0000   -24.3310     2.4810    59.8540     9.4810     9.0080    10.1850    25.4680 
  163.1250   -24.2990     2.4490    60.3120     9.4780     9.0050     8.4190    25.4680 
  163.2500   -24.2900     2.4280    61.9790     9.4020     8.9310     8.0260    25.4680 
  163.3750   -24.2800     2.4150    62.5440     9.3370     8.8670     8.2710    25.4680 
  163.5000   -24.2530     2.3980    62.1480     9.3110     8.8430     8.2570    25.4680 
  163.6250   -24.2030     2.3740    62.6000     9.2630     8.7950     8.5040    25.4680 
  163.7500   -24.1370     2.3570    65.0090     9.0880     8.6250     9.0760    25.4680 
  163.8750   -24.0680     2.3550    68.2880     8.7620     8.3080     8.6460    25.4680 
  164.0000   -24.0040     2.3670    70.5630     8.3760     7.9320     7.4480    25.4680 
  164.1250   -23.9540     2.3830    70.2310     8.0990     7.6620     6.5920    25.4680 
  164.2500   -23.9110     2.3920    67.6780     8.0190     7.5840     6.5320    25.4680 
  164.3750   -23.8680     2.3920    64.9540     8.1570     7.7190     7.0880    25.4680 
  164.5000   -23.8270     2.3840    62.6390     8.4650     8.0190     7.7760    25.4680 
  164.6250   -23.7940     2.3700    60.4410     8.8240     8.3680     8.2790    25.4680 
  164.7500   -23.7690     2.3630    60.9090     9.1160     8.6530     8.4270    25.4680 
  164.8750   -23.7320     2.3680    64.6020     9.3480     8.8780     8.6620    25.4680 
  165.0000   -23.6630     2.3810    69.1660     9.5940     9.1180     8.7390    25.4680 
  165.1250   -23.5630     2.3970    69.2750     9.9280     9.4430     8.5210    25.4680 
  165.2500   -23.4500     2.4150    64.9700    10.2830     9.7890     8.8970    25.4680 
  165.3750   -23.3510     2.4290    60.1070    10.4940     9.9940    10.1010    25.4680 
  165.5000   -23.2760     2.4270    58.8640    10.3750     9.8780    11.2400    25.4680 
  165.6250   -23.2200     2.4070    62.2100     9.8220     9.3400     9.3580    25.4680 
  165.7500   -23.1780     2.3900    64.4200     9.0940     8.6310     7.2530    25.4680 
  165.8750   -23.1400     2.3860    64.1880     8.4280     7.9820     6.1750    25.4680 
  166.0000   -23.1040     2.3950    63.5080     7.9880     7.5540     5.9010    25.4680 
  166.1250   -23.0560     2.4080    63.8130     7.8460     7.4160     6.1940    25.4680 
  166.2500   -22.9910     2.4140    65.4680     7.8510     7.4210     6.7570    25.4680 
  166.3750   -22.9220     2.4110    67.3760     7.8680     7.4380     7.2390    25.4680 
  166.5000   -22.8640     2.4030    68.4060     7.8450     7.4150     7.2460    25.4680 
  166.6250   -22.8400     2.3950    67.3820     7.9140     7.4820     6.7110    25.4680 
  166.7500   -22.8360     2.3810    65.4710     8.2810     7.8400     6.3220    25.4680 
  166.8750   -22.8330     2.3580    63.6320     9.1440     8.6800     6.5850    25.4680 
  167.0000   -22.8240     2.3250    62.3140    10.6660    10.1620     8.2730    25.4680 
  167.1250   -22.8060     2.2940    60.5850    13.0320    12.4660    13.2370    25.4660 
  167.2500   -22.7940     2.2680    56.5540    15.9280    15.2850    19.0690    25.4560 
  167.3750   -22.7930     2.2460    51.0670    18.8870    18.1670    21.5010    25.4330 
  167.5000   -22.8010     2.2170    47.6590    21.3800    20.5940    21.2370    25.4000 
  167.6250   -22.8060     2.1830    48.8170    23.1100    22.2790    22.3070    25.3480 
  167.7500   -22.8010     2.1580    50.5120    24.5310    23.6620    22.9990    25.2860 
  167.8750   -22.7860     2.1730    50.7810    26.0630    25.1540    23.1240    25.2550 
  168.0000   -22.7530     2.2260    49.2820    27.9100    26.9520    23.8690    25.2490 
  168.1250   -22.7120     2.2920    45.4700    29.8980    28.8880    28.8150    25.2490 
  168.2500   -22.6760     2.3770    41.4420    31.4910    30.4390    36.0850    25.2490 
  168.3750   -22.6580     2.4580    40.9810    32.1880    31.1180    38.7200    25.2500 
  168.5000   -22.6770     2.4330    44.8340    31.7510    30.6930    32.3740    25.2510 
  168.6250   -22.7410     2.4150    46.3300    30.3070    29.2860    27.6330    25.2500 
  168.7500   -22.8460     2.4220    43.5720    28.5940    27.6180    25.5070    25.2490 
  168.8750   -22.9670     2.4220    41.3020    27.0950    26.1580    24.0500    25.2490 
  169.0000   -23.0710     2.4050    42.1880    26.1150    25.2040    21.9720    25.2490 
  169.1250   -23.1420     2.3930    43.0730    25.9220    25.0170    21.4830    25.2490 
  169.2500   -23.1920     2.3980    41.9980    26.4230    25.5050    22.6550    25.2490 
  169.3750   -23.2460     2.4160    41.8400    27.5340    26.5860    22.9690    25.2490 
  169.5000   -23.3130     2.4370    43.4370    29.0350    28.0480    23.4370    25.2490 
  169.6250   -23.3860     2.4340    44.0770    30.4160    29.3920    25.8620    25.2490 
  169.7500   -23.4640     2.4010    43.3460    31.1130    30.0710    27.9580    25.2530 
  169.8750   -23.5460     2.3650    41.3330    30.9080    29.8720    26.7300    25.2660 
  170.0000   -23.6510     2.3570    38.2760    30.0310    29.0170    25.3110    25.2950 
  170.1250   -23.7930     2.3800    36.8090    29.0350    28.0480    23.3850    25.3190 
  170.2500   -23.9160     2.4070    38.9090    28.4410    27.4700    22.3410    25.3350 
  170.3750   -23.9950     2.4250    42.4180    28.4400    27.4680    24.1270    25.3400 
  170.5000   -24.0310     2.4330    44.8070    28.9540    27.9690    28.5420    25.3350 
  170.6250   -24.0530     2.4290    47.1610    29.6930    28.6880    30.9090    25.3440 
  170.7500   -24.0880     2.4130    48.8960    30.2610    29.2410    29.0930    25.3510 
  170.8750   -24.1510     2.3860    48.7190    30.4710    29.4460    27.0240    25.3560 
  171.0000   -24.2310     2.3580    48.1270    30.3250    29.3040    25.7090    25.3570 
  171.1250   -24.3010     2.3420    48.3340    29.9740    28.9620    25.5320    25.3560 
  171.2500   -24.3620     2.3390    47.8430    29.6210    28.6180    25.3880    25.3540 
  171.3750   -24.4220     2.3340    46.6200    29.2940    28.2990    25.0760    25.3530 
  171.5000   -24.4950     2.3150    45.0230    28.9450    27.9600    23.7050    25.3540 
  171.6250   -24.5850     2.2900    44.6710    28.5260    27.5520    23.2560    25.3560 
  171.7500   -24.6810     2.2730    47.4790    28.0770    27.1150    22.5410    25.3550 
  171.8750   -24.7670     2.2620    50.8580    27.6910    26.7390    21.6770    25.3540 
  172.0000   -24.8230     2.2460    50.1300    27.4870    26.5400    21.2650    25.3530 
  172.1250   -24.8640     2.2320    47.0380    27.6230    26.6730    22.4570    25.3530 
  172.2500   -24.9020     2.2300    48.0520    28.0670    27.1050    23.6490    25.3530 
  172.3750   -24.9370     2.2400    52.6880    28.7210    27.7420    24.5510    25.3530 
  172.5000   -24.9660     2.2510    54.8990    29.3840    28.3870    25.7420    25.3530 
  172.6250   -24.9800     2.2580    52.0170    29.7220    28.7170    26.8110    25.3480 
  172.7500   -24.9940     2.2580    49.7910    29.5850    28.5840    27.1640    25.3350 
  172.8750   -25.0180     2.2530    50.5740    28.9670    27.9810    25.4480    25.3180 
  173.0000   -25.0620     2.2500    51.2990    27.9610    27.0020    23.3020    25.3080 
  173.1250   -25.1230     2.2530    50.0600    26.6360    25.7120    22.1460    25.3070 
  173.2500   -25.1770     2.2580    49.7290    25.1330    24.2480    21.4230    25.3070 
  173.3750   -25.2210     2.2600    49.6740    23.5800    22.7360    20.5630    25.3020 
  173.5000   -25.2590     2.2610    47.0190    22.1710    21.3640    19.0420    25.2850 
  173.6250   -25.3000     2.2720    45.6940    21.2080    20.4270    16.8190    25.2440 
