~V
VERS. 2.00: Ver 2.00
~W
STRT.M 55.0000:
STOP.M 192.0000:
STEP.M 0.1250:
NULL. -999.2500:
UWI. F10682:
~C
DEPT.M :
DEN.GM/CC :
GR.API :
RML.OHMM :
RI. :
RXO.OHMM :
CALI.CM :
SP.MV :
~A
# ...
  133.7500     2.5540    52.8600     9.5010     7.8390    11.7930    24.5970   -18.1670 
  133.8750     2.5540    53.9940     9.9640     8.4460    13.6140    24.5920   -18.1950 
  134.0000     2.5480    54.9880    10.4860     9.2330    13.3440    24.5370   -18.2310 
  134.1250     2.5360    58.7660    11.0330    10.0570    12.9730    24.5750   -18.2540 
  134.2500     2.5220    63.4200    11.6220    10.8690    14.4270    24.7160   -18.2830 
  134.3750     2.5090    64.4300    12.2290    11.6700    17.2300    24.8720   -18.3300 
  134.5000     2.5020    63.0760    12.6910    12.3580    18.9770    24.9280   -18.3840 
  134.6250     2.4990    63.3630    12.6050    12.5590    18.3080    24.9800   -18.4600 
  134.7500     2.4880    63.9100    11.8060    12.0350    17.0670    24.9400   -18.5390 
  134.8750     2.4640    63.1700    10.3710    10.7930    16.8790    24.8630   -18.6320 
  135.0000     2.4260    61.8470     8.6700     9.1580    15.2240    24.8370   -18.7190 
  135.1250     2.3840    61.6900     7.2350     7.6200    10.6600    24.8340   -18.8250 
  135.2500     2.3470    61.4550     6.2860     6.4570     7.2040    24.8340   -18.9670 
  135.3750     2.3210    61.3210     5.8050     5.7170     6.3880    24.8340   -19.1410 
  135.5000     2.3070    62.6940     5.6670     5.3400     6.5090    24.8180   -19.3420 
  135.6250     2.3110    65.9590     5.7300     5.2460     7.1060    24.7210   -19.5340 
  135.7500     2.3340    68.4260     5.8380     5.2750     7.7230    24.5150   -19.7360 
  135.8750     2.3790    66.9300     5.9870     5.3850     7.5440    24.4510   -19.9370 
  136.0000     2.4330    62.9280     6.2810     5.6150     6.9910    24.4400   -20.1480 
  136.1250     2.4670    63.3510     6.9220     6.1060     6.8150    24.4350   -20.3860 
  136.2500     2.4560    67.7640     7.9570     6.9190     8.0230    24.4030   -20.6300 
  136.3750     2.4040    68.6580     9.3790     8.0970    11.2620    24.3240   -20.8600 
  136.5000     2.3340    63.9930    11.0770     9.6110    15.4690    24.2650   -21.0810 
  136.6250     2.2870    59.5590    12.8470    11.3220    18.3750    24.2170   -21.2980 
  136.7500     2.2740    57.6280    14.5090    12.9760    19.1140    24.2210   -21.4970 
  136.8750     2.2840    57.5040    16.0640    14.4700    21.2280    24.3090   -21.6810 
  137.0000     2.2990    57.7430    17.6350    15.8580    26.8680    24.5070   -21.8200 
  137.1250     2.2980    56.6770    19.4180    17.3290    29.6460    24.7690   -21.9120 
  137.2500     2.2830    55.0870    21.4750    19.0160    30.0090    24.6480   -21.9630 
  137.3750     2.2610    54.0500    23.7940    20.9440    31.1300    24.5600   -21.9920 
  137.5000     2.2410    52.6170    26.2930    23.0620    32.9320    24.5410   -21.9970 
  137.6250     2.2270    47.9210    28.8510    25.2940    34.9730    24.5440   -22.0150 
  137.7500     2.2180    42.8930    31.3080    27.5050    36.6760    24.5060   -22.0460 
  137.8750     2.2120    41.5530    33.5360    29.5640    39.9490    24.3980   -22.0720 
  138.0000     2.2050    43.8670    35.4790    31.3770    43.3570    24.2290   -22.1010 
  138.1250     2.1930    48.2360    37.1800    32.9510    45.2230    24.2300   -22.1150 
  138.2500     2.1780    51.1060    38.7930    34.4650    48.0350    24.3120   -22.1160 
  138.3750     2.1640    49.7770    40.3420    35.9920    53.1380    24.4190   -22.1080 
  138.5000     2.1570    44.5850    41.7540    37.4870    56.2070    24.5010   -22.1010 
  138.6250     2.1670    41.1070    42.8740    38.7980    58.4490    24.6020   -22.0470 
  138.7500     2.1910    43.6390    43.6890    39.8530    61.5870    24.6820   -21.9480 
  138.8750     2.2240    49.5850    44.2110    40.6160    61.9590    24.7590   -21.8260 
  139.0000     2.2560    52.3660    44.4810    41.1070    57.3520    24.8630   -21.7100 
  139.1250     2.2740    51.0850    44.4490    41.3140    53.6830    24.8240   -21.6050 
  139.2500     2.2730    50.2110    43.9580    41.1740    54.1140    24.8410   -21.5060 
  139.3750     2.2580    49.3710    42.7460    40.4610    55.0980    24.6590   -21.4070 
  139.5000     2.2370    46.7260    40.7120    38.9910    50.8250    24.5070   -21.3010 
  139.6250     2.2260    45.1080    38.0460    36.7760    46.2920    24.3530   -21.2190 
  139.7500     2.2350    46.4510    35.4350    34.4070    44.0940    24.1270   -21.1820 
  139.8750     2.2670    48.1030    33.4230    32.4070    41.1170    24.1260   -21.1680 
  140.0000     2.3140    47.5670    32.3770    31.1760    35.4260    24.1530   -21.1490 
  140.1250     2.3640    46.3990    32.6250    31.0750    32.1950    24.3150   -21.1530 
  140.2500     2.4030    46.5030    33.9070    31.9390    37.9180    24.5410   -21.1910 
  140.3750     2.4290    47.4780    36.0130    33.6390    47.4300    24.7210   -21.2710 
  140.5000     2.4400    48.2330    38.5850    35.9270    50.7040    24.9040   -21.3620 
  140.6250     2.4270    49.1640    41.0750    38.3850    48.4280    24.8280   -21.4480 
  140.7500     2.3890    49.4930    43.0280    40.4890    47.7410    24.6690   -21.5090 
  140.8750     2.3350    49.4000    44.2140    41.9310    51.9720    24.5240   -21.5700 
  141.0000     2.2810    49.6510    44.6010    42.5940    56.7600    24.3920   -21.6370 
  141.1250     2.2490    50.1350    44.2670    42.4550    53.8940    24.3760   -21.6690 
  141.2500     2.2390    48.2070    43.6320    41.8840    49.8270    24.3730   -21.6580 
  141.3750     2.2430    44.1730    42.9830    41.1650    47.2890    24.3990   -21.5840 
  141.5000     2.2460    42.2320    42.5230    40.5490    47.2470    24.5250   -21.4970 
  141.6250     2.2410    45.3400    42.3710    40.2450    48.4150    24.7660   -21.4050 
  141.7500     2.2320    49.1400    42.4450    40.2390    47.4410    24.8080   -21.3230 
  141.8750     2.2220    50.4900    42.7030    40.4960    46.2890    24.8330   -21.2400 
  142.0000     2.2110    49.5690    43.1760    41.0050    45.8780    24.9490   -21.1490 
  142.1250     2.1960    48.1090    43.9730    41.8240    47.7560    25.0060   -21.0540 
  142.2500     2.1830    46.1080    44.9610    42.8360    50.8070    25.0530   -20.9620 
  142.3750     2.1820    42.6660    45.8970    43.8330    53.4690    25.0950   -20.9030 
  142.5000     2.1960    40.4600    46.4710    44.5480    56.3670    25.2420   -20.8130 
  142.6250     2.2220    41.7120    46.3810    44.6850    57.9130    25.3600   -20.7320 
  142.7500     2.2400    42.8540    45.7530    44.3000    55.1790    25.3790   -20.6480 
  142.8750     2.2400    42.3240    44.7490    43.5020    52.1650    25.3510   -20.5600 
  143.0000     2.2220    41.4520    43.5410    42.4410    50.8700    25.2450   -20.4960 
  143.1250     2.1960    42.1320    42.2620    41.2490    51.0240    25.0370   -20.4590 
  143.2500     2.1780    42.5050    41.0270    40.0540    51.4750    24.9950   -20.4500 
  143.3750     2.1750    42.8700    39.9120    38.9370    49.1050    24.9320   -20.4640 
  143.5000     2.1880    43.7970    38.9670    37.9620    43.4680    24.8420   -20.5500 
  143.6250     2.2130    44.2230    38.2240    37.1880    40.0960    24.8130   -20.6340 
  143.7500     2.2400    43.7010    37.6150    36.5660    39.7200    24.9740   -20.7580 
  143.8750     2.2590    43.2140    37.1260    36.0810    40.9230    25.0790   -20.8950 
  144.0000     2.2650    43.9690    36.7960    35.7450    41.9920    25.0080   -21.0450 
  144.1250     2.2550    46.0830    36.7330    35.6310    41.9580    24.9380   -21.1780 
  144.2500     2.2360    49.0790    36.9770    35.7670    40.3100    24.8000   -21.2830 
  144.3750     2.2140    52.5820    37.6360    36.2660    38.3360    24.6920   -21.3520 
  144.5000     2.1940    54.9020    38.8370    37.2760    38.2270    24.4840   -21.4170 
  144.6250     2.1850    53.8170    40.6960    38.9980    42.0560    24.4620   -21.4860 
  144.7500     2.1880    50.2330    42.8880    41.2050    47.2400    24.5200   -21.5210 
  144.8750     2.1980    46.4290    44.9440    43.4940    51.5760    24.6300   -21.5380 
