~V
VERS. 2.00: Ver 2.00
~W
STRT.M 52.0000:
STOP.M 240.0000:
STEP.M 0.1250:
NULL. -999.2500:
UWI. F10646:
~C
DEPT.M :
GR.API :
RML.OHMM :
RI. :
RXO.OHMM :
CALI.CM :
DEN.GM/CC :
SP.MV :
~A
# ...
   74.5000    61.0780     9.3500     6.8440     9.3510    26.0520     2.1660   -21.8830 
   74.6250    62.0120     9.6640     6.9830     9.3960    26.1390     2.1740   -21.7160 
   74.7500    61.5170    10.4900     7.4250     9.4290    26.3510     2.1570   -21.5210 
   74.8750    59.6730    11.7930     8.1990     9.4330    26.5030     2.1280   -21.2800 
   75.0000    58.2910    13.1920     9.1550    10.6020    26.1580     2.1330   -20.9280 
   75.1250    59.3390    13.9480     9.8370    15.1690    25.3380     2.1960   -20.5340 
   75.2500    65.2690    13.4560     9.8010    21.3210    24.7230     2.3040   -20.1070 
   75.3750    75.0990    11.7110     8.9190    16.4980    24.4820     2.4010   -19.6530 
   75.5000    83.0830     9.5220     7.5540     8.6490    24.7290     2.4260   -19.1830 
   75.6250    85.9240     7.8320     6.3380     6.1090    24.9250     2.4120   -18.7500 
   75.7500    85.7740     6.9270     5.5320     5.4930    24.9250     2.3970   -18.3490 
   75.8750    83.8900     6.7710     5.2030     5.6100    24.7520     2.3830   -17.9760 
   76.0000    78.2540     7.2120     5.3430     6.2580    24.7330     2.3430   -17.6880 
   76.1250    72.0770     7.8030     5.6940     7.1610    24.9880     2.2730   -17.4550 
   76.2500    70.2160     8.2210     6.0360     7.6890    25.1830     2.1950   -17.2500 
   76.3750    72.7390     8.2890     6.1990     7.3570    24.8840     2.1330   -17.0750 
   76.5000    75.2880     7.9990     6.1020     6.6460    24.5210     2.1080   -16.9700 
   76.6250    76.5100     7.5810     5.8700     6.3590    24.3420     2.1230   -16.8680 
   76.7500    76.5670     7.2000     5.6200     6.1840    24.4050     2.1630   -16.7850 
   76.8750    77.2540     6.9670     5.4490     6.1600    24.5680     2.2060   -16.7840 
   77.0000    80.4110     6.9600     5.4220     6.2230    24.6590     2.2360   -16.8140 
   77.1250    83.6870     7.1290     5.5090     6.1880    24.6570     2.2520   -16.8850 
   77.2500    83.6830     7.4170     5.6650     6.2150    24.5900     2.2570   -17.0660 
   77.3750    80.7070     7.7190     5.8290     6.4840    24.5190     2.2520   -17.2800 
   77.5000    79.3180     7.8790     5.9100     6.7550    24.5250     2.2410   -17.4740 
   77.6250    79.0580     7.8290     5.8700     6.8270    24.5710     2.2330   -17.7290 
   77.7500    77.9220     7.5860     5.7170     6.6840    24.6040     2.2340   -17.9660 
   77.8750    77.4440     7.2490     5.5010     6.3570    24.5960     2.2460   -18.1670 
   78.0000    81.1080     6.9890     5.3130     6.0220    24.5630     2.2690   -18.3720 
   78.1250    87.5890     6.9380     5.2320     6.0590    24.5440     2.2920   -18.5280 
   78.2500    91.0300     7.1510     5.3020     6.3130    24.5540     2.3080   -18.6430 
   78.3750    87.2220     7.6000     5.5290     6.6570    24.5630     2.3100   -18.7420 
   78.5000    80.3010     8.1800     5.8880     6.9390    24.5400     2.2970   -18.7900 
   78.6250    75.7920     8.7030     6.2760     7.5490    24.5520     2.2790   -18.7830 
   78.7500    74.0290     9.0520     6.6100     8.2500    24.6720     2.2640   -18.7620 
   78.8750    72.2830     9.2090     6.8420     8.5410    24.8370     2.2620   -18.6830 
   79.0000    68.1470     9.3190     6.9980     8.1220    24.8550     2.2640   -18.5330 
   79.1250    65.0210     9.6170     7.2130     7.9800    24.8150     2.2490   -18.4000 
   79.2500    66.0970    10.2100     7.5840     8.4510    24.9100     2.2140   -18.2590 
   79.3750    69.9690    11.0090     8.1080     8.9600    25.1040     2.1830   -18.0750 
   79.5000    70.7980    11.6410     8.5940     9.8620    25.1520     2.1980   -17.8890 
   79.6250    69.1950    11.6950     8.7510    11.5910    24.9200     2.2690   -17.7370 
   79.7500    70.2040    10.9780     8.3970    12.8270    24.4560     2.3640   -17.6030 
   79.8750    76.2550     9.6670     7.5910    10.1600    23.9970     2.4290   -17.4910 
   80.0000    83.3490     8.2440     6.6060     7.3030    23.7140     2.4250   -17.4640 
   80.1250    86.6670     7.1310     5.7560     6.1240    23.6830     2.3880   -17.4850 
   80.2500    84.8230     6.4810     5.1760     6.1790    23.8960     2.3500   -17.5070 
   80.3750    79.9110     6.3340     4.9350     6.3160    24.2460     2.3200   -17.5780 
   80.5000    74.8990     6.7540     5.1130     6.4230    24.3540     2.3050   -17.7580 
   80.6250    71.1440     7.5730     5.6120     6.7470    24.1930     2.3090   -17.9540 
   80.7500    69.8950     8.6350     6.3380     8.0750    23.8840     2.3340   -18.1550 
   80.8750    69.2630     9.6880     7.1280    10.7640    23.5860     2.3660   -18.4220 
   81.0000    66.4000    10.3330     7.7100    11.5700    23.3740     2.3790   -18.6740 
   81.1250    62.6330    10.4460     7.9350     9.1670    23.2650     2.3640   -18.8750 
   81.2500    61.4360    10.1310     7.8220     7.4500    23.3940     2.3320   -19.0930 
   81.3750    64.2520     9.6300     7.5140     7.1580    23.8150     2.2920   -19.2850 
   81.5000    67.0420     9.1700     7.1710     7.6450    24.4070     2.2520   -19.3930 
   81.6250    65.8890     8.8050     6.8730     8.0420    24.7480     2.2170   -19.4870 
   81.7500    62.6680     8.5060     6.6190     8.0730    24.8550     2.2000   -19.5580 
   81.8750    62.9940     8.2680     6.4080     7.4920    24.8120     2.2150   -19.5550 
   82.0000    69.5760     8.2230     6.3150     6.8500    24.7080     2.2670   -19.5510 
   82.1250    74.5840     8.4880     6.4200     6.6920    24.6560     2.3160   -19.5470 
   82.2500    73.3220     9.1320     6.7820     7.0670    24.6840     2.3280   -19.5020 
   82.3750    67.4440    10.1210     7.3990     8.1340    24.8430     2.2960   -19.4900 
   82.5000    61.5200    11.2770     8.1940     9.2740    25.1670     2.2350   -19.5410 
   82.6250    56.6420    12.2660     8.9530     9.7270    25.5360     2.1750   -19.5790 
   82.7500    52.3850    12.8610     9.5060     9.8150    25.7720     2.1330   -19.6410 
   82.8750    49.9000    13.0130     9.7700     9.9840    25.8030     2.1220   -19.7720 
   83.0000    48.8820    12.8270     9.7530    10.2230    25.7020     2.1360   -19.9300 
   83.1250    49.0180    12.5530     9.6090    10.2530    25.6060     2.1510   -20.0880 
   83.2500    50.9980    12.3000     9.4220    10.2290    25.5050     2.1610   -20.2770 
   83.3750    54.8720    12.1000     9.2370    10.1530    25.3160     2.1650   -20.5010 
   83.5000    56.9440    11.9630     9.0850    10.1100    25.0420     2.1730   -20.7150 
   83.6250    56.2790    11.8890     8.9840    10.0840    24.8630     2.1790   -20.9010 
   83.7500    55.0270    11.8790     8.9410    10.0400    24.5950     2.1740   -21.0880 
   83.8750    54.4590    11.9120     8.9440    10.0760    23.9600     2.1530   -21.2350 
   84.0000    55.5140    11.9390     8.9640    10.0980    23.4040     2.1210   -21.3060 
   84.1250    58.0420    11.9160     8.9620    10.0900    23.2110     2.0980   -21.3850 
   84.2500    60.5510    11.8250     8.9210     9.8940    23.2290     2.0950   -21.4190 
   84.3750    61.4310    11.6780     8.8380     9.7130    23.2970     2.1150   -21.4020 
   84.5000    60.4160    11.5200     8.7370     9.6700    23.5250     2.1460   -21.3670 
   84.6250    59.2580    11.3970     8.6490     9.6720    24.0950     2.1680   -21.3080 
   84.7500    57.0770    11.3160     8.5850     9.6440    24.7930     2.1760   -21.2030 
   84.8750    54.2910    11.2390     8.5300     9.5650    25.1770     2.1780   -21.0920 
   85.0000    53.7290    11.0910     8.4350     9.3540    25.2620     2.1810   -20.9950 
   85.1250    54.1480    10.8380     8.2640     9.0280    25.4000     2.1820   -20.8400 
   85.2500    53.7910    10.4950     8.0110     8.6560    25.6940     2.1750   -20.6980 
   85.3750    53.4150    10.1220     7.7100     8.2670    25.9350     2.1620   -20.5870 
   85.5000    57.2940     9.8170     7.4250     7.8780    25.8180     2.1490   -20.4640 
   85.6250    62.9000     9.6440     7.2140     7.8120    25.2760     2.1470   -20.3500 
