~V
VERS. 2.00: Ver 2.00
~W
STRT.M 55.0000:
STOP.M 192.0000:
STEP.M 0.1250:
NULL. -999.2500:
UWI. F10682:
~C
DEPT.M :
DEN.GM/CC :
GR.API :
RML.OHMM :
RI. :
RXO.OHMM :
CALI.CM :
SP.MV :
~A
# ...
   77.5000     2.3160    58.3600     9.1010     8.7840     8.0810    24.1830   -14.9600 
   77.6250     2.3910    61.8310     8.4260     7.7370     6.4810    24.5310   -14.8120 
   77.7500     2.4740    62.9800     9.0230     7.6190     6.8990    24.6560   -14.6730 
   77.8750     2.5390    59.3840    10.6460     8.3710     9.9880    24.6380   -14.5660 
   78.0000     2.5630    55.9320    12.9020     9.8590    16.4680    24.6280   -14.5510 
   78.1250     2.5220    55.7510    15.0850    11.7680    23.1270    24.5790   -14.5900 
   78.2500     2.4420    55.5990    16.5980    13.4740    21.3320    24.5010   -14.7030 
   78.3750     2.3560    55.0490    17.6480    14.7870    14.8240    24.4790   -14.7980 
   78.5000     2.3020    56.4300    19.1630    16.1500    12.9770    24.4860   -14.8930 
   78.6250     2.3180    58.1520    22.4290    18.6660    15.1460    24.5530   -14.9510 
   78.7500     2.3940    56.2070    27.3710    22.8120    20.4470    24.6170   -14.9690 
   78.8750     2.5050    51.4980    32.8000    28.1290    29.7290    24.6190   -14.9730 
   79.0000     2.6080    45.7430    35.8440    32.3790    44.5710    24.6080   -14.9230 
   79.1250     2.6480    40.8980    32.3530    31.1110    65.0550    24.6110   -14.8670 
   79.2500     2.6270    41.0410    24.7000    25.1660    56.0250    24.6420   -14.7830 
   79.3750     2.5710    48.9890    17.0210    18.1540    27.6810    24.7400   -14.6940 
   79.5000     2.5140    60.4180    11.6380    12.6730    11.0730    24.9070   -14.6300 
   79.6250     2.4790    67.7800     8.8830     9.4710     7.8140    24.9330   -14.5520 
   79.7500     2.4600    69.2300     7.5350     7.6460     7.6570    24.9340   -14.5110 
   79.8750     2.4480    67.9700     6.9860     6.7050     8.1900    24.9330   -14.4650 
   80.0000     2.4360    68.1430     6.8520     6.3200     6.9300    24.9330   -14.3980 
   80.1250     2.4220    70.1120     6.9140     6.2780     6.1700    24.9330   -14.3360 
   80.2500     2.4100    72.8300     7.0390     6.3510     6.2700    24.9370   -14.2820 
   80.3750     2.4030    74.7400     7.2030     6.4730     6.5520    24.9610   -14.2610 
   80.5000     2.4030    74.8120     7.3770     6.6250     6.3000    25.0090   -14.2210 
   80.6250     2.4110    71.7230     7.4590     6.7630     6.3190    25.0110   -14.1920 
   80.7500     2.4230    68.5990     7.3840     6.8120     6.4610    25.0140   -14.1570 
   80.8750     2.4290    68.5400     7.1590     6.7200     6.6290    25.0100   -14.1360 
   81.0000     2.4200    70.7140     6.8690     6.4930     6.8740    25.0090   -14.1600 
   81.1250     2.3960    70.9280     6.6640     6.2260     6.9430    25.0090   -14.1810 
   81.2500     2.3730    70.3300     6.6800     6.0750     6.2700    25.0040   -14.2180 
   81.3750     2.3630    70.7600     7.0250     6.1680     5.7950    24.9790   -14.2230 
   81.5000     2.3700    70.5590     7.7300     6.5620     6.1280    24.8830   -14.2520 
   81.6250     2.3830    68.3140     8.7050     7.2390     7.4550    24.8440   -14.3250 
   81.7500     2.3860    65.5080     9.6040     7.9500     9.1620    24.7770   -14.3830 
   81.8750     2.3750    63.0890    10.0700     8.4240    10.1070    24.6560   -14.4320 
   82.0000     2.3570    62.0410     9.8860     8.4460     9.7220    24.5500   -14.4530 
   82.1250     2.3460    63.1840     9.1260     7.9720     8.3810    24.5380   -14.4240 
   82.2500     2.3460    66.1350     8.2820     7.3310     7.5610    24.5510   -14.3710 
   82.3750     2.3530    69.3210     7.6360     6.7430     7.1350    24.5730   -14.3040 
   82.5000     2.3590    70.2540     7.2770     6.3180     6.3760    24.6890   -14.1850 
   82.6250     2.3590    68.1480     7.1630     6.0880     6.0190    24.8370   -14.0380 
   82.7500     2.3540    65.9280     7.1170     5.9570     6.0740    24.8600   -13.8850 
   82.8750     2.3490    67.4990     7.0340     5.8530     6.3100    24.8540   -13.7370 
   83.0000     2.3450    71.4760     6.8840     5.7320     6.2510    24.8560   -13.6110 
   83.1250     2.3460    72.0790     6.7250     5.5960     5.7780    24.8590   -13.5360 
   83.2500     2.3480    69.0550     6.6570     5.4920     5.4400    24.8660   -13.4800 
   83.3750     2.3470    66.9680     6.7300     5.4590     5.3670    24.8660   -13.4830 
   83.5000     2.3420    68.7340     6.9350     5.5190     5.5330    24.8630   -13.5310 
   83.6250     2.3310    70.5630     7.2060     5.6660     5.9660    24.8230   -13.5970 
   83.7500     2.3180    67.4110     7.4440     5.8330     6.4140    24.6730   -13.7180 
   83.8750     2.3060    62.3240     7.6090     5.9700     6.6300    24.4630   -13.8380 
   84.0000     2.2940    62.0060     7.7280     6.0690     6.5260    24.4040   -13.9830 
   84.1250     2.2780    65.9090     7.8990     6.1800     6.4730    24.4440   -14.1360 
   84.2500     2.2590    66.5030     8.1800     6.3630     6.6930    24.4650   -14.2970 
   84.3750     2.2410    62.8430     8.5660     6.6440     6.9930    24.4490   -14.4590 
   84.5000     2.2320    60.1400     9.0070     7.0170     7.6100    24.3740   -14.5810 
   84.6250     2.2470    62.2950     9.4620     7.4620     8.6580    24.2570   -14.6680 
   84.7500     2.2850    64.0050     9.9620     7.9590     9.1550    24.2590   -14.6850 
   84.8750     2.3370    62.2500    10.5800     8.5250     9.4810    24.3800   -14.6560 
   85.0000     2.3810    58.3790    11.3370     9.1580    10.1000    24.6200   -14.5690 
   85.1250     2.3950    57.5700    12.0670     9.7580    11.3280    24.7220   -14.4300 
   85.2500     2.3790    59.5060    12.4610    10.1320    12.8850    24.5970   -14.2610 
   85.3750     2.3470    61.0670    12.2820    10.1160    12.9230    24.3610   -14.0320 
   85.5000     2.3160    61.1800    11.5180     9.6720    11.5560    24.2350   -13.8180 
   85.6250     2.3000    61.7130    10.4420     8.9290     9.5340    24.2630   -13.6000 
   85.7500     2.2960    62.9360     9.5110     8.2020     7.9270    24.4960   -13.3820 
   85.8750     2.3010    64.0740     8.9180     7.6650     7.5070    24.6630   -13.2050 
   86.0000     2.3110    63.8060     8.6520     7.3640     7.9250    24.7340   -13.0370 
   86.1250     2.3260    60.7300     8.5930     7.2600     7.9190    24.7720   -12.8910 
   86.2500     2.3400    58.5210     8.5570     7.2200     7.6050    24.7790   -12.7410 
   86.3750     2.3480    59.0170     8.4860     7.1810     7.3710    24.7860   -12.6100 
   86.5000     2.3480    61.8710     8.3980     7.1300     7.1120    24.7870   -12.4630 
   86.6250     2.3360    65.2930     8.3370     7.1020     6.6910    24.7630   -12.3150 
   86.7500     2.3200    67.6950     8.3100     7.1210     6.9250    24.6910   -12.2160 
   86.8750     2.3010    68.7580     8.3210     7.1910     7.4910    24.6390   -12.1030 
   87.0000     2.2810    68.0890     8.4030     7.3210     7.6550    24.6530   -12.0180 
   87.1250     2.2600    65.5130     8.6460     7.5490     7.4120    24.7040   -11.9220 
   87.2500     2.2420    61.2440     9.1090     7.9070     7.3800    24.7640   -11.8260 
   87.3750     2.2330    56.7300     9.8450     8.4540     8.2230    24.8190   -11.7480 
   87.5000     2.2350    55.2710    10.8580     9.2420     9.8290    24.7650   -11.6520 
   87.6250     2.2440    57.3480    12.0700    10.3030    10.7980    24.5590   -11.5840 
   87.7500     2.2480    60.0210    13.2080    11.4520    11.1370    24.4900   -11.5230 
   87.8750     2.2430    61.6650    13.9420    12.3990    12.0780    24.4890   -11.4580 
   88.0000     2.2320    60.6430    13.9440    12.7730    13.4530    24.5700   -11.3770 
   88.1250     2.2260    57.5490    12.9750    12.2040    13.4050    24.6070   -11.3200 
   88.2500     2.2320    56.2100    11.5000    11.0220    11.6390    24.6130   -11.2760 
   88.3750     2.2480    57.9230    10.0100     9.6520     9.1300    24.6050   -11.2230 
   88.5000     2.2680    61.7920     8.8800     8.4600     7.4330    24.5570   -11.1940 
   88.6250     2.2860    64.4340     8.3030     7.6940     6.5890    24.4450   -11.2030 
