~V
VERS. 2.00: Ver 2.00
~W
STRT.M 52.0000:
STOP.M 238.0000:
STEP.M 0.1250:
NULL. -999.2500:
UWI. F10653:
~C
DEPT.M :
GR.API :
RML.OHMM :
RI. :
RXO.OHMM :
CALI.CM :
DEN.GM/CC :
SP.MV :
~A
# ...
  198.2500    44.3660     4.6550     3.6550     5.4910    23.5420     2.3920    -9.4850 
  198.3750    48.9260     4.4330     3.4330     5.4150    23.5770     2.3660    -9.5360 
  198.5000    56.8250     4.4650     3.4650     5.6160    23.5070     2.3500    -9.5900 
  198.6250    67.9150     4.8290     3.8290     6.5660    23.4500     2.3550    -9.6330 
  198.7500    80.5680     5.4420     4.4420     7.2390    23.5530     2.3720    -9.6250 
  198.8750    90.6770     6.2330     5.2330     8.4100    23.7680     2.3910    -9.6210 
  199.0000    94.2880     7.0660     6.0660     9.2220    23.9040     2.3990    -9.6660 
  199.1250    90.9510     7.7730     6.7730     9.2750    23.9330     2.3920    -9.6830 
  199.2500    87.8470     8.2550     7.2550     9.1860    23.9450     2.3830    -9.6950 
  199.3750    88.6950     8.5110     7.5110     9.1400    23.9650     2.3770    -9.7470 
  199.5000    92.9860     8.6430     7.6430     9.0910    23.9870     2.3740    -9.8270 
  199.6250   101.3200     8.7580     7.7580     9.1230    23.9600     2.3730    -9.9290 
  199.7500   111.7660     8.9220     7.9220     9.3020    23.9350     2.3730   -10.1000 
  199.8750   116.3490     9.0990     8.0990     9.4930    23.8980     2.3720   -10.3080 
  200.0000   109.0120     9.2260     8.2260     9.5810    23.8380     2.3710   -10.4830 
  200.1250    97.1170     9.2370     8.2370     9.4900    23.8160     2.3700   -10.6790 
  200.2500    93.2720     9.1280     8.1280     9.3190    23.8070     2.3670   -10.8840 
  200.3750    95.8800     8.9410     7.9410     9.0820    23.7860     2.3630   -11.0390 
  200.5000    98.4670     8.7190     7.7190     8.7480    23.7630     2.3590   -11.1810 
  200.6250    99.0160     8.5000     7.5000     8.3350    23.7260     2.3550   -11.3370 
  200.7500   100.5210     8.3080     7.3080     8.0970    23.7210     2.3510   -11.4750 
  200.8750   102.3010     8.1590     7.1590     8.0600    23.7240     2.3460   -11.6040 
  201.0000   103.3080     8.1170     7.1170     8.1670    23.6890     2.3380   -11.7150 
  201.1250   102.7550     8.3570     7.3570     8.5720    23.6780     2.3280   -11.7820 
  201.2500   101.2880     9.0520     8.0520     8.9220    23.6770     2.3230   -11.8620 
  201.3750    98.4060    10.4210     9.4210     9.8130    23.6760     2.3410   -11.9420 
  201.5000    94.2810    12.6210    11.6210    12.5910    23.6670     2.3940   -11.9610 
  201.6250    89.6260    15.6980    14.6980    18.5720    23.6500     2.4640   -11.9770 
  201.7500    82.4140    18.8660    17.8660    23.2090    23.5850     2.5000   -11.9750 
  201.8750    75.0300    21.0100    20.0100    24.9860    23.5410     2.4780   -11.9130 
  202.0000    72.9020    21.0660    20.0660    25.1390    23.5730     2.4080   -11.8660 
  202.1250    78.8440    18.7480    17.7480    22.5220    23.6260     2.3270   -11.8530 
  202.2500    86.1240    15.6970    14.6970    16.1650    23.5910     2.2690   -11.8130 
  202.3750    90.3120    12.9920    11.9920    11.4160    23.5050     2.2490   -11.7860 
  202.5000    92.4380    11.1170    10.1170     8.8030    23.4220     2.2630   -11.8260 
  202.6250    92.2380    10.1730     9.1730     7.9820    23.3930     2.2980   -11.8540 
  202.7500    91.2490     9.7820     8.7820     7.8130    23.4010     2.3350   -11.8460 
  202.8750    91.0340     9.6950     8.6950     7.8310    23.4450     2.3640   -11.8510 
  203.0000    89.9470     9.6780     8.6780     7.8680    23.5160     2.3800   -11.8530 
  203.1250    87.1410     9.5990     8.5990     7.9040    23.6530     2.3830   -11.7640 
  203.2500    86.2670     9.4460     8.4460     7.9390    23.8150     2.3790   -11.6250 
  203.3750    90.1960     9.2640     8.2640     7.8130    23.9180     2.3700   -11.4600 
  203.5000    94.8610     9.1080     8.1080     7.5600    23.9620     2.3600   -11.2270 
  203.6250    95.2530     8.9940     7.9940     7.3480    23.9810     2.3500   -11.0120 
  203.7500    94.0830     8.9000     7.9000     7.2240    23.9870     2.3400   -10.8350 
  203.8750    93.5950     8.7800     7.7800     7.1900    24.0000     2.3320   -10.6750 
  204.0000    92.1820     8.6030     7.6030     7.2390    24.0150     2.3250   -10.5400 
  204.1250    89.7220     8.3260     7.3260     7.3840    23.9960     2.3240   -10.4630 
  204.2500    89.9850     7.9860     6.9860     7.5230    23.9460     2.3270   -10.4190 
  204.3750    92.4270     7.7510     6.7510     7.6750    23.9050     2.3350   -10.4070 
  204.5000    92.0910     7.8820     6.8820     8.0550    23.8750     2.3440   -10.4450 
  204.6250    87.6930     8.8530     7.8530     8.5800    23.8170     2.3550   -10.4620 
  204.7500    84.8630    10.8330     9.8330    10.2780    23.7580     2.3690   -10.5160 
  204.8750    82.3510    13.8800    12.8800    14.9030    23.7180     2.3880   -10.6210 
  205.0000    77.7890    17.6680    16.6680    24.3710    23.6920     2.4130   -10.7340 
  205.1250    73.4190    20.8240    19.8240    31.3920    23.6690     2.4440   -10.8900 
  205.2500    70.9490    21.7260    20.7260    31.7370    23.6640     2.4720   -11.1140 
  205.3750    70.9030    19.9810    18.9810    23.2140    23.6190     2.4830   -11.3650 
  205.5000    73.6360    16.7810    15.7810    14.4040    23.5570     2.4670   -11.6160 
  205.6250    77.3780    13.8520    12.8520    13.0950    23.5720     2.4250   -11.9490 
  205.7500    78.7500    11.9610    10.9610    15.5430    23.6410     2.3770   -12.3400 
  205.8750    77.7100    11.3260    10.3260    16.6940    23.6990     2.3440   -12.7540 
  206.0000    77.6320    12.1390    11.1390    13.6580    23.7570     2.3470   -13.2540 
  206.1250    78.0170    15.2500    14.2500    13.3040    23.8130     2.4030   -13.8370 
  206.2500    74.8500    21.4180    20.4180    20.8370    23.8190     2.4760   -14.4580 
  206.3750    66.4080    32.3430    25.8060    53.0710    23.8330     2.5140   -15.1420 
  206.5000    55.7290    50.7630    41.2960   159.7120    23.8520     2.4890   -15.8690 
  206.6250    51.7170    81.7820    70.1920   301.4590    23.9400     2.4060   -16.5730 
  206.7500    54.6590   120.7600   105.5340   261.5060    24.0140     2.3080   -17.2460 
  206.8750    58.1760   153.4590   136.1540   198.4290    24.0340     2.2250   -17.8600 
  207.0000    58.4540   167.1960   152.4070   179.0860    24.0380     2.1740   -18.3860 
  207.1250    57.1890   167.1030   155.2010   194.7370    24.0640     2.1600   -18.8570 
  207.2500    56.7220   167.1700   155.4930   240.3730    24.0770     2.1640   -19.2480 
  207.3750    56.4210   170.4830   157.5570   255.9370    24.0780     2.1750   -19.5290 
  207.5000    55.3840   176.3090   161.9700   232.0700    24.0770     2.1830   -19.7740 
  207.6250    54.2390   182.6800   167.8450   225.5070    24.0820     2.1830   -19.9620 
  207.7500    52.2910   187.3650   173.2060   285.8640    24.0910     2.1740   -20.0800 
  207.8750    49.4660   188.4140   176.0980   352.1280    24.1080     2.1610   -20.2080 
  208.0000    47.0430   184.4120   174.7960   336.8040    24.1260     2.1490   -20.3200 
  208.1250    47.8680   175.0410   168.1790   275.7720    24.1410     2.1490   -20.3620 
  208.2500    50.7520   163.7600   158.8640   250.1740    24.1460     2.1580   -20.4160 
  208.3750    52.3950   153.9010   149.7230   237.7850    24.1530     2.1730   -20.5150 
  208.5000    52.2010   148.0920   143.5730   195.8300    24.1560     2.1860   -20.5730 
  208.6250    52.5950   148.7530   143.3740   168.2470    24.1560     2.1910   -20.6100 
  208.7500    53.2630   155.1960   148.8440   179.5200    24.1580     2.1890   -20.6720 
  208.8750    51.8510   166.3000   158.9360   231.6190    24.1660     2.1840   -20.6830 
  209.0000    48.4760   179.6140   171.2850   310.9800    24.1800     2.1790   -20.6240 
  209.1250    46.5900   190.4710   181.7690   345.0460    24.1770     2.1760   -20.5650 
  209.2500    47.1840   195.4130   187.2390   326.5340    24.1640     2.1750   -20.4420 
  209.3750    49.0210   194.0380   186.9810   292.0550    24.1550     2.1750   -20.2280 
