~V
VERS. 2.00: Ver 2.00
~W
STRT.M 50.0000:
STOP.M 221.0000:
STEP.M 0.1250:
NULL. -999.2500:
UWI. F10611:
~C
DEPT.M :
SP.MV :
GR.API :
RML.OHMM :
RI. :
RXO.OHMM :
CALI.CM :
DEN.GM/CC :
~A
# ...
  106.2500   -26.8980    84.6270     6.6710     5.7240     5.5460    25.4130     2.2740 
  106.3750   -26.5550    80.0130     8.2790     6.7080     6.6940    25.3370     2.2500 
  106.5000   -26.2210    77.0070    10.6810     8.2840     8.9490    25.4210     2.2180 
  106.6250   -25.9520    74.3160    13.9370    10.6000    10.7550    25.5380     2.2020 
  106.7500   -25.7570    70.6360    17.5680    13.3990    11.7360    25.5660     2.2050 
  106.8750   -25.6480    65.3160    20.9760    16.2970    12.3500    25.4940     2.2110 
  107.0000   -25.6530    61.0780    23.4410    18.7070    12.6450    25.3540     2.2020 
  107.1250   -25.7350    61.9670    24.1080    19.7930    12.7990    25.1980     2.1710 
  107.2500   -25.9000    63.5480    23.1340    19.4670    13.4000    24.9580     2.1390 
  107.3750   -26.1150    63.7020    20.8640    17.9110    14.5150    24.5430     2.1260 
  107.5000   -26.3490    64.4040    17.8960    15.6110    14.7700    24.1200     2.1480 
  107.6250   -26.5720    68.4540    14.9900    13.2330    11.9800    24.0730     2.2010 
  107.7500   -26.7300    73.0210    12.6630    11.2750     9.4720    24.4330     2.2470 
  107.8750   -26.8430    76.0740    11.1110     9.9170     8.5290    24.9190     2.2560 
  108.0000   -26.8250    75.8400    10.3830     9.2050     8.2930    25.1850     2.2270 
  108.1250   -26.7060    72.6230    10.6760     9.2800     8.3080    25.0740     2.1810 
  108.2500   -26.4890    71.1080    11.9650    10.1000     8.4120    24.7540     2.1470 
  108.3750   -26.1670    69.3440    14.2960    11.7320     8.8370    24.5650     2.1370 
  108.5000   -25.8240    65.2020    17.4210    14.1160     9.8700    24.6500     2.1400 
  108.6250   -25.4500    60.8160    20.3590    16.7370    12.3130    24.7000     2.1370 
  108.7500   -25.0820    58.8410    21.6970    18.3870    16.4470    24.7180     2.1240 
  108.8750   -24.7330    58.6800    20.5950    18.0940    19.6770    24.7810     2.1210 
  109.0000   -24.4080    59.8730    17.4660    15.9110    15.6390    24.8010     2.1530 
  109.1250   -24.0680    65.4080    13.8240    12.9610     9.8640    24.8250     2.2320 
  109.2500   -23.7550    74.9780    10.9990    10.4790     7.8150    24.8750     2.3180 
  109.3750   -23.4330    82.6300     9.3300     8.8450     8.0470    24.8000     2.3670 
  109.5000   -23.0350    82.9640     8.7990     8.1090     8.1590    24.6630     2.3610 
  109.6250   -22.6240    77.7870     9.5340     8.3730     7.6390    24.5920     2.3130 
  109.7500   -22.1620    73.4160    11.3560     9.4820     8.2200    24.6630     2.2600 
  109.8750   -21.6450    69.3900    14.2050    11.4170    10.0330    24.8280     2.2180 
  110.0000   -21.1000    62.8430    17.8380    14.0820    12.5160    24.9620     2.1920 
  110.1250   -20.5640    57.7930    21.6460    17.2010    14.3160    25.0230     2.1760 
  110.2500   -20.0560    57.5530    24.7280    20.0810    15.3150    25.0400     2.1620 
  110.3750   -19.5750    58.3750    26.5230    22.1230    16.1530    25.0330     2.1500 
  110.5000   -19.1650    56.9400    27.0450    23.0870    16.9560    25.0330     2.1430 
  110.6250   -18.7670    54.3420    26.8460    23.1670    18.2110    25.0600     2.1520 
  110.7500   -18.4140    52.3700    26.6910    22.9910    19.7250    25.0790     2.1720 
  110.8750   -18.0800    50.5280    26.8600    22.8600    20.8200    25.0940     2.1970 
  111.0000   -17.7730    49.5090    27.4350    22.9330    20.5910    25.1300     2.2130 
  111.1250   -17.4740    51.1290    28.4520    23.3290    20.3370    25.1860     2.2100 
  111.2500   -17.1510    52.7350    29.7240    23.9830    21.0730    25.2490     2.1930 
  111.3750   -16.8500    52.6190    31.0090    24.7820    21.5530    25.2810     2.1670 
  111.5000   -16.5280    52.3950    31.9120    25.4800    22.0300    25.2530     2.1410 
  111.6250   -16.2690    52.4890    31.8200    25.5780    22.1680    25.2650     2.1250 
  111.7500   -16.0430    51.4840    30.7410    24.9120    22.0310    25.2770     2.1230 
  111.8750   -15.8770    50.6650    29.0190    23.6450    21.3420    25.3240     2.1340 
  112.0000   -15.7650    51.7040    27.2320    22.2050    17.4670    25.3760     2.1500 
  112.1250   -15.6980    52.6010    26.0590    21.1640    13.5670    25.3600     2.1580 
  112.2500   -15.7100    51.6330    25.7520    20.8010    13.7350    25.3460     2.1520 
  112.3750   -15.7590    50.6530    26.2990    21.1700    17.8330    25.3940     2.1360 
  112.5000   -15.8630    51.5450    27.4190    22.1100    20.5600    25.3810     2.1200 
  112.6250   -16.0160    52.9080    28.5510    23.2410    20.9720    25.2190     2.1120 
  112.7500   -16.2080    52.9950    29.1110    24.0260    20.6730    25.0770     2.1120 
  112.8750   -16.4280    52.4560    28.8730    24.1690    19.4330    25.0050     2.1160 
  113.0000   -16.7110    53.4940    28.0350    23.7080    17.0250    24.7980     2.1210 
  113.1250   -17.0380    55.2050    27.0870    22.9560    14.2770    24.5180     2.1260 
  113.2500   -17.3680    55.0970    26.3810    22.2670    12.8730    24.3180     2.1320 
  113.3750   -17.7200    53.5020    25.8900    21.7000    12.6270    24.3730     2.1380 
  113.5000   -18.0790    52.9380    25.4000    21.1780    12.9700    24.8140     2.1410 
  113.6250   -18.3990    54.4590    24.6190    20.5520    12.7720    25.6480     2.1400 
  113.7500   -18.6920    55.9940    23.5420    19.7720    11.9970    26.5420     2.1380 
  113.8750   -18.9440    55.5970    22.3330    18.9020    10.9250    27.0780     2.1390 
  114.0000   -19.0920    55.2660    21.2470    18.0860    10.1900    27.1540     2.1450 
  114.1250   -19.1820    57.2050    20.5810    17.5460     9.8980    26.9940     2.1550 
  114.2500   -19.1680    58.6820    20.3730    17.3490    10.0450    26.9030     2.1630 
  114.3750   -19.0990    57.8250    20.5940    17.5040    10.4940    26.9130     2.1650 
  114.5000   -19.0000    55.2380    21.1430    17.9410    10.9720    26.9720     2.1590 
  114.6250   -18.8230    53.6280    21.8680    18.5220    11.4110    26.9560     2.1460 
  114.7500   -18.6280    52.7260    22.5510    19.0490    11.6700    26.9380     2.1300 
  114.8750   -18.4010    51.3370    23.0820    19.4150    11.8460    26.9960     2.1120 
  115.0000   -18.1820    50.3460    23.4600    19.6070    11.9050    27.2010     2.0970 
  115.1250   -18.0040    50.5670    23.7880    19.7060    11.7990    27.5260     2.0860 
  115.2500   -17.8500    51.6060    24.1750    19.8440    11.4090    27.6660     2.0790 
  115.3750   -17.7280    52.2300    24.6300    20.0800    11.4320    27.3940     2.0790 
  115.5000   -17.6570    51.9360    25.0980    20.3990    12.8680    26.8760     2.0820 
  115.6250   -17.6450    52.6910    25.5120    20.7390    15.1130    26.4050     2.0850 
  115.7500   -17.6880    55.4000    25.9120    21.0390    16.7420    26.0890     2.0960 
  115.8750   -17.7720    57.7990    26.3600    21.2900    16.5960    25.8390     2.1240 
  116.0000   -17.9020    57.0870    26.8810    21.5170    15.5790    25.4730     2.1740 
  116.1250   -18.0340    52.5650    27.4210    21.7560    16.2360    25.0820     2.2270 
  116.2500   -18.1980    48.4270    27.8130    21.9570    18.2060    24.5990     2.2600 
  116.3750   -18.3750    47.3600    27.8970    22.0040    18.8880    24.2760     2.2640 
  116.5000   -18.5240    48.1660    27.6000    21.7890    17.9450    24.3990     2.2470 
  116.6250   -18.7090    49.0980    27.0030    21.3040    17.8560    24.7680     2.2250 
  116.7500   -18.8660    50.7710    26.4200    20.7710    17.6420    25.0110     2.2060 
  116.8750   -19.0410    52.7610    26.0470    20.3660    17.6310    25.2290     2.1890 
  117.0000   -19.1960    53.1580    25.9310    20.1710    18.3580    25.3790     2.1780 
  117.1250   -19.3530    53.1220    25.9810    20.1750    19.5880    25.4390     2.1840 
  117.2500   -19.5530    55.7470    25.9610    20.2080    20.2340    25.5160     2.2040 
  117.3750   -19.7480    59.3120    25.6970    20.1300    18.9220    25.6010     2.2290 
