~V
VERS. 2.00: Ver 2.00
~W
STRT.M 58.0000:
STOP.M 244.0000:
STEP.M 0.1250:
NULL. -999.2500:
UWI. F10638:
~C
DEPT.M :
SP.MV :
GR.API :
RML.OHMM :
RI. :
RXO.OHMM :
CALI.CM :
DEN.GM/CC :
~A
# ...
  136.7500   -11.9190    48.4090    31.0880    26.3100    30.8790    25.0580     2.1320 
  136.8750   -11.8690    49.1790    30.7630    26.2080    29.3280    24.9340     2.1330 
  137.0000   -11.7940    50.7160    30.4650    26.0890    28.6860    24.8450     2.1430 
  137.1250   -11.6770    52.9570    30.3600    26.0700    29.2400    24.7860     2.1570 
  137.2500   -11.5760    55.7160    30.4890    26.1980    29.9790    24.7030     2.1630 
  137.3750   -11.4800    55.3780    30.8050    26.4620    30.7990    24.5570     2.1570 
  137.5000   -11.3380    53.7240    31.1720    26.7760    31.7280    24.4980     2.1510 
  137.6250   -11.2140    53.9260    31.5400    27.1130    31.9810    24.5080     2.1570 
  137.7500   -11.1610    56.2050    31.8850    27.4780    31.7770    24.5190     2.1760 
  137.8750   -11.1250    56.8360    32.1300    27.8480    31.2780    24.5080     2.1940 
  138.0000   -11.0930    56.0440    32.1520    28.1160    32.8210    24.4960     2.1930 
  138.1250   -11.1060    55.6630    31.8210    28.1360    38.1640    24.5100     2.1720 
  138.2500   -11.1660    54.7590    31.1790    27.8510    47.1330    24.5110     2.1450 
  138.3750   -11.2280    51.8850    30.8390    27.5620    39.7600    24.4750     2.1300 
  138.5000   -11.3330    49.2370    31.7640    27.9690    32.6460    24.3880     2.1270 
  138.6250   -11.4930    49.5220    34.6260    29.7050    29.2850    24.2570     2.1250 
  138.7500   -11.6590    52.6720    39.2490    32.9360    30.7300    24.1850     2.1160 
  138.8750   -11.8150    54.7610    43.5730    36.5010    44.8080    24.3530     2.1160 
  139.0000   -12.0100    53.2390    44.0610    37.4610    71.7960    24.4990     2.1540 
  139.1250   -12.1910    50.2290    38.9100    33.9130    81.8360    24.5550     2.2440 
  139.2500   -12.2870    51.0110    30.3170    27.3100    55.8350    24.5380     2.3610 
  139.3750   -12.3650    56.9610    23.0560    21.3510    27.8480    24.4900     2.4360 
  139.5000   -12.3960    60.9940    19.1690    17.7300    15.6700    24.4760     2.4520 
  139.6250   -12.3410    59.9480    18.5970    16.5120    15.7540    24.4720     2.4430 
  139.7500   -12.2430    55.5920    20.8110    17.5090    26.7830    24.4540     2.4540 
  139.8750   -12.0970    54.0800    25.3780    20.8990    42.1930    24.4550     2.5040 
  140.0000   -11.8710    56.2450    30.6710    25.7580    46.3990    24.4710     2.5620 
  140.1250   -11.6260    59.1730    35.0920    30.7760    41.8920    24.5200     2.6020 
  140.2500   -11.4310    58.2420    37.4170    34.4220    39.7450    24.5670     2.6170 
  140.3750   -11.2290    53.4170    37.0940    35.5130    43.0590    24.5810     2.6260 
  140.5000   -11.0550    51.4740    35.0270    34.5480    43.4010    24.5840     2.6450 
  140.6250   -10.9490    53.3410    31.7060    31.9580    37.5200    24.5840     2.6700 
  140.7500   -10.8740    57.1610    27.7030    28.3650    35.7310    24.5800     2.6820 
  140.8750   -10.8440    60.5020    23.8920    24.6300    31.4840    24.5840     2.6490 
  141.0000   -10.8830    62.6510    20.9870    21.5240    23.5630    24.6260     2.5750 
  141.1250   -10.9770    64.2450    19.2050    19.3300    18.9180    24.7400     2.4810 
  141.2500   -11.0750    64.6960    18.2500    17.9090    19.2490    24.8640     2.3880 
  141.3750   -11.2040    63.1080    17.4120    16.7580    19.3660    24.8430     2.3250 
  141.5000   -11.3860    60.2010    16.0830    15.3470    18.1510    24.6630     2.2970 
  141.6250   -11.5670    59.7440    14.3020    13.6690    17.0580    24.5230     2.2990 
  141.7500   -11.7270    63.9810    12.6160    12.1010    16.3420    24.4550     2.3130 
  141.8750   -11.8980    70.6840    12.0010    11.2960    13.5620    24.4440     2.3270 
  142.0000   -12.0900    74.6380    12.9940    11.6110    11.6470    24.4810     2.3480 
  142.1250   -12.2500    73.1200    16.0080    13.4210    15.4600    24.5200     2.3900 
  142.2500   -12.3790    66.3600    21.2430    17.1130    27.4340    24.5590     2.4610 
  142.3750   -12.5060    58.4520    28.5460    23.1180    39.9350    24.5770     2.5530 
  142.5000   -12.6320    53.8630    35.8790    30.0550    44.4570    24.5750     2.6390 
  142.6250   -12.7540    52.0280    40.8850    35.7180    46.8700    24.5600     2.6950 
  142.7500   -12.8610    50.2110    42.2090    38.2290    45.6550    24.5040     2.7100 
  142.8750   -12.9550    47.3760    40.6970    37.6070    41.5400    24.4150     2.6850 
  143.0000   -13.0430    45.5200    39.0430    36.2100    37.5900    24.3550     2.6380 
  143.1250   -13.1410    46.8220    38.3580    35.1890    37.1290    24.3800     2.5820 
  143.2500   -13.2440    48.7490    38.9030    34.9990    36.4940    24.4140     2.5320 
  143.3750   -13.3100    48.6880    40.5790    35.7870    37.0060    24.4260     2.5090 
  143.5000   -13.3350    47.9110    42.6630    37.0900    40.5920    24.4360     2.5170 
  143.6250   -13.3560    47.8530    44.5770    38.4590    46.3300    24.4600     2.5450 
  143.7500   -13.4140    48.4560    45.8980    39.5080    47.0860    24.4990     2.5770 
  143.8750   -13.4870    48.9880    46.3950    40.0050    46.5660    24.5530     2.5900 
  144.0000   -13.5140    49.9970    46.3660    40.1280    48.0190    24.5770     2.5870 
  144.1250   -13.5370    50.5050    46.0980    40.0570    50.6850    24.5630     2.5770 
  144.2500   -13.6090    49.5330    45.9190    40.0110    53.5500    24.5410     2.5720 
  144.3750   -13.7170    48.6320    46.2140    40.2690    52.2300    24.5230     2.5730 
  144.5000   -13.8000    48.1710    46.9980    40.8840    48.3450    24.5520     2.5780 
  144.6250   -13.8570    47.6360    48.0510    41.7330    45.5560    24.5810     2.5860 
  144.7500   -13.9010    46.8120    48.8880    42.4810    48.0750    24.5820     2.5960 
  144.8750   -13.9840    47.1000    48.6680    42.4740    53.6880    24.5580     2.6010 
  145.0000   -14.1200    48.4700    47.1760    41.4470    55.2380    24.5130     2.5940 
  145.1250   -14.2460    50.1410    44.7000    39.5310    51.1340    24.4740     2.5730 
  145.2500   -14.3210    51.2820    41.9600    37.2430    42.6380    24.4840     2.5410 
  145.3750   -14.3660    50.7670    39.9130    35.3330    38.3360    24.5300     2.5100 
  145.5000   -14.4360    50.0440    38.9860    34.2380    36.8430    24.5700     2.4880 
  145.6250   -14.5250    50.6420    39.2730    34.1220    38.4670    24.5910     2.4770 
  145.7500   -14.5700    51.0050    40.6280    34.9500    40.5780    24.5910     2.4780 
  145.8750   -14.5090    48.8290    42.9000    36.6770    43.0930    24.5990     2.4910 
  146.0000   -14.3870    46.4990    45.6640    38.9460    45.8630    24.6230     2.5120 
  146.1250   -14.2460    45.9000    48.6480    41.5130    49.1670    24.6570     2.5380 
  146.2500   -14.1240    46.7940    51.5370    44.0870    53.8880    24.6470     2.5650 
  146.3750   -14.0470    48.0210    53.7730    46.2020    59.0260    24.6150     2.5840 
  146.5000   -13.9770    49.3800    54.8920    47.4480    59.4840    24.5950     2.5920 
  146.6250   -13.8970    50.0180    54.5480    47.4920    53.5830    24.5970     2.5900 
  146.7500   -13.8420    49.2750    52.8250    46.3210    48.6470    24.5870     2.5830 
  146.8750   -13.8340    48.2230    50.2220    44.2680    44.6650    24.5370     2.5750 
  147.0000   -13.8390    49.0220    47.5950    42.0700    42.3170    24.4920     2.5690 
  147.1250   -13.8520    51.4010    45.3620    40.1160    39.9470    24.4850     2.5590 
  147.2500   -13.8720    51.9520    43.7250    38.6190    36.9790    24.5000     2.5380 
  147.3750   -13.8760    48.7320    42.7930    37.7270    37.7950    24.5210     2.5130 
  147.5000   -13.8770    46.1030    42.3170    37.2660    37.7240    24.5350     2.4950 
  147.6250   -13.8740    46.3730    42.0920    37.0820    37.7720    24.5170     2.4910 
  147.7500   -13.8890    47.1760    41.8680    36.9720    40.7750    24.5270     2.5010 
  147.8750   -13.9150    47.3140    41.3260    36.6570    46.6290    24.5510     2.5220 
