~V
VERS. 2.00: Ver 2.00
~W
STRT.M 50.0000:
STOP.M 221.0000:
STEP.M 0.1250:
NULL. -999.2500:
UWI. F10611:
~C
DEPT.M :
SP.MV :
GR.API :
RML.OHMM :
RI. :
RXO.OHMM :
CALI.CM :
DEN.GM/CC :
~A
# ...
   72.5000   -28.5460    56.2980    18.2520    15.4410     7.7210    23.6330     2.1050 
   72.6250   -28.4390    56.9910    17.6540    15.0720     7.8270    24.1220     2.1310 
   72.7500   -28.3810    56.5980    17.1180    14.7030     7.8640    24.3420     2.1570 
   72.8750   -28.3640    55.6730    16.7210    14.3890     7.6670    24.3460     2.1760 
   73.0000   -28.3810    56.2290    16.4850    14.1430     7.4190    24.3170     2.1870 
   73.1250   -28.4380    58.8360    16.4240    13.9910     7.3510    24.3300     2.1930 
   73.2500   -28.4880    60.4920    16.4340    13.9030     7.3690    24.3740     2.1930 
   73.3750   -28.5700    61.0130    16.4120    13.8200     7.3680    24.4070     2.1890 
   73.5000   -28.6440    60.5100    16.2850    13.6810     7.2260    24.3880     2.1810 
   73.6250   -28.7550    58.5500    16.0480    13.4640     6.9640    24.2970     2.1730 
   73.7500   -28.8480    57.0910    15.8060    13.2340     6.8140    24.1970     2.1650 
   73.8750   -28.9500    57.7020    15.6550    13.0510     6.8460    24.0770     2.1620 
   74.0000   -29.0470    57.9280    15.6480    12.9580     6.9090    23.9010     2.1650 
   74.1250   -29.1530    56.7510    15.7840    12.9740     6.9630    23.8140     2.1680 
   74.2500   -29.2390    58.0390    15.9770    13.0510     6.9970    23.8460     2.1540 
   74.3750   -29.2920    60.8900    16.1810    13.1700     7.0140    23.9680     2.1210 
   74.5000   -29.3150    61.4310    16.3970    13.3300     7.1180    24.0810     2.0860 
   74.6250   -29.2560    58.8760    16.6880    13.5550     7.2900    24.2500     2.0890 
   74.7500   -29.1500    58.0990    17.0920    13.8410     7.4670    24.4530     2.1440 
   74.8750   -28.9860    58.8760    17.5840    14.1640     7.3230    24.4380     2.2300 
   75.0000   -28.7720    57.9610    18.0600    14.4700     7.0430    23.9140     2.2970 
   75.1250   -28.4800    55.6380    18.3650    14.6730     6.8620    23.3810     2.2860 
   75.2500   -28.1460    54.0360    18.5010    14.7710     6.8280    23.2400     2.2270 
   75.3750   -27.7570    54.1700    18.5700    14.8230     6.8230    23.3700     2.1620 
   75.5000   -27.3010    55.6710    18.7190    14.9210     6.8270    23.5470     2.1280 
   75.6250   -26.8390    56.9290    19.0780    15.1630     6.9550    23.6390     2.1670 
   75.7500   -26.3580    57.7750    19.5770    15.5160     7.2190    23.5570     2.2670 
   75.8750   -25.8820    58.8170    20.0520    15.8870     7.3760    23.3940     2.3730 
   76.0000   -25.3970    61.0360    20.3070    16.1410     7.3320    23.2680     2.4090 
   76.1250   -24.9300    61.9950    20.1960    16.1280     6.8660    23.3190     2.3560 
   76.2500   -24.4810    60.1100    19.8780    15.9110     6.4830    23.4430     2.2750 
   76.3750   -24.0600    58.2660    19.5580    15.6230     6.3300    23.7820     2.2040 
   76.5000   -23.7120    58.7740    19.4350    15.4330     6.3500    24.4350     2.1600 
   76.6250   -23.3730    59.0680    19.6840    15.5300     6.3870    24.8430     2.1490 
   76.7500   -23.0930    56.6540    20.2210    15.8990     6.3840    25.0060     2.1530 
   76.8750   -22.8390    54.3060    20.9150    16.4460     6.2780    25.0640     2.1610 
   77.0000   -22.6620    53.6640    21.6130    17.0290     6.1690    25.1160     2.1600 
   77.1250   -22.5200    54.2450    22.1920    17.5230     6.2270    25.1410     2.1440 
   77.2500   -22.4490    55.0430    22.6650    17.9230     6.3530    25.1760     2.1190 
   77.3750   -22.4230    55.4380    23.1120    18.2740     6.2250    25.2270     2.0940 
   77.5000   -22.4360    54.8380    23.6400    18.6380     5.7380    25.2030     2.0800 
   77.6250   -22.5040    53.7620    24.3410    19.0780     5.2910    24.8960     2.0870 
   77.7500   -22.6130    53.4030    25.1560    19.5920     5.7200    24.5120     2.1050 
   77.8750   -22.7650    54.5190    25.9950    20.1490     6.7750    24.2880     2.1260 
   78.0000   -22.9190    57.0450    26.7490    20.6940     7.6180    24.2270     2.1400 
   78.1250   -23.0990    59.5970    27.2940    21.1410     7.9590    24.2360     2.1450 
   78.2500   -23.3000    59.3220    27.6150    21.4380     8.1390    24.2720     2.1420 
   78.3750   -23.5340    57.7110    27.6980    21.5440     8.2030    24.3480     2.1340 
   78.5000   -23.7980    57.1600    27.5160    21.4300     8.1510    24.4190     2.1230 
   78.6250   -24.0860    56.5920    26.9800    21.0360     8.1010    24.4290     2.1170 
   78.7500   -24.4050    54.9050    26.1530    20.4270     8.1700    24.3760     2.1180 
   78.8750   -24.7330    54.0420    25.1410    19.6920     8.1060    24.2890     2.1260 
   79.0000   -25.0910    55.0780    24.1170    18.9700     7.8930    24.1500     2.1370 
   79.1250   -25.4840    56.0460    23.3000    18.4350     7.7210    24.0850     2.1480 
   79.2500   -25.9090    53.9020    22.7150    18.1200     7.6800    24.0570     2.1530 
   79.3750   -26.3670    51.1460    22.2390    17.9540     7.6520    24.0590     2.1500 
   79.5000   -26.8620    50.8360    21.6770    17.7860     7.6200    24.0790     2.1460 
   79.6250   -27.4280    54.5800    20.8120    17.4020     7.5880    24.1690     2.1480 
   79.7500   -28.0300    59.7710    19.6590    16.7400     7.5800    24.1920     2.1530 
   79.8750   -28.7110    62.6070    18.2830    15.8080     7.4310    24.1340     2.1530 
   80.0000   -29.4310    61.4860    16.7600    14.6570     7.1540    24.0300     2.1460 
   80.1250   -30.1920    58.7360    15.1560    13.3440     6.7960    23.9270     2.1380 
   80.2500   -30.9510    57.8700    13.5800    11.9990     6.4970    23.9090     2.1480 
   80.3750   -31.7000    59.5890    12.1220    10.7190     6.1710    23.9080     2.1830 
   80.5000   -32.3970    63.3340    10.8250     9.5610     5.8890    23.8920     2.2290 
   80.6250   -33.0340    68.4910     9.6700     8.5350     5.7990    23.8900     2.2580 
   80.7500   -33.5880    72.8310     8.5900     7.5890     5.9750    23.9600     2.2650 
   80.8750   -34.0500    74.1210     7.6110     6.7250     6.2160    24.0710     2.2610 
   81.0000   -34.4360    73.0890     6.8240     5.9910     5.9730    24.1980     2.2590 
   81.1250   -34.7110    75.0740     6.4400     5.5330     5.0800    24.3370     2.2650 
   81.2500   -34.8820    79.2600     6.5510     5.4360     4.6370    24.4560     2.2800 
   81.3750   -34.9560    81.8600     7.2620     5.8020     4.8570    24.3750     2.3030 
   81.5000   -34.9670    80.5750     8.6040     6.6900     5.8270    23.7870     2.3270 
   81.6250   -34.8920    75.2800    10.4300     8.0780     7.4520    23.1130     2.3360 
   81.7500   -34.8080    68.4680    12.0590     9.4900     8.9850    22.7920     2.3250 
   81.8750   -34.6880    62.7180    12.7580    10.3450     9.1860    22.5720     2.3050 
   82.0000   -34.5520    61.7920    12.2010    10.2710     9.0810    22.3180     2.2890 
   82.1250   -34.4050    66.1640    10.8150     9.4170     9.0790    22.0960     2.2820 
   82.2500   -34.2960    69.1270     9.5510     8.4690     8.0450    22.3000     2.2720 
   82.3750   -34.2130    68.9220     8.7790     7.7370     6.6670    22.9590     2.2490 
   82.5000   -34.1730    65.7570     8.4820     7.2850     6.1330    23.6880     2.2200 
   82.6250   -34.1800    62.7650     8.4590     7.0530     6.1850    23.9860     2.2100 
   82.7500   -34.1980    64.6480     8.4450     6.9040     6.0920    24.0520     2.2270 
   82.8750   -34.2570    70.5520     8.3990     6.8130     5.8960    24.0520     2.2610 
   83.0000   -34.3260    73.6790     8.4390     6.8320     5.6930    24.0160     2.2940 
   83.1250   -34.4410    69.9090     8.7910     7.0950     5.9860    23.9880     2.3020 
   83.2500   -34.5670    65.4890     9.4380     7.5990     6.6920    24.0860     2.2810 
   83.3750   -34.7260    64.6230    10.1960     8.2370     7.1010    24.4070     2.2390 
   83.5000   -34.8940    64.7180    10.7450     8.7830     7.1070    24.8440     2.1910 
   83.6250   -35.1130    62.8040    10.7030     8.9180     6.8750    25.3130     2.1590 
