~V
VERS. 2.00: Ver 2.00
~W
STRT.M 58.0000:
STOP.M 272.0000:
STEP.M 0.1250:
NULL. -999.2500:
UWI. F10670:
~C
DEPT.M :
DEN.GM/CC :
GR.API :
RML.OHMM :
RI. :
RXO.OHMM :
CALI.CM :
SP.MV :
~A
# ...
  136.7500     2.3280    86.1410     7.5520     7.1760     7.2110    23.2590   -12.2010 
  136.8750     2.3260    82.0900     7.9380     7.3200     7.8700    23.4270   -12.0610 
  137.0000     2.3190    79.7800     8.8620     7.7580     8.4590    23.5460   -11.9030 
  137.1250     2.3100    77.6410    10.2230     8.4960     9.1100    23.6100   -11.7100 
  137.2500     2.3030    74.5400    11.7310     9.5950     9.6770    23.5970   -11.5430 
  137.3750     2.3010    71.6790    13.5220    11.1160    10.7210    23.4850   -11.5360 
  137.5000     2.3030    70.6120    15.7620    13.1430    13.8870    23.2760   -11.5260 
  137.6250     2.3030    68.0560    18.1940    15.4660    19.4790    23.1970   -11.4530 
  137.7500     2.2920    64.2540    20.4660    17.7950    23.2950    23.2220   -11.4070 
  137.8750     2.2650    62.2400    22.1760    19.7460    22.0900    23.4230   -11.3950 
  138.0000     2.2220    61.3680    22.8650    20.8150    20.5660    23.8210   -11.4200 
  138.1250     2.1800    60.1740    22.6720    21.0030    20.5480    24.2160   -11.4590 
  138.2500     2.1500    61.3870    21.8470    20.4680    21.2960    24.3310   -11.5130 
  138.3750     2.1410    67.9460    20.7430    19.5250    22.4900    24.2270   -11.5300 
  138.5000     2.1560    75.6380    19.7360    18.5490    23.2400    24.0660   -11.5710 
  138.6250     2.1810    78.6430    19.0650    17.8230    22.7570    23.9560   -11.7460 
  138.7500     2.2030    76.6640    18.8380    17.4730    20.6410    23.9330   -11.9350 
  138.8750     2.2130    72.5500    19.0330    17.5120    19.8040    24.0230   -12.0540 
  139.0000     2.2070    69.0810    19.4960    17.8540    19.3340    24.1060   -12.1370 
  139.1250     2.1930    67.8100    19.9260    18.2510    19.6910    24.1250   -12.2070 
  139.2500     2.1790    69.1260    20.1740    18.5470    19.4810    24.0920   -12.2680 
  139.3750     2.1690    71.3230    20.2420    18.6870    18.6310    24.0570   -12.3170 
  139.5000     2.1650    72.0850    20.2720    18.7420    17.7320    24.0310   -12.2830 
  139.6250     2.1670    72.5930    20.4290    18.8710    17.3660    24.0240   -12.1760 
  139.7500     2.1760    73.1890    20.7680    19.1570    18.1970    24.0660   -12.1470 
  139.8750     2.1920    71.9130    21.2030    19.5960    20.1820    24.1240   -12.2800 
  140.0000     2.2080    69.7380    21.5820    20.1030    20.6580    24.1550   -12.5010 
  140.1250     2.2180    70.4370    21.8250    20.5570    20.3830    24.1740   -12.7200 
  140.2500     2.2170    72.4540    22.0740    20.9010    20.0080    24.2080   -12.9240 
  140.3750     2.2070    71.4340    22.4860    21.1440    20.0020    24.2540   -13.0980 
  140.5000     2.1960    67.7380    23.1700    21.3650    20.5510    24.2610   -13.2400 
  140.6250     2.1880    65.6420    23.9320    21.6550    21.3880    24.2350   -13.3120 
  140.7500     2.1850    65.5310    24.5130    22.0470    21.6190    24.1960   -13.3330 
  140.8750     2.1840    65.6470    24.8640    22.5230    21.4810    24.1740   -13.3730 
  141.0000     2.1800    65.2980    25.0890    23.0130    21.7220    24.1600   -13.4440 
  141.1250     2.1720    65.1550    25.2530    23.4200    22.1690    24.1290   -13.4800 
  141.2500     2.1630    66.2380    25.2790    23.6520    21.4230    24.0680   -13.4730 
  141.3750     2.1540    67.6560    25.0920    23.6210    20.5460    23.9910   -13.4580 
  141.5000     2.1490    68.0710    24.5320    23.1640    19.9800    23.8830   -13.4670 
  141.6250     2.1480    67.6660    23.5280    22.2390    19.1100    23.7580   -13.5250 
  141.7500     2.1520    67.5140    22.0240    20.8070    17.9930    23.5710   -13.5790 
  141.8750     2.1610    68.4560    20.1050    18.9360    16.6020    23.2740   -13.5680 
  142.0000     2.1770    72.4120    18.0690    16.8720    14.6150    22.9540   -13.5680 
  142.1250     2.1940    77.3340    16.3640    15.0450    12.3770    22.8230   -13.6440 
  142.2500     2.2080    80.6530    15.3430    13.8020    10.6080    22.8130   -13.7300 
  142.3750     2.2230    80.1250    15.3140    13.4510    10.2870    22.7230   -13.7820 
  142.5000     2.2480    76.2090    16.8690    14.5840    12.3970    22.3960   -13.7800 
  142.6250     2.2890    72.0790    20.2360    17.4990    17.5980    22.0640   -13.7850 
  142.7500     2.3450    69.5750    25.8630    22.7220    21.2910    21.7350   -13.8120 
  142.8750     2.4060    69.6020    34.0100    30.5530    20.7380    21.1000   -13.8180 
  143.0000     2.4560    71.6670    44.1960    40.5760    24.2930    20.2220   -13.7830 
  143.1250     2.4830    75.6910    53.5910    50.1620    26.6200    19.6050   -13.7820 
  143.2500     2.4840    79.3450    59.1860    56.5760    28.0920    19.3340   -13.8310 
  143.3750     2.4620    79.2100    59.3580    58.0760    27.7870    19.2830   -13.8850 
  143.5000     2.4230    75.5240    54.6300    54.4430    28.4360    19.3660   -13.9100 
  143.6250     2.3830    73.7090    48.2990    48.5230    31.6540    19.5780   -13.9500 
  143.7500     2.3480    74.1190    41.9740    42.0660    33.8670    19.9780   -14.0170 
  143.8750     2.3230    74.1020    36.3010    36.0630    33.1080    20.6270   -14.1170 
  144.0000     2.3080    72.5910    31.5970    31.0620    29.1930    21.3580   -14.1910 
  144.1250     2.2960    70.7500    27.8720    27.0870    21.5010    21.7810   -14.2060 
  144.2500     2.2820    69.1480    25.3190    24.2860    18.7710    21.9570   -14.2030 
  144.3750     2.2650    67.3620    24.0810    22.7860    15.6600    22.1560   -14.2330 
  144.5000     2.2410    65.4030    24.3610    22.8180    16.5170    22.5190   -14.2750 
  144.6250     2.2120    64.8970    25.6510    23.9450    20.3220    22.9440   -14.2460 
  144.7500     2.1860    66.9980    27.3910    25.6990    24.6320    23.2340   -14.1850 
  144.8750     2.1690    70.7650    28.7950    27.3740    26.5690    23.3050   -14.0930 
  145.0000     2.1760    71.7480    28.9080    28.0100    25.8970    23.2070   -13.9570 
  145.1250     2.2000    70.5780    27.7850    27.4160    23.9170    23.0820   -13.8210 
  145.2500     2.2310    70.6700    25.9280    25.8960    21.2010    23.0540   -13.6720 
  145.3750     2.2580    73.2520    24.0230    24.0660    18.6960    23.1160   -13.5380 
  145.5000     2.2700    75.7030    22.7390    22.6220    17.5740    23.1950   -13.4960 
  145.6250     2.2710    75.7480    22.2430    21.8660    17.6070    23.2720   -13.5500 
  145.7500     2.2660    73.5960    22.5230    21.8500    17.7740    23.3920   -13.6170 
  145.8750     2.2580    70.5870    23.3480    22.4030    18.1220    23.5520   -13.7020 
  146.0000     2.2430    68.5790    24.1120    23.0120    18.4020    23.7030   -13.8670 
  146.1250     2.2190    67.9970    24.0410    22.9310    18.2120    23.7980   -14.0590 
  146.2500     2.1910    68.1640    22.7060    21.7030    14.7730    23.7130   -14.2880 
  146.3750     2.1690    69.6590    20.2790    19.3990    12.0680    23.3980   -14.5390 
  146.5000     2.1660    74.2370    17.5150    16.6360    11.5440    22.9320   -14.7810 
  146.6250     2.1800    79.1410    15.2760    14.2370    11.3260    22.3420   -15.0150 
  146.7500     2.2030    80.8300    13.9170    12.5810    10.9960    22.0160   -15.2250 
  146.8750     2.2210    78.3330    13.4720    11.7600    10.8410    22.1310   -15.3810 
  147.0000     2.2220    74.8230    13.6520    11.7790    10.7750    22.4760   -15.4070 
  147.1250     2.2100    73.0930    13.9710    12.3060    10.7370    22.7040   -15.3500 
  147.2500     2.1930    72.8630    14.4520    13.1320    11.6910    22.7620   -15.2710 
  147.3750     2.1800    72.5920    15.2110    14.0860    13.2260    22.6990   -15.1670 
  147.5000     2.1730    71.0050    16.1420    15.0890    13.8940    22.5380   -15.0860 
  147.6250     2.1710    69.0060    17.1250    16.1550    14.5240    22.4100   -15.0330 
  147.7500     2.1730    66.7910    18.2150    17.3040    15.2790    22.3610   -15.0120 
  147.8750     2.1780    62.9520    19.3580    18.4690    16.6680    22.3570   -14.9660 
