~V
VERS. 2.00: Ver 2.00
~W
STRT.M 58.0000:
STOP.M 221.0000:
STEP.M 0.1250:
NULL. -999.2500:
UWI. F10613:
~C
DEPT.M :
SP.MV :
GR.API :
RML.OHMM :
RI. :
RXO.OHMM :
CALI.CM :
DEN.GM/CC :
~A
# ...
  159.2500    -7.2620    59.3610    28.2610    22.1850    25.1040    24.1580     2.2700 
  159.3750    -7.0800    60.3290    27.5580    21.8480    25.2270    24.2780     2.2630 
  159.5000    -6.8880    60.1260    26.6970    21.4030    24.1250    24.3210     2.2710 
  159.6250    -6.7290    59.4760    25.8380    20.9330    22.9640    24.3260     2.2910 
  159.7500    -6.6940    60.1990    25.1050    20.5210    22.3120    24.3260     2.3160 
  159.8750    -6.7140    63.4180    24.5620    20.2250    21.9870    24.3260     2.3350 
  160.0000    -6.7230    66.1650    24.1880    20.0630    21.5710    24.3260     2.3390 
  160.1250    -6.7870    65.7250    23.8070    19.9240    21.5230    24.3270     2.3280 
  160.2500    -6.8740    63.6380    23.2570    19.6860    21.9170    24.3290     2.3110 
  160.3750    -6.9520    63.9250    22.4360    19.2440    22.1920    24.3280     2.2930 
  160.5000    -7.0330    67.2650    21.3320    18.5450    21.2340    24.3280     2.2830 
  160.6250    -7.0830    68.2640    20.1820    17.7470    19.8870    24.3310     2.2770 
  160.7500    -7.0880    65.0400    19.2610    17.0540    18.5800    24.3340     2.2730 
  160.8750    -7.0860    60.5470    18.8000    16.6680    18.0060    24.3360     2.2690 
  161.0000    -7.0570    59.3460    18.9040    16.7270    17.5100    24.3340     2.2680 
  161.1250    -6.9730    59.4810    19.2440    17.0140    17.6300    24.3330     2.2750 
  161.2500    -6.9080    58.2340    19.4510    17.2430    18.9680    24.3330     2.2950 
  161.3750    -6.8240    57.0350    19.1890    17.1140    21.9600    24.3320     2.3240 
  161.5000    -6.7180    59.7520    18.2800    16.4250    21.2230    24.3280     2.3470 
  161.6250    -6.6680    64.3000    17.0960    15.4480    16.7450    24.3250     2.3550 
  161.7500    -6.6410    68.1300    16.0150    14.4890    13.7000    24.3220     2.3450 
  161.8750    -6.5980    70.7580    15.3160    13.7900    13.2740    24.3240     2.3260 
  162.0000    -6.6220    71.4430    15.2090    13.5510    14.2090    24.3260     2.3080 
  162.1250    -6.7230    68.6550    15.5900    13.7320    14.9790    24.3290     2.2970 
  162.2500    -6.8240    65.0830    16.3910    14.2960    15.7060    24.3300     2.2940 
  162.3750    -6.9340    64.3800    17.5720    15.1990    16.1370    24.3310     2.2950 
  162.5000    -7.1210    64.5170    19.2330    16.4880    16.9950    24.3280     2.2920 
  162.6250    -7.3180    62.7780    21.3490    18.1310    18.8530    24.3280     2.2840 
  162.7500    -7.5010    61.7320    23.8610    20.1140    21.7110    24.3320     2.2730 
  162.8750    -7.7210    61.4230    26.5680    22.3240    25.6420    24.3350     2.2620 
  163.0000    -7.9540    59.1900    29.0560    24.4780    28.6500    24.3310     2.2520 
  163.1250    -8.1300    56.7380    30.9460    26.2140    30.0400    24.3120     2.2420 
  163.2500    -8.3050    57.6170    32.0320    27.2740    29.9540    24.2810     2.2350 
  163.3750    -8.5020    60.7680    32.3900    27.6300    30.0220    24.2720     2.2330 
  163.5000    -8.6350    60.8880    32.4100    27.5310    30.8790    24.2940     2.2360 
  163.6250    -8.7550    58.8780    32.7370    27.5510    30.4720    24.3120     2.2350 
  163.7500    -8.8670    58.6230    33.8330    28.1090    29.5660    24.3120     2.2240 
  163.8750    -8.9050    60.3090    35.9710    29.4880    30.3060    24.3020     2.2030 
  164.0000    -8.8780    60.4520    39.3260    31.9410    36.2730    24.2970     2.1800 
  164.1250    -8.8680    57.8550    43.4250    35.1720    43.5790    24.2850     2.1660 
  164.2500    -8.8270    55.6640    47.8540    38.8790    46.6200    24.2550     2.1620 
  164.3750    -8.7280    55.9260    52.1970    42.7080    46.2030    24.2130     2.1690 
  164.5000    -8.6680    57.4170    55.7000    46.0650    46.6730    24.1640     2.1850 
  164.6250    -8.5970    58.0790    57.3210    48.0650    48.9780    24.0740     2.2030 
  164.7500    -8.4930    56.1670    55.7140    47.4950    51.2370    23.9500     2.2210 
  164.8750    -8.4110    52.4570    50.2560    43.6100    52.7810    23.8950     2.2330 
  165.0000    -8.3740    51.0750    42.0560    37.0700    48.1520    23.9380     2.2390 
  165.1250    -8.3370    52.9010    34.3640    30.6090    35.2400    23.9920     2.2400 
  165.2500    -8.3100    55.3220    29.0820    25.8520    22.3700    23.9710     2.2340 
  165.3750    -8.3500    57.1200    26.9540    23.4460    17.4110    23.9490     2.2230 
  165.5000    -8.4290    58.5460    28.4590    23.8420    19.8710    24.0340     2.2050 
  165.6250    -8.4960    59.3100    32.6930    26.5290    29.1990    24.1750     2.1870 
  165.7500    -8.6230    59.7490    39.0040    31.2770    41.2430    24.2790     2.1750 
  165.8750    -8.8320    60.3400    46.1520    37.3650    48.7660    24.3250     2.1700 
  166.0000    -9.0090    59.7960    51.7770    42.9960    49.0240    24.3130     2.1710 
  166.1250    -9.1770    57.5690    54.2470    46.3210    48.5690    24.2180     2.1730 
  166.2500    -9.3630    56.5740    53.2090    46.5910    49.6060    24.0320     2.1750 
  166.3750    -9.4790    58.1620    49.3970    44.1200    50.9360    23.8580     2.1740 
  166.5000    -9.5180    58.0950    43.9770    39.7530    48.6420    23.7920     2.1680 
  166.6250    -9.5550    55.5020    38.5550    35.0440    41.8540    23.7620     2.1660 
  166.7500    -9.5180    54.2080    34.0170    30.8800    32.6130    23.7070     2.1850 
  166.8750    -9.3810    55.9590    30.7880    27.7360    26.2450    23.6200     2.2410 
  167.0000    -9.2560    57.2310    29.0080    25.8280    23.6470    23.5120     2.3280 
  167.1250    -9.1310    55.7090    28.0570    24.7180    23.7020    23.3490     2.3990 
  167.2500    -8.9740    53.9040    27.4910    24.0890    25.5900    23.2100     2.4190 
  167.3750    -8.8500    53.1380    26.9920    23.6800    26.9370    23.3050     2.3880 
  167.5000    -8.7680    54.2860    26.4500    23.3520    25.3620    23.3230     2.3370 
  167.6250    -8.6970    57.7250    25.9560    23.0810    22.5430    23.1950     2.2940 
  167.7500    -8.6550    61.6390    25.6100    22.9060    21.3780    23.0850     2.2680 
  167.8750    -8.6610    63.3930    25.4370    22.8470    21.4690    23.0360     2.2500 
  168.0000    -8.6940    63.1180    25.3750    22.8850    21.9640    23.0310     2.2350 
  168.1250    -8.7070    64.4400    25.3010    22.9300    21.7170    23.0120     2.2220 
  168.2500    -8.7330    67.3900    25.1530    22.9150    21.1530    22.9720     2.2110 
  168.3750    -8.7950    68.1800    24.8710    22.7640    21.2560    23.0010     2.2020 
  168.5000    -8.8530    66.8530    24.2970    22.3250    21.7360    23.1580     2.1980 
  168.6250    -8.9080    66.0680    23.3660    21.5470    21.7760    23.3830     2.2020 
  168.7500    -9.0090    65.2570    22.1040    20.4450    21.2010    23.6260     2.2140 
  168.8750    -9.1370    62.3120    20.6800    19.1550    19.8360    23.7510     2.2280 
  169.0000    -9.2240    59.0790    19.4100    17.9210    17.7770    23.7630     2.2340 
  169.1250    -9.3440    58.3610    18.5620    16.9770    16.3740    23.7530     2.2330 
  169.2500    -9.4830    59.0950    18.3200    16.4990    16.1440    23.7150     2.2370 
  169.3750    -9.5760    60.2950    18.7590    16.5910    16.8720    23.6660     2.2620 
  169.5000    -9.6910    60.0040    19.9210    17.3390    17.0220    23.6370     2.3130 
  169.6250    -9.8300    57.6050    21.5000    18.5130    18.0220    23.5940     2.3680 
  169.7500    -9.9270    54.5020    23.1930    19.8730    21.1790    23.5560     2.4030 
  169.8750    -9.9910    53.3480    24.6260    21.1050    26.8260    23.5390     2.4050 
  170.0000   -10.0970    55.0820    25.3780    21.8230    25.3990    23.5370     2.3720 
  170.1250   -10.1680    56.2010    25.4920    21.9970    22.2020    23.5030     2.3290 
  170.2500   -10.2040    57.6330    25.1440    21.7230    21.2690    23.3820     2.2880 
  170.3750   -10.2780    60.9720    24.6190    21.2000    21.1410    23.1230     2.2550 
