~V
VERS. 2.00: Ver 2.00
~W
STRT.M 58.0000:
STOP.M 221.0000:
STEP.M 0.1250:
NULL. -999.2500:
UWI. F10613:
~C
DEPT.M :
SP.MV :
GR.API :
RML.OHMM :
RI. :
RXO.OHMM :
CALI.CM :
DEN.GM/CC :
~A
# ...
  148.0000    -7.8370    51.0640    20.5860    16.4480    17.7800    24.3390     2.4900 
  148.1250    -7.9590    49.7700    20.6410    16.3840    17.0040    24.3460     2.4990 
  148.2500    -8.0540    48.9940    20.9350    16.5030    17.1260    24.3530     2.5030 
  148.3750    -8.1420    50.9830    21.4010    16.7770    18.4960    24.3640     2.4990 
  148.5000    -8.2380    53.7140    21.8480    17.0910    20.1180    24.3640     2.4900 
  148.6250    -8.2670    54.4840    22.0580    17.2790    20.5060    24.3440     2.4810 
  148.7500    -8.2460    52.4720    21.9060    17.2300    19.3370    24.3300     2.4770 
  148.8750    -8.2090    48.8280    21.3930    16.9090    17.4440    24.3220     2.4800 
  149.0000    -8.1330    46.2270    20.6260    16.3480    16.6400    24.3180     2.4890 
  149.1250    -8.0290    45.3280    19.8320    15.7090    16.6370    24.3260     2.4950 
  149.2500    -7.9210    45.0420    19.1300    15.0990    16.4310    24.3320     2.4950 
  149.3750    -7.7450    44.8670    18.5690    14.5890    15.9110    24.3280     2.4890 
  149.5000    -7.5840    45.0460    18.1680    14.2250    15.2190    24.3210     2.4790 
  149.6250    -7.4740    45.0450    17.8740    13.9830    15.2480    24.3090     2.4710 
  149.7500    -7.3460    45.0200    17.6430    13.8430    15.6670    24.3030     2.4680 
  149.8750    -7.2330    45.6550    17.4220    13.7700    15.6060    24.3140     2.4700 
  150.0000    -7.2040    45.8410    17.1810    13.7280    15.1450    24.3110     2.4750 
  150.1250    -7.2110    44.4810    16.9590    13.7020    15.1260    24.2810     2.4790 
  150.2500    -7.2560    43.4650    16.8180    13.7110    15.3390    24.2720     2.4810 
  150.3750    -7.4160    45.0490    16.7680    13.7620    15.1660    24.3010     2.4860 
  150.5000    -7.6340    47.3040    16.6230    13.7400    14.5000    24.3230     2.5000 
  150.6250    -7.8430    47.6240    16.0780    13.4230    14.2220    24.3300     2.5200 
  150.7500    -8.0930    47.5250    14.9390    12.6280    14.2390    24.3180     2.5310 
  150.8750    -8.4050    49.2370    13.2760    11.3650    13.6160    24.3010     2.5200 
  151.0000    -8.6670    55.1450    11.4460     9.8710    11.2730    24.2800     2.4800 
  151.1250    -8.8810    64.3400     9.8820     8.5150     8.4830    24.2920     2.4270 
  151.2500    -9.0800    74.1050     8.7520     7.4690     6.8870    24.3140     2.3790 
  151.3750    -9.2160    79.4320     8.0410     6.7670     6.8250    24.3250     2.3510 
  151.5000    -9.3350    77.4780     7.6590     6.3790     7.1110    24.3240     2.3480 
  151.6250    -9.4730    74.0250     7.4140     6.1480     7.3780    24.3200     2.3580 
  151.7500    -9.5960    71.2210     7.2230     5.9920     7.4490    24.3070     2.3700 
  151.8750    -9.6920    68.6870     7.0620     5.8700     6.6680    24.3190     2.3780 
  152.0000    -9.7930    66.7300     6.9730     5.7960     6.0910    24.3330     2.3780 
  152.1250    -9.9000    68.4650     7.0040     5.8020     5.9890    24.3490     2.3730 
  152.2500   -10.0200    73.3420     7.1870     5.9230     6.3480    24.3490     2.3720 
  152.3750   -10.1560    75.9670     7.5280     6.1790     6.9910    24.3300     2.3830 
  152.5000   -10.2080    74.0110     7.9960     6.5660     7.4170    24.3210     2.4130 
  152.6250   -10.2330    73.1130     8.4760     6.9920     7.7130    24.3180     2.4430 
  152.7500   -10.2570    73.8180     8.8650     7.3610     8.3490    24.2720     2.4560 
  152.8750   -10.2110    73.4610     9.0760     7.5840     9.2140    24.1160     2.4450 
  153.0000   -10.0910    72.0490     9.0540     7.5910     9.0170    23.8290     2.4200 
  153.1250    -9.9790    72.7600     8.9040     7.4600     8.5640    23.5040     2.3980 
  153.2500    -9.8450    75.7920     8.7490     7.2880     8.1550    23.1940     2.3840 
  153.3750    -9.6800    78.3530     8.7200     7.1870     8.2700    22.9620     2.3770 
  153.5000    -9.5790    79.4170     8.9450     7.2780     8.6630    22.8770     2.3780 
  153.6250    -9.4850    79.8690     9.3800     7.5490     8.8030    22.8500     2.3870 
  153.7500    -9.3540    78.9180     9.9390     7.9440     9.3520    22.8510     2.4000 
  153.8750    -9.2710    76.0500    10.4870     8.3610    10.9850    22.9100     2.4070 
  154.0000    -9.2570    72.0360    10.8640     8.6710    12.4150    23.0840     2.3980 
  154.1250    -9.2070    71.6060    11.0540     8.8390    11.8600    23.3580     2.3770 
  154.2500    -9.1520    75.1750    11.1090     8.8900    10.8740    23.7000     2.3530 
  154.3750    -9.1000    78.9300    11.1190     8.8800    10.7290    23.9770     2.3360 
  154.5000    -9.0070    78.4880    11.2200     8.9050    11.5390    24.1260     2.3400 
  154.6250    -8.9140    74.9810    11.5130     9.0590    11.9870    24.1770     2.3620 
  154.7500    -8.8210    71.8140    12.0590     9.4050    12.2920    24.1860     2.3860 
  154.8750    -8.6850    71.5930    12.8760     9.9710    12.4460    24.1640     2.3910 
  155.0000    -8.5480    72.0220    13.9490    10.7730    13.2880    24.1130     2.3570 
  155.1250    -8.4350    69.0100    15.0820    11.6830    15.7220    24.0610     2.3050 
  155.2500    -8.2900    63.8560    16.0810    12.5630    17.2860    24.0400     2.2550 
  155.3750    -8.1540    61.2510    16.8380    13.3040    17.9340    24.1280     2.2290 
  155.5000    -8.0510    63.8000    17.3710    13.8670    18.0800    24.2620     2.2410 
  155.6250    -7.9310    68.8980    17.8430    14.3390    17.0120    24.3240     2.2770 
  155.7500    -7.8630    72.8100    18.3350    14.7750    16.2770    24.3350     2.3190 
  155.8750    -7.8670    72.0600    18.8210    15.1790    16.7250    24.3380     2.3470 
  156.0000    -7.8550    66.3410    19.0870    15.4330    19.4200    24.3220     2.3450 
  156.1250    -7.8400    61.9220    18.9750    15.4180    19.8910    24.2700     2.3210 
  156.2500    -7.8800    61.5570    18.4900    15.1110    17.0830    24.2150     2.2880 
  156.3750    -7.9470    62.8160    17.8030    14.6060    15.5230    24.1990     2.2560 
  156.5000    -8.0060    63.7990    17.1580    14.0600    15.2210    24.1910     2.2340 
  156.6250    -8.1120    65.2550    16.7010    13.6020    15.2420    24.1970     2.2210 
  156.7500    -8.2350    65.9990    16.4520    13.2800    14.9720    24.1990     2.2170 
  156.8750    -8.3130    65.0630    16.3790    13.0960    14.7370    24.1700     2.2200 
  157.0000    -8.4210    64.8860    16.5330    13.0960    14.6430    24.1120     2.2260 
  157.1250    -8.5540    67.7680    17.0200    13.3350    14.3790    24.0060     2.2290 
  157.2500    -8.6500    70.9600    17.9890    13.9140    14.0010    23.8220     2.2300 
  157.3750    -8.7400    70.6870    19.5180    14.9000    14.6280    23.5440     2.2280 
  157.5000    -8.8100    66.9820    21.6130    16.3420    17.1060    23.2870     2.2290 
  157.6250    -8.8500    63.1360    23.9790    18.0570    20.2860    23.1710     2.2380 
  157.7500    -8.8810    61.0050    26.3580    19.8660    22.2830    23.1630     2.2600 
  157.8750    -8.8990    61.1760    28.4890    21.5660    23.4660    23.1680     2.2870 
  158.0000    -8.8650    63.2600    30.0860    22.9110    23.7930    23.0810     2.3020 
  158.1250    -8.8320    63.9380    31.1470    23.8530    24.1700    22.8800     2.2970 
  158.2500    -8.7940    62.7620    31.6810    24.3810    24.9110    22.7350     2.2770 
  158.3750    -8.6850    60.3430    31.7220    24.5160    26.3570    22.7980     2.2590 
  158.5000    -8.5880    56.5870    31.3050    24.2690    26.5970    23.1150     2.2620 
  158.6250    -8.4590    52.6560    30.6960    23.8340    25.1630    23.4220     2.2810 
  158.7500    -8.2310    50.6460    30.0820    23.3610    24.0620    23.6430     2.3040 
  158.8750    -7.9770    52.0590    29.5710    22.9540    24.1840    23.8320     2.3140 
  159.0000    -7.7610    55.1460    29.1760    22.6660    23.9010    23.9280     2.3040 
  159.1250    -7.5130    57.5660    28.7780    22.4360    24.3460    24.0190     2.2860 
