~V
VERS. 2.00: Ver 2.00
~W
STRT.M 51.0000:
STOP.M 206.0000:
STEP.M 0.1250:
NULL. -999.2500:
UWI. F10683:
~C
DEPT.M :
GR.API :
RML.OHMM :
RI. :
RXO.OHMM :
CALI.CM :
SP.MV :
DEN.GM/CC :
~A
   51.0000    45.5220     1.6560     0.0990    -3.2440    25.0140   138.6840  -999.2500 
   51.1250    42.7030     1.6910     0.0940    -2.5120    25.1200   137.7120  -999.2500 
   51.2500    40.8600     1.7320     0.0950    -1.9680    25.1440   136.9530  -999.2500 
   51.3750    40.4760     1.7660     0.0970    -1.7560    25.1430   136.4190  -999.2500 
   51.5000    40.9310     1.7600     0.0970    -1.7250    25.1420   136.1020  -999.2500 
   51.6250    41.5220     1.6520     0.0940    -1.8920    25.1420   135.9630  -999.2500 
   51.7500    42.8680     1.4620     0.0880    -2.1730    25.1420   135.8760  -999.2500 
   51.8750    44.3430     1.2490     0.0820    -2.3990    25.1420   135.7340  -999.2500 
   52.0000    43.1190     1.0850     0.0740    -2.3320    25.1490   135.4430  -999.2500 
   52.1250    39.3680     1.0310     0.0660    -1.9480    25.1680   134.9130  -999.2500 
   52.2500    37.6580     1.0570     0.0580    -1.7520    25.1840   134.2500  -999.2500 
   52.3750    39.5810     1.1150     0.0550    -2.0310    25.1680   133.5080  -999.2500 
   52.5000    41.4250     1.1620     0.0580    -2.2190    25.1490   132.7080  -999.2500 
   52.6250    40.5910     1.1780     0.0640    -1.9770    25.1530   131.8750  -999.2500 
   52.7500    39.0670     1.1840     0.0670    -1.5010    25.1770   131.1000  -999.2500 
   52.8750    38.5630     1.1910     0.0640    -1.3380    25.2010   130.4620  -999.2500 
   53.0000    39.4010     1.2050     0.0570    -1.5440    25.2110   130.0530  -999.2500 
   53.1250    40.7020     1.2230     0.0510    -1.8070    25.2110   129.9680  -999.2500 
   53.2500    41.0570     1.2330     0.0490    -1.9660    25.2110   130.1540  -999.2500 
   53.3750    40.1240     1.2270     0.0470    -2.0430    25.2110   130.6420  -999.2500 
   53.5000    39.6100     1.2090     0.0430    -2.1070    25.2110   131.4820  -999.2500 
   53.6250    40.8010     1.1890     0.0390    -1.7070    25.2990   132.7790  -999.2500 
   53.7500    42.5520     1.1840     0.0390     0.3620    25.7360   134.4050  -999.2500 
   53.8750    42.7280     1.2080     0.0450     3.0520    26.4360   136.2330  -999.2500 
   54.0000    40.8960     1.2610     0.0510     1.2340    25.9040   138.1220  -999.2500 
   54.1250    39.7440     1.3190     0.0520    -0.7310    25.4430   139.8920  -999.2500 
   54.2500    41.0530     1.3430     0.0470    -2.0110    25.1290   141.4700  -999.2500 
   54.3750    42.7150     1.3140     0.0410    -2.0170    25.0510   142.8420  -999.2500 
   54.5000    42.2760     1.2340     0.0370    -2.0070    24.9540   144.0060  -999.2500 
   54.6250    41.3730     1.1320     0.0340    -2.0070    24.8610   144.8930  -999.2500 
   54.7500    43.1890     1.0470     0.0290    -1.9260    24.7710   145.5140  -999.2500 
   54.8750    45.5870     0.9840     0.0220    -1.7850    24.7170   145.8740  -999.2500 
   55.0000    44.7340     0.9370     0.0160    -1.6750    24.6930   146.0200  -999.2500 
   55.1250    42.7540     0.8950     0.0110    -1.6910    24.6570   146.0640  -999.2500 
   55.2500    44.1990     0.8580     0.0080    -1.8000    24.5840   146.0960  -999.2500 
   55.3750    46.7740     0.8300     0.0090    -1.8780    24.5010   146.0920  -999.2500 
   55.5000    47.1780     0.8110     0.0130    -1.9230    24.4280   146.0080  -999.2500 
   55.6250    47.1270     0.7970     0.0220    -2.2520    24.3710   145.7650  -999.2500 
   55.7500    48.2300     0.7880     0.0340    -2.7660    24.2900   145.4400  -999.2500 
   55.8750    48.0810     0.7860     0.0470    -3.2340    24.1700   145.2110  -999.2500 
   56.0000    46.3190     0.7900     0.0570    -3.6120    23.9820   145.2450     0.0000 
   56.1250    46.1300     0.7960     0.0630    -3.9180    23.7360   145.6840     0.0000 
   56.2500    47.7210     0.7890     0.0700    -4.0330    23.5880   146.4630     0.0000 
   56.3750    49.3280     0.7650     0.0780    -4.0070    23.5630   147.5430     0.0000 
   56.5000    49.8830     0.7300     0.0860    -3.8370    23.6390   148.8890     0.0000 
   56.6250    49.2380     0.6960     0.0870    -3.5060    23.7820   150.4990     0.2260 
   56.7500    48.7090     0.6690     0.0820    -3.2280    23.8980   152.1720     1.0690 
   56.8750    49.4550     0.6450     0.0770    -3.2580    23.9450   153.6170     1.5640 
   57.0000    50.4280     0.6160     0.0790    -3.5470    23.9290   154.5280     2.1150 
   57.1250    49.2780     0.5860     0.0920    -3.8600    23.8690   154.5850     2.5950 
   57.2500    46.9290     0.5680     0.1080    -3.9860    23.8390   153.8330     2.5780 
   57.3750    46.4850     0.5700     0.1200    -3.9890    23.8460   152.2790     2.5660 
   57.5000    48.1470     0.5830     0.1280    -3.9520    23.8960   150.0000     2.5660 
   57.6250    49.7940     0.5830     0.1340    -3.8840    23.9700   147.1000     2.5840 
   57.7500    50.2530     0.5580     0.1420    -3.7990    24.0680   143.9750     2.6110 
   57.8750    49.9510     0.5130     0.1510    -3.7440    24.1950   140.9560     2.6350 
   58.0000    49.0390     0.4610     0.1580    -3.7680    24.4150   138.3420     2.6440 
   58.1250    46.9430     0.4180     0.1660    -3.9070    24.6860   136.4800     2.6480 
   58.2500    46.2950     0.3820     0.1780    -4.0370    24.8490   135.4460     2.6660 
   58.3750    47.9580     0.3500     0.1930    -4.0670    24.8680   135.4090     2.7030 
   58.5000    50.1460     0.3230     0.2050    -4.0100    24.7820   136.4680     2.7540 
   58.6250    49.5590     0.3080     0.2080    -3.8880    24.6570   138.7040     2.8170 
   58.7500    46.4100     0.3030     0.2010    -3.8020    24.5250   141.7450     2.8830 
   58.8750    43.1320     0.2980     0.1890    -3.8210    24.4600   145.3530     2.9420 
   59.0000    40.2560     0.2800     0.1790    -3.8870    24.5290   149.2370     2.9800 
   59.1250    37.8150     0.2500     0.1770    -3.7190    24.7820   153.0330     2.9890 
   59.2500    37.7620     0.2240     0.1790    -3.1200    25.0570   156.4540     2.9800 
   59.3750    40.3240     0.2130     0.1840    -2.4120    25.2130   159.2070     2.9600 
   59.5000    43.0830     0.2140     0.1830    -1.9790    25.1990   161.0350     2.9400 
   59.6250    41.3610     0.1730     0.1530    -1.3140    25.0730   161.5210     2.9350 
   59.7500    41.1820     0.0130     0.0740     0.1990    25.0240   160.6140     2.9340 
   59.8750    45.8650    -0.2740    -0.0450     2.5230    25.1480   158.1910     2.9160 
   60.0000    50.3500    -0.5670    -0.1580     2.3290    25.3010   154.2780     2.8570 
   60.1250    48.4930    -0.7370    -0.2190    -0.7710    25.3620   148.3520     2.7600 
   60.2500    44.0020    -0.8100    -0.2410    -2.7280    25.3680   140.2190     2.6390 
   60.3750    42.1060    -0.8140    -0.2280    -3.4840    25.3660   129.5910     2.5030 
   60.5000    43.8130    -0.7460    -0.1590    -2.8000    25.3990   116.6200     2.3730 
   60.6250    46.0600    -0.5150     0.0760    -0.5850    25.3690   101.9850     2.2870 
   60.7500    48.2690     0.0260     0.6380     6.1370    25.0940    86.9960     2.2530 
   60.8750    49.5700     1.1560     1.8170    12.4420    24.5790    72.2230     2.2570 
   61.0000    51.1460     3.1430     3.9060    14.0430    24.2820    58.0020     2.2830 
   61.1250    52.4630     5.7230     7.3190    14.5900    24.3630    45.0910     2.3160 
   61.2500    52.5660     7.9960    10.2550    15.0690    24.5580    34.0300     2.3460 
   61.3750    51.6690     9.9760    13.1070    15.6650    24.6410    25.2720     2.3820 
   61.5000    52.9510    12.2580    16.4090    16.4510    24.5400    18.7990     2.4450 
   61.6250    59.6080    15.6480    21.1330    19.3520    24.3960    14.1890     2.5460 
   61.7500    66.0480    20.1910    27.1900    28.4690    24.3840    10.4030     2.6460 
   61.8750    64.9060    24.7520    32.8780    48.7820    24.4580     7.1120     2.7010 
   62.0000    57.2090    26.2470    34.4450    62.4310    24.4920     4.1990     2.6840 
   62.1250    54.1980    22.5050    29.0530    55.0100    24.4790     1.6690     2.5960 
