~V
VERS. 2.00: Ver 2.00
~W
STRT.M 61.0000:
STOP.M 247.0000:
STEP.M 0.1250:
NULL. -999.2500:
UWI. F10600:
~C
DEPT.M :
GR.API :
RML.OHMM :
RI. :
RXO.OHMM :
CALI.CM :
DEN.GM/CC :
SP.MV :
~A
# ...
   72.2500    93.9370     6.9670     5.8730     6.0950    24.4280     2.2300   -26.7620 
   72.3750    99.1350     6.3940     5.3830     5.6270    24.4990     2.2660   -25.5450 
   72.5000   103.5360     5.9670     5.0730     5.3060    24.5930     2.3010   -24.4070 
   72.6250   108.5990     5.6740     4.9710     5.0660    24.7400     2.3310   -23.4250 
   72.7500   112.8660     5.4250     4.9800     4.7520    24.9950     2.3520   -22.6880 
   72.8750   115.3810     5.2030     5.0100     4.5160    25.3940     2.3650   -22.1120 
   73.0000   117.3180     5.0510     4.9850     4.4360    25.8650     2.3710   -21.7300 
   73.1250   117.6610     5.0450     4.8590     4.6100    25.9520     2.3760   -21.5690 
   73.2500   116.6220     5.1480     4.6840     4.6600    25.9550     2.3810   -21.4940 
   73.3750   114.7670     5.2840     4.5320     4.5560    25.9230     2.3840   -21.5210 
   73.5000   114.4690     5.3710     4.4670     4.5240    25.8850     2.3740   -21.6240 
   73.6250   115.8480     5.3720     4.5300     4.5640    25.8670     2.3430   -21.7930 
   73.7500   117.0810     5.3390     4.6650     4.6160    25.8630     2.3030   -22.0110 
   73.8750   116.6570     5.3100     4.8130     4.6380    25.8610     2.2700   -22.2820 
   74.0000   114.1890     5.2800     4.9150     4.6150    25.8460     2.2570   -22.6120 
   74.1250   112.2420     5.2280     4.9250     4.6090    25.8980     2.2730   -23.0080 
   74.2500   111.8740     5.1740     4.8620     4.5580    25.9630     2.3040   -23.4360 
   74.3750   111.4890     5.1780     4.7650     4.5370    25.8380     2.3340   -23.8930 
   74.5000   109.9890     5.3060     4.6840     4.5930    25.4590     2.3540   -24.4020 
   74.6250   105.0890     5.6360     4.7000     4.8850    25.2700     2.3580   -24.9230 
   74.7500    97.5060     6.1600     4.8730     5.8940    25.3180     2.3550   -25.4240 
   74.8750    91.1100     6.8790     5.2610     8.0120    25.3700     2.3550   -25.9900 
   75.0000    87.9160     7.7630     5.8840     9.6070    25.1540     2.3650   -26.5730 
   75.1250    86.2370     8.7210     6.7220     7.8960    24.9610     2.3850   -27.1750 
   75.2500    83.8340     9.5680     7.6050     8.6600    24.8440     2.4000   -27.8840 
   75.3750    82.2420    10.1410     8.3630    11.7330    24.7410     2.3960   -28.6170 
   75.5000    81.4390    10.3510     8.8380    13.1190    24.6010     2.3750   -29.4340 
   75.6250    79.6910    10.2010     8.9010     9.4940    24.5030     2.3470   -30.3280 
   75.7500    78.6460     9.9210     8.6850     8.9040    24.4690     2.3320   -31.2570 
   75.8750    78.3150     9.6720     8.3420     9.2040    24.4440     2.3320   -32.1510 
   76.0000    78.0740     9.5430     8.0380     9.4270    24.3750     2.3380   -33.0010 
   76.1250    76.3430     9.5230     7.9040     9.1400    24.3470     2.3350   -33.8020 
   76.2500    73.7630     9.4610     7.8910     8.7630    24.3740     2.3210   -34.4510 
   76.3750    70.6470     9.2310     7.9000     8.5370    24.4710     2.3020   -34.9640 
   76.5000    67.6190     8.8480     7.8620     8.5610    24.6290     2.2830   -35.3540 
   76.6250    68.5140     8.6210     7.8530     8.7000    24.8890     2.2640   -35.6550 
   76.7500    71.4480     8.9700     8.1060     9.0190    25.1930     2.2480   -35.8410 
   76.8750    72.2200    10.2020     8.8830     9.7650    25.4460     2.2480   -35.9490 
   77.0000    68.8110    12.3800    10.3640    12.7820    25.5590     2.2800   -36.0260 
   77.1250    64.2630    15.0770    12.4960    22.9090    25.6070     2.3460   -36.1240 
   77.2500    61.6950    17.0710    14.5100    39.6030    25.6370     2.4080   -36.2500 
   77.3750    61.1900    17.3320    15.5460    52.5050    25.5810     2.4290   -36.3880 
   77.5000    62.0170    15.6860    15.0820    43.3730    25.4690     2.3910   -36.5220 
   77.6250    63.6520    13.0330    13.2510    25.4810    25.3970     2.3090   -36.6460 
   77.7500    64.8910    10.7150    11.1070    14.6280    25.3050     2.2290   -36.7580 
   77.8750    65.4930     9.2000     9.2650     9.8490    25.0780     2.1760   -36.8170 
   78.0000    65.3830     8.4970     8.0070     8.2920    24.7890     2.1570   -36.8680 
   78.1250    65.7450     8.4940     7.4500     8.0330    24.6030     2.1640   -36.8310 
   78.2500    67.2540     8.8450     7.3560     7.9020    24.5900     2.1780   -36.7120 
   78.3750    68.8950     9.3270     7.5410     7.8100    24.6330     2.1930   -36.5860 
   78.5000    69.3970     9.7320     7.8120     7.9570    24.6440     2.2050   -36.3890 
   78.6250    68.5180     9.8700     7.9700     8.0820    24.6340     2.2150   -36.0920 
   78.7500    67.9020     9.7740     7.9530     8.1470    24.6000     2.2260   -35.8000 
   78.8750    69.5240     9.5390     7.7920     7.8840    24.5150     2.2400   -35.5370 
   79.0000    72.6590     9.2790     7.5830     7.7640    24.4000     2.2570   -35.2110 
   79.1250    72.7360     9.0800     7.4430     7.9930    24.5000     2.2700   -34.8170 
   79.2500    69.2630     8.9400     7.3960     8.0370    24.8270     2.2700   -34.4630 
   79.3750    66.6480     8.8250     7.3910     7.7060    25.2450     2.2540   -34.0620 
   79.5000    66.7300     8.7010     7.3420     7.4280    25.5820     2.2270   -33.5970 
   79.6250    69.0800     8.5280     7.1740     7.5090    25.8510     2.2050   -33.1660 
   79.7500    72.8770     8.3080     6.9470     7.5720    25.8570     2.1970   -32.7180 
   79.8750    77.1280     8.0880     6.7660     7.3440    25.6510     2.1960   -32.2120 
   80.0000    79.3550     7.9640     6.7400     7.1730    25.1850     2.1890   -31.7290 
   80.1250    77.0240     8.0810     6.9520     7.3890    25.0040     2.1630   -31.2740 
   80.2500    73.7930     8.4270     7.2980     7.5060    25.1900     2.1330   -30.7390 
   80.3750    72.6150     8.8900     7.6260     7.2950    25.4850     2.1230   -30.1400 
   80.5000    73.7310     9.2660     7.7690     7.0980    25.5520     2.1500   -29.5280 
   80.6250    76.7930     9.2720     7.5810     7.5380    25.2010     2.2100   -28.8740 
   80.7500    80.6470     8.8830     7.1610     8.1590    24.8740     2.2690   -28.2330 
   80.8750    84.2260     8.2100     6.6490     7.7450    24.8780     2.3060   -27.6450 
   81.0000    87.4030     7.4630     6.1820     6.0220    25.2020     2.3150   -27.0970 
   81.1250    90.5950     6.9120     5.8470     5.2690    25.5190     2.3050   -26.6390 
   81.2500    94.3020     6.6710     5.6080     5.4200    25.6520     2.2940   -26.2860 
   81.3750    96.1710     6.7510     5.4330     5.9880    25.5810     2.2880   -26.0920 
   81.5000    95.7630     7.0640     5.3200     6.1430    25.5390     2.2850   -26.1090 
   81.6250    94.3050     7.4540     5.3280     6.1860    25.6780     2.2820   -26.2670 
   81.7500    91.4750     7.7880     5.4790     6.1460    25.7890     2.2810   -26.4650 
   81.8750    87.2070     8.0600     5.7570     6.1180    25.6260     2.2840   -26.7220 
   82.0000    82.9550     8.3160     6.0950     6.1790    25.4440     2.2860   -26.9950 
   82.1250    80.2300     8.5540     6.3760     6.4340    25.4660     2.2770   -27.1660 
   82.2500    77.7360     8.7070     6.5390     6.6700    25.7260     2.2480   -27.2910 
   82.3750    75.5370     8.7070     6.5970     6.8780    26.0440     2.2050   -27.3370 
   82.5000    75.8000     8.5310     6.5990     7.3470    26.1910     2.1630   -27.1980 
   82.6250    77.4490     8.1970     6.5830     7.8470    26.0050     2.1480   -26.9070 
   82.7500    79.2520     7.7930     6.5340     7.4420    25.6090     2.1650   -26.5770 
   82.8750    82.7630     7.3710     6.4120     6.5470    25.1790     2.2030   -26.1880 
   83.0000    88.3320     6.9940     6.1870     6.1020    24.8800     2.2470   -25.7420 
   83.1250    91.1490     6.7790     5.8690     5.8530    24.7470     2.2770   -25.3170 
   83.2500    89.2740     6.7670     5.5490     5.6690    24.7010     2.2900   -24.9390 
   83.3750    87.5760     6.9170     5.3030     5.6030    24.7060     2.2930   -24.6330 
