~V
VERS. 2.00: Ver 2.00
~W
STRT.M 50.0000:
STOP.M 224.0000:
STEP.M 0.1250:
NULL. -999.2500:
UWI. F10690:
~C
DEPT.M :
SP.MV :
DEN.GM/CC :
GR.API :
RML.OHMM :
RI. :
RXO.OHMM :
CALI.CM :
~A
# ...
  207.5000   -28.8000     2.3550    32.5660     4.6550     4.2960     4.1410    25.3990 
  207.6250   -28.6790     2.3400    32.2530     4.6390     4.2800     4.0460    25.3990 
  207.7500   -28.6760     2.3300    31.8390     4.6500     4.2920     4.0300    25.3990 
  207.8750   -28.8110     2.3280    31.2580     4.7100     4.3490     4.2860    25.3990 
  208.0000   -29.0350     2.3320    31.2510     4.8160     4.4510     4.8170    25.3990 
  208.1250   -29.2770     2.3390    32.3330     4.9310     4.5620     5.2700    25.3990 
  208.2500   -29.5000     2.3430    32.1660     5.0000     4.6290     4.9010    25.3990 
  208.3750   -29.7170     2.3420    30.1930     4.9910     4.6200     4.5070    25.3990 
  208.5000   -29.9410     2.3430    28.1180     4.9040     4.5360     4.4110    25.3990 
  208.6250   -30.1230     2.3540    27.6990     4.7700     4.4070     4.4000    25.3990 
  208.7500   -30.1960     2.3760    27.2380     4.6460     4.2870     4.2220    25.3990 
  208.8750   -30.1410     2.3950    26.3480     4.5620     4.2060     4.0190    25.3990 
  209.0000   -30.0220     2.3960    26.3370     4.5300     4.1750     3.9300    25.3990 
  209.1250   -29.9460     2.3740    27.4370     4.5520     4.1970     3.9420    25.3990 
  209.2500   -29.9310     2.3470    28.8040     4.6040     4.2470     4.0550    25.3990 
  209.3750   -29.9190     2.3320    31.0210     4.6620     4.3030     4.3000    25.3990 
  209.5000   -29.8510     2.3360    34.1340     4.7050     4.3440     4.5820    25.3990 
  209.6250   -29.7220     2.3580    36.0890     4.7150     4.3540     4.5330    25.3990 
  209.7500   -29.6170     2.3760    34.7810     4.7070     4.3460     4.3760    25.3990 
  209.8750   -29.6110     2.3810    31.5120     4.7070     4.3460     4.2450    25.3990 
  210.0000   -29.7240     2.3780    30.0100     4.7500     4.3880     4.2980    25.3990 
  210.1250   -29.9270     2.3820    32.2050     4.8910     4.5240     4.5270    25.3990 
  210.2500   -30.1280     2.4010    34.2540     5.1400     4.7640     4.9660    25.3990 
  210.3750   -30.2520     2.4390    33.3070     5.4900     5.1020     5.4850    25.3990 
  210.5000   -30.2440     2.4980    30.9260     5.8970     5.4940     6.2430    25.3980 
  210.6250   -30.1060     2.5610    30.5650     6.2620     5.8460     7.3690    25.3970 
  210.7500   -29.9520     2.6010    31.7880     6.4940     6.0700     7.9240    25.3950 
  210.8750   -29.8760     2.6040    32.9470     6.5570     6.1300     7.8320    25.3970 
  211.0000   -29.9110     2.5770    33.4370     6.4740     6.0500     7.3240    25.3980 
  211.1250   -30.0010     2.5360    33.7660     6.3060     5.8890     6.5140    25.3990 
  211.2500   -30.0420     2.4920    33.8680     6.1380     5.7260     5.7850    25.3990 
  211.3750   -29.9990     2.4570    33.7720     5.9970     5.5900     5.5290    25.3990 
  211.5000   -29.9160     2.4410    33.7720     5.8730     5.4710     5.6760    25.3990 
  211.6250   -29.8960     2.4430    33.7720     5.7300     5.3320     6.0260    25.3990 
  211.7500   -29.9670     2.4440    33.7720     5.5440     5.1530     5.9140    25.3990 
  211.8750   -30.0900     2.4370    33.7720     5.3310     4.9480     5.6730    25.3990 
  212.0000   -30.2070     2.4230    33.7720     5.1460     4.7690     5.3260    25.3990 
  212.1250   -30.2930     2.4060    33.7720     5.0990     4.7240     4.8620    25.3990 
  212.2500   -30.3860     2.3900    33.7720     5.2650     4.8840     4.5960    25.3990 
  212.3750   -30.4990     2.3710    33.7720     5.6870     5.2910     4.9270    25.3990 
  212.5000   -30.6050     2.3530    33.7720     6.3270     5.9080     6.0280    25.3990 
  212.6250   -30.6610     2.3470    33.7720     7.0030     6.5600     8.1450    25.3990 
  212.7500   -30.6580     2.3500    33.7720     7.4110     6.9540    10.5380    25.4020 
  212.8750   -30.6230     2.3490    33.7720     7.3510     6.8960    11.2100    25.4390 
  213.0000   -30.6000     2.3430    33.7720     6.8340     6.3970     8.9500    25.5450 
  213.1250   -30.5920     2.3420    33.7720     6.0850     5.6750     5.8620    25.7180 
  213.2500   -30.5460     2.3400    33.7720     5.4130     5.0270     4.6250    25.8020 
  213.3750   -30.4410     2.3210    33.7720     4.9450     4.5760     4.3660    25.8250 
  213.5000   -30.3080     2.2950    33.7720     4.7080     4.3470     4.4230    25.8390 
  213.6250   -30.1970     2.2890    33.7720     4.6860     4.3250     4.3740    25.9000 
  213.7500   -30.1320     2.3040    33.7720     4.7620     4.3990     4.3080    26.0180 
  213.8750   -30.1180     2.3300    33.7720     4.8640     4.4980     4.3130    26.1220 
  214.0000   -30.1350     2.3530    33.7720     4.9500     4.5800     4.4050    26.0390 
  214.1250   -30.1600     2.3630    33.7720     5.0050     4.6340     4.3430    25.8680 
  214.2500   -30.1850     2.3680    33.7720     5.0420     4.6700     4.3050    25.6880 
  214.3750   -30.2090     2.3840    33.7720     5.0710     4.6970     4.3840    25.6210 
  214.5000   -30.2330     2.4160    33.7720     5.0980     4.7230     4.5880    25.6120 
  214.6250   -30.2810     2.4520    33.7720     5.1250     4.7500     4.7150    25.6120 
  214.7500   -30.3760     2.4670    33.7720     5.1460     4.7700     4.6140    25.6120 
  214.8750   -30.5040     2.4520    33.7720     5.1530     4.7770     4.4870    25.6120 
  215.0000   -30.6270     2.4170    33.7720     5.1430     4.7670     4.4710    25.6120 
  215.1250   -30.6970     2.3850    33.7720     5.1170     4.7420     4.5200    25.6120 
  215.2500   -30.7150     2.3660    33.7720     5.0810     4.7070     4.4550    25.6210 
  215.3750   -30.7210     2.3510    33.7720     5.0390     4.6660     4.3300    25.7030 
  215.5000   -30.7650     2.3400    33.7720     4.9910     4.6200     4.2430    25.9360 
  215.6250   -30.8870     2.3380    33.7720     4.9380     4.5690     4.2000    26.3370 
  215.7500   -31.0530     2.3440    33.7720     4.8840     4.5170     4.2000    26.5590 
  215.8750   -31.2290     2.3510    33.7720     4.8260     4.4610     4.2050    26.5820 
  216.0000   -31.3760     2.3580    33.7720     4.7600     4.3970     4.2510    26.5430 
  216.1250   -31.4670     2.3790    33.7720     4.6880     4.3280     4.2500    26.4510 
  216.2500   -31.5480     2.4080    33.7720     4.6230     4.2650     4.2840    26.2730 
  216.3750   -31.6730     2.4250    33.7720     4.5740     4.2180     4.3960    26.0200 
  216.5000   -31.8760     2.4130    33.7720     4.5450     4.1900     4.6070    25.6790 
  216.6250   -32.1550     2.3780    33.7720     4.5340     4.1790     4.7250    25.2580 
  216.7500   -32.4210     2.3480    33.7720     4.5290     4.1740     4.7890    25.2370 
  216.8750   -32.5960     2.3390    33.7720     4.5260     4.1710     4.7990    25.7140 
  217.0000   -32.6400     2.3590    33.7720     4.5230     4.1690     4.6810    26.1820 
  217.1250   -32.5800     2.3880    33.7720     4.5210     4.1670     4.6200    26.1510 
  217.2500   -32.5110     2.3890    33.7720     4.5200     4.1660     5.2260    26.0050 
  217.3750   -32.4760     2.3560    33.7720     4.5200     4.1660     6.6110    25.8890 
  217.5000   -32.4720     2.3160    33.7720     4.5200     4.1660     7.8320    25.8390 
  217.6250   -32.5120     2.2970    33.7720     4.5200     4.1660     6.8960    25.8480 
  217.7500   -32.5650     2.2970    33.7720     4.5200     4.1660     6.2400    25.9600 
  217.8750   -32.6390     2.3130    33.7720     4.5200     4.1660     5.7930    26.2270 
  218.0000   -32.7240     2.3350    33.7720     4.5200     4.1660     5.4510    26.6200 
  218.1250   -32.8060     2.3410    33.7720     4.5200     4.1660     5.0940    26.7740 
  218.2500   -32.9320     2.3300    33.7720     4.5200     4.1660     4.9540    26.6520 
  218.3750   -33.1700     2.3150    33.7720     4.5200     4.1660     4.7820    26.3310 
  218.5000   -33.5500     2.2990    33.7720     4.5200     4.1660     4.6490    25.8460 
  218.6250   -34.0250     2.2710    33.7720     4.5200     4.1660     4.7600    25.6280 
