~V
VERS. 2.00: Ver 2.00
~W
STRT.M 55.0000:
STOP.M 242.0000:
STEP.M 0.1250:
NULL. -999.2500:
UWI. F10652:
~C
DEPT.M :
SP.MV :
GR.API :
RML.OHMM :
RI. :
RXO.OHMM :
CALI.CM :
DEN.GM/CC :
~A
# ...
  235.0000   -14.8990    87.4630     7.9080     6.5900     8.2960    24.2420     2.2910 
  235.1250   -14.7960    87.4630     8.0050     6.6700     7.8470    24.1830     2.3030 
  235.2500   -14.6120    87.4630     8.0760     6.7300     7.6370    24.1600     2.2950 
  235.3750   -14.4130    87.4630     8.1150     6.7630     7.3560    24.1670     2.2590 
  235.5000   -14.2090    87.4630     8.1240     6.7700     6.8920    24.1890     2.2050 
  235.6250   -14.0090    87.4630     8.1140     6.7620     6.4630    24.1780     2.1610 
  235.7500   -13.8340    87.4630     8.1060     6.7550     6.5380    24.1530     2.1510 
  235.8750   -13.6540    87.4630     8.1090     6.7570     6.8760    24.1270     2.1760 
  236.0000   -13.4700    87.4630     8.1300     6.7750     7.0050    24.0930     2.2170 
  236.1250   -13.3220    87.4630     8.1720     6.8100     6.9760    24.0550     2.2400 
  236.2500   -13.2510    87.4630     8.2160     6.8470     6.9760    23.9920     2.2430 
  236.3750   -13.2380    87.4630     8.2410     6.8670     7.3580    23.9060     2.2360 
  236.5000   -13.2510    87.4630     8.2370     6.8640     8.2710    23.8470     2.2290 
  236.6250   -13.3590    87.4630     8.2080     6.8400     9.6590    23.8330     2.2250 
  236.7500   -13.5100    87.4630     8.1720     6.8100    10.3350    23.8480     2.2240 
  236.8750   -13.6980    87.4630     8.1480     6.7900    10.1490    23.8860     2.2280 
  237.0000   -13.9340    87.4630     8.1480     6.7900     9.0840    23.9290     2.2410 
  237.1250   -14.1830    87.4630     8.1700     6.8080     7.7180    23.9720     2.2650 
  237.2500   -14.3490    87.4630     8.1860     6.8220     6.8800    23.9910     2.2910 
  237.3750   -14.4560    87.4630     8.1860     6.8220     6.5700    23.9970     2.3090 
  237.5000   -14.5930    87.4630     8.1860     6.8220     6.1840    24.0070     2.3120 
  237.6250   -14.7000    87.4630     8.1860     6.8220     5.6980    23.9960     2.2950 
  237.7500   -14.7670    87.4630     8.1860     6.8220     5.9830    23.9390     2.2670 
  237.8750   -14.8570    87.4630     8.1860     6.8220     6.5730    23.8540     2.2350 
  238.0000   -15.0090    87.4630     8.1860     6.8220     7.2320    23.7540     2.2070 
  238.1250   -15.1610    87.4630     8.1860     6.8220     7.6820    23.5860     2.1920 
  238.2500   -15.3530    87.4630     8.1860     6.8220     7.9190    23.3760     2.1910 
  238.3750   -15.5500    87.4630     8.1860     6.8220     7.7830    23.1530     2.2030 
  238.5000   -15.6980    87.4630     8.1860     6.8220     7.6820    22.9190     2.2210 
  238.6250   -15.7840    87.4630     8.1860     6.8220     7.6800    22.7260     2.2420 
  238.7500   -15.8450    87.4630     8.1860     6.8220     7.7730    22.6120     2.2620 
  238.8750   -15.8690    87.4630     8.1860     6.8220     7.9450    22.4980     2.2800 
  239.0000   -15.8690    87.4630     8.1860     6.8220     8.0140    22.3800     2.2930 
  239.1250  -999.2500    87.4630     8.1860     6.8220     7.5960    22.2580     2.2990 
  239.2500  -999.2500    87.4630     8.1860     6.8220     6.6060    22.2000     2.3000 
  239.3750  -999.2500    87.4630     8.1860     6.8220     5.9860    22.0880     2.2950 
  239.5000  -999.2500    87.4630     8.1860     6.8220     5.9110    21.7130     2.2630 
  239.6250  -999.2500    87.4630     8.1860     6.8220     5.9260    20.7440     2.1750 
  239.7500  -999.2500    87.4630     8.1860     6.8220     5.4540    19.2910     2.0560 
  239.8750  -999.2500    87.4630     8.1860     6.8220     4.7440    17.4550     1.9370 
  240.0000  -999.2500    87.4630     8.1860     6.8220     4.2730    15.7240     1.8400 
  240.1250  -999.2500    87.4630     8.1860     6.8220     4.1310    15.0570     1.7810 
  240.2500  -999.2500    87.4630     8.1860     6.8220     4.1100    14.9020     1.7530 
  240.3750  -999.2500    87.4630     8.1860     6.8220     4.1110    14.9030     1.7440 
  240.5000  -999.2500    87.4630     8.1860     6.8220     4.1190    14.9010     1.7410 
  240.6250  -999.2500    87.4630     8.1860     6.8220     4.1310    14.8960     1.7380 
  240.7500  -999.2500    87.4630     8.1860     6.8220     4.1380    14.8940     1.7360 
  240.8750  -999.2500    87.4630     8.1860     6.8220     4.1380    14.8910     1.7340 
  241.0000  -999.2500    87.4630     8.1860     6.8220     4.1320    14.8870     1.7340 
  241.1250  -999.2500    87.4630     8.1860     6.8220     4.1180    14.8860     1.7330 
  241.2500  -999.2500    87.4630     8.1860     6.8220     4.1110    14.8890     1.7320 
  241.3750  -999.2500    87.4630     8.1860     6.8220     4.1100    14.8920     1.7310 
  241.5000  -999.2500    87.4630     8.1860     6.8220     4.1160    14.8930  -999.2500 
  241.6250  -999.2500    87.4630     8.1860     6.8220     4.1180    14.8910  -999.2500 
  241.7500  -999.2500    87.4630     8.1860     6.8220     4.1220    14.8900  -999.2500 
  241.8750  -999.2500    87.4630     8.1860     6.8220     4.1330    14.8900  -999.2500 
  242.0000  -999.2500    87.4630     8.1860     6.8220     4.1430    14.8870  -999.2500 
