~V
VERS. 2.00: Ver 2.00
~W
STRT.M 58.0000:
STOP.M 272.0000:
STEP.M 0.1250:
NULL. -999.2500:
UWI. F10670:
~C
DEPT.M :
DEN.GM/CC :
GR.API :
RML.OHMM :
RI. :
RXO.OHMM :
CALI.CM :
SP.MV :
~A
# ...
  204.2500     2.5640    48.5970    44.9210    42.5480    54.9150    22.7280   -16.5860 
  204.3750     2.5560    53.8680    45.0100    43.8150    44.3360    22.6380   -16.4860 
  204.5000     2.4840    58.7720    41.0410    41.3410    37.8620    22.7620   -16.3760 
  204.6250     2.3980    62.4110    34.7300    36.2010    37.2580    23.0230   -16.2510 
  204.7500     2.3360    66.4350    27.6070    29.5780    35.9660    23.2480   -16.1390 
  204.8750     2.3180    70.4430    21.0210    22.8390    27.8820    23.3700   -16.1010 
  205.0000     2.3380    75.2200    16.0360    17.2780    18.8380    23.3800   -16.1090 
  205.1250     2.3670    82.3240    12.5720    13.1530    12.2200    23.3770   -16.1160 
  205.2500     2.3920    89.2460    10.4150    10.3740     9.0270    23.3740   -16.1150 
  205.3750     2.4060    91.6750     9.2630     8.6900     7.4920    23.3740   -16.1250 
  205.5000     2.4140    89.5700     8.8890     7.9320     7.0170    23.3710   -16.1510 
  205.6250     2.4210    87.3450     8.8870     7.7040     7.0350    23.3570   -16.2050 
  205.7500     2.4290    85.7750     9.0370     7.7990     7.1190    23.3310   -16.2900 
  205.8750     2.4410    84.3280     9.1660     8.0300     7.3110    23.3130   -16.3820 
  206.0000     2.4530    84.0650     9.1460     8.2280     7.5270    23.3070   -16.4580 
  206.1250     2.4610    83.8270     8.9920     8.3080     7.5320    23.3050   -16.5400 
  206.2500     2.4630    83.5630     8.7660     8.2720     7.2950    23.3030   -16.6460 
  206.3750     2.4590    83.7610     8.5570     8.1720     7.1120    23.3040   -16.7850 
  206.5000     2.4530    83.7860     8.4760     8.0930     7.0080    23.3020   -16.9280 
  206.6250     2.4480    82.7490     8.5570     8.0880     7.1000    23.3010   -17.0590 
  206.7500     2.4460    82.3180     8.7850     8.1630     7.3160    23.2930   -17.1810 
  206.8750     2.4460    83.1010     9.0970     8.2850     7.6410    23.2680   -17.2910 
  207.0000     2.4470    82.7230     9.3760     8.3920     8.0040    23.2160   -17.4060 
  207.1250     2.4460    81.0480     9.5390     8.4410     8.2980    23.1790   -17.5170 
  207.2500     2.4420    79.1760     9.5740     8.4280     8.1650    23.1350   -17.6330 
  207.3750     2.4350    78.4550     9.5380     8.3890     7.8010    23.0770   -17.7250 
  207.5000     2.4280    81.2870     9.5490     8.3980     7.8060    23.0250   -17.7670 
  207.6250     2.4240    83.6850     9.7020     8.5140     8.1720    23.0000   -17.7490 
  207.7500     2.4250    81.9630    10.0400     8.7680     8.5860    23.0520   -17.6800 
  207.8750     2.4250    76.3470    10.5440     9.1470     9.0400    23.1830   -17.5540 
  208.0000     2.4210    73.1710    11.1360     9.5910     9.6370    23.2970   -17.4010 
  208.1250     2.4130    74.1170    11.6830     9.9970    10.3520    23.3230   -17.2490 
  208.2500     2.4050    76.3820    12.1260    10.3230    10.8010    23.3100   -17.0910 
  208.3750     2.3990    77.9990    12.5050    10.6100    10.8420    23.2980   -16.9370 
  208.5000     2.3990    76.1060    12.9990    11.0280    10.8680    23.2800   -16.8260 
  208.6250     2.4010    72.3940    13.8050    11.7540    10.9490    23.2350   -16.7750 
  208.7500     2.4000    69.1500    15.0720    12.9240    11.5320    23.1630   -16.7750 
  208.8750     2.3920    66.7920    16.8380    14.5860    13.4300    23.0960   -16.8210 
  209.0000     2.3730    64.5250    18.9810    16.6700    17.5570    23.0680   -16.8910 
  209.1250     2.3480    64.2470    21.0630    18.7910    19.7700    23.0250   -16.9620 
  209.2500     2.3240    65.4160    22.6920    20.5810    19.8390    22.9050   -17.0180 
  209.3750     2.3040    66.0760    23.6180    21.7440    18.8260    22.6790   -17.0710 
  209.5000     2.2890    66.5950    23.7740    22.0870    18.2960    22.4400   -17.1310 
  209.6250     2.2730    67.3440    23.5620    21.9160    18.2500    22.2200   -17.1750 
  209.7500     2.2560    66.5890    23.2610    21.4990    18.4360    22.0230   -17.2060 
  209.8750     2.2370    63.9990    23.0450    21.0650    17.6380    21.9630   -17.2360 
  210.0000     2.2220    63.1190    22.9880    20.7770    17.1810    22.3040   -17.2590 
  210.1250     2.2150    64.1700    23.0300    20.6520    18.1730    22.8500   -17.2880 
  210.2500     2.2200    64.3840    23.1070    20.6740    19.5160    23.1850   -17.3260 
  210.3750     2.2370    63.6140    23.1680    20.8140    20.0250    23.2610   -17.3580 
  210.5000     2.2590    63.9730    23.1840    21.0520    18.6600    23.2150   -17.3570 
  210.6250     2.2740    64.8300    23.1790    21.3390    17.7870    23.2010   -17.3920 
  210.7500     2.2790    65.6270    23.1690    21.6250    18.6580    23.2200   -17.4640 
  210.8750     2.2760    65.8600    23.1390    21.8410    19.9960    23.2370   -17.5960 
  211.0000     2.2720    65.8090    23.0140    21.8730    20.5870    23.1440   -17.7490 
  211.1250     2.2730    65.3670    22.7630    21.7030    19.9170    22.9760   -17.8920 
  211.2500     2.2740    64.7440    22.4100    21.3650    18.8490    22.8530   -18.0180 
  211.3750     2.2720    65.2840    22.0410    20.9540    17.3490    22.8100   -18.1210 
  211.5000     2.2690    68.0170    21.7560    20.5970    17.2560    22.8020   -18.2050 
  211.6250     2.2690    70.5750    21.5520    20.3470    17.7360    22.8060   -18.2980 
  211.7500     2.2750    71.1870    21.3640    20.1800    18.0590    22.8490   -18.3820 
  211.8750     2.2840    69.9010    21.1180    20.0380    18.4280    22.9500   -18.4020 
  212.0000     2.2890    67.5100    20.7810    19.8720    18.0690    23.1060   -18.4010 
  212.1250     2.2900    65.6590    20.4390    19.7010    17.4260    23.3450   -18.4020 
  212.2500     2.2890    65.1560    20.1960    19.5780    17.0450    23.5500   -18.4260 
  212.3750     2.2910    65.3070    20.1310    19.5540    16.8680    23.6360   -18.4810 
  212.5000     2.2960    64.5140    20.2910    19.6650    17.1840    23.6360   -18.5790 
  212.6250     2.2980    63.2340    20.5910    19.8610    17.8590    23.6350   -18.6220 
  212.7500     2.2940    62.6720    20.9540    20.0980    18.3780    23.6350   -18.6230 
  212.8750     2.2840    62.3370    21.3040    20.3370    18.3350    23.6350   -18.5970 
  213.0000     2.2770    63.2210    21.5630    20.5450    18.0250    23.6290   -18.5360 
  213.1250     2.2780    65.6120    21.7080    20.7110    17.7610    23.6060   -18.4570 
  213.2500     2.2860    67.2560    21.7180    20.8140    18.2350    23.5700   -18.4010 
  213.3750     2.2950    66.2480    21.5820    20.8240    18.9150    23.5460   -18.3410 
  213.5000     2.2960    63.6490    21.2840    20.6950    18.8370    23.5390   -18.2680 
  213.6250     2.2930    61.6000    20.9110    20.4590    18.0570    23.5390   -18.1730 
  213.7500     2.2890    61.2610    20.5710    20.1860    17.5220    23.5270   -18.1010 
  213.8750     2.2860    62.5220    20.3990    19.9880    17.5250    23.4800   -18.0850 
  214.0000     2.2840    64.8410    20.5740    20.0340    17.5100    23.3940   -18.1410 
  214.1250     2.2790    67.8070    21.1030    20.3820    17.3360    23.3210   -18.2590 
  214.2500     2.2730    69.2720    21.9510    21.0520    17.7350    23.2710   -18.3350 
  214.3750     2.2720    67.9040    23.0230    22.0040    18.4380    23.2290   -18.3900 
  214.5000     2.2790    65.5560    24.1810    23.1630    19.7070    23.2590   -18.4580 
  214.6250     2.2900    63.3580    25.2650    24.3560    20.9620    23.3450   -18.6030 
  214.7500     2.2960    60.1340    26.1800    25.4570    21.8940    23.4340   -18.7620 
  214.8750     2.2910    56.0270    26.8850    26.3770    22.1440    23.5210   -18.9210 
  215.0000     2.2750    55.7610    27.3630    27.0500    22.6190    23.5690   -19.0640 
  215.1250     2.2550    58.8040    27.6880    27.5360    23.3680    23.5860   -19.1590 
  215.2500     2.2400    61.7600    27.8900    27.8560    24.1570    23.5880   -19.2210 
  215.3750     2.2320    63.0880    27.9830    28.0170    24.6620    23.5880   -19.2690 
