~V
VERS. 2.00: Ver 2.00
~W
STRT.M 50.0000:
STOP.M 216.0000:
STEP.M 0.1250:
NULL. -999.2500:
UWI. F10607:
~C
DEPT.M :
GR.API :
RML.OHMM :
RI. :
RXO.OHMM :
CALI.CM :
DEN.GM/CC :
SP.MV :
~A
# ...
  162.5000    61.7930    26.8300    23.5220    21.2430    22.2720     2.1740   -13.6210 
  162.6250    59.9310    26.0740    22.7560    20.8150    22.2370     2.1760   -13.3370 
  162.7500    59.1120    25.7350    22.3780    21.4910    22.2290     2.1750   -13.0290 
  162.8750    58.4950    25.6120    22.2490    22.4600    22.1960     2.1710   -12.7850 
  163.0000    56.6570    25.4760    22.1990    22.4850    22.1630     2.1670   -12.5950 
  163.1250    54.9110    25.1430    22.0700    22.3830    22.1600     2.1670   -12.4210 
  163.2500    54.9250    24.6550    21.8500    21.9150    22.1800     2.1710   -12.3170 
  163.3750    56.4400    24.1390    21.6100    21.4380    22.1620     2.1800   -12.3050 
  163.5000    58.8750    23.7320    21.4500    21.6030    22.1220     2.1940   -12.3380 
  163.6250    59.0360    23.5370    21.4650    22.8040    22.1280     2.2100   -12.4010 
  163.7500    56.5920    23.4910    21.6200    23.9510    22.2570     2.2230   -12.5270 
  163.8750    54.1010    23.4950    21.8420    25.4330    22.5560     2.2290   -12.7220 
  164.0000    53.8540    23.3890    21.9980    26.8190    22.9720     2.2280   -12.9420 
  164.1250    57.1910    22.8840    21.8210    25.6200    23.2260     2.2230   -13.1840 
  164.2500    60.7740    21.8210    21.1400    23.7840    23.3460     2.2240   -13.4630 
  164.3750    61.4940    20.0970    19.8260    22.7390    23.4060     2.2350   -13.7610 
  164.5000    60.6770    17.7790    17.9000    21.3370    23.4350     2.2570   -14.0330 
  164.6250    62.1780    15.1240    15.5560    19.3240    23.4510     2.2870   -14.2870 
  164.7500    64.5160    12.5890    13.2220    15.7950    23.4780     2.3170   -14.5270 
  164.8750    65.8100    10.4870    11.1860    11.5390    23.5160     2.3420   -14.6950 
  165.0000    67.4860     9.0320     9.6580     8.5490    23.5480     2.3590   -14.8260 
  165.1250    71.9100     8.4150     8.8550     7.7720    23.5710     2.3720   -14.9620 
  165.2500    74.0610     8.4260     8.6540     8.1710    23.5810     2.3830   -15.0240 
  165.3750    71.4120     8.8930     8.9430     9.5950    23.5940     2.3920   -15.0130 
  165.5000    66.2950     9.5690     9.5290    11.7600    23.6030     2.3980   -15.0150 
  165.6250    62.6980    10.0950    10.0950    15.5920    23.6110     2.3920   -15.0250 
  165.7500    63.1140    10.2560    10.3510    16.3680    23.6340     2.3780   -15.0300 
  165.8750    65.6370    10.1140    10.2670    12.6330    23.6680     2.3630   -15.0930 
  166.0000    67.9100     9.9870    10.0760    10.6890    23.6910     2.3560   -15.1850 
  166.1250    69.8690    10.4030    10.2200    12.0030    23.6990     2.3520   -15.2350 
  166.2500    70.5360    11.6780    11.0070    12.6390    23.7000     2.3340   -15.3340 
  166.3750    68.7610    14.0760    12.6990    13.9380    23.7130     2.2910   -15.4790 
  166.5000    64.8050    17.7200    15.4890    17.7410    23.7480     2.2310   -15.5750 
  166.6250    60.8810    22.5640    19.5110    27.5820    23.7700     2.1790   -15.6680 
  166.7500    57.7420    27.7380    24.0790    34.3680    23.7600     2.1580   -15.7940 
  166.8750    55.5160    32.3820    28.3740    36.6300    23.7150     2.1770   -15.8840 
  167.0000    55.5870    35.8410    31.6350    36.5170    23.6470     2.2250   -15.9460 
  167.1250    54.5890    37.8770    33.4520    38.4070    23.5240     2.2720   -16.0920 
  167.2500    51.5120    39.2650    34.4910    41.7980    23.4050     2.2980   -16.2630 
  167.3750    50.5800    40.5200    35.2500    43.4350    23.3330     2.3020   -16.4110 
  167.5000    52.8560    41.8250    35.9680    43.1810    23.2980     2.2940   -16.6050 
  167.6250    54.2010    43.0050    36.5970    43.5380    23.2670     2.2830   -16.8040 
  167.7500    52.6000    43.8090    37.0060    44.4390    23.2310     2.2720   -16.9430 
  167.8750    51.3230    44.0970    37.1040    44.4000    23.2110     2.2560   -17.0770 
  168.0000    53.0290    43.8860    36.8870    43.3180    23.2340     2.2320   -17.1780 
  168.1250    56.9150    43.3730    36.4470    41.5840    23.3360     2.2040   -17.1840 
  168.2500    59.3270    42.9680    36.0510    39.4130    23.4350     2.1820   -17.1380 
  168.3750    58.8770    42.9730    35.9310    37.7340    23.3970     2.1760   -17.0230 
  168.5000    55.8990    43.5740    36.2560    36.4010    23.2300     2.1940   -16.8170 
  168.6250    52.0810    44.8950    37.1690    36.0160    22.9760     2.2380   -16.5890 
  168.7500    48.5800    46.6750    38.5060    37.1130    22.7950     2.2920   -16.3340 
  168.8750    46.8790    48.6160    40.0650    39.7790    22.6890     2.3470   -15.9920 
  169.0000    48.8960    50.3130    41.5250    42.6030    22.7370     2.3910   -15.6620 
  169.1250    52.1090    51.2560    42.4470    44.9460    22.8450     2.4060   -15.3460 
  169.2500    52.5540    51.4520    42.7570    46.4570    22.9090     2.3880   -14.9880 
  169.3750    49.8370    51.1860    42.6160    46.1280    22.8920     2.3440   -14.6790 
  169.5000    46.1160    50.9720    42.3980    43.9950    22.8680     2.2980   -14.4530 
  169.6250    46.4890    51.4390    42.6040    41.1860    22.8490     2.2900   -14.2490 
  169.7500    50.6340    52.6450    43.3730    41.6830    22.7600     2.3330   -14.1350 
  169.8750    53.3610    54.2920    44.5580    45.7940    22.5970     2.4080   -14.1780 
  170.0000    52.0280    55.7870    45.7750    50.3930    22.4460     2.4610   -14.2880 
  170.1250    50.9910    56.2260    46.3760    51.2650    22.3840     2.4420   -14.4340 
  170.2500    53.5030    55.3390    46.0550    49.5290    22.4040     2.3700   -14.6810 
  170.3750    55.6300    53.2600    44.8070    45.5850    22.5140     2.2730   -14.9870 
  170.5000    55.1080    50.4690    42.9210    43.9840    22.7010     2.1780   -15.3000 
  170.6250    55.4290    47.6750    40.9080    44.7220    22.8410     2.1150   -15.6780 
  170.7500    55.8400    45.5990    39.3700    44.8500    22.9680     2.1040   -16.0530 
  170.8750    53.7220    44.7670    38.7570    42.4710    23.0670     2.1630   -16.3870 
  171.0000    49.8510    45.4510    39.3350    37.9000    23.0330     2.2970   -16.7340 
  171.1250    48.9940    47.6050    41.2130    35.2800    23.0180     2.4680   -17.0720 
  171.2500    49.6510    49.8970    43.4930    36.5850    23.0540     2.5870   -17.3770 
  171.3750    48.2070    50.3700    44.6230    40.8070    23.1190     2.6170   -17.6230 
  171.5000    44.6930    46.7540    42.3840    41.8190    23.1250     2.5870   -17.7830 
  171.6250    44.2380    37.8000    35.0940    33.3320    23.0250     2.5540   -17.8110 
  171.7500    46.6960    27.1210    25.8870    26.1110    22.9590     2.5500   -17.7360 
  171.8750    48.2440    17.8220    17.6820    20.9080    22.8760     2.5670   -17.5240 
  172.0000    48.1310    12.4670    11.8000    14.1190    22.7370     2.5720   -17.1780 
  172.1250    47.6340     8.5970     8.4020     7.5540    22.5450     2.5330   -16.8020 
  172.2500    47.0060     6.5460     6.4380     5.2210    22.4420     2.4720   -16.4080 
  172.3750    47.3560     5.6020     5.4090     4.8460    22.3660     2.4240   -16.0190 
  172.5000    50.9980     5.3290     5.0050     5.0970    22.2880     2.4110   -15.7360 
  172.6250    55.7360     5.5360     5.1010     5.3660    22.2190     2.4250   -15.5780 
  172.7500    56.0570     6.0070     5.5010     5.7520    22.2120     2.4340   -15.4920 
  172.8750    53.7760     6.6510     6.1130     6.4580    22.2980     2.4260   -15.5390 
  173.0000    55.3880     7.3840     6.8540     7.2560    22.4930     2.4030   -15.6990 
  173.1250    64.2550     8.0860     7.6240     7.9760    22.7240     2.3830   -15.8790 
  173.2500    74.8710     8.6340     8.2960     8.7520    22.9580     2.3780   -16.1050 
  173.3750    83.0130     8.9610     8.7800     9.3770    23.2300     2.3870   -16.3710 
  173.5000    86.4720     9.0830     9.0370     9.5530    23.5100     2.4000   -16.6140 
  173.6250    87.4290     9.0770     9.0750     9.3730    23.5500     2.4040   -16.8850 
