~V
VERS. 2.00: Ver 2.00
~W
STRT.M 58.0000:
STOP.M 221.0000:
STEP.M 0.1250:
NULL. -999.2500:
UWI. F10613:
~C
DEPT.M :
SP.MV :
GR.API :
RML.OHMM :
RI. :
RXO.OHMM :
CALI.CM :
DEN.GM/CC :
~A
# ...
  215.5000   -13.9310    46.2850     8.6300     8.0100    11.1800    23.4210     2.3450 
  215.6250   -13.9950    46.2850     8.6390     8.0090    11.0420    23.4050     2.3510 
  215.7500   -14.1190    46.2850     8.6540     8.0060    10.3170    23.3990     2.3600 
  215.8750   -14.2760    46.2850     8.6690     8.0020     9.2400    23.4060     2.3600 
  216.0000   -14.4680    46.2850     8.6770     8.0010     8.5060    23.3950     2.3370 
  216.1250   -14.6550    46.2850     8.6790     8.0030     7.1690    23.3790     2.3020 
  216.2500   -14.8220    46.2850     8.6760     8.0070     5.8580    23.3830     2.2720 
  216.3750   -14.9900    46.2850     8.6730     8.0110     5.2600    23.3990     2.2680 
  216.5000   -15.1280    46.2850     8.6750     8.0140     5.1800    23.3840     2.3000 
  216.6250   -15.2560    46.2850     8.6810     8.0190     5.2210    23.3480     2.3430 
  216.7500   -15.3340    46.2850     8.6900     8.0240     5.3340    23.2770     2.3760 
  216.8750   -15.3690    46.2850     8.6990     8.0270     5.4910    23.1770     2.3890 
  217.0000   -15.3810    46.2850     8.7060     8.0270     5.4220    23.0730     2.3850 
  217.1250   -15.3870    46.2850     8.7060     8.0270     5.4490    23.0180     2.3780 
  217.2500   -15.3880    46.2850     8.7060     8.0270     5.6530    22.9900     2.3700 
  217.3750   -15.3500    46.2850     8.7060     8.0270     6.0460    22.9780     2.3640 
  217.5000   -15.3350    46.2850     8.7060     8.0270     6.2810    22.9470     2.3610 
  217.6250   -15.3260    46.2850     8.7060     8.0270     6.2950    22.9760     2.3620 
  217.7500   -15.2770    46.2850     8.7060     8.0270     6.1750    23.0170     2.3700 
  217.8750   -15.2850    46.2850     8.7060     8.0270     6.1330    23.0370     2.3860 
  218.0000   -15.3230    46.2850     8.7060     8.0270     6.0230    23.0200     2.4050 
  218.1250   -15.3700    46.2850     8.7060     8.0270     6.0380    22.9530     2.4210 
  218.2500   -15.4300    46.2850     8.7060     8.0270     6.1430    22.8190     2.4280 
  218.3750   -15.4820    46.2850     8.7060     8.0270     6.1170    22.6200     2.4240 
  218.5000   -15.5360    46.2850     8.7060     8.0270     6.2140    22.3630     2.3970 
  218.6250   -15.6100    46.2850     8.7060     8.0270     6.2370    21.9830     2.3430 
  218.7500   -15.7100    46.2850     8.7060     8.0270     6.2260    21.4960     2.2700 
  218.8750   -15.8490    46.2850     8.7060     8.0270     6.0310    20.8580     2.1890 
  219.0000   -15.9550    46.2850     8.7060     8.0270     5.6450    19.8390     2.1280 
  219.1250   -16.0320    46.2850     8.7060     8.0270     5.2580    18.4040     2.0700 
  219.2500   -16.1190    46.2850     8.7060     8.0270     5.1310    16.8450     2.0000 
  219.3750   -16.2400    46.2850     8.7060     8.0270     5.2840    15.5190     1.9280 
  219.5000   -16.3510    46.2850     8.7060     8.0270     5.3350    14.6840     1.8550 
  219.6250   -16.4580    46.2850     8.7060     8.0270     5.3180    14.0930     1.7880 
  219.7500   -16.5650    46.2850     8.7060     8.0270     5.0830    13.6320     1.7400 
  219.8750   -16.5650    46.2850     8.7060     8.0270     4.5620    13.2220     1.7120 
  220.0000   -16.5650    46.2850     8.7060     8.0270     4.2700    12.8960     1.6980 
  220.1250  -999.2500    46.2850     8.7060     8.0270     4.1760    12.7520     1.6930 
  220.2500  -999.2500    46.2850     8.7060     8.0270     4.1710    12.7160     1.6930 
  220.3750  -999.2500    46.2850     8.7060     8.0270     4.1720    12.7140     1.6970 
  220.5000  -999.2500    46.2850     8.7060     8.0270     4.1710    12.7140     1.7010 
  220.6250  -999.2500    46.2850     8.7060     8.0270     4.1730    12.7140     1.7030 
  220.7500  -999.2500    46.2850     8.7060     8.0270     4.1730    12.7140     1.7030 
  220.8750  -999.2500    46.2850     8.7060     8.0270     4.1730    12.7140     1.7030 
  221.0000  -999.2500    46.2850     8.7060     8.0270     4.1730    12.7140     1.7050 
