~V
VERS. 2.00: Ver 2.00
~W
STRT.M 52.0000:
STOP.M 239.0000:
STEP.M 0.1250:
NULL. -999.2500:
UWI. F10645:
~C
DEPT.M :
SP.MV :
GR.API :
RML.OHMM :
RI. :
RXO.OHMM :
CALI.CM :
DEN.GM/CC :
~A
# ...
   85.7500   -30.8710    53.3020    10.9540     7.9890     7.1080    26.6080     2.0150 
   85.8750   -30.9490    55.6740    11.1440     8.0250     6.9250    26.7960     1.9620 
   86.0000   -30.9770    57.9300    11.5240     8.1850     6.9910    26.4500     1.9310 
   86.1250   -30.9410    56.5170    12.0490     8.4490     7.3930    25.6120     1.9380 
   86.2500   -30.8560    53.4720    12.5690     8.7560     7.8770    24.9030     1.9900 
   86.3750   -30.7440    54.9290    12.9020     9.0150     8.0840    24.6300     2.0530 
   86.5000   -30.5990    59.7130    12.9590     9.1720     7.9850    24.5220     2.0990 
   86.6250   -30.4180    63.2240    12.7700     9.2090     7.9440    24.4110     2.1180 
   86.7500   -30.2070    64.0480    12.4670     9.1420     8.0650    24.2390     2.1180 
   86.8750   -29.9890    63.5390    12.2180     9.0440     8.1440    24.0590     2.1130 
   87.0000   -29.7800    61.4100    12.1150     8.9750     8.1580    23.8340     2.1120 
   87.1250   -29.5840    59.5770    12.2280     8.9890     8.2850    23.6490     2.1220 
   87.2500   -29.4040    61.0700    12.6130     9.1590     8.2290    23.5990     2.1490 
   87.3750   -29.2550    64.0040    13.1410     9.4670     8.1310    23.6340     2.1930 
   87.5000   -29.1380    64.9310    13.6550     9.8520     7.8600    23.5930     2.2480 
   87.6250   -29.0670    63.3430    13.9740    10.2030     7.6100    23.3190     2.2950 
   87.7500   -29.0170    61.5040    13.9150    10.3480     7.6060    22.9090     2.3080 
   87.8750   -28.9920    60.2820    13.5630    10.2580     7.4880    22.9840     2.2840 
   88.0000   -28.9760    59.3170    13.0460     9.9880     7.1170    23.5850     2.2330 
   88.1250   -28.9710    58.8350    12.4790     9.6350     6.9230    24.3320     2.1710 
   88.2500   -28.9430    58.5910    11.8930     9.2540     7.0580    24.6050     2.1310 
   88.3750   -28.8900    56.6730    11.2230     8.8260     7.4010    24.6220     2.1200 
   88.5000   -28.8100    54.9200    10.4130     8.3020     7.6290    24.6340     2.1320 
   88.6250   -28.6870    57.9280     9.4690     7.6590     7.4380    24.7220     2.1540 
   88.7500   -28.5420    67.4520     8.4990     6.9280     6.5680    24.7410     2.1760 
   88.8750   -28.3730    75.6490     7.6440     6.2120     5.5330    24.7180     2.2010 
   89.0000   -28.2040    78.7690     6.9660     5.5860     4.8770    24.7040     2.2290 
   89.1250   -28.0230    80.1710     6.4650     5.0850     4.6560    24.6900     2.2580 
   89.2500   -27.8700    83.9810     6.1160     4.7290     4.3080    24.6340     2.2860 
   89.3750   -27.7340    87.2900     5.8610     4.4830     4.0070    24.5850     2.3140 
   89.5000   -27.6220    84.9160     5.7120     4.3380     3.8830    24.5170     2.3420 
   89.6250   -27.5370    77.5730     5.7180     4.3120     3.8690    24.4670     2.3650 
   89.7500   -27.5250    72.5180     5.9910     4.4740     3.9980    24.4350     2.3620 
   89.8750   -27.5530    71.3000     6.5490     4.8380     4.3640    24.4140     2.3340 
   90.0000   -27.6040    70.7200     7.3860     5.4150     5.0850    24.4370     2.2820 
   90.1250   -27.6670    69.5530     8.4210     6.1710     6.1150    24.4920     2.2180 
   90.2500   -27.7260    69.7450     9.4560     7.0120     6.7920    24.4430     2.1650 
   90.3750   -27.7870    70.3090    10.2720     7.7780     7.0520    24.1640     2.1360 
   90.5000   -27.8440    69.3420    10.7650     8.3580     7.0970    23.9040     2.1310 
   90.6250   -27.8830    67.8230    10.9420     8.6990     7.1850    23.8440     2.1430 
   90.7500   -27.8650    68.6320    10.8000     8.7430     7.3170    23.9060     2.1610 
   90.8750   -27.8010    69.5830    10.3740     8.5220     7.3090    23.9630     2.1720 
   91.0000   -27.6920    68.5990     9.6480     8.0340     7.1550    24.0160     2.1750 
   91.1250   -27.5670    66.4320     8.6900     7.3240     6.7760    24.1230     2.1730 
   91.2500   -27.4250    67.6670     7.6970     6.5160     5.8940    24.3210     2.1770 
   91.3750   -27.2600    75.6340     6.8850     5.7870     4.8380    24.4300     2.1920 
   91.5000   -27.0960    84.7140     6.3360     5.2300     4.1990    24.4750     2.2190 
   91.6250   -26.9410    86.8950     6.0230     4.8640     4.1110    24.4960     2.2480 
   91.7500   -26.7630    80.7140     5.8640     4.6660     4.5010    24.5090     2.2700 
   91.8750   -26.5790    75.6200     5.7390     4.5470     4.8130    24.5180     2.2850 
   92.0000   -26.3950    75.9000     5.6110     4.4600     4.6890    24.5190     2.2990 
   92.1250   -26.2040    78.5830     5.5130     4.4000     4.2720    24.5330     2.3080 
   92.2500   -26.0310    77.8100     5.6040     4.4460     4.0860    24.5850     2.3010 
   92.3750   -25.8390    74.3630     6.0620     4.7180     4.6110    24.6510     2.2770 
   92.5000   -25.6200    70.0200     7.1060     5.3890     5.4980    24.7090     2.2540 
   92.6250   -25.3640    66.4360     8.9960     6.6880     6.4760    24.7970     2.2600 
   92.7500   -25.1140    63.6120    12.2580     9.1070    10.1180    24.8200     2.3120 
   92.8750   -24.8550    60.2100    16.8760    12.7240    20.4250    24.7020     2.3850 
   93.0000   -24.5960    57.1980    22.4220    17.2680    34.6040    24.5660     2.4530 
   93.1250   -24.3220    55.4730    27.3950    21.5980    43.8370    24.4290     2.4920 
   93.2500   -24.0250    57.0570    29.0090    23.4720    36.6170    24.1960     2.4840 
   93.3750   -23.7530    59.8180    27.4480    22.7060    22.9280    23.9550     2.4400 
   93.5000   -23.5120    59.5880    24.5760    20.5470    14.0290    23.9470     2.3720 
   93.6250   -23.3290    57.3100    22.1360    18.4220    11.0920    24.1920     2.2910 
   93.7500   -23.2080    55.2880    20.9820    17.1990    10.8230    24.4790     2.2170 
   93.8750   -23.1600    52.8250    20.7130    16.7160    10.8080    24.7100     2.1650 
   94.0000   -23.1890    50.1380    20.7480    16.5950    10.7880    24.8470     2.1390 
   94.1250   -23.2950    49.7990    20.3260    16.3010    10.9470    24.9540     2.1300 
   94.2500   -23.4690    53.9170    18.6200    15.1930    10.9520    25.0840     2.1160 
   94.3750   -23.6860    58.7120    16.0150    13.3710    10.4380    25.1380     2.0900 
   94.5000   -23.9260    61.9720    13.3100    11.3100     9.0200    24.9790     2.0620 
   94.6250   -24.1640    64.6740    11.2370     9.5470     7.3540    24.6920     2.0570 
   94.7500   -24.3550    69.5280    10.3170     8.5490     6.3110    24.3890     2.1050 
   94.8750   -24.4970    74.7720    10.3920     8.3080     6.3520    24.0750     2.1860 
   95.0000   -24.5850    76.3000    11.3250     8.7830     7.5370    23.9320     2.2440 
   95.1250   -24.6420    73.4720    12.8550     9.8250     8.9140    24.3020     2.2430 
   95.2500   -24.6910    69.2630    14.4130    11.0640     9.5430    25.4560     2.1810 
   95.3750   -24.7340    65.1480    15.2170    11.8840     9.4680    26.7570     2.0940 
   95.5000   -24.7910    62.8130    14.8420    11.8860     8.9020    27.4680     2.0120 
   95.6250   -24.8630    63.9720    13.4790    11.0830     8.0320    27.0640     1.9550 
   95.7500   -24.9940    67.6090    11.7710     9.8480     7.8110    25.8280     1.9650 
   95.8750   -25.1450    70.1620    10.3050     8.6670     8.0130    24.9210     2.0350 
   96.0000   -25.3100    71.3070     9.2250     7.7100     8.0660    24.5450     2.1360 
   96.1250   -25.4700    71.5540     8.5030     7.0050     6.9970    24.4540     2.2190 
   96.2500   -25.6230    71.0240     8.0600     6.5350     6.1410    24.4020     2.2460 
   96.3750   -25.7540    71.7990     7.7280     6.1910     5.7840    24.3280     2.2410 
   96.5000   -25.8770    73.9630     7.4180     5.9070     5.5730    24.2910     2.2330 
   96.6250   -25.9840    76.0610     7.0720     5.6300     5.2960    24.2530     2.2350 
   96.7500   -26.0720    78.4900     6.6640     5.3320     4.8400    24.1650     2.2480 
   96.8750   -26.1590    80.9320     6.2480     5.0290     4.6150    24.0700     2.2620 
