~V
VERS. 2.00: Ver 2.00
~W
STRT.M 50.0000:
STOP.M 209.0000:
STEP.M 0.1250:
NULL. -999.2500:
UWI. F10692:
~C
DEPT.M :
DEN.GM/CC :
GR.API :
RML.OHMM :
RI. :
RXO.OHMM :
CALI.CM :
SP.MV :
~A
# ...
  173.7500     2.3730    38.6580    24.9640    25.6700    28.9190    25.3290   -19.6040 
  173.8750     2.3940    38.3850    24.3220    25.3320    32.7370    25.4120   -19.5350 
  174.0000     2.3830    39.9880    22.3240    23.5280    29.8990    25.4200   -19.3820 
  174.1250     2.3420    44.9060    19.7450    20.9810    21.9480    25.4200   -19.1740 
  174.2500     2.3010    49.0980    17.5570    18.6870    17.0920    25.4380   -18.9580 
  174.3750     2.2720    50.0470    16.1320    17.0490    16.4430    25.5150   -18.7540 
  174.5000     2.2580    49.0650    15.4870    16.1420    16.8210    25.6060   -18.5660 
  174.6250     2.2600    48.8150    15.5890    16.0090    16.8190    25.6570   -18.3810 
  174.7500     2.2750    47.3300    16.2540    16.4900    17.8600    25.6710   -18.1860 
  174.8750     2.3100    44.2270    17.5510    17.6450    19.3860    25.6740   -17.9760 
  175.0000     2.3740    40.8560    19.6150    19.6190    20.4820    25.6650   -17.7680 
  175.1250     2.4700    38.5100    22.5130    22.6440    22.3980    25.6170   -17.6090 
  175.2500     2.5700    35.6340    25.5590    26.1710    28.7760    25.5370   -17.5350 
  175.3750     2.6370    32.7520    27.7600    29.1560    39.9150    25.4770   -17.5700 
  175.5000     2.6410    32.3560    28.1340    30.2820    46.2560    25.4540   -17.7180 
  175.6250     2.5610    35.5560    26.2450    28.6970    38.2130    25.4730   -17.9830 
  175.7500     2.4450    39.7690    23.4740    25.8380    26.2020    25.5380   -18.3120 
  175.8750     2.3420    41.5240    20.9570    22.9810    20.5130    25.6390   -18.6770 
  176.0000     2.2810    40.0390    19.3480    20.8920    19.4520    25.6930   -19.0530 
  176.1250     2.2710    39.5950    18.9300    19.9510    19.9850    25.7100   -19.4220 
  176.2500     2.2890    42.1670    19.2970    19.8610    20.4580    25.7080   -19.7820 
  176.3750     2.3200    44.9630    20.1240    20.3700    21.0430    25.6920   -20.1400 
  176.5000     2.3520    45.9780    21.0750    21.1700    21.4700    25.6700   -20.5070 
  176.6250     2.3710    48.3310    21.8390    21.9340    21.6390    25.6250   -20.8820 
  176.7500     2.3710    51.7390    22.3410    22.4970    21.8930    25.5420   -21.2510 
  176.8750     2.3460    51.3630    22.6380    22.8660    22.2490    25.4160   -21.6030 
  177.0000     2.3050    47.1050    22.8410    23.1230    22.7970    25.2460   -21.9310 
  177.1250     2.2630    45.5220    23.0800    23.3730    23.5410    25.0530   -22.2350 
  177.2500     2.2270    48.7680    23.4400    23.6980    24.5230    24.8930   -22.5250 
  177.3750     2.1920    52.4760    23.9490    24.1300    24.8780    24.6940   -22.8070 
  177.5000     2.1550    52.7110    24.5970    24.6730    24.8180    24.5100   -23.0880 
  177.6250     2.1390    48.9240    25.3540    25.3220    24.9180    24.6600   -23.3720 
  177.7500     2.1590    44.1500    26.1530    26.0370    25.6510    25.0480   -23.6620 
  177.8750     2.2030    40.8570    26.9480    26.7810    27.1580    25.3480   -23.9630 
  178.0000     2.2440    40.9290    27.6900    27.5050    29.0170    25.4520   -24.2800 
  178.1250     2.2640    43.4330    28.3230    28.1360    29.5750    25.4410   -24.6110 
  178.2500     2.2730    46.1130    28.8450    28.6530    29.5250    25.4160   -24.9340 
  178.3750     2.2800    47.0780    29.3050    29.0810    29.8840    25.3880   -25.2210 
  178.5000     2.2860    46.4950    29.8100    29.5040    30.6680    25.3670   -25.4420 
  178.6250     2.2920    44.8040    30.5260    30.0650    30.6720    25.3320   -25.5670 
  178.7500     2.2980    43.4230    31.4780    30.8150    31.0080    25.2820   -25.6170 
  178.8750     2.3100    43.1920    32.6130    31.7400    32.3480    25.2400   -25.6130 
  179.0000     2.3260    44.1140    33.8170    32.7700    34.0810    25.2120   -25.5760 
  179.1250     2.3410    44.7980    34.9800    33.8290    35.1890    25.1780   -25.5330 
  179.2500     2.3550    43.7890    36.1070    34.9120    35.6130    25.1470   -25.5190 
  179.3750     2.3680    41.7380    37.2860    36.0890    35.8860    25.1060   -25.5620 
  179.5000     2.3800    39.6160    38.6090    37.4550    36.4370    25.0660   -25.6770 
  179.6250     2.3920    38.6030    40.1340    39.1260    39.1510    25.0160   -25.8710 
  179.7500     2.3970    39.2640    41.8010    41.1030    43.8270    24.9750   -26.1100 
  179.8750     2.3870    40.4740    43.5620    43.3910    45.3670    24.9590   -26.3680 
  180.0000     2.3700    40.7730    45.3840    45.9800    45.7590    25.0080   -26.6280 
  180.1250     2.3720    40.2940    47.3300    48.9340    47.1490    25.0910   -26.8720 
  180.2500     2.4010    40.4850    49.4100    52.1340    52.8290    25.1420   -27.0840 
  180.3750     2.4430    42.2750    51.4840    55.3360    60.8260    25.1000   -27.2430 
  180.5000     2.4810    44.1530    53.2000    58.1250    64.0420    24.9740   -27.3240 
  180.6250     2.5280    43.7380    53.3780    59.3610    63.1880    24.9140   -27.2770 
  180.7500     2.5950    40.7610    50.4530    57.3510    61.0840    24.9800   -27.0990 
  180.8750     2.6670    37.9050    43.1400    50.2000    54.6810    25.0610   -26.7870 
  181.0000     2.7030    39.1970    32.3230    38.3730    42.4510    25.0830   -26.3620 
  181.1250     2.6700    43.1980    27.3410    25.9690    34.4760    24.9550   -25.8640 
  181.2500     2.5850    45.4850    17.0730    16.5120    23.7810    24.6040   -25.3700 
  181.3750     2.4670    45.1640    10.5560    10.4150    12.2860    24.0890   -24.9370 
  181.5000     2.3490    43.4400     6.9940     6.9090     6.6080    23.5910   -24.6130 
  181.6250     2.2770    41.7150     5.5600     5.2960     5.5420    23.2190   -24.4450 
  181.7500     2.2550    40.7780     5.1840     4.6820     5.6540    22.9150   -24.4010 
  181.8750     2.2680    42.3800     5.5200     4.8010     5.9950    22.6970   -24.4350 
  182.0000     2.2990    46.6810     6.3550     5.4900     6.3650    22.7360   -24.4970 
  182.1250     2.3430    51.1720     7.4910     6.6170     7.3110    23.3690   -24.5300 
  182.2500     2.3830    53.0360     8.5680     7.8220     8.7470    24.0450   -24.5090 
  182.3750     2.4030    52.7050     9.3320     8.8060     9.5180    24.4400   -24.4390 
  182.5000     2.4020    53.7530     9.6640     9.3630     9.2330    24.5020   -24.3410 
  182.6250     2.4000    58.9190     9.5750     9.4160     8.8250    24.4790   -24.2420 
  182.7500     2.4090    64.5440     9.3120     9.1910     8.5980    24.6010   -24.1620 
  182.8750     2.4180    67.3370     9.0310     8.8480     8.4930    24.8160   -24.1120 
  183.0000     2.4150    68.6820     8.8180     8.4820     8.5150    25.1140   -24.1040 
  183.1250     2.3990    70.4280     8.6890     8.1240     8.4140    25.3410   -24.1540 
  183.2500     2.3810    72.3370     8.5990     7.7710     8.1870    25.4480   -24.2720 
  183.3750     2.3670    73.4310     8.5630     7.4630     8.2740    25.4590   -24.4700 
  183.5000     2.3600    75.0110     8.6800     7.2890     8.7190    25.4420   -24.7520 
  183.6250     2.3650    76.5590     9.1800     7.4220     9.1900    25.3860   -25.1200 
  183.7500     2.3760    74.3180    10.2140     7.9500     9.6800    25.2360   -25.5410 
  183.8750     2.3860    67.2350    11.9420     8.9960    11.3340    25.0250   -25.9940 
  184.0000     2.3890    59.8790    14.4450    10.6650    15.0360    24.9230   -26.4550 
  184.1250     2.3740    57.1870    17.7240    13.0910    19.6850    25.0170   -26.9010 
  184.2500     2.3440    55.8130    21.3150    15.9980    22.7470    25.1760   -27.3190 
  184.3750     2.3130    53.3560    24.7920    19.0560    26.9950    25.3290   -27.6990 
  184.5000     2.2980    50.9040    27.8080    21.8850    31.9010    25.3870   -28.0330 
  184.6250     2.3040    52.0780    30.1830    24.1880    32.6060    25.3250   -28.3070 
  184.7500     2.3240    54.7200    32.1970    26.1060    30.4160    25.1910   -28.5320 
  184.8750     2.3480    55.0760    33.9920    27.7520    29.7290    25.0860   -28.7120 
