~V
VERS. 2.00: Ver 2.00
~W
STRT.M 58.0000:
STOP.M 240.0000:
STEP.M 0.1250:
NULL. -999.2500:
UWI. F10642:
~C
DEPT.M :
SP.MV :
GR.API :
RML.OHMM :
RI. :
RXO.OHMM :
CALI.CM :
DEN.GM/CC :
~A
# ...
  159.2500   -26.7880    49.7600    19.8440    19.5430    19.6700    24.2400     2.5000 
  159.3750   -26.6330    51.2020    19.4430    19.0050    17.9440    24.2800     2.5050 
  159.5000   -26.4340    51.2330    19.1650    18.6240    16.2790    24.1930     2.5040 
  159.6250   -26.2250    50.1910    19.0510    18.4260    16.2170    23.9570     2.4950 
  159.7500   -26.0010    49.4980    19.1160    18.3610    16.0310    23.6950     2.4800 
  159.8750   -25.7770    48.9640    19.3580    18.4010    15.1060    23.4480     2.4630 
  160.0000   -25.5680    49.3050    19.7020    18.5110    13.9590    23.1640     2.4480 
  160.1250   -25.4010    50.3090    20.0070    18.6460    13.6480    23.0020     2.4400 
  160.2500   -25.2840    49.4540    20.1750    18.7840    14.4110    22.9930     2.4400 
  160.3750   -25.2120    45.8120    20.1990    18.9480    15.6890    23.1090     2.4480 
  160.5000   -25.1890    41.7080    20.1390    19.1700    15.8980    23.2770     2.4580 
  160.6250   -25.1970    40.6340    20.0500    19.4590    14.9230    23.3830     2.4650 
  160.7500   -25.2410    41.4360    20.0190    19.7580    14.3230    23.2300     2.4690 
  160.8750   -25.3080    43.0900    20.1590    20.0000    14.3350    22.8980     2.4740 
  161.0000   -25.4090    44.9790    20.5160    20.1170    14.3660    22.5970     2.4820 
  161.1250   -25.4880    46.6270    20.9690    20.0380    13.8290    22.4460     2.4990 
  161.2500   -25.5800    46.5200    21.2560    19.8090    12.7150    22.4080     2.5160 
  161.3750   -25.6530    46.2440    21.2270    19.4840    12.1130    22.3860     2.5280 
  161.5000   -25.7140    46.8920    20.8680    19.1070    11.9750    22.3600     2.5290 
  161.6250   -25.7550    47.1680    20.3020    18.7010    11.8700    22.3440     2.5170 
  161.7500   -25.7840    45.3890    19.7970    18.2950    11.7740    22.3070     2.5010 
  161.8750   -25.8090    43.3390    19.4630    17.9110    11.4980    22.2350     2.4880 
  162.0000   -25.7990    43.9400    19.2710    17.5630    11.3500    22.1800     2.4800 
  162.1250   -25.7960    46.2760    19.1260    17.2690    12.0860    22.1860     2.4760 
  162.2500   -25.7540    48.0040    18.9430    17.0090    13.9330    22.4130     2.4720 
  162.3750   -25.7160    49.4830    18.6860    16.7260    15.7020    22.8730     2.4700 
  162.5000   -25.6530    50.4150    18.3320    16.3250    15.1410    23.3500     2.4720 
  162.6250   -25.6000    48.4160    17.8090    15.6930    13.8380    23.6960     2.4800 
  162.7500   -25.5430    44.6960    17.1060    14.8910    13.0490    23.9810     2.4830 
  162.8750   -25.4870    43.0430    16.2600    14.0470    12.8270    24.1940     2.4740 
  163.0000   -25.4330    43.4660    15.4130    13.3260    12.3900    24.3470     2.4540 
  163.1250   -25.3840    43.4570    14.8290    12.8980    11.5680    24.4830     2.4340 
  163.2500   -25.3420    42.9880    14.6120    12.7350    11.9980    24.5510     2.4250 
  163.3750   -25.2850    42.4820    14.6910    12.7520    14.1910    24.3880     2.4290 
  163.5000   -25.2500    40.8480    14.8390    12.8240    15.2850    24.0530     2.4400 
  163.6250   -25.1940    37.9000    14.7900    12.8120    14.7000    23.8010     2.4480 
  163.7500   -25.1620    36.7640    14.5320    12.6730    13.3320    23.7560     2.4500 
  163.8750   -25.1530    39.1550    14.1740    12.4280    11.9980    23.7850     2.4560 
  164.0000   -25.1770    42.4080    13.7910    12.1030    11.1940    23.7670     2.4750 
  164.1250   -25.2010    43.0420    13.2540    11.6210    10.9170    23.7050     2.5060 
  164.2500   -25.2350    41.8090    12.3400    10.8820    10.8960    23.6180     2.5300 
  164.3750   -25.2780    40.9720    10.9390     9.8370    10.4360    23.5540     2.5330 
  164.5000   -25.3170    41.8680     9.2110     8.5800     8.9310    23.4900     2.5120 
  164.6250   -25.3590    43.2880     8.3890     7.3440     6.6400    23.4180     2.4710 
  164.7500   -25.3810    42.8790     7.2190     6.3300     5.1220    23.4510     2.4280 
  164.8750   -25.3810    41.1360     6.4310     5.6180     4.7200    23.6920     2.3910 
  165.0000   -25.3360    39.9080     6.0740     5.1990     4.7200    24.0290     2.3660 
  165.1250   -25.2820    40.4210     5.9020     5.0460     4.7110    24.0880     2.3570 
  165.2500   -25.2010    40.4560     5.8920     5.0380     4.6780    23.9600     2.3660 
  165.3750   -25.1110    39.7290     5.9600     5.0970     4.6500    23.8140     2.3870 
  165.5000   -24.9940    39.6290     6.0380     5.1660     4.5940    23.7200     2.4060 
  165.6250   -24.9050    39.7250     6.0860     5.2090     4.5660    23.6660     2.4060 
  165.7500   -24.8230    39.4120     6.1090     5.2290     4.5590    23.6780     2.3900 
  165.8750   -24.7310    39.8010     6.1140     5.2330     4.6090    23.8010     2.3690 
  166.0000   -24.6520    43.2190     6.1050     5.2260     4.6230    23.9610     2.3540 
  166.1250   -24.6060    49.6840     6.0750     5.1990     4.7430    24.0470     2.3530 
  166.2500   -24.6060    54.4670     6.0150     5.1460     4.8270    23.9820     2.3610 
  166.3750   -24.6570    56.7170     5.9190     5.0610     4.8800    23.9940     2.3680 
  166.5000   -24.7560    58.5100     5.7920     4.9490     4.8260    24.0840     2.3720 
  166.6250   -24.8850    62.1100     5.6620     4.8340     4.7370    24.0010     2.3700 
  166.7500   -25.0580    65.9460     5.5600     4.7440     4.5590    23.7720     2.3660 
  166.8750   -25.2760    68.4250     5.5050     4.6950     4.4920    23.6020     2.3610 
  167.0000   -25.5370    69.8360     5.4970     4.6870     4.6560    23.5760     2.3580 
  167.1250   -25.8070    70.3100     5.5210     4.7090     4.8820    23.5760     2.3600 
  167.2500   -26.0860    71.4670     5.5530     4.7370     4.8150    23.5430     2.3680 
  167.3750   -26.3610    73.4780     5.5870     4.7670     4.6920    23.4990     2.3740 
  167.5000   -26.6480    74.8610     5.6390     4.8140     4.6150    23.4710     2.3760 
  167.6250   -26.9210    74.7910     5.7610     4.9220     4.7140    23.4630     2.3760 
  167.7500   -27.1580    74.4690     5.9900     5.1240     4.9360    23.4810     2.3810 
  167.8750   -27.3710    73.5970     6.3560     5.4480     5.3030    23.5360     2.3980 
  168.0000   -27.5510    71.1910     6.8720     5.9040     5.8680    23.6100     2.4270 
  168.1250   -27.6960    68.7300     7.5150     6.4740     6.8420    23.6580     2.4640 
  168.2500   -27.8010    68.0570     8.1660     7.0490     7.7280    23.6470     2.4910 
  168.3750   -27.8470    68.7450     8.7140     7.5350     8.2810    23.5850     2.4980 
  168.5000   -27.8320    69.7060     9.0950     7.8710     8.4420    23.4720     2.4830 
  168.6250   -27.7560    70.6630     9.3050     8.0570     8.2140    23.3840     2.4510 
  168.7500   -27.6490    71.7570     9.4530     8.1880     7.7200    23.4400     2.4180 
  168.8750   -27.5470    71.8290     9.5960     8.3150     7.6970    23.5560     2.3950 
  169.0000   -27.4410    70.4690     9.7290     8.4330     8.6470    23.6930     2.3850 
  169.1250   -27.3680    66.7490     9.7490     8.4500     9.8230    23.9050     2.3870 
  169.2500   -27.3100    63.4710     9.5880     8.3080     9.6220    24.1320     2.3900 
  169.3750   -27.2930    64.9300     9.2670     8.0240     8.3010    24.1880     2.3850 
  169.5000   -27.3190    71.9720     8.9180     7.7150     7.0130    24.1630     2.3720 
  169.6250   -27.4050    78.9910     8.8010     7.6120     6.5140    24.1520     2.3630 
  169.7500   -27.5270    78.8760     9.0890     7.8670     6.6220    24.1890     2.3730 
  169.8750   -27.6630    71.6530     9.9290     8.6100     7.4200    24.1500     2.3940 
  170.0000   -27.8080    63.3990    11.4460     9.9520     9.3930    23.8790     2.3980 
  170.1250   -27.9300    59.7510    13.8840    12.1100    13.0160    23.4680     2.3610 
  170.2500   -28.0490    58.5270    17.1830    15.0290    18.1720    23.4440     2.3020 
  170.3750   -28.1450    56.7990    21.3530    18.7200    22.3830    23.7920     2.2590 
