~V
VERS. 2.00: Ver 2.00
~W
STRT.M 52.0000:
STOP.M 238.0000:
STEP.M 0.1250:
NULL. -999.2500:
UWI. F10653:
~C
DEPT.M :
GR.API :
RML.OHMM :
RI. :
RXO.OHMM :
CALI.CM :
DEN.GM/CC :
SP.MV :
~A
   52.0000  -999.2500  -999.2500  -999.2500  -999.2500  -999.2500  -999.2500   108.3520 
   52.1250  -999.2500  -999.2500  -999.2500  -999.2500  -999.2500  -999.2500   108.1820 
   52.2500  -999.2500  -999.2500  -999.2500  -999.2500  -999.2500  -999.2500   107.9700 
   52.3750  -999.2500  -999.2500  -999.2500  -999.2500  -999.2500  -999.2500   107.6700 
   52.5000  -999.2500  -999.2500  -999.2500  -999.2500  -999.2500  -999.2500   107.2880 
   52.6250  -999.2500  -999.2500  -999.2500  -999.2500  -999.2500  -999.2500   106.8400 
   52.7500  -999.2500  -999.2500  -999.2500  -999.2500  -999.2500  -999.2500   106.3800 
   52.8750  -999.2500  -999.2500  -999.2500  -999.2500  -999.2500  -999.2500   105.8420 
   53.0000  -999.2500  -999.2500  -999.2500  -999.2500  -999.2500  -999.2500   105.2650 
   53.1250  -999.2500  -999.2500  -999.2500  -999.2500  -999.2500  -999.2500   104.6720 
   53.2500  -999.2500  -999.2500  -999.2500  -999.2500  -999.2500  -999.2500   104.0520 
   53.3750  -999.2500  -999.2500  -999.2500  -999.2500  -999.2500  -999.2500   103.4090 
   53.5000  -999.2500  -999.2500  -999.2500  -999.2500  -999.2500  -999.2500   102.7660 
   53.6250  -999.2500  -999.2500  -999.2500  -999.2500  -999.2500  -999.2500   102.1460 
   53.7500    38.4270     7.7110     0.4760     0.5040    25.2830  -999.2500   101.4680 
   53.8750    38.4270     7.7110     0.4760     0.5040    25.2830  -999.2500   100.7810 
   54.0000    36.8310     7.5070     0.4420     0.5740    25.2900  -999.2500   100.0720 
   54.1250    34.8080     5.6840     0.4110     0.5690    25.2960     1.9820    99.2350 
   54.2500    33.9220     3.4770     0.3910     0.5320    25.3030     1.9820    98.3500 
   54.3750    34.3400     2.1230     0.3690     0.5730    25.3060     1.9890    97.4680 
   54.5000    35.0850     2.1000     0.3400     0.6630    25.3060     2.0100    96.5110 
   54.6250    37.3130     3.1390     0.3330     0.6250    25.3020     2.0370    95.4680 
   54.7500    41.1960     4.2930     0.3680     0.5860    25.3030     2.0640    94.4320 
   54.8750    44.3260     4.9670     0.4320     0.5880    25.3060     2.0910    93.3540 
   55.0000    44.1740     4.8540     0.4930     0.5730    25.2830     2.1190    92.1930 
   55.1250    41.9850     3.9210     0.5180     0.4770    25.2170     2.1390    91.0350 
   55.2500    40.6610     2.7450     0.5090     0.4330    25.1750     2.1490    89.8610 
   55.3750    39.0210     1.8620     0.4840     0.4640    25.1720     2.1480    88.6540 
   55.5000    35.8620     1.6670     0.4660     0.5240    25.1840     2.1420    87.4610 
   55.6250    33.2340     2.3760     0.4550     0.5160    25.1640     2.1360    86.2610 
   55.7500    32.6390     3.5350     0.4400     0.4630    25.1280     2.1340    84.9930 
   55.8750    33.8960     4.5710     0.4360     0.4260    25.1000     2.1450    83.6580 
   56.0000    37.2630     4.9630     0.4620     0.4290    25.0940     2.1770    82.3070 
   56.1250    41.9830     4.4170     0.5220     0.4500    25.0930     2.2320    80.9020 
   56.2500    45.2550     3.3320     0.5850     0.4940    25.0590     2.2780    79.4550 
   56.3750    46.3660     2.1070     0.6150     0.4820    24.9610     2.2840    77.9760 
   56.5000    46.5480     1.1870     0.5820     0.4510    24.8510     2.2440    76.4260 
   56.6250    47.0970     1.2710     0.5110     0.4620    24.8020     2.1780    74.8360 
   56.7500    46.8240     2.6460     0.4660     0.5350    24.7950     2.1200    73.1960 
   56.8750    45.5420     4.4360     0.4690     0.6430    24.8340     2.0920    71.4840 
   57.0000    44.5190     4.2400     0.4890     0.7060    24.9970     2.1090    69.6800 
   57.1250    44.1560     2.4570     0.4800     0.7350    25.1600     2.1870    67.6450 
   57.2500    44.7730     1.1760     0.4490     0.7210    25.1480     2.3200    65.2590 
   57.3750    46.2780     0.4880     0.4170     0.7670    24.8950     2.4720    62.3520 
   57.5000    48.5180     0.1670     0.3950     0.8540    24.3460     2.5830    58.6540 
   57.6250    54.2860     0.0910     0.3830     1.1260    23.6200     2.6110    53.6930 
   57.7500    62.9690     0.1810     0.3910     1.8040    22.9420     2.5870    47.6910 
   57.8750    70.2970     0.4840     0.4910     3.7180    22.5680     2.5460    40.9200 
   58.0000    72.2630     1.1290     0.1290     7.1040    22.4310     2.5280    33.6090 
   58.1250    68.9610     2.4650     1.4650    12.5060    22.3290     2.5580    25.9760 
   58.2500    65.9740     4.3600     3.3600    15.6340    22.1980     2.5910    18.3300 
   58.3750    66.3680     5.7320     4.7320    15.1810    22.1010     2.5760    10.9460 
   58.5000    69.8940     5.5910     4.5910    12.7790    22.0790     2.5050     4.2000 
   58.6250    73.7280     4.8530     3.8530    10.1160    22.2640     2.4080    -1.3640 
   58.7500    75.2340     4.5160     3.5160     8.1230    22.6720     2.3230    -5.8940 
   58.8750    73.9210     4.6490     3.6490     6.9270    23.1780     2.2670    -9.5860 
   59.0000    70.2940     5.1830     4.1830     6.8180    23.5890     2.2470   -12.6610 
   59.1250    65.9110     6.0280     5.0280     7.3870    23.7860     2.2520   -15.1170 
   59.2500    62.8790     6.9290     5.9290     7.9900    23.9860     2.2560   -17.1120 
   59.3750    60.9680     7.6420     6.6420     8.2930    24.1780     2.2530   -18.7630 
   59.5000    60.0490     7.9590     6.9590     8.4450    24.3090     2.2410   -20.0910 
   59.6250    60.1360     7.7460     6.7460     8.7190    24.3410     2.2220   -21.1810 
   59.7500    59.2820     7.2600     6.2600     8.9170    24.3540     2.2020   -22.1250 
   59.8750    58.3300     6.8120     5.8120     9.0130    24.4270     2.1830   -22.9130 
   60.0000    59.1040     6.6680     5.6680     9.0030    24.5140     2.1660   -23.5670 
   60.1250    61.4110     6.9730     5.9730     8.9270    24.5220     2.1550   -24.1150 
   60.2500    62.7750     7.5340     6.5340     8.7250    24.4940     2.1540   -24.6180 
   60.3750    61.9760     8.1150     7.1150     8.4650    24.4060     2.1600   -25.0660 
   60.5000    59.8830     8.4720     7.4720     8.3580    24.2890     2.1660   -25.4680 
   60.6250    57.1070     8.3710     7.3710     8.4190    24.2220     2.1610   -25.8300 
   60.7500    54.4190     7.9090     6.9090     8.2210    24.1610     2.1470   -26.1310 
   60.8750    52.8190     7.2900     6.2900     7.8920    24.0810     2.1320   -26.3910 
   61.0000    53.1700     6.7590     5.7590     7.8010    23.9770     2.1260   -26.6110 
   61.1250    57.2330     6.5040     5.5040     7.5600    23.9970     2.1360   -26.7890 
   61.2500    62.2310     6.4420     5.4420     7.2510    23.9310     2.1530   -26.9270 
   61.3750    64.1550     6.4900     5.4900     7.2240    23.8130     2.1690   -27.0240 
   61.5000    61.3360     6.6080     5.6080     7.4220    23.7440     2.1740   -27.1140 
   61.6250    57.0230     6.7840     5.7840     7.6830    23.6870     2.1670   -27.1470 
   61.7500    56.3140     7.0030     6.0030     7.9310    23.7380     2.1550   -27.1520 
   61.8750    59.2730     7.2540     6.2540     8.1600    23.9170     2.1410   -27.1210 
   62.0000    62.0820     7.4940     6.4940     8.4930    24.1020     2.1320   -27.0500 
   62.1250    61.5170     7.6650     6.6650     8.7900    24.2370     2.1330   -26.9150 
   62.2500    58.8530     7.8080     6.8080     9.1610    24.3800     2.1400   -26.7250 
   62.3750    56.9220     7.9580     6.9580     9.5360    24.4930     2.1480   -26.5120 
   62.5000    57.6230     8.0640     7.0640     9.8560    24.4570     2.1530   -26.2410 
   62.6250    58.4570     8.0250     7.0250     9.2990    24.2720     2.1500   -25.9190 
   62.7500    58.3250     7.8330     6.8330     8.7040    24.1820     2.1420   -25.5610 
   62.8750    60.1190     7.4890     6.4890     8.2590    24.1360     2.1410   -25.1710 
   63.0000    64.2810     7.0190     6.0190     8.0130    24.0550     2.1560   -24.7050 
   63.1250    68.5050     6.5490     5.5490     7.7120    23.9930     2.1920   -24.2300 
