~V
VERS. 2.00: Ver 2.00
~W
STRT.M 55.0000:
STOP.M 228.0000:
STEP.M 0.1250:
NULL. -999.2500:
UWI. F10621:
~C
DEPT.M :
GR.API :
RML.OHMM :
RI. :
RXO.OHMM :
CALI.CM :
DEN.GM/CC :
SP.MV :
~A
# ...
  100.0000   100.3200     5.7840     4.8670     5.2580    24.6350     2.4040    -5.2620 
  100.1250    99.2090     6.1320     4.9500     5.5160    24.6110     2.4060    -4.8270 
  100.2500    97.3090     7.0360     5.5110     6.0950    24.5690     2.3890    -4.4520 
  100.3750    91.1830     8.3860     6.5030     7.2330    24.5260     2.3480    -4.1480 
  100.5000    82.0740     9.9610     7.7960     8.8820    24.5200     2.2950    -3.9000 
  100.6250    75.7190    11.3770     9.1360    10.5070    24.5720     2.2500    -3.6930 
  100.7500    71.6820    12.3360    10.2220    11.3440    24.6560     2.2310    -3.5250 
  100.8750    67.5210    12.7410    10.8840    11.3770    24.6960     2.2420    -3.3910 
  101.0000    66.7140    12.7290    11.1350    11.2060    24.6860     2.2750    -3.2410 
  101.1250    70.7360    12.6400    11.1680    11.2950    24.6070     2.3050    -3.0950 
  101.2500    73.8920    12.8120    11.2890    11.8320    24.4400     2.3100    -2.9900 
  101.3750    73.5610    13.3630    11.6380    12.8800    24.1370     2.2860    -2.8840 
  101.5000    71.4720    14.2540    12.2400    14.3030    23.7450     2.2440    -2.7410 
  101.6250    69.4270    15.3780    13.0660    15.0520    23.7130     2.2040    -2.6130 
  101.7500    66.1980    16.5500    13.9900    16.2110    24.2820     2.1780    -2.4960 
  101.8750    61.1240    17.6540    14.9250    17.5050    24.8920     2.1700    -2.3510 
  102.0000    56.3920    18.6040    15.7930    18.5390    25.1730     2.1730    -2.2110 
  102.1250    54.9330    19.3130    16.5070    19.2900    25.2330     2.1770    -2.1010 
  102.2500    56.7420    19.7930    17.0430    19.8740    25.3210     2.1740    -1.9720 
  102.3750    60.1160    20.0530    17.3830    20.2070    25.5020     2.1620    -1.8110 
  102.5000    62.5620    20.1450    17.5530    20.0460    25.8080     2.1420    -1.6600 
  102.6250    61.2080    20.1720    17.6260    19.1970    26.1190     2.1250    -1.5130 
  102.7500    58.8530    20.2640    17.7270    18.2530    26.3220     2.1160    -1.3660 
  102.8750    58.7410    20.4920    17.9250    17.6810    26.2870     2.1160    -1.2140 
  103.0000    60.7610    20.8270    18.2210    17.6600    25.9790     2.1230    -1.0780 
  103.1250    61.1820    21.0470    18.4650    18.1090    25.5040     2.1310    -0.9810 
  103.2500    58.5320    20.8470    18.4120    18.7990    25.3050     2.1410    -0.8810 
  103.3750    54.5680    20.0180    17.8690    19.0970    25.3360     2.1570    -0.8250 
  103.5000    52.2830    18.5980    16.8170    18.5960    25.3770     2.1820    -0.8230 
  103.6250    54.1090    16.9520    15.4840    17.1610    25.2570     2.2110    -0.8160 
  103.7500    58.7220    15.6750    14.3430    15.0600    24.9690     2.2300    -0.8370 
  103.8750    63.3890    15.1560    13.7250    13.1750    24.6400     2.2340    -0.9250 
  104.0000    66.1090    15.5370    13.8010    12.8710    24.5190     2.2250    -1.0510 
  104.1250    64.9920    16.7440    14.6190    14.6270    24.7930     2.2080    -1.1500 
  104.2500    61.7850    18.1930    15.7770    16.7140    24.9860     2.1920    -1.2850 
  104.3750    58.1190    19.3860    16.8890    17.6940    25.0400     2.1770    -1.4520 
  104.5000    55.5520    19.9200    17.5710    17.7220    25.0130     2.1590    -1.5750 
  104.6250    56.0550    19.5710    17.5140    17.3850    24.9860     2.1380    -1.6940 
  104.7500    58.1280    18.8630    17.0370    16.6790    24.9560     2.1250    -1.8300 
  104.8750    60.5170    18.4480    16.6360    15.5310    24.9310     2.1340    -1.9530 
  105.0000    62.6860    18.9030    16.8090    14.3480    24.9170     2.1790    -2.0570 
  105.1250    64.0230    20.4790    17.8600    15.1240    24.8970     2.2730    -2.2120 
  105.2500    64.7840    22.3830    19.2820    22.0780    24.8430     2.3900    -2.3800 
  105.3750    64.3620    23.6280    20.3430    33.8530    24.7510     2.4980    -2.5210 
  105.5000    62.7550    23.2900    20.2620    46.6820    24.6560     2.5650    -2.6920 
  105.6250    62.4960    20.7880    18.4230    55.0470    24.5910     2.5730    -2.9140 
  105.7500    66.6610    17.2390    15.6250    43.4820    24.5560     2.5450    -3.1210 
  105.8750    75.4310    13.8140    12.8060    21.3030    24.5270     2.5000    -3.2940 
  106.0000    82.9780    11.3310    10.6470    11.0450    24.5270     2.4460    -3.4500 
  106.1250    83.3760    10.1100     9.4480     9.8790    24.5850     2.3930    -3.5620 
  106.2500    80.5880     9.6130     8.8690     9.6110    24.6660     2.3500    -3.6490 
  106.3750    78.4840     9.4340     8.6390     8.9930    24.7020     2.3260    -3.7060 
  106.5000    78.4460     9.2650     8.5160     8.0460    24.7050     2.3240    -3.7150 
  106.6250    79.8330     8.9400     8.3290     7.5050    24.7020     2.3380    -3.6810 
  106.7500    83.7930     8.5210     8.0630     7.1250    24.6920     2.3530    -3.6110 
  106.8750    90.8290     8.1150     7.7830     6.7850    24.6650     2.3610    -3.5310 
  107.0000    99.0520     7.8060     7.5520     6.5700    24.6370     2.3590    -3.4480 
  107.1250   104.2250     7.6350     7.4070     6.6180    24.5800     2.3500    -3.3630 
  107.2500   104.3800     7.5410     7.3090     6.7150    24.4000     2.3410    -3.2520 
  107.3750   102.6310     7.4690     7.2120     6.7670    24.1290     2.3370    -3.1400 
  107.5000   102.4020     7.3760     7.0820     6.6950    24.0630     2.3400    -3.0630 
  107.6250   103.0100     7.2600     6.9150     6.5590    24.4670     2.3490    -2.9720 
  107.7500   100.9210     7.1780     6.7650     6.4350    24.7920     2.3560    -2.8730 
  107.8750    98.3600     7.1870     6.6940     6.2990    24.9150     2.3560    -2.8000 
  108.0000    98.1910     7.3170     6.7420     6.3290    24.9420     2.3470    -2.6920 
  108.1250    99.0930     7.5570     6.9250     6.6500    24.9750     2.3320    -2.5310 
  108.2500    98.6810     7.8290     7.1740     7.0240    24.9950     2.3180    -2.3710 
  108.3750    96.9660     8.0890     7.4440     7.4390    25.0170     2.3110    -2.2240 
  108.5000    94.5470     8.3440     7.7170     7.8210    25.0460     2.3110    -2.0390 
  108.6250    90.5530     8.6930     8.0450     8.0620    25.0590     2.3100    -1.8320 
  108.7500    85.8140     9.2360     8.5060     8.1060    25.0630     2.3010    -1.6430 
  108.8750    82.4900     9.9990     9.1380     8.3540    25.0730     2.2810    -1.4330 
  109.0000    81.8550    10.8690     9.8770     8.9240    25.1050     2.2550    -1.2340 
  109.1250    82.7750    11.5360    10.4910     9.9470    25.1570     2.2360    -1.0660 
  109.2500    83.4720    11.7220    10.7250    11.0610    25.1510     2.2310    -0.9030 
  109.3750    83.5870    11.3080    10.4370    11.8690    25.0750     2.2440    -0.7410 
  109.5000    83.7920    10.4050     9.6820    11.6960    25.0120     2.2680    -0.5920 
  109.6250    84.3490     9.3720     8.7310    10.0850    24.9930     2.2920    -0.4870 
  109.7500    86.6870     8.6590     7.9740     8.1880    25.0030     2.3020    -0.3500 
  109.8750    88.7640     8.5580     7.6540     7.7000    25.0280     2.2950    -0.1540 
  110.0000    87.2550     9.2680     7.9440     8.1480    25.0610     2.2690     0.0450 
  110.1250    80.8610    11.0740     9.1180     9.4130    25.1010     2.2310     0.2760 
  110.2500    75.1210    13.8090    11.1270    11.3590    25.1690     2.1900     0.5600 
  110.3750    72.7930    17.2500    13.8900    13.9930    25.2790     2.1540     0.8810 
  110.5000    71.1150    20.9240    17.1070    17.1250    25.4110     2.1300     1.2170 
  110.6250    67.0280    23.9940    20.1360    19.9280    25.5160     2.1230     1.5760 
  110.7500    63.1920    25.8830    22.3250    21.2060    25.5530     2.1270     1.9350 
  110.8750    62.7020    26.4400    23.3530    20.6740    25.5610     2.1380     2.2370 
  111.0000    65.3950    26.0460    23.3770    20.0180    25.5610     2.1490     2.4990 
  111.1250    67.4130    25.5390    22.9940    19.8290    25.5620     2.1500     2.7560 
