~V
VERS. 2.00: Ver 2.00
~W
STRT.M 50.0000:
STOP.M 216.0000:
STEP.M 0.1250:
NULL. -999.2500:
UWI. F10607:
~C
DEPT.M :
GR.API :
RML.OHMM :
RI. :
RXO.OHMM :
CALI.CM :
DEN.GM/CC :
SP.MV :
~A
# ...
  173.7500    89.1930     9.0590     9.0060     9.2360    23.4550     2.4020   -17.1720 
  173.8750    93.7950     9.0860     8.9010     9.3050    23.4020     2.3980   -17.4490 
  174.0000    98.6550     9.1810     8.8150     9.4710    23.4650     2.3940   -17.7120 
  174.1250    98.0560     9.3480     8.7840     9.5430    23.4640     2.3890   -17.9300 
  174.2500    94.3940     9.5440     8.7860     9.5460    23.3880     2.3810   -18.0900 
  174.3750    94.0690     9.7200     8.7810     9.6310    23.2880     2.3700   -18.2180 
  174.5000    99.6100     9.8180     8.7230     9.7910    23.2800     2.3600   -18.2790 
  174.6250   103.6930     9.8020     8.5790     9.9850    23.4040     2.3560   -18.2130 
  174.7500   102.1520     9.7460     8.4010     9.8970    23.5300     2.3610   -18.1260 
  174.8750    98.2740     9.7640     8.2760     9.7480    23.5760     2.3720   -17.9970 
  175.0000    96.0050     9.9910     8.3110     9.7530    23.5890     2.3790   -17.8320 
  175.1250    93.3530    10.6750     8.6800    10.5070    23.6730     2.3720   -17.7530 
  175.2500    87.0830    11.9670     9.4770    12.6860    23.7910     2.3580   -17.7190 
  175.3750    80.1560    14.1000    10.8550    15.8650    23.8660     2.3520   -17.6990 
  175.5000    76.4480    17.3620    13.0200    17.5100    23.8770     2.3650   -17.7890 
  175.6250    76.0780    22.3770    16.4720    18.7020    23.8410     2.3920   -17.9890 
  175.7500    73.9890    29.1550    21.3780    24.2140    23.7890     2.4090   -18.2070 
  175.8750    69.1720    37.5800    27.8740    39.2540    23.7130     2.3950   -18.4890 
  176.0000    62.7820    46.9930    35.6460    58.3160    23.6610     2.3520   -18.8380 
  176.1250    58.7830    55.7980    43.5490    73.3590    23.7120     2.2980   -19.1610 
  176.2500    60.0570    62.3560    49.9400    72.2570    23.7710     2.2580   -19.4810 
  176.3750    64.2150    65.8440    53.8240    68.9880    23.7430     2.2420   -19.8200 
  176.5000    66.7980    66.3750    55.0800    67.1940    23.6300     2.2450   -20.0760 
  176.6250    67.2510    64.1690    53.8340    65.8720    23.5010     2.2550   -20.2560 
  176.7500    66.1210    60.1940    50.9820    62.2050    23.3960     2.2620   -20.3960 
  176.8750    64.4490    55.1410    47.0980    57.0210    23.3510     2.2670   -20.4630 
  177.0000    64.6970    50.0730    43.0120    52.0470    23.3490     2.2710   -20.4780 
  177.1250    68.4620    46.5340    39.9000    44.7780    23.3540     2.2740   -20.4340 
  177.2500    71.1690    45.1970    38.3920    38.2940    23.3410     2.2680   -20.3560 
  177.3750    70.4760    46.2250    38.7550    38.5340    23.3200     2.2530   -20.2590 
  177.5000    67.2600    49.2460    40.8710    44.2550    23.3150     2.2340   -20.1540 
  177.6250    62.7340    53.5660    44.3910    53.6970    23.3270     2.2260   -20.0470 
  177.7500    60.5140    57.9800    48.3070    60.8060    23.3430     2.2310   -19.9860 
  177.8750    62.7370    61.8660    51.9470    59.6920    23.3420     2.2420   -19.9340 
  178.0000    66.2170    65.2370    55.0770    55.5530    23.3410     2.2490   -19.8790 
  178.1250    65.0920    68.9910    58.2180    55.0060    23.3510     2.2490   -19.9030 
  178.2500    61.6290    74.1050    62.3090    60.2940    23.3570     2.2500   -19.9510 
  178.3750    59.4150    81.0070    67.8900    71.8660    23.3640     2.2590   -19.9730 
  178.5000    57.9750    89.5050    74.9410    81.1110    23.3820     2.2680   -20.0490 
  178.6250    57.0720    98.7890    82.9030    87.4540    23.4110     2.2620   -20.1510 
  178.7500    58.6750   107.1710    90.3920   100.5980    23.4180     2.2370   -20.2130 
  178.8750    62.3900   112.7060    95.8610   114.9330    23.3950     2.2020   -20.3350 
  179.0000    63.1870   113.3860    97.6490   115.8940    23.3620     2.1700   -20.4810 
  179.1250    58.0870   107.4550    94.0280   111.2790    23.3320     2.1580   -20.5630 
  179.2500    52.9380    97.6230    86.7200   103.6510    23.3060     2.1610   -20.6550 
  179.3750    52.1770    86.9580    78.0020    89.9100    23.2880     2.1710   -20.7550 
  179.5000    55.8290    78.2870    70.3330    72.1810    23.2510     2.1810   -20.8100 
  179.6250    59.9110    73.9350    66.0130    58.5650    23.0750     2.1830   -20.8540 
  179.7500    60.5880    73.5680    65.1510    59.0240    22.7590     2.1770   -20.8800 
  179.8750    58.3700    76.7520    67.5640    67.7370    22.4960     2.1650   -20.8740 
  180.0000    56.5250    82.7560    72.7800    77.9110    22.3380     2.1550   -20.8400 
  180.1250    57.3420    90.6080    80.1620    85.7760    22.1610     2.1530   -20.7910 
  180.2500    58.3230    98.4620    87.9830    91.2050    22.0570     2.1590   -20.7200 
  180.3750    57.4310   104.9380    94.8760    96.5570    22.2420     2.1700   -20.6320 
  180.5000    54.6110   108.8580    99.6260   104.1540    22.6340     2.1800   -20.5030 
  180.6250    53.4110   108.7480   100.7050   116.1560    23.0440     2.1840   -20.3510 
  180.7500    55.1730   105.3000    98.4670   109.6460    23.2290     2.1870   -20.2160 
  180.8750    57.0000    99.9710    93.9680    94.3870    23.2770     2.1910   -20.0130 
  181.0000    56.8450    95.0290    89.1510    83.5340    23.2640     2.1980   -19.7950 
  181.1250    55.6120    93.4670    86.8080    73.6100    23.2110     2.2070   -19.6560 
  181.2500    55.7480    96.4010    88.4110    75.0150    23.1360     2.2120   -19.5010 
  181.3750    56.6340   104.0870    94.5200    87.7270    23.0560     2.2120   -19.3740 
  181.5000    57.1710   115.5890   104.5290    96.6960    22.9510     2.2090   -19.3420 
  181.6250    56.7330   128.3120   116.3880   103.6720    22.8820     2.2080   -19.3300 
  181.7500    54.6710   138.1760   126.4070   115.7870    22.9150     2.2110   -19.3170 
  181.8750    52.5760   142.6430   132.0850   126.2850    23.0070     2.2130   -19.3740 
  182.0000    51.6730   141.6950   132.8380   123.5860    23.0110     2.2080   -19.4210 
  182.1250    51.9630   137.2820   129.7930   108.2840    22.8760     2.1920   -19.3790 
  182.2500    51.4800   132.1950   125.6360    97.7500    22.8060     2.1740   -19.3620 
  182.3750    51.0270   127.0710   121.3090   107.4200    22.8930     2.1640   -19.3000 
  182.5000    51.7130   121.6630   116.8410   121.1340    23.1590     2.1680   -19.1700 
  182.6250    52.5250   115.7370   111.9580   119.2920    23.5170     2.1790   -19.0120 
  182.7500    52.1060   110.0220   107.1030   111.7540    23.7220     2.1860   -18.7910 
  182.8750    50.4480   105.5470   103.1310   103.5130    23.8080     2.1870   -18.5240 
  183.0000    49.5410   103.2330   100.9590    96.1080    23.7480     2.1840   -18.2050 
  183.1250    50.2760   103.9830   101.6020    92.3550    23.5450     2.1860   -17.8660 
  183.2500    52.6540   106.9430   104.4210   103.9800    23.4540     2.1920   -17.4990 
  183.3750    55.5710   110.8630   108.2970   117.6040    23.5420     2.1990   -17.1010 
  183.5000    56.7500   113.7930   111.3950   125.6340    23.6900     2.2050   -16.6840 
  183.6250    55.2790   113.0460   111.0740   125.2410    23.7510     2.2110   -16.2960 
  183.7500    54.6190   108.8900   107.2490   118.6480    23.7860     2.2190   -15.9390 
  183.8750    55.3620   103.5070   101.6660   114.0890    23.8260     2.2230   -15.5910 
  184.0000    55.4900    99.9510    97.1530   102.7950    23.8280     2.2200   -15.3470 
  184.1250    56.5140   101.5740    97.0860    83.6090    23.7830     2.2190   -15.1590 
  184.2500    59.7460   108.8050   102.3540    78.9940    23.7870     2.2330   -14.9770 
  184.3750    61.8410   121.2580   112.8660   114.0780    23.9150     2.2670   -14.8870 
  184.5000    59.7230   136.7030   126.6340   213.2600    24.0710     2.3050   -14.8150 
  184.6250    58.7650   149.2390   138.4600   221.0220    24.0890     2.3160   -14.6870 
  184.7500    61.5600   152.9540   142.9860   162.6580    24.0290     2.2930   -14.6190 
  184.8750    62.8570   146.0240   138.0710   133.3670    24.0550     2.2490   -14.5660 
