~V
VERS. 2.00: Ver 2.00
~W
STRT.M 59.0000:
STOP.M 270.0000:
STEP.M 0.1250:
NULL. -999.2500:
UWI. F10667:
~C
DEPT.M :
GR.API :
RML.OHMM :
RI. :
RXO.OHMM :
CALI.CM :
DEN.GM/CC :
SP.MV :
~A
# ...
   70.2500    91.3940     6.3510     5.6350     5.6290    23.9250     2.2870   -14.6670 
   70.3750    94.2050     6.1080     5.3490     5.1290    24.0010     2.3090   -14.6740 
   70.5000    94.6270     5.7660     5.0390     5.0380    24.0850     2.3220   -14.6730 
   70.6250    92.3970     5.4610     4.8190     5.1970    24.1200     2.3170   -14.7520 
   70.7500    88.9150     5.3940     4.8050     5.3490    24.1240     2.3100   -14.8830 
   70.8750    84.3220     5.7760     5.1280     5.5290    24.1100     2.3190   -15.0560 
   71.0000    78.2770     6.8270     5.9370     6.1990    24.0790     2.3550   -15.3320 
   71.1250    73.9590     8.9100     7.5070     9.0180    24.0540     2.4170   -15.7620 
   71.2500    72.5130    11.8830     9.7630    15.3540    24.0740     2.4780   -16.2600 
   71.3750    72.1530    15.2730    12.4120    22.4080    24.1210     2.5170   -16.8760 
   71.5000    71.4880    18.0720    14.7810    25.7200    24.1680     2.5230   -17.6330 
   71.6250    72.4150    18.8200    15.7980    23.8880    24.1330     2.4990   -18.4510 
   71.7500    74.2060    17.6540    15.3540    20.1200    24.0150     2.4600   -19.2840 
   71.8750    73.9200    15.4070    13.8850    16.9500    23.8690     2.4160   -20.1540 
   72.0000    71.2340    13.0290    12.0670    14.6730    23.7860     2.3730   -21.0390 
   72.1250    68.2950    11.1590    10.4650    12.0090    23.7820     2.3330   -21.8700 
   72.2500    67.3170     9.8170     9.2290     9.5590    23.8240     2.2970   -22.6440 
   72.3750    67.7500     8.9290     8.3480     8.2360    23.8850     2.2620   -23.2940 
   72.5000    68.5380     8.4040     7.7670     7.9220    23.9240     2.2290   -23.8100 
   72.6250    69.5770     8.2040     7.4680     7.9660    23.9320     2.1990   -24.2540 
   72.7500    70.2010     8.2100     7.3510     7.9810    23.9200     2.1780   -24.6030 
   72.8750    70.7960     8.3500     7.3570     7.8710    23.8850     2.1670   -24.8520 
   73.0000    72.2110     8.5500     7.4160     7.7730    23.8570     2.1640   -25.0370 
   73.1250    73.3840     8.7160     7.4600     7.7290    23.8890     2.1670   -25.1160 
   73.2500    71.2230     8.7790     7.4500     7.7280    23.9660     2.1720   -25.0910 
   73.3750    65.6080     8.7060     7.3810     7.6840    24.0240     2.1760   -25.0260 
   73.5000    61.6420     8.5040     7.2670     7.7160    24.0280     2.1810   -24.9390 
   73.6250    64.9380     8.2230     7.1320     7.8350    23.9530     2.1860   -24.7630 
   73.7500    71.0670     7.9660     7.0130     7.8070    23.8270     2.1910   -24.5760 
   73.8750    73.1480     7.8070     6.9380     7.4910    23.7380     2.1950   -24.4480 
   74.0000    71.2500     7.7930     6.9180     7.3400    23.7060     2.1980   -24.3350 
   74.1250    69.8690     7.9370     6.9470     7.5750    23.7120     2.1890   -24.2140 
   74.2500    69.2990     8.1460     6.9760     7.8730    23.7610     2.1650   -24.1550 
   74.3750    68.5430     8.3260     6.9640     8.0630    23.9160     2.1280   -24.1360 
   74.5000    67.9560     8.3930     6.8890     8.1010    24.2050     2.0880   -24.1150 
   74.6250    68.6320     8.2970     6.7490     8.0390    24.4660     2.0670   -24.1240 
   74.7500    69.6110     8.1100     6.5910     7.9120    24.5470     2.0710   -24.1880 
   74.8750    70.6490     7.9080     6.4560     7.6510    24.4300     2.0940   -24.2890 
   75.0000    69.9400     7.7560     6.3790     7.3590    24.3310     2.1230   -24.4080 
   75.1250    66.7170     7.6990     6.3930     7.3900    24.3360     2.1400   -24.5760 
   75.2500    64.1330     7.7140     6.4730     7.7960    24.3540     2.1440   -24.7800 
   75.3750    63.2010     7.7730     6.5890     8.0460    24.3520     2.1390   -24.9890 
   75.5000    62.7100     7.8550     6.7040     7.8550    24.3340     2.1330   -25.1890 
   75.6250    62.6690     7.9610     6.7970     7.8080    24.3060     2.1290   -25.4090 
   75.7500    63.6210     8.1100     6.8760     7.9820    24.2910     2.1320   -25.5830 
   75.8750    63.7690     8.3250     6.9530     8.2240    24.2730     2.1420   -25.6330 
   76.0000    63.3330     8.6050     7.0400     8.4040    24.2320     2.1590   -25.6100 
   76.1250    64.0140     8.9130     7.1370     8.7810    24.1890     2.1780   -25.5970 
   76.2500    64.3810     9.1800     7.2320     9.1850    24.1780     2.1960   -25.5830 
   76.3750    64.0830     9.3630     7.3210     9.4740    24.1890     2.2110   -25.5650 
   76.5000    63.2420     9.4670     7.4100     9.4470    24.1780     2.2220   -25.5740 
   76.6250    63.0840     9.5310     7.5200     9.1830    24.1590     2.2240   -25.6120 
   76.7500    63.2150     9.6060     7.6610     8.7050    24.1880     2.2170   -25.6560 
   76.8750    64.2270     9.6900     7.8180     8.8360    24.2310     2.2020   -25.7460 
   77.0000    66.1980     9.7320     7.9490    11.2300    24.2710     2.1830   -25.8970 
   77.1250    66.6110     9.6360     7.9760    15.8510    24.3150     2.1640   -26.0160 
   77.2500    65.8180     9.4010     7.8810    15.4830    24.3200     2.1480   -26.0890 
   77.3750    64.6080     9.0980     7.6880    11.0550    24.3130     2.1420   -26.1670 
   77.5000    63.4820     8.8430     7.4590     8.6510    24.3320     2.1450   -26.2330 
   77.6250    63.4290     8.7740     7.2860     8.3990    24.4210     2.1580   -26.2100 
   77.7500    64.5640     8.8880     7.2130     8.5980    24.5460     2.1710   -26.1630 
   77.8750    65.4950     9.1150     7.2380     8.8840    24.6540     2.1770   -26.1290 
   78.0000    64.2750     9.3390     7.3200     9.1380    24.7240     2.1730   -26.1050 
   78.1250    62.1370     9.4150     7.3910     9.1130    24.7420     2.1600   -26.0880 
   78.2500    61.1110     9.3200     7.4120     8.8330    24.6800     2.1440   -26.0560 
   78.3750    60.8020     9.0890     7.3820     8.5820    24.5430     2.1310   -26.0050 
   78.5000    59.7200     8.8010     7.3230     8.4830    24.4020     2.1230   -25.9580 
   78.6250    59.3030     8.5440     7.2520     8.2430    24.3170     2.1220   -25.8800 
   78.7500    61.5780     8.3560     7.1790     7.9280    24.2610     2.1250   -25.7480 
   78.8750    63.1790     8.2330     7.0950     7.7870    24.2480     2.1320   -25.5510 
   79.0000    61.2330     8.1530     6.9950     7.8710    24.2680     2.1400   -25.2500 
   79.1250    60.0290     8.0970     6.8780     7.9160    24.3110     2.1500   -24.7990 
   79.2500    63.3420     8.0620     6.7670     7.7000    24.3280     2.1600   -24.2640 
   79.3750    67.2500     8.0600     6.6860     7.4430    24.2760     2.1660   -23.6800 
   79.5000    66.3540     8.1050     6.6620     7.3840    24.1780     2.1620   -23.0350 
   79.6250    61.7590     8.2100     6.7250     7.9580    24.1540     2.1470   -22.3830 
   79.7500    59.4530     8.3520     6.8570     8.3050    24.1560     2.1270   -21.7380 
   79.8750    62.0410     8.5000     7.0320     8.3210    24.1350     2.1150   -21.0190 
   80.0000    67.9750     8.5970     7.1940     8.1850    24.0790     2.1250   -20.2090 
   80.1250    73.9490     8.5450     7.2410     8.0120    24.0590     2.1630   -19.3970 
   80.2500    79.5460     8.3120     7.1170     7.9080    24.0700     2.2150   -18.6000 
   80.3750    84.8850     7.9060     6.8110     7.5660    24.0900     2.2670   -17.7990 
   80.5000    88.6430     7.3890     6.3660     6.5830    24.1350     2.3050   -17.0170 
   80.6250    89.6010     6.8660     5.8720     5.6690    24.2350     2.3240   -16.3190 
   80.7500    89.3590     6.4430     5.4380     5.4870    24.3340     2.3310   -15.7500 
   80.8750    88.6450     6.1860     5.1400     5.8580    24.3770     2.3320   -15.3320 
   81.0000    87.1960     6.1310     5.0260     6.3230    24.3860     2.3290   -15.0880 
   81.1250    84.8070     6.3130     5.1490     6.0900    24.3840     2.3240   -15.0660 
   81.2500    82.3740     6.6550     5.4450     6.1710    24.3510     2.3150   -15.1670 
   81.3750    80.1450     7.0840     5.8420     7.6200    24.2720     2.3020   -15.3410 
