~V
VERS. 2.00: Ver 2.00
~W
STRT.M 54.0000:
STOP.M 246.0000:
STEP.M 0.1250:
NULL. -999.2500:
UWI. F10643:
~C
DEPT.M :
SP.MV :
GR.API :
RML.OHMM :
RI. :
RXO.OHMM :
CALI.CM :
DEN.GM/CC :
~A
# ...
  132.7500   -15.4790    87.6820     5.0900     4.5430     4.6860    22.9650     2.3380 
  132.8750   -15.6340    88.8610     4.7920     4.1660     4.4540    23.5700     2.3290 
  133.0000   -15.8070    87.6650     4.8250     4.1000     4.5820    24.2200     2.3280 
  133.1250   -15.9670    85.0920     5.0350     4.2260     4.8200    24.4910     2.3320 
  133.2500   -16.1050    83.2670     5.3360     4.4770     5.1330    24.4440     2.3370 
  133.3750   -16.2280    82.4610     5.6470     4.7820     5.4200    24.3060     2.3430 
  133.5000   -16.2920    81.7990     5.8930     5.0620     5.5540    24.2100     2.3530 
  133.6250   -16.2740    82.1150     6.0510     5.2690     5.6060    24.0800     2.3630 
  133.7500   -16.2200    83.9970     6.1240     5.3820     5.5890    23.8770     2.3710 
  133.8750   -16.0590    84.7010     6.1260     5.4000     5.5310    23.7800     2.3740 
  134.0000   -15.8290    83.1750     6.0620     5.3220     5.5300    24.0120     2.3710 
  134.1250   -15.5160    82.5380     5.9430     5.1760     5.5440    24.2060     2.3680 
  134.2500   -15.0810    83.1800     5.7760     4.9770     5.5160    24.2780     2.3650 
  134.3750   -14.5710    84.0020     5.5780     4.7520     5.3680    24.2780     2.3630 
  134.5000   -13.9260    85.7690     5.4060     4.5490     5.1430    24.2700     2.3550 
  134.6250   -13.2170    88.8480     5.3610     4.4320     5.0870    24.2650     2.3380 
  134.7500   -12.4120    92.3510     5.5810     4.4930     5.2210    24.2630     2.3230 
  134.8750   -11.5090    93.7870     6.2300     4.8430     5.6170    24.2600     2.3250 
  135.0000   -10.5270    90.5210     7.6360     5.7160     6.7650    24.2360     2.3510 
  135.1250    -9.4810    82.7260     9.9190     7.2340     8.7720    24.1890     2.3690 
  135.2500    -8.4160    72.4840    13.1930     9.5580    13.2380    24.1430     2.3510 
  135.3750    -7.3610    62.8400    17.3080    12.7020    20.7250    24.1590     2.2930 
  135.5000    -6.3620    56.1620    21.5340    16.2790    21.5320    24.4240     2.2120 
  135.6250    -5.4610    51.7790    24.7720    19.3520    22.1160    24.8740     2.1430 
  135.7500    -4.6650    49.2280    26.5060    21.3100    23.5900    25.2420     2.1020 
  135.8750    -4.0060    47.8860    27.0380    22.1660    23.4120    25.3780     2.0850 
  136.0000    -3.5180    46.8530    27.1790    22.4210    22.1890    25.2710     2.0860 
  136.1250    -3.1770    45.7710    27.5760    22.6910    21.5890    25.1110     2.0930 
  136.2500    -2.9590    45.5660    28.2700    23.1090    21.5660    25.0360     2.1040 
  136.3750    -2.8120    47.3160    29.0350    23.5810    21.7210    25.0980     2.1160 
  136.5000    -2.7310    51.7140    29.5280    23.8990    22.1710    25.2310     2.1250 
  136.6250    -2.6600    57.1970    29.6220    23.9650    21.8500    25.2650     2.1290 
  136.7500    -2.5840    60.8990    29.3780    23.7890    20.7120    25.1610     2.1240 
  136.8750    -2.5200    59.8050    29.0180    23.4990    19.4830    24.9740     2.1120 
  137.0000    -2.3790    55.4090    28.8480    23.3130    19.1620    24.8110     2.0990 
  137.1250    -2.2320    52.0880    28.9680    23.3460    19.4000    24.7530     2.0930 
  137.2500    -2.0570    51.2410    29.3200    23.6040    20.0740    24.7460     2.0980 
  137.3750    -1.8630    50.7310    29.7550    23.9980    21.3950    24.7320     2.1120 
  137.5000    -1.7030    51.2820    30.1530    24.4150    22.4910    24.6720     2.1240 
  137.6250    -1.5220    53.6290    30.6110    24.8570    22.2420    24.5410     2.1230 
  137.7500    -1.3730    55.0100    31.3260    25.4550    21.3520    24.4110     2.1220 
  137.8750    -1.2730    52.6230    32.4040    26.3210    21.2890    24.4420     2.1460 
  138.0000    -1.2220    49.3750    33.7220    27.4340    22.1330    24.6030     2.2200 
  138.1250    -1.1950    49.5460    34.8160    28.4770    24.1470    24.4260     2.3080 
  138.2500    -1.2090    51.5780    35.2510    29.0970    27.4860    23.9680     2.3580 
  138.3750    -1.2380    51.7800    34.8070    29.0470    31.4790    23.8500     2.3380 
  138.5000    -1.2890    50.9750    33.6220    28.3150    24.1500    24.1190     2.2640 
  138.6250    -1.3640    51.7100    32.3370    27.3760    21.4170    24.4500     2.1920 
  138.7500    -1.4400    53.1500    31.3440    26.5650    21.7020    24.6050     2.1450 
  138.8750    -1.5330    53.9530    30.8200    26.0850    23.2240    24.6310     2.1230 
  139.0000    -1.6620    54.3800    30.7720    26.0230    24.3860    24.6720     2.1120 
  139.1250    -1.8300    54.0130    30.8980    26.1820    24.5850    24.7140     2.1070 
  139.2500    -2.0210    52.1020    30.9970    26.3990    24.6450    24.7340     2.1050 
  139.3750    -2.2680    49.5490    30.9790    26.5740    25.0530    24.7440     2.1060 
  139.5000    -2.5350    49.9880    30.8440    26.6760    25.0500    24.7780     2.1090 
  139.6250    -2.8330    50.7090    30.6960    26.7530    25.3070    24.8300     2.1160 
  139.7500    -3.1540    49.7560    30.6550    26.8780    25.7060    24.8340     2.1270 
  139.8750    -3.4410    48.2810    30.8120    27.1300    24.8430    24.7290     2.1410 
  140.0000    -3.7550    48.2320    31.0880    27.4900    23.4030    24.5910     2.1540 
  140.1250    -4.0310    49.4230    31.1440    27.7170    23.0800    24.5450     2.1600 
  140.2500    -4.3170    50.5160    30.6640    27.5430    24.1550    24.6380     2.1620 
  140.3750    -4.5970    50.7400    29.5320    26.8240    24.8260    24.7160     2.1650 
  140.5000    -4.8460    51.6350    27.9090    25.6140    22.1070    24.6130     2.1740 
  140.6250    -5.1170    54.9170    26.2140    24.2590    17.7730    24.4180     2.1810 
  140.7500    -5.3830    59.7160    24.6200    22.9420    15.6490    24.2570     2.1810 
  140.8750    -5.6670    62.2950    23.1810    21.7410    16.4280    24.1870     2.1800 
  141.0000    -5.9620    59.5750    21.9710    20.7340    17.5960    24.1690     2.1910 
  141.1250    -6.2480    55.3040    21.0700    19.9700    17.8960    24.1240     2.2130 
  141.2500    -6.5240    54.4630    20.6230    19.5460    16.7230    24.0100     2.2320 
  141.3750    -6.7860    58.8770    20.7500    19.5660    15.8980    23.9000     2.2290 
  141.5000    -7.0590    62.1460    21.5880    20.1790    17.1840    24.0200     2.2000 
  141.6250    -7.3790    58.2780    22.9170    21.2620    18.3240    24.2940     2.1640 
  141.7500    -7.7580    52.3050    24.5160    22.6740    19.5160    24.6100     2.1420 
  141.8750    -8.2280    51.4180    26.1590    24.2110    20.4070    24.8870     2.1450 
  142.0000    -8.7820    54.6550    27.8290    25.7540    20.1350    24.9520     2.1710 
  142.1250    -9.4310    55.0990    29.8610    27.4930    19.2080    24.6620     2.2050 
  142.2500   -10.1770    53.7760    32.7020    29.8210    18.6800    24.0170     2.2420 
  142.3750   -10.9890    52.0350    36.6540    33.0870    19.4210    23.5770     2.2850 
  142.5000   -11.8770    49.1590    41.7380    37.4770    24.4170    23.7630     2.3430 
  142.6250   -12.7380    48.9530    46.9680    42.2380    37.8550    23.9520     2.4160 
  142.7500   -13.5770    52.9730    51.0870    46.2960    59.0260    23.9590     2.4920 
  142.8750   -14.3420    56.7970    52.9080    48.5100    75.5760    23.8140     2.5520 
  143.0000   -14.9770    53.5510    51.7650    48.0350    71.0640    23.6900     2.5800 
  143.1250   -15.5570    48.2800    49.1140    45.9400    59.8050    23.6520     2.5950 
  143.2500   -16.0000    45.8910    46.2020    43.3050    58.2800    23.7210     2.6090 
  143.3750   -16.3580    46.2360    43.9160    41.0270    50.6850    23.8190     2.6250 
  143.5000   -16.6360    45.6550    42.7720    39.7310    41.7160    23.6830     2.6340 
  143.6250   -16.8290    43.6000    42.4750    39.2630    31.1990    23.2640     2.6310 
  143.7500   -16.9890    42.1370    42.6590    39.3390    23.0430    22.5900     2.6230 
  143.8750   -17.1040    43.3540    42.8000    39.5100    19.5700    22.1380     2.6200 
