~V
VERS. 2.00: Ver 2.00
~W
STRT.M 51.0000:
STOP.M 206.0000:
STEP.M 0.1250:
NULL. -999.2500:
UWI. F10683:
~C
DEPT.M :
GR.API :
RML.OHMM :
RI. :
RXO.OHMM :
CALI.CM :
SP.MV :
DEN.GM/CC :
~A
# ...
  163.5000    46.9320    84.7050    79.7290   119.1090    24.7660   -24.6150     2.7390 
  163.6250    48.2180    82.2200    78.6140   113.2460    24.7590   -24.8110     2.7920 
  163.7500    47.0700    80.4360    77.6500    81.1550    24.7260   -24.6180     2.8300 
  163.8750    43.3510    80.1310    77.8420    71.2090    24.6980   -24.0420     2.8530 
  164.0000    40.4670    80.2870    78.7860    98.6610    24.6850   -23.1140     2.8480 
  164.1250    43.0060    76.1620    76.8380   131.3100    24.6830   -21.8120     2.8180 
  164.2500    48.7830    64.1780    67.8130   137.4400    24.6820   -20.2360     2.7890 
  164.3750    52.7820    46.3890    51.5750   120.4190    24.6790   -18.4910     2.7670 
  164.5000    55.0660    29.2160    33.7340    73.5400    24.6470   -16.7110     2.7400 
  164.6250    59.0160    17.6700    20.8280    31.5520    24.5410   -15.1000     2.6660 
  164.7500    62.1560    10.7010    12.9260    11.2000    24.4030   -13.7820     2.5510 
  164.8750    60.5620     6.9130     8.5580     5.7940    24.3250   -12.8340     2.4390 
  165.0000    56.0770     5.1720     6.3660     5.0320    24.3050   -12.2990     2.3660 
  165.1250    57.0340     4.8790     5.6690     5.2900    24.3030   -12.2420     2.3450 
  165.2500    63.1250     5.3330     5.8080     6.0740    24.2910   -12.5700     2.3500 
  165.3750    66.7670     6.2120     6.5370     7.0380    24.2570   -13.2640     2.3650 
  165.5000    65.0670     7.1960     7.5930     7.6220    24.2380   -14.3190     2.3770 
  165.6250    63.0470     8.4780     8.6060     7.6850    24.3320   -15.7120     2.3870 
  165.7500    64.4380     9.2830     9.3010     7.7030    24.5010   -17.2910     2.4030 
  165.8750    68.0220     9.5000     9.6280     7.8260    24.6500   -18.9850     2.4230 
  166.0000    72.2850     9.5730     9.6760     7.8510    24.7320   -20.7580     2.4390 
  166.1250    76.6000     9.5360     9.5670     7.8320    24.7510   -22.5970     2.4460 
  166.2500    78.7030     9.2840     9.4230     7.8620    24.7560   -24.4050     2.4450 
  166.3750    77.6030     9.1420     9.2810     7.9230    24.7540   -26.0570     2.4420 
  166.5000    77.2010     9.1420     9.1560     7.8850    24.7520   -27.3860     2.4350 
  166.6250    81.7230     9.1070     9.0390     7.8390    24.7520   -28.1780     2.4280 
  166.7500    88.8050     9.0020     8.8850     7.8460    24.7520   -28.4510     2.4230 
  166.8750    92.8250     8.7980     8.6270     7.9800    24.7520   -28.1940     2.4240 
  167.0000    91.2020     8.4660     8.2200     8.2060    24.7520   -27.4110     2.4290 
  167.1250    88.0950     7.8440     7.7370     8.3760    24.7510   -26.0850     2.4330 
  167.2500    87.1070     7.8990     7.4180     8.0660    24.7420   -24.4600     2.4330 
  167.3750    86.5710     7.8960     7.4890     7.9330    24.7220   -22.7430     2.4390 
  167.5000    84.0510     8.9920     8.1560     8.9580    24.7090   -21.1490     2.4560 
  167.6250    78.6740    11.2970     9.7980    14.6710    24.7020   -19.8880     2.4740 
  167.7500    72.1800    14.7280    12.4910    26.1750    24.7080   -18.9880     2.4640 
  167.8750    65.9150    19.0720    16.2200    34.4550    24.7280   -18.4360     2.4170 
  168.0000    60.9610    23.6760    20.5400    35.7890    24.7450   -18.1880     2.3590 
  168.1250    59.1770    27.3430    24.4010    34.4410    24.7520   -18.2690     2.3260 
  168.2500    60.2180    29.6380    27.1590    35.9770    24.7520   -18.5670     2.3170 
  168.3750    61.9280    30.9150    28.9470    38.9740    24.7470   -18.9470     2.3200 
  168.5000    61.5400    31.8790    30.3170    42.5440    24.7390   -19.2930     2.3240 
  168.6250    58.6600    33.0070    31.7250    44.2910    24.7280   -19.5280     2.3270 
  168.7500    56.1480    34.2160    33.1910    45.1890    24.7400   -19.6750     2.3270 
  168.8750    53.4110    35.3360    34.5930    45.7600    24.7490   -19.7840     2.3230 
  169.0000    51.0820    35.8970    36.3260    47.4200    24.7520   -19.8910     2.3170 
  169.1250    53.2180    37.1490    37.2460    48.7050    24.7520   -19.9250     2.3150 
  169.2500    57.5570    38.4020    38.1590    46.7830    24.7520   -19.8490     2.3200 
  169.3750    59.8370    39.6140    39.0160    45.8250    24.7410   -19.6900     2.3270 
  169.5000    59.7740    40.5760    39.5670    47.7430    24.7080   -19.4700     2.3310 
  169.6250    60.1690    40.5060    38.9490    47.0840    24.6670   -19.2350     2.3290 
  169.7500    60.0960    38.7260    36.5280    45.3040    24.6930   -19.0090     2.3260 
  169.8750    57.6710    35.1190    32.3640    41.6410    24.7430   -18.8060     2.3300 
  170.0000    55.9860    30.5800    27.5650    37.6480    24.7740   -18.6650     2.3420 
  170.1250    59.3940    26.7410    23.8680    30.7470    24.7780   -18.6930     2.3630 
  170.2500    64.7770    24.5020    21.9820    23.4360    24.7970   -18.9390     2.3790 
  170.3750    66.1040    24.1500    22.0430    19.7840    24.8140   -19.3820     2.3820 
  170.5000    60.4580    25.6880    23.9110    24.5150    24.8210   -19.9770     2.3700 
  170.6250    52.0460    28.9850    27.2610    42.8160    24.8210   -20.6440     2.3570 
  170.7500    48.0370    32.7600    30.7370    62.1830    24.8210   -21.3260     2.3540 
  170.8750    48.8060    35.7430    33.1270    55.1590    24.8210   -22.0030     2.3600 
  171.0000    50.6430    37.3060    34.0710    37.2570    24.8170   -22.6560     2.3680 
  171.1250    49.2250    38.2430    34.6840    36.1950    24.8010   -23.2710     2.3730 
  171.2500    45.9270    40.4080    36.6860    36.4980    24.7750   -23.8130     2.3750 
  171.3750    44.6230    45.3460    41.2610    45.9480    24.7580   -24.2580     2.3700 
  171.5000    46.1110    54.2430    49.2980    78.2600    24.7520   -24.6280     2.3520 
  171.6250    47.0590    68.1460    61.9340   118.1590    24.7390   -25.0010     2.3270 
  171.7500    47.3300    84.8880    77.6920   136.7370    24.6960   -25.4120     2.3150 
  171.8750    48.8510   101.4280    93.8840   135.2120    24.6250   -25.8180     2.3190 
  172.0000    50.4020   114.1890   106.5350   128.4830    24.5680   -26.1660     2.3290 
  172.1250    48.1390   119.4360   111.1620   131.9870    24.5680   -26.3760     2.3390 
  172.2500    44.1760   117.7770   108.4190   137.0760    24.6040   -26.4860     2.3480 
  172.3750    42.4180   109.9750    99.4520   133.4280    24.6470   -26.5090     2.3520 
  172.5000    43.7090    97.3190    86.1360   120.9670    24.6730   -26.4220     2.3470 
  172.6250    46.5790    81.8730    71.2910   106.7040    24.6820   -26.1370     2.3380 
  172.7500    49.6560    67.0950    58.0500    90.3720    24.6820   -25.6560     2.3300 
  172.8750    52.9320    55.0170    47.8070    72.7990    24.6800   -25.0010     2.3220 
  173.0000    55.6780    46.3740    40.7420    59.8320    24.6780   -24.1820     2.3210 
  173.1250    57.4240    41.0390    36.4440    48.0790    24.6780   -23.1400     2.3270 
  173.2500    58.5020    37.2390    33.2770    39.4360    24.6780   -21.8230     2.3340 
  173.3750    58.5860    33.7270    30.1000    35.7600    24.6830   -20.2130     2.3490 
  173.5000    57.2770    29.4980    26.0780    37.3460    24.7000   -18.3900     2.3910 
  173.6250    55.6850    24.2180    21.1080    29.6720    24.7150   -16.4670     2.4670 
  173.7500    57.7700    17.6460    17.4440    17.4370    24.6710   -14.5720     2.5280 
  173.8750    63.7660    12.1460    14.2940     9.2760    24.5760   -12.7870     2.5170 
  174.0000    69.9710     9.1860    10.8520     5.8560    24.4520   -11.1760     2.4380 
  174.1250    70.9010     7.4420     8.6870     4.8470    24.4010    -9.8710     2.3530 
  174.2500    67.3900     6.5250     7.4150     4.8730    24.3850    -8.9050     2.3050 
  174.3750    62.5780     6.2300     6.8460     5.0750    24.3850    -8.2960     2.2950 
  174.5000    59.4740     6.3760     6.8080     5.4830    24.3850    -7.9650     2.3090 
  174.6250    59.3420     6.8360     7.1900     5.9450    24.3850    -7.8570     2.3320 
