~V
VERS. 2.00: Ver 2.00
~W
STRT.M 51.0000:
STOP.M 206.0000:
STEP.M 0.1250:
NULL. -999.2500:
UWI. F10683:
~C
DEPT.M :
GR.API :
RML.OHMM :
RI. :
RXO.OHMM :
CALI.CM :
SP.MV :
DEN.GM/CC :
~A
# ...
  141.0000    61.8380    10.2940     7.7490    11.6630    24.5610    -2.4780     2.4950 
  141.1250    65.6560    10.6030     7.8310    10.3580    24.5460    -2.8120     2.4890 
  141.2500    67.6740    10.7120     7.8490    10.2870    24.5520    -3.1650     2.4880 
  141.3750    68.8530    10.6040     7.8350    10.8140    24.5800    -3.4850     2.4820 
  141.5000    69.8500    10.2930     7.8150    11.4340    24.6170    -3.7840     2.4620 
  141.6250    70.0100     9.8640     7.8120    11.8170    24.5920    -4.0950     2.4250 
  141.7500    68.6220     9.5460     7.8430    10.9840    24.5690    -4.3820     2.3870 
  141.8750    64.9590     9.4860     7.9280    10.0490    24.5990    -4.6010     2.3670 
  142.0000    60.1150     9.6270     8.0850    10.5620    24.6890    -4.7300     2.3820 
  142.1250    57.1250     9.8630     8.3350    12.1070    24.7620    -4.7490     2.4310 
  142.2500    57.2030    10.1510     8.6640    13.0020    24.7600    -4.7150     2.4800 
  142.3750    60.3780    10.5140     9.0840    12.1910    24.7310    -4.6810     2.5050 
  142.5000    63.7480    11.0060     9.6260    12.3660    24.7370    -4.6510     2.5030 
  142.6250    62.0100    11.7190    10.3560    14.7980    24.7610    -4.6160     2.4990 
  142.7500    57.0180    12.6220    11.2580    17.9330    24.7870    -4.5990     2.5020 
  142.8750    54.1600    13.6300    12.2810    19.1970    24.7850    -4.5960     2.4990 
  143.0000    56.1600    14.5900    13.3080    19.7610    24.7340    -4.6080     2.4770 
  143.1250    61.2560    15.3240    14.1720    21.3410    24.6820    -4.6420     2.4430 
  143.2500    67.7950    15.8450    14.8450    22.3300    24.6930    -4.6870     2.4220 
  143.3750    73.6730    16.2140    15.3650    22.8680    24.7300    -4.7240     2.4250 
  143.5000    74.7550    16.4710    15.7680    22.4130    24.7360    -4.7240     2.4390 
  143.6250    70.8360    16.5780    16.0200    22.4040    24.6940    -4.7240     2.4470 
  143.7500    67.2600    16.5480    16.1260    23.2220    24.6500    -4.7730     2.4530 
  143.8750    65.6620    16.4440    16.1250    22.7140    24.6440    -4.8810     2.4630 
  144.0000    64.4650    16.3950    16.1200    21.7040    24.6820    -5.0480     2.4740 
  144.1250    62.2660    16.6070    16.2910    20.6120    24.6760    -5.2780     2.4740 
  144.2500    59.7660    17.1530    16.7370    21.2260    24.6300    -5.5570     2.4620 
  144.3750    58.2910    18.0150    17.4800    23.7830    24.5520    -5.8730     2.4440 
  144.5000    59.3340    19.0430    18.4260    26.0270    24.4700    -6.2440     2.4270 
  144.6250    62.0500    19.9000    19.3010    25.4720    24.4300    -6.5920     2.4110 
  144.7500    63.1630    20.2910    19.8040    24.8350    24.4490    -6.8360     2.3980 
  144.8750    61.8210    20.1220    19.8000    25.2860    24.4730    -6.9930     2.3940 
  145.0000    59.5060    19.5030    19.3610    26.4770    24.4390    -7.0740     2.4010 
  145.1250    56.9970    18.7610    18.8050    25.4500    24.5110    -7.0790     2.4130 
  145.2500    55.5310    18.1380    18.2730    23.0010    24.6040    -7.0280     2.4260 
  145.3750    55.5650    17.8270    17.9620    21.0150    24.5740    -6.9410     2.4430 
  145.5000    57.2660    17.9590    18.0150    20.0080    24.4270    -6.7990     2.4650 
  145.6250    59.5440    18.6710    18.5910    20.8140    24.3680    -6.6250     2.4750 
  145.7500    61.6780    19.7830    19.5700    23.1920    24.4780    -6.4670     2.4710 
  145.8750    62.7880    21.0290    20.7430    26.3520    24.6730    -6.3450     2.4630 
  146.0000    62.3270    21.9930    21.7400    28.1020    24.8140    -6.2560     2.4600 
  146.1250    61.5920    22.1200    22.0270    28.8510    24.8780    -6.1690     2.4590 
  146.2500    61.7910    21.4410    21.5670    27.7760    24.8850    -6.0580     2.4600 
  146.3750    62.1120    20.2450    20.5830    24.8430    24.8680    -5.9100     2.4650 
  146.5000    61.1190    18.9550    19.4330    21.3430    24.8410    -5.7490     2.4730 
  146.6250    61.0640    18.0300    18.5220    20.6080    24.8170    -5.6300     2.4820 
  146.7500    62.3460    17.6910    18.0890    21.9660    24.7820    -5.5570     2.4920 
  146.8750    63.7820    18.0520    18.2800    24.3380    24.7270    -5.4700     2.5050 
  147.0000    64.4880    19.1220    19.1510    25.1860    24.6430    -5.3710     2.5210 
  147.1250    62.0340    20.7820    20.6670    25.9650    24.5840    -5.3120     2.5380 
  147.2500    56.3090    22.4100    22.2790    30.2250    24.5910    -5.3130     2.5580 
  147.3750    51.0890    23.2970    23.3050    39.4730    24.6450    -5.3880     2.5670 
  147.5000    50.8860    22.8920    23.1540    43.5600    24.7170    -5.4870     2.5380 
  147.6250    54.3310    21.1300    21.6610    32.5900    24.7700    -5.5280     2.4590 
  147.7500    55.0670    18.9900    19.6840    22.5830    24.8320    -5.5110     2.3760 
  147.8750    53.9080    17.1960    17.8790    17.4710    24.8810    -5.4900     2.3210 
  148.0000    54.4550    16.1500    16.6410    16.7510    24.9010    -5.4750     2.2950 
  148.1250    57.9280    15.9910    16.1740    18.7950    24.9010    -5.4490     2.2900 
  148.2500    59.5080    16.3260    16.2210    19.7780    24.9010    -5.3990     2.2930 
  148.3750    57.2310    16.8670    16.5720    19.3060    24.9010    -5.3160     2.2950 
  148.5000    52.5370    17.4330    17.0540    19.2870    24.9010    -5.2550     2.2880 
  148.6250    49.6680    18.0670    17.6500    19.0980    24.8900    -5.2950     2.2800 
  148.7500    49.8430    19.0110    18.5010    19.8530    24.8600    -5.4350     2.2780 
  148.8750    50.6640    20.4790    19.7920    22.8200    24.8110    -5.6670     2.2830 
  149.0000    51.1390    22.4950    21.5860    26.3840    24.7400    -5.9510     2.2830 
  149.1250    50.8310    24.8060    23.7370    30.5700    24.6520    -6.2270     2.2730 
  149.2500    50.6220    26.8490    25.7330    32.1060    24.5720    -6.4670     2.2640 
  149.3750    51.4990    28.1530    27.0730    34.8270    24.5010    -6.6740     2.2710 
  149.5000    53.5130    28.4220    27.3680    35.4070    24.4660    -6.8540     2.2950 
  149.6250    55.0290    27.5490    26.4260    30.5680    24.4600    -6.9670     2.3310 
  149.7500    54.6300    26.0660    24.8310    27.5430    24.4600    -6.9700     2.3690 
  149.8750    53.0910    24.3610    23.0460    25.7340    24.4680    -6.8540     2.4010 
  150.0000    51.1590    22.7730    21.4480    23.6770    24.4950    -6.6830     2.4100 
  150.1250    49.9400    21.6660    20.3670    21.8160    24.5520    -6.5170     2.3830 
  150.2500    50.6080    21.1330    19.8330    21.4760    24.6100    -6.3600     2.3380 
  150.3750    51.9290    21.1820    19.8310    22.6990    24.6570    -6.2120     2.3020 
  150.5000    52.1910    21.7290    20.2850    23.0000    24.6790    -6.0670     2.2930 
  150.6250    51.8930    22.6300    21.0960    23.2790    24.6490    -5.9480     2.3230 
  150.7500    51.2410    23.5380    21.9760    24.7200    24.5710    -5.8930     2.3680 
  150.8750    50.5370    24.1840    22.6750    27.0060    24.4600    -5.8840     2.4010 
  151.0000    49.8240    24.4080    23.0120    26.8940    24.3740    -5.8590     2.4080 
  151.1250    48.3380    24.1690    22.8920    27.1380    24.4250    -5.7880     2.3910 
  151.2500    46.7030    23.7050    22.5080    27.6280    24.5910    -5.7040     2.3670 
  151.3750    46.8170    23.2180    22.0410    26.9470    24.7500    -5.6290     2.3500 
  151.5000    48.9540    22.8930    21.6720    25.0040    24.8200    -5.5600     2.3440 
  151.6250    49.2450    22.8710    21.5570    23.7770    24.8270    -5.4660     2.3500 
  151.7500    48.1660    23.0770    21.6630    23.7580    24.8180    -5.3500     2.3630 
  151.8750    48.8630    23.4070    21.9110    24.8140    24.7900    -5.2060     2.3730 
  152.0000    51.4760    23.7440    22.2020    26.3840    24.7430    -5.0660     2.3700 
  152.1250    51.9950    23.9850    22.4390    26.8590    24.7600    -4.9770     2.3520 
