~V
VERS. 2.00: Ver 2.00
~W
STRT.M 59.0000:
STOP.M 270.0000:
STEP.M 0.1250:
NULL. -999.2500:
UWI. F10667:
~C
DEPT.M :
GR.API :
RML.OHMM :
RI. :
RXO.OHMM :
CALI.CM :
DEN.GM/CC :
SP.MV :
~A
# ...
  182.7500    70.9220    10.7770     9.9180    11.4150    24.2360     2.4040   -18.2130 
  182.8750    74.5270    10.7700     9.8930    11.1100    24.2330     2.4010   -18.1460 
  183.0000    77.3560    10.5030     9.5920    10.8310    24.2160     2.3990   -18.0600 
  183.1250    74.6170     9.9160     9.0200    10.4600    24.1780     2.3980   -17.9350 
  183.2500    68.5090     9.1260     8.3150     9.1330    24.1570     2.3970   -17.8040 
  183.3750    62.5950     8.2560     7.5850     7.4730    24.1740     2.3940   -17.6540 
  183.5000    59.6160     7.3850     6.9250     6.5890    24.1770     2.3870   -17.4740 
  183.6250    59.2170     6.6060     6.4200     6.3470    24.1140     2.3740   -17.3140 
  183.7500    57.9480     6.0130     6.0710     5.9850    24.0520     2.3600   -17.1540 
  183.8750    54.5020     5.8060     5.8780     5.6370    23.9970     2.3520   -16.9940 
  184.0000    50.9350     5.9060     5.8310     5.6610    23.9450     2.3570   -16.8270 
  184.1250    49.3490     6.1820     5.9240     5.7250    23.9190     2.3800   -16.6900 
  184.2500    48.1750     6.4870     6.0850     6.0430    23.9160     2.4080   -16.5470 
  184.3750    47.0590     6.7150     6.2470     6.5790    23.9190     2.4290   -16.4210 
  184.5000    46.2600     6.7830     6.3490     6.8600    23.9060     2.4370   -16.3390 
  184.6250    45.6640     6.6590     6.3430     6.6470    23.8600     2.4270   -16.2640 
  184.7500    43.7740     6.4940     6.2660     6.2060    23.8340     2.4100   -16.1990 
  184.8750    40.3650     6.4250     6.1610     5.9520    23.8590     2.3960   -16.1510 
  185.0000    37.4200     6.4150     6.0660     5.9400    23.8830     2.3920   -16.1440 
  185.1250    36.4620     6.4320     6.0080     5.9930    23.8780     2.4010   -16.1390 
  185.2500    36.7680     6.4660     5.9840     5.9110    23.8850     2.4140   -16.1620 
  185.3750    37.4940     6.5470     5.9840     5.7810    23.9190     2.4210   -16.1940 
  185.5000    38.3300     6.6300     5.9990     5.7870    23.9450     2.4180   -16.2110 
  185.6250    38.4740     6.6910     6.0170     5.9390    23.9410     2.4050   -16.2600 
  185.7500    38.2680     6.7150     6.0330     5.9610    23.9050     2.3900   -16.3270 
  185.8750    39.8700     6.7120     6.0440     5.8570    23.8390     2.3770   -16.4080 
  186.0000    43.8880     6.6880     6.0480     5.7520    23.7660     2.3720   -16.4860 
  186.1250    47.7100     6.6330     6.0330     5.7900    23.6950     2.3760   -16.5710 
  186.2500    48.4320     6.5780     5.9980     5.8070    23.6370     2.3890   -16.6660 
  186.3750    46.7060     6.5360     5.9430     5.7880    23.5820     2.4070   -16.7740 
  186.5000    44.0940     6.5280     5.8850     5.7840    23.5280     2.4260   -16.8820 
  186.6250    42.0950     6.6090     5.8520     5.7240    23.6340     2.4400   -16.9590 
  186.7500    41.4250     6.7470     5.8710     5.6790    23.7210     2.4500   -17.0440 
  186.8750    43.0890     6.9350     5.9640     5.6560    23.7530     2.4560   -17.1480 
  187.0000    47.2960     7.1640     6.1430     5.7410    23.7440     2.4620   -17.2420 
  187.1250    52.6630     7.4190     6.4040     6.0800    23.7450     2.4670   -17.3570 
  187.2500    57.9280     7.6560     6.6860     6.6790    23.7780     2.4680   -17.4530 
  187.3750    61.9290     7.8340     6.9250     7.4250    23.8520     2.4630   -17.5260 
  187.5000    62.5520     7.9340     7.0690     7.8030    23.9250     2.4520   -17.6090 
  187.6250    58.9740     7.9670     7.0820     7.6290    23.9350     2.4410   -17.6760 
  187.7500    55.3420     7.9990     7.0220     7.0400    23.8840     2.4340   -17.7340 
  187.8750    54.5640     8.0630     6.9410     6.8120    23.8340     2.4320   -17.7730 
  188.0000    55.3400     8.1550     6.8850     7.0240    23.8030     2.4330   -17.8040 
  188.1250    53.9730     8.2260     6.8810     7.3720    23.7870     2.4360   -17.8160 
  188.2500    51.9940     8.2410     6.9170     7.4740    23.7670     2.4360   -17.8250 
  188.3750    51.8760     8.2000     6.9780     7.4860    23.7210     2.4320   -17.8390 
  188.5000    52.7550     8.1440     7.0510     7.5190    23.6460     2.4230   -17.8340 
  188.6250    53.3010     8.1410     7.1280     7.4950    23.5410     2.4100   -17.8470 
  188.7500    54.5460     8.2210     7.2080     7.6590    23.4330     2.3970   -17.8280 
  188.8750    57.2500     8.3730     7.2880     7.9250    23.3010     2.3870   -17.7870 
  189.0000    60.1720     8.5450     7.3560     7.7460    23.0380     2.3800   -17.7370 
  189.1250    62.1420     8.6330     7.3730     7.0730    22.5320     2.3690   -17.6330 
  189.2500    63.4300     8.5720     7.3190     6.3940    22.0360     2.3560   -17.5410 
  189.3750    63.2730     8.3360     7.1870     6.1090    21.8360     2.3450   -17.4270 
  189.5000    61.0580     7.9580     6.9910     6.0840    21.8540     2.3420   -17.3030 
  189.6250    57.3150     7.5160     6.7650     5.8480    21.7120     2.3510   -17.1980 
  189.7500    53.8290     7.1200     6.5510     5.7330    21.3120     2.3680   -17.1050 
  189.8750    50.9390     6.8420     6.3740     5.8330    20.9920     2.3850   -17.0170 
  190.0000    47.8370     6.7050     6.2430     5.9620    21.0710     2.3940   -16.9370 
  190.1250    44.6060     6.6760     6.1650     5.9820    21.4350     2.3790   -16.8960 
  190.2500    42.7430     6.6200     6.1210     5.8790    21.7950     2.3400   -16.8400 
  190.3750    42.5560     6.5240     6.0940     5.8860    22.1590     2.2910   -16.7830 
  190.5000    41.9460     6.4520     6.0670     5.9480    22.5880     2.2520   -16.7110 
  190.6250    40.6830     6.4270     6.0380     5.9850    22.9450     2.2400   -16.6180 
  190.7500    40.3030     6.4230     6.0150     6.0770    23.1370     2.2480   -16.5100 
  190.8750    40.8760     6.4380     6.0100     6.2000    23.1970     2.2620   -16.3970 
  191.0000    41.9120     6.4750     6.0280     6.2000    23.2080     2.2750   -16.2900 
  191.1250    42.8310     6.5400     6.0690     6.1070    23.2110     2.2880   -16.1570 
  191.2500    43.0260     6.5700     6.1230     6.0570    23.2220     2.3050   -16.0460 
  191.3750    42.4200     6.6220     6.1780     6.1210    23.2500     2.3240   -15.9300 
  191.5000    42.7410     6.7010     6.2190     6.2770    23.2880     2.3390   -15.8200 
  191.6250    45.7370     6.7520     6.2290     6.3070    23.3120     2.3450   -15.7270 
  191.7500    48.3380     6.7430     6.2090     6.2200    23.3220     2.3450   -15.6250 
  191.8750    48.2070     6.7100     6.1670     6.1030    23.3300     2.3430   -15.5180 
  192.0000    45.5520     6.6570     6.1130     6.0190    23.3380     2.3370   -15.4170 
  192.1250    44.1060     6.5730     6.0570     5.9560    23.3550     2.3320   -15.3260 
  192.2500    46.3260     6.4990     6.0100     5.8740    23.3790     2.3360   -15.2400 
  192.3750    50.4790     6.4230     5.9780     5.8060    23.4040     2.3530   -15.1820 
  192.5000    53.1060     6.3580     5.9710     5.8020    23.4190     2.3760   -15.1370 
  192.6250    51.7960     6.3850     5.9900     5.7400    23.4400     2.3830   -15.0730 
  192.7500    49.7800     6.4170     6.0240     5.7150    23.5250     2.3580   -15.0420 
  192.8750    50.9750     6.4500     6.0680     5.7730    23.6640     2.3070   -15.0300 
  193.0000    56.1820     6.5040     6.1230     5.9530    23.7800     2.2530   -15.0210 
  193.1250    62.4360     6.5760     6.1840     6.1890    23.7620     2.2280   -15.0470 
  193.2500    67.5470     6.6450     6.2270     6.4220    23.6990     2.2370   -15.0450 
  193.3750    72.6460     6.6330     6.2240     6.5170    23.6620     2.2660   -15.0620 
  193.5000    77.6970     6.5080     6.1640     6.4670    23.6540     2.2970   -15.1430 
  193.6250    79.6470     6.2900     6.0580     6.5520    23.6530     2.3140   -15.2420 
  193.7500    79.7700     6.0560     5.9490     6.5180    23.6530     2.3200   -15.3470 
  193.8750    80.9820     5.8650     5.8630     6.2620    23.6530     2.3240   -15.4750 
