~V
VERS. 2.00: Ver 2.00
~W
STRT.M 55.0000:
STOP.M 226.0000:
STEP.M 0.1250:
NULL. -999.2500:
UWI. F10689:
~C
DEPT.M :
DEN.GM/CC :
GR.API :
RML.OHMM :
RI. :
RXO.OHMM :
CALI.CM :
SP.MV :
~A
# ...
  201.2500     2.3730    42.0500     5.8090     5.2810     5.8160    24.2280   -14.3000 
  201.3750     2.3800    39.1720     5.7200     5.2000     5.5500    24.2290   -14.3990 
  201.5000     2.3910    37.3690     5.6270     5.1160     5.3090    24.2030   -14.4920 
  201.6250     2.4060    38.2680     5.5630     5.0580     5.1700    24.3310   -14.5410 
  201.7500     2.4230    39.0800     5.5350     5.0320     5.1630    24.5970   -14.5290 
  201.8750     2.4400    38.6010     5.5410     5.0380     5.2400    24.8410   -14.4710 
  202.0000     2.4490    39.2850     5.5760     5.0690     5.3250    24.9270   -14.4130 
  202.1250     2.4420    40.7320     5.6300     5.1180     5.4170    24.8730   -14.3440 
  202.2500     2.4200    40.9440     5.6870     5.1700     5.5850    24.6620   -14.2820 
  202.3750     2.3920    39.7040     5.7360     5.2140     5.7930    24.4190   -14.2280 
  202.5000     2.3770    39.2170     5.7840     5.2580     5.9680    24.2350   -14.1870 
  202.6250     2.4060    39.2560     5.8590     5.3260     6.0510    24.1160   -14.1640 
  202.7500     2.4820    38.5000     5.9810     5.4370     5.9860    24.0940   -14.1750 
  202.8750     2.5870    38.6340     6.1500     5.5910     5.8050    24.0710   -14.2180 
  203.0000     2.6780    39.5580     6.3400     5.7640     5.6430    24.0550   -14.2970 
  203.1250     2.6960    39.9370     6.4850     5.8950     5.5630    23.9960   -14.4070 
  203.2500     2.6470    39.2480     6.5250     5.9320     5.4450    23.8350   -14.5290 
  203.3750     2.5640    38.2610     6.4360     5.8510     5.1780    23.7170   -14.6650 
  203.5000     2.4860    37.7990     6.2390     5.6720     5.0000    23.6910   -14.8220 
  203.6250     2.4330    37.3310     5.9940     5.4490     5.0230    23.6890   -15.0090 
  203.7500     2.3970    38.5420     5.7770     5.2520     5.1170    23.6860   -15.2150 
  203.8750     2.3670    40.0820     5.6200     5.1090     5.1870    23.6730   -15.4080 
  204.0000     2.3390    39.7740     5.5300     5.0270     5.2390    23.6120   -15.5910 
  204.1250     2.3160    37.6310     5.4980     4.9980     5.2380    23.4770   -15.7710 
  204.2500     2.3030    37.7980     5.4990     4.9990     5.1490    23.1800   -15.9720 
  204.3750     2.2970    41.5090     5.5280     5.0250     5.0900    22.7940   -16.1830 
  204.5000     2.2950    44.2640     5.5880     5.0800     5.0500    22.7020   -16.4150 
  204.6250     2.2860    42.8860     5.6900     5.1730     4.9830    22.9840   -16.6970 
  204.7500     2.2700    41.4880     5.8280     5.2980     4.8820    23.1480   -17.0310 
  204.8750     2.2470    42.5780     5.9920     5.4470     4.8450    23.2500   -17.4480 
  205.0000     2.2210    44.5800     6.1600     5.6000     5.1140    23.3930   -17.9100 
  205.1250     2.2000    44.7980     6.2940     5.7210     5.8410    23.8910   -18.3950 
  205.2500     2.1920    44.1660     6.3660     5.7870     6.6150    23.9570   -18.8590 
  205.3750     2.2040    45.2140     6.3700     5.7910     6.9740    23.8280   -19.2770 
  205.5000     2.2370    48.3760     6.3150     5.7410     7.1420    23.4540   -19.6010 
  205.6250     2.2820    50.4870     6.2280     5.6620     7.0360    23.3530   -19.7720 
  205.7500     2.3160    50.5560     6.1510     5.5920     6.6170    23.3080   -19.7930 
  205.8750     2.3260    49.4020     6.1130     5.5580     6.0320    23.3520   -19.6730 
  206.0000     2.3100    47.8870     6.1330     5.5750     5.4370    23.5830   -19.4300 
  206.1250     2.2810    47.5410     6.2180     5.6530     5.1530    24.0400   -19.1020 
  206.2500     2.2590    48.9440     6.3420     5.7660     5.1330    24.2050   -18.7250 
  206.3750     2.2530    50.8710     6.4770     5.8880     5.3160    24.2340   -18.3070 
  206.5000     2.2630    51.0920     6.5920     5.9930     5.5650    24.2420   -17.8860 
  206.6250     2.2800    50.4580     6.6540     6.0490     5.8550    24.2710   -17.4660 
  206.7500     2.2950    50.2630     6.6570     6.0520     5.9930    24.3060   -17.0710 
  206.8750     2.3040    49.7400     6.6030     6.0030     6.0590    24.2660   -16.6670 
  207.0000     2.3050    49.0370     6.5000     5.9090     6.1590    24.0710   -16.2560 
  207.1250     2.3010    48.6190     6.3460     5.7690     6.3810    23.9460   -15.8320 
  207.2500     2.2920    48.4800     6.1510     5.5920     6.9110    23.8390   -15.3960 
  207.3750     2.2790    47.8590     5.9250     5.3860     7.5010    23.8010   -14.9730 
  207.5000     2.2650    46.5650     5.6820     5.1650     7.2640    23.7010   -14.5590 
  207.6250     2.2530    45.1240     5.4550     4.9590     6.0690    23.0820   -14.2020 
  207.7500     2.2450    43.6500     5.2760     4.7960     4.9940    22.6670   -13.8880 
  207.8750     2.2400    43.6110     5.1700     4.7000     4.4420    22.7360   -13.6740 
  208.0000     2.2380    44.7830     5.1540     4.6860     4.3590    23.3600   -13.5640 
  208.1250     2.2420    45.4280     5.2540     4.7770     4.4740    24.0260   -13.5580 
  208.2500     2.2530    46.1740     5.4400     4.9460     4.6340    24.4480   -13.6010 
  208.3750     2.2710    47.0080     5.6730     5.1570     4.9330    24.5300   -13.6800 
  208.5000     2.2910    48.1690     5.8920     5.3560     5.4350    24.5320   -13.7720 
  208.6250     2.3110    49.2620     6.0110     5.4650     5.9230    24.4830   -13.8330 
  208.7500     2.3360    50.3340     6.0080     5.4620     6.5730    24.4640   -13.8760 
  208.8750     2.3710    50.8640     5.9060     5.3690     6.9710    24.4520   -13.8820 
  209.0000     2.4210    48.8510     5.7690     5.2440     6.6620    24.3960   -13.8570 
  209.1250     2.4860    45.2930     5.6860     5.1690     5.7920    24.0710   -13.8100 
  209.2500     2.5500    43.2460     5.6960     5.1780     5.4660    23.5860   -13.7540 
  209.3750     2.5970    42.2880     5.7950     5.2690     5.7630    23.3670   -13.6880 
  209.5000     2.6110    40.0530     5.9440     5.4030     6.6070    23.1960   -13.6070 
  209.6250     2.5830    35.7640     6.0630     5.5120     7.6460    23.0730   -13.4960 
  209.7500     2.5340    33.2980     6.1020     5.5480     8.1690    23.4580   -13.3690 
  209.8750     2.4860    34.4070     6.0550     5.5040     7.8890    23.6840   -13.2610 
  210.0000     2.4600    36.3320     5.9540     5.4130     6.7890    23.6700   -13.1370 
  210.1250     2.4730    37.6240     5.8670     5.3340     5.9530    23.6220   -12.9540 
  210.2500     2.5120    38.9330     5.8460     5.3140     5.6520    23.6140   -12.7740 
  210.3750     2.5560    38.5370     5.9050     5.3680     5.6950    23.6120   -12.6080 
  210.5000     2.5810    35.2470     6.0250     5.4770     6.1060    23.6070   -12.4600 
  210.6250     2.5710    33.2610     6.1550     5.5960     7.0830    23.5720   -12.3130 
  210.7500     2.5350    35.7310     6.2330     5.6670     7.9630    23.4920   -12.1580 
  210.8750     2.4890    39.7490     6.2230     5.6570     7.5980    23.4840   -11.9790 
  211.0000     2.4450    41.5820     6.1230     5.5660     6.5640    23.5670   -11.7820 
  211.1250     2.4130    41.1290     5.9570     5.4150     5.9800    23.5540   -11.5720 
  211.2500     2.3920    41.4680     5.7750     5.2500     5.8180    23.4760   -11.3490 
  211.3750     2.3810    42.5970     5.6060     5.0970     5.6980    23.3930   -11.1400 
  211.5000     2.3800    42.6350     5.4640     4.9680     5.6270    23.3650   -10.9340 
  211.6250     2.3850    40.0510     5.3600     4.8720     5.6680    23.3560   -10.7770 
  211.7500     2.3900    37.2380     5.2860     4.8050     5.7240    23.3320   -10.6680 
  211.8750     2.3940    36.4960     5.2460     4.7690     5.6930    23.2990   -10.5740 
  212.0000     2.3990    37.2930     5.2490     4.7720     5.5770    23.2770   -10.5190 
  212.1250     2.4090    38.9970     5.3130     4.8300     5.4740    23.2350   -10.5130 
  212.2500     2.4210    40.2290     5.4250     4.9320     5.5510    23.2290   -10.5070 
  212.3750     2.4290    39.8140     5.5580     5.0520     5.7820    23.2460   -10.4870 
