~V
VERS. 2.00: Ver 2.00
~W
STRT.M 50.0000:
STOP.M 263.0000:
STEP.M 0.1250:
NULL. -999.2500:
UWI. F10656:
~C
DEPT.M :
DEN.GM/CC :
GR.API :
RML.OHMM :
RI. :
RXO.OHMM :
CALI.CM :
SP.MV :
~A
# ...
  241.2500     2.3600    41.1160     4.3120     3.7150     4.6370    23.4650    -4.4160 
  241.3750     2.3750    40.1290     4.3080     3.7110     4.6090    23.5780    -4.6390 
  241.5000     2.3820    40.5240     4.3360     3.7370     4.6830    23.7480    -4.8460 
  241.6250     2.3740    43.3290     4.3940     3.7910     4.9130    23.9910    -5.0190 
  241.7500     2.3610    46.9940     4.4670     3.8580     5.1420    24.1800    -5.1790 
  241.8750     2.3520    49.6110     4.5620     3.9460     5.2750    24.2210    -5.2700 
  242.0000     2.3560    49.9070     4.7060     4.0800     5.3510    24.1490    -5.3470 
  242.1250     2.3770    49.5740     4.9460     4.3020     5.5110    24.0400    -5.3910 
  242.2500     2.4060    50.7000     5.2610     4.5940     5.9350    23.8370    -5.4050 
  242.3750     2.4340    55.1190     5.5890     4.8980     6.7080    23.6290    -5.4050 
  242.5000     2.4540    63.1380     5.8380     5.1270     7.7380    23.5810    -5.3710 
  242.6250     2.4600    68.2290     5.9000     5.1780     8.6690    23.7370    -5.2730 
  242.7500     2.4560    64.1120     5.8030     5.0850     8.8280    23.8580    -5.1210 
  242.8750     2.4500    53.4480     5.6160     4.9280     8.1810    23.8520    -4.9640 
  243.0000     2.4480    44.9470     5.4420     4.8000     7.2920    23.7830    -4.7550 
  243.1250     2.4580    45.2970     5.3240     4.7600     7.0300    23.8690    -4.4970 
  243.2500     2.4750    48.4630     5.2480     4.7590     7.4980    24.0400    -4.2480 
  243.3750     2.4920    48.2160     5.1930     4.7250     8.1280    24.1730    -3.9170 
  243.5000     2.4990    42.8650     5.1240     4.5980     8.0450    24.2170    -3.5950 
  243.6250     2.4870    35.7700     4.9570     4.3570     6.8450    24.2120    -3.3580 
  243.7500     2.4610    31.6870     4.7040     4.0790     5.4500    24.2110    -3.1680 
  243.8750     2.4310    30.7120     4.4390     3.8320     4.7810    24.2410    -3.0410 
  244.0000     2.4100    30.2810     4.2570     3.6610     4.5630    24.2640    -2.9660 
  244.1250     2.4110    28.9490     4.1790     3.5870     4.5030    24.2500    -2.8440 
  244.2500     2.4280    28.5200     4.1560     3.5690     4.4700    24.2060    -2.7220 
  244.3750     2.4510    29.3310     4.1470     3.5760     4.4490    24.1320    -2.6730 
  244.5000     2.4670    29.5720     4.1170     3.5840     4.4440    24.0090    -2.6120 
  244.6250     2.4650    28.5100     4.0600     3.5780     4.4450    23.7740    -2.5500 
  244.7500     2.4550    28.1450     4.0000     3.5570     4.4520    23.5080    -2.5020 
  244.8750     2.4440    27.9220     3.9750     3.5320     4.4340    23.3480    -2.4190 
  245.0000     2.4360    26.4610     3.9990     3.5180     4.3900    23.4340    -2.3130 
  245.1250     2.4290    24.7100     4.0760     3.5370     4.3280    23.6740    -2.2930 
  245.2500     2.4170    25.5860     4.1750     3.5880     4.3480    23.7950    -2.3350 
  245.3750     2.3980    29.3380     4.2570     3.6640     4.4720    23.9030    -2.3620 
  245.5000     2.3760    34.2670     4.3490     3.7490     4.7130    24.0480    -2.4600 
  245.6250     2.3570    38.6550     4.4240     3.8190     4.9740    24.1600    -2.5730 
  245.7500     2.3460    41.1900     4.4690     3.8600     5.1110    24.2470    -2.6090 
  245.8750     2.3420    40.9830     4.4770     3.8680     5.1210    24.3110    -2.6780 
  246.0000     2.3430    38.1270     4.4540     3.8480     4.9520    24.3290    -2.7650 
  246.1250     2.3450    34.9580     4.4250     3.8170     4.6120    24.3160    -2.7770 
  246.2500     2.3490    33.1730     4.4080     3.7970     4.4870    24.3190    -2.7470 
  246.3750     2.3610    32.7090     4.4060     3.7920     4.5090    24.3080    -2.7300 
  246.5000     2.3830    33.3240     4.3880     3.7930     4.5500    24.2820    -2.7160 
  246.6250     2.4150    33.6620     4.3240     3.7740     4.5480    24.2360    -2.6920 
  246.7500     2.4460    33.1350     4.1890     3.7230     4.4870    24.1730    -2.6890 
  246.8750     2.4670    32.5480     4.0100     3.6420     4.4060    24.1170    -2.6440 
  247.0000     2.4710    32.1870     3.9020     3.5510     4.3290    24.0890    -2.6250 
  247.1250     2.4600    31.8430     3.8710     3.4830     4.2710    24.0780    -2.6990 
  247.2500     2.4430    31.0670     3.9290     3.4570     4.2400    24.0590    -2.8200 
  247.3750     2.4250    30.9260     4.0520     3.4910     4.2380    24.0290    -2.9680 
  247.5000     2.4100    32.9800     4.1880     3.6000     4.2720    23.9860    -3.1070 
  247.6250     2.4000    37.1620     4.4260     3.8200     4.4270    23.9110    -3.3200 
  247.7500     2.3900    39.8630     4.7840     4.1520     4.7750    23.8110    -3.6290 
  247.8750     2.3810    36.7480     5.2560     4.5890     5.3230    23.6510    -4.0190 
  248.0000     2.3740    29.4740     5.7970     5.0900     5.9810    23.4380    -4.4190 
  248.1250     2.3690    30.2920     6.3120     5.5660     6.5610    23.4870    -4.7990 
  248.2500     2.3670    43.6490     6.7090     5.9340     6.8960    23.7330    -5.0990 
  248.3750     2.3670    61.2530     6.9500     6.1580     7.0100    23.9850    -5.3090 
  248.5000     2.3660    71.8130     7.0620     6.2610     7.0990    24.0950    -5.4440 
  248.6250     2.3640    71.8610     7.1160     6.3110     7.1130    24.0770    -5.4990 
  248.7500     2.3620    70.0470     7.1810     6.3710     7.2290    24.0360    -5.4840 
  248.8750     2.3620    68.9510     7.2510     6.4360     7.5350    24.0760    -5.4500 
  249.0000     2.3630    68.3860     7.2640     6.4490     8.1460    24.1370    -5.4020 
  249.1250     2.3630    68.7680     7.1230     6.3160     8.5300    24.1520    -5.3450 
  249.2500     2.3620    69.0580     6.8250     6.0340     8.5580    24.1530    -5.3220 
  249.3750     2.3620    68.4710     6.4240     5.6590     8.1330    24.2290    -5.3040 
  249.5000     2.3630    67.1090     6.0070     5.2900     7.1090    24.3390    -5.3040 
  249.6250     2.3630    67.8630     5.7090     5.0590     6.1660    24.3860    -5.2920 
  249.7500     2.3630    69.9020     5.5450     4.9880     5.5940    24.3930    -5.2120 
  249.8750     2.3610    70.8700     5.4940     5.0340     5.7240    24.3690    -5.0830 
  250.0000     2.3560    70.5680     5.5510     5.1060     6.0460    24.3250    -4.9190 
  250.1250     2.3490    70.4310     5.5720     5.0800     6.3620    24.2380    -4.7040 
  250.2500     2.3410    70.5780     5.5030     4.9190     6.4410    24.0880    -4.4770 
  250.3750     2.3380    69.8950     5.3210     4.6590     6.1570    23.8370    -4.2720 
  250.5000     2.3430    68.6060     5.0470     4.3950     5.4040    23.4970    -4.1320 
  250.6250     2.3580    67.9980     4.8920     4.2520     4.6730    23.4370    -4.0450 
  250.7500     2.3740    67.9970     4.8980     4.2580     4.5220    23.6050    -4.0410 
  250.8750     2.3830    68.5820     5.0320     4.3820     4.8780    23.7680    -4.1230 
  251.0000     2.3810    69.0440     5.2150     4.5480     5.5140    23.7770    -4.2360 
  251.1250     2.3660    69.7030     5.3150     4.6370     6.0880    23.8000    -4.2890 
  251.2500     2.3460    70.4280     5.2630     4.5950     6.1930    23.8390    -4.3760 
  251.3750     2.3280    71.0610     5.0770     4.4410     5.6100    23.9100    -4.5140 
  251.5000     2.3240    72.2500     4.8370     4.2560     4.8490    23.9580    -4.6140 
  251.6250     2.3440    71.6700     4.6850     4.1520     4.6410    23.9820    -4.7010 
  251.7500     2.3830    68.9990     4.6850     4.1760     4.7720    23.9970    -4.8310 
  251.8750     2.4270    67.4760     4.8910     4.3310     5.0110    24.0060    -4.9470 
  252.0000     2.4610    69.6580     5.2460     4.5790     5.3570    23.9910    -5.0900 
  252.1250     2.4650    72.8850     5.5450     4.8560     5.7480    23.9510    -5.3790 
  252.2500     2.4450    72.7020     5.7890     5.0820     6.0610    23.9120    -5.6670 
  252.3750     2.4120    70.8090     5.9150     5.1990     6.4070    23.9090    -5.9420 
