~V
VERS. 2.00: Ver 2.00
~W
STRT.M 55.0000:
STOP.M 242.0000:
STEP.M 0.1250:
NULL. -999.2500:
UWI. F10652:
~C
DEPT.M :
SP.MV :
GR.API :
RML.OHMM :
RI. :
RXO.OHMM :
CALI.CM :
DEN.GM/CC :
~A
# ...
  133.7500    -2.4350    71.7940    10.7090    11.1450    10.0500    23.3940     2.3210 
  133.8750    -3.1680    83.9040     7.8640     8.2910     7.0610    23.6970     2.3480 
  134.0000    -3.8390    89.6810     6.0550     6.3120     5.4960    23.9790     2.3530 
  134.1250    -4.4270    89.5150     5.1710     5.2070     5.1020    24.0020     2.3570 
  134.2500    -4.9290    89.6090     4.8050     4.6480     4.8990    23.9630     2.3650 
  134.3750    -5.2840    91.0010     4.7510     4.4650     4.7740    23.9490     2.3750 
  134.5000    -5.5360    90.0980     4.8440     4.5000     4.8790    23.9740     2.3850 
  134.6250    -5.6030    84.7990     4.9680     4.6200     4.9650    24.0480     2.3930 
  134.7500    -5.5880    79.6410     5.0750     4.7290     4.9870    24.1490     2.3990 
  134.8750    -5.4860    78.5820     5.1810     4.8160     4.9340    24.2270     2.4000 
  135.0000    -5.3040    80.4690     5.3060     4.8990     4.9550    24.2990     2.3960 
  135.1250    -5.0980    80.1090     5.4500     4.9950     5.1750    24.3970     2.3880 
  135.2500    -4.8220    78.1200     5.5790     5.0920     5.3950    24.4580     2.3790 
  135.3750    -4.5230    77.4250     5.6530     5.1600     5.6460    24.4540     2.3700 
  135.5000    -4.1560    77.5220     5.6530     5.1670     5.9260    24.4030     2.3590 
  135.6250    -3.7660    76.4320     5.6290     5.1130     6.1790    24.3900     2.3460 
  135.7500    -3.3450    76.2670     5.7290     5.0940     6.2170    24.3560     2.3360 
  135.8750    -2.8780    78.3610     6.1290     5.2360     6.1300    24.2770     2.3380 
  136.0000    -2.4050    80.8060     7.0090     5.6960     6.3310    24.1650     2.3480 
  136.1250    -1.8890    78.3220     8.6690     6.7600     7.6960    24.1860     2.3500 
  136.2500    -1.3580    71.7570    11.1250     8.5170    10.2890    24.1770     2.3270 
  136.3750    -0.8360    65.6970    14.3290    11.0060    14.2200    24.0440     2.2790 
  136.5000    -0.3230    63.2940    17.8920    13.9850    16.2710    23.9210     2.2190 
  136.6250     0.1560    61.6490    20.7290    16.6190    16.7860    23.8970     2.1700 
  136.7500     0.5770    58.1670    21.9760    18.0660    17.2950    23.9360     2.1440 
  136.8750     0.9290    55.9490    21.6280    18.1750    17.5580    23.9460     2.1410 
  137.0000     1.2080    57.2120    20.4690    17.4640    17.0480    23.8860     2.1540 
  137.1250     1.4400    59.1460    19.4410    16.6370    15.5590    23.8770     2.1710 
  137.2500     1.6110    59.9190    19.0050    16.1380    14.0150    23.9550     2.1810 
  137.3750     1.7730    60.0890    19.2580    16.1020    14.2950    23.9810     2.1780 
  137.5000     1.8920    59.0440    20.1190    16.5240    16.0880    23.9370     2.1640 
  137.6250     2.0020    59.7750    21.3960    17.3340    16.2250    23.8940     2.1460 
  137.7500     2.1510    62.7600    22.6840    18.2700    15.1280    23.8800     2.1350 
  137.8750     2.3190    63.8560    23.7070    19.1310    14.7890    23.8790     2.1320 
  138.0000     2.5820    60.0340    24.3420    19.7790    15.1280    23.8800     2.1340 
  138.1250     2.8660    55.8920    24.6270    20.1660    15.5030    23.8810     2.1370 
  138.2500     3.1740    56.0580    24.7620    20.4060    15.3800    23.8790     2.1410 
  138.3750     3.5000    57.5780    24.8220    20.5490    15.0960    23.8840     2.1450 
  138.5000     3.8210    58.4380    24.8500    20.6220    15.0100    23.9020     2.1510 
  138.6250     4.1690    60.0320    24.9170    20.6790    15.0350    23.9250     2.1540 
  138.7500     4.5410    61.9390    25.0600    20.7830    15.1690    23.9130     2.1520 
  138.8750     4.9090    61.4520    25.3090    20.9620    15.3650    23.8960     2.1470 
  139.0000     5.2610    58.0870    25.6940    21.2360    15.6610    23.9090     2.1440 
  139.1250     5.6200    54.0910    26.2860    21.6620    16.0050    23.9620     2.1470 
  139.2500     5.9810    52.6750    27.1350    22.2910    16.5350    23.9860     2.1530 
  139.3750     6.3430    53.4340    28.3580    23.2050    17.0800    23.9670     2.1540 
  139.5000     6.7080    52.6930    30.0360    24.4610    17.6930    23.9500     2.1470 
  139.6250     7.0600    49.5840    32.1710    26.0860    18.4080    24.0060     2.1360 
  139.7500     7.3300    48.3250    34.3870    27.8470    19.6990    24.0950     2.1260 
  139.8750     7.5410    49.5350    36.2150    29.4360    20.4010    24.1260     2.1230 
  140.0000     7.6600    50.2740    37.1430    30.4850    19.7150    24.0290     2.1240 
  140.1250     7.6490    48.5170    36.7040    30.5800    18.3890    23.9390     2.1300 
  140.2500     7.5500    46.8860    35.3360    29.9020    18.3980    23.8850     2.1360 
  140.3750     7.3410    47.0360    33.5150    28.7340    18.0800    23.8430     2.1420 
  140.5000     7.0680    48.8010    31.7030    27.4220    17.1580    23.7430     2.1500 
  140.6250     6.6760    50.9160    30.2850    26.2800    16.0390    23.6050     2.1590 
  140.7500     6.2930    52.9320    29.2990    25.4160    15.2220    23.5450     2.1660 
  140.8750     5.9280    54.7600    28.7030    24.8330    15.1430    23.6050     2.1680 
  141.0000     5.5660    56.3050    28.3750    24.4760    15.5650    23.6870     2.1640 
  141.1250     5.2950    57.9450    28.1420    24.2530    15.9200    23.7150     2.1540 
  141.2500     5.0510    58.9670    27.8250    24.0320    16.1020    23.7060     2.1430 
  141.3750     4.8610    59.1220    27.3880    23.7680    16.0870    23.6520     2.1370 
  141.5000     4.6940    59.2380    26.9420    23.5160    15.9480    23.5420     2.1410 
  141.6250     4.5550    58.8340    26.7340    23.4460    15.9240    23.4720     2.1550 
  141.7500     4.4340    55.6810    26.8720    23.6440    16.0610    23.4980     2.1690 
  141.8750     4.2910    50.9220    27.3030    24.0980    16.1520    23.5610     2.1750 
  142.0000     4.1380    49.1320    27.8000    24.6830    16.2420    23.5840     2.1650 
  142.1250     3.9440    52.9480    27.9870    25.1330    16.7100    23.6030     2.1440 
  142.2500     3.6960    57.3940    27.7060    25.2490    17.0660    23.6510     2.1220 
  142.3750     3.4190    58.5960    26.9840    24.9740    16.9290    23.6720     2.1060 
  142.5000     3.1190    56.8970    25.9560    24.3610    16.5320    23.7020     2.1000 
  142.6250     2.7770    56.8600    24.7220    23.4520    15.3870    23.6410     2.0990 
  142.7500     2.3990    59.1090    23.3510    22.3300    14.2850    23.3570     2.1000 
  142.8750     1.9930    60.9610    21.8890    21.0400    13.7480    22.8980     2.1030 
  143.0000     1.5870    61.4670    20.4830    19.7130    13.6190    22.5640     2.1110 
  143.1250     1.1840    62.2830    19.4160    18.5960    12.7780    22.5590     2.1270 
  143.2500     0.8420    63.2470    18.8160    17.8560    11.5770    22.7040     2.1440 
  143.3750     0.5330    62.7780    18.7310    17.5710    11.2690    22.7940     2.1570 
  143.5000     0.2690    61.3420    19.1280    17.7460    13.0140    22.7920     2.1620 
  143.6250     0.0870    59.8310    20.0570    18.4270    15.6230    22.7660     2.1550 
  143.7500    -0.1220    58.7570    21.5650    19.5980    16.3140    22.7720     2.1500 
  143.8750    -0.3040    56.7200    23.9610    21.4740    16.1670    22.8760     2.1640 
  144.0000    -0.5000    53.1290    27.7280    24.4870    17.4700    23.1980     2.2140 
  144.1250    -0.7610    48.7650    33.8760    29.6890    23.7930    23.7560     2.3170 
  144.2500    -1.0530    45.3490    42.5330    37.3310    38.7510    24.1740     2.4500 
  144.3750    -1.4220    43.4850    53.0800    46.9280    63.0470    24.3050     2.5740 
  144.5000    -1.8680    43.7690    62.7450    56.2120    85.5280    24.2990     2.6550 
  144.6250    -2.3470    44.8130    65.4460    60.2640    83.4470    24.3060     2.6770 
  144.7500    -2.8320    44.3170    60.6850    57.7890    68.2470    24.2740     2.6640 
  144.8750    -3.3450    42.0770    52.2020    50.9400    51.0920    24.1400     2.6290 
