~V
VERS. 2.00: Ver 2.00
~W
STRT.M 49.0000:
STOP.M 254.0000:
STEP.M 0.1250:
NULL. -999.2500:
UWI. F10669:
~C
DEPT.M :
DEN.GM/CC :
GR.API :
RML.OHMM :
RI. :
RXO.OHMM :
CALI.CM :
SP.MV :
~A
# ...
  139.0000     2.1370    56.9670    21.2810    19.5620    21.1500    23.8860   -11.8470 
  139.1250     2.1290    60.2960    21.7360    20.0260    21.5090    23.8720   -12.1640 
  139.2500     2.1230    61.9730    21.2100    19.6940    22.4500    23.8680   -12.4940 
  139.3750     2.1320    61.3000    19.2390    18.0650    22.6350    23.8880   -12.8400 
  139.5000     2.1560    62.4990    16.4990    15.6580    19.1120    23.8860   -13.1440 
  139.6250     2.1850    66.6780    13.7610    13.1310    12.8790    23.8090   -13.3700 
  139.7500     2.2050    71.9620    11.6200    11.0260    10.0670    23.6860   -13.5190 
  139.8750     2.2090    75.1390    10.4700     9.7060     9.4600    23.6410   -13.5480 
  140.0000     2.2020    75.2240    10.1610     9.0810     9.7980    23.6040   -13.4730 
  140.1250     2.1930    72.2140    10.6110     9.1140    10.0350    23.5390   -13.2800 
  140.2500     2.1820    68.6600    11.7240     9.7680    10.6390    23.4180   -12.9760 
  140.3750     2.1650    67.0000    13.4510    11.0690    11.7600    23.3630   -12.5850 
  140.5000     2.1430    65.5370    15.5290    12.8080    14.4760    23.4170   -12.1610 
  140.6250     2.1250    62.6830    17.7540    14.8110    17.8370    23.5910   -11.7830 
  140.7500     2.1170    60.3520    19.8780    16.8460    19.6870    23.6450   -11.4500 
  140.8750     2.1200    60.2500    21.5180    18.5480    19.6100    23.3380   -11.2180 
  141.0000     2.1220    59.8880    22.4470    19.6570    19.5110    22.8540   -11.0870 
  141.1250     2.1180    58.1380    22.5150    19.9960    19.9030    22.7030   -11.0700 
  141.2500     2.1070    56.7110    21.7560    19.5500    20.3070    22.9520   -11.1880 
  141.3750     2.0980    57.0840    20.3310    18.4090    20.8000    23.1950   -11.4090 
  141.5000     2.0960    58.0260    18.7250    16.9950    18.8310    23.1420   -11.7280 
  141.6250     2.0980    59.7080    17.2980    15.6280    14.9480    22.9990   -12.0560 
  141.7500     2.1030    61.8540    16.3160    14.5640    12.6120    23.1120   -12.4080 
  141.8750     2.1090    61.1670    15.9630    14.0100    12.6300    23.3600   -12.7170 
  142.0000     2.1190    59.5780    16.0610    13.8830    13.3680    23.5110   -12.9970 
  142.1250     2.1290    59.8170    16.4300    14.0970    14.3260    23.5590   -13.2320 
  142.2500     2.1340    60.2550    16.8510    14.5070    15.0090    23.5670   -13.4220 
  142.3750     2.1290    59.3110    17.1310    14.9260    14.9640    23.5810   -13.5820 
  142.5000     2.1150    59.5300    17.3640    15.2890    14.7350    23.6090   -13.6990 
  142.6250     2.0980    62.0050    17.8320    15.7350    14.9790    23.6270   -13.7980 
  142.7500     2.0890    65.2870    18.7300    16.4460    15.3300    23.6120   -13.8790 
  142.8750     2.1140    66.8620    19.7800    17.3660    16.6000    23.5860   -13.9510 
  143.0000     2.1880    67.1280    20.0680    17.8750    20.5070    23.6640   -14.0410 
  143.1250     2.3030    66.8350    18.7590    17.2180    27.8820    23.7450   -14.1170 
  143.2500     2.4200    68.1800    15.7580    15.0810    41.8240    23.7500   -14.1660 
  143.3750     2.4760    73.9650    12.0540    12.0400    36.6270    23.7240   -14.1690 
  143.5000     2.4710    81.4100     8.9820     9.2740    17.0030    23.7340   -14.1330 
  143.6250     2.4320    87.3780     6.9570     7.2480     7.6360    23.7840   -14.0960 
  143.7500     2.3880    89.6440     5.8990     6.0100     5.6540    23.8110   -14.0500 
  143.8750     2.3560    90.7620     5.6540     5.5220     6.0740    23.8000   -14.0410 
  144.0000     2.3350    92.9420     5.8250     5.4890     6.3070    23.7850   -13.9920 
  144.1250     2.3270    93.1430     6.1550     5.7150     6.3480    23.8000   -13.9620 
  144.2500     2.3320    89.1220     6.4140     5.9820     6.3230    23.8790   -13.9280 
  144.3750     2.3480    85.2950     6.4330     6.0890     6.3280    23.9320   -13.9210 
  144.5000     2.3660    84.7300     6.2620     6.0110     6.3700    23.9100   -13.9280 
  144.6250     2.3780    85.6550     5.9920     5.7990     6.3030    23.8320   -13.9180 
  144.7500     2.3780    87.2900     5.7290     5.5350     6.0560    23.7890   -13.8920 
  144.8750     2.3650    90.0410     5.5910     5.3190     5.6570    23.7930   -13.8090 
  145.0000     2.3410    92.3290     5.6150     5.2110     5.7400    23.8070   -13.7180 
  145.1250     2.3110    92.1680     5.8170     5.2430     6.3640    23.8240   -13.5890 
  145.2500     2.2790    88.8910     6.2140     5.4440     7.2140    23.8610   -13.4400 
  145.3750     2.2490    82.5420     6.9100     5.8970     7.7660    23.8650   -13.2420 
  145.5000     2.2250    75.2660     7.9750     6.6430     8.4470    23.8180   -12.9970 
  145.6250     2.2080    71.0790     9.5210     7.7720     9.5980    23.7330   -12.7070 
  145.7500     2.1940    69.8960    11.6150     9.3670    11.9150    23.6780   -12.3720 
  145.8750     2.1800    67.4700    14.2320    11.5030    16.2140    23.7180   -12.0120 
  146.0000     2.1620    62.0420    16.9370    13.8750    20.5790    23.7920   -11.6420 
  146.1250     2.1430    57.1050    19.2450    16.0750    22.7070    23.8800   -11.2730 
  146.2500     2.1260    56.1470    20.7730    17.6990    22.0790    23.9190   -10.9250 
  146.3750     2.1160    59.1350    21.3870    18.4880    21.7220    23.7590   -10.5930 
  146.5000     2.1160    62.1260    21.5630    18.7720    21.8430    23.6250   -10.3240 
  146.6250     2.1230    63.0760    21.6050    18.8100    22.7770    23.5960   -10.1010 
  146.7500     2.1310    61.9370    21.6230    18.7390    23.4890    23.6080    -9.9550 
  146.8750     2.1370    61.0340    21.5280    18.5480    23.7350    23.6180    -9.8600 
  147.0000     2.1440    61.6800    21.2530    18.2350    22.2550    23.5880    -9.8110 
  147.1250     2.1510    63.9140    20.8520    17.8490    20.3730    23.5640    -9.7850 
  147.2500     2.1560    66.1620    20.4940    17.5050    18.4030    23.5840    -9.7410 
  147.3750     2.1510    66.8290    20.4560    17.3960    16.9870    23.6170    -9.7170 
  147.5000     2.1400    66.6470    20.8360    17.6120    17.4510    23.6580    -9.6620 
  147.6250     2.1280    64.9090    21.6300    18.1820    18.8030    23.6940    -9.6110 
  147.7500     2.1200    61.2150    22.7150    19.0580    20.0640    23.7120    -9.5280 
  147.8750     2.1180    57.7090    23.8620    20.1040    21.8500    23.7260    -9.4560 
  148.0000     2.1160    56.2300    24.8040    21.0660    23.1250    23.7310    -9.3660 
  148.1250     2.1110    57.0070    25.4030    21.7810    23.8590    23.7330    -9.2800 
  148.2500     2.1040    58.9570    25.6440    22.1880    23.7740    23.6930    -9.2220 
  148.3750     2.1030    61.4880    25.6050    22.2990    23.0750    23.5180    -9.1630 
  148.5000     2.1050    62.0030    25.4930    22.2760    22.1030    23.2390    -9.1060 
  148.6250     2.1070    60.0840    25.4410    22.2430    21.4350    23.0710    -9.0320 
  148.7500     2.1060    58.3370    25.5330    22.2930    21.2270    23.0210    -8.9480 
  148.8750     2.0980    58.2320    25.7990    22.4770    21.5320    23.0110    -8.8500 
  149.0000     2.0900    59.6930    26.1350    22.7280    22.0140    23.0090    -8.7220 
  149.1250     2.0860    61.3230    26.4270    22.9550    22.8390    23.0770    -8.6030 
  149.2500     2.0890    61.7320    26.5550    23.0660    23.1090    23.2330    -8.4720 
  149.3750     2.0990    60.8080    26.4460    22.9980    22.7630    23.4300    -8.3480 
  149.5000     2.1110    60.7810    26.2380    22.8480    22.5180    23.5960    -8.2370 
  149.6250     2.1230    61.3630    26.1020    22.7350    22.6470    23.6620    -8.1340 
  149.7500     2.1330    60.7290    26.2020    22.7710    22.8030    23.6500    -8.0570 
  149.8750     2.1380    59.1290    26.6950    23.0770    23.4970    23.5510    -7.9510 
  150.0000     2.1410    58.3930    27.4920    23.6320    24.9030    23.4900    -7.8800 
  150.1250     2.1410    59.0960    28.4680    24.3770    26.8330    23.5290    -7.7940 
