~V
VERS. 2.00: Ver 2.00
~W
STRT.M 50.0000:
STOP.M 212.0000:
STEP.M 0.1250:
NULL. -999.2500:
UWI. F10691:
~C
DEPT.M :
GR.API :
RML.OHMM :
RI. :
RXO.OHMM :
CALI.CM :
SP.MV :
DEN.GM/CC :
~A
# ...
  185.0000    56.4050     7.2680     6.4890     6.3070    28.8270   -24.9180     2.4470 
  185.1250    66.8230     7.2210     6.4470     6.6690    27.5210   -24.6380     2.4190 
  185.2500    74.8730     7.1320     6.3680     6.9290    27.4330   -24.4560     2.3700 
  185.3750    75.1640     6.9640     6.2180     6.9230    27.7920   -24.3830     2.3200 
  185.5000    73.4090     6.7210     6.0010     6.8090    28.1960   -24.4330     2.2890 
  185.6250    76.7180     6.5270     5.8280     6.7930    28.3230   -24.6030     2.2940 
  185.7500    79.1930     6.5770     5.8730     6.9050    28.2040   -24.8760     2.3340 
  185.8750    75.3640     7.0850     6.3260     7.2740    27.8950   -25.2550     2.4000 
  186.0000    67.0930     8.3160     7.4250     8.6280    27.4880   -25.7230     2.4740 
  186.1250    58.9100    10.8440     9.6820    13.5710    26.7460   -26.2440     2.5190 
  186.2500    53.9010    17.0160    13.2510    25.7860    25.7740   -26.7740     2.5180 
  186.3750    52.4320    24.8920    18.0770    39.5980    25.8180   -27.2860     2.4730 
  186.5000    53.1130    30.8150    23.3870    42.5880    26.2260   -27.7520     2.4080 
  186.6250    54.8800    34.6770    27.4760    36.3350    26.4050   -28.1570     2.3490 
  186.7500    54.9080    36.4160    29.7290    32.9470    26.4310   -28.4710     2.3100 
  186.8750    53.5500    37.0790    30.7230    31.9290    26.3960   -28.6970     2.2920 
  187.0000    50.1110    37.7050    31.3520    30.9680    26.2490   -28.8660     2.2870 
  187.1250    45.2020    38.4830    32.0380    30.5480    26.2770   -28.9670     2.2840 
  187.2500    41.9250    39.0360    32.6160    33.8760    26.2850   -28.9980     2.2770 
  187.3750    43.5690    39.2460    32.9640    35.4640    26.2320   -29.0200     2.2650 
  187.5000    48.1160    39.3870    33.2530    34.8100    26.1500   -29.1000     2.2460 
  187.6250    49.2110    40.0910    33.9600    33.6690    26.1190   -29.2210     2.2240 
  187.7500    48.1980    41.5970    35.2880    33.6870    26.1240   -29.3330     2.2080 
  187.8750    48.7530    43.7200    37.1080    36.4970    26.1850   -29.4410     2.2020 
  188.0000    48.9820    45.7580    38.9370    42.3640    26.4080   -29.5240     2.2130 
  188.1250    46.8570    46.4420    39.9310    45.1540    26.4390   -29.5930     2.2390 
  188.2500    47.0130    45.6420    39.8570    40.2510    26.3190   -29.7020     2.2670 
  188.3750    52.0700    44.0910    39.0590    33.0800    26.1800   -29.8110     2.2890 
  188.5000    56.4700    42.8570    38.2790    29.1170    25.9780   -29.8500     2.2980 
  188.6250    54.5070    42.9640    38.3970    30.2380    26.0210   -29.8120     2.2950 
  188.7500    51.3090    44.3710    39.5850    33.7260    26.1040   -29.7750     2.2900 
  188.8750    49.9850    46.7010    41.6490    37.3220    26.1560   -29.7330     2.2880 
  189.0000    50.2250    49.3300    44.0590    41.4650    26.0610   -29.6940     2.2900 
  189.1250    50.5140    51.4670    46.0280    44.8540    25.7680   -29.6700     2.2950 
  189.2500    50.0730    52.7890    47.2060    44.5950    25.8390   -29.6310     2.3000 
  189.3750    48.7830    53.4400    47.6730    44.8000    26.0320   -29.5650     2.3050 
  189.5000    47.1700    53.8390    47.7970    46.0800    26.2200   -29.4770     2.3020 
  189.6250    46.3050    54.5240    48.1830    44.3760    26.4770   -29.3680     2.2860 
  189.7500    45.6860    55.8540    49.3000    42.2210    26.7610   -29.2460     2.2560 
  189.8750    44.7070    58.0580    51.2970    41.9110    26.8910   -29.1160     2.2120 
  190.0000    44.5430    61.0640    53.9740    41.2590    26.9890   -28.9550     2.1620 
  190.1250    46.5440    64.2200    56.8490    37.8810    27.3970   -28.7230     2.1230 
  190.2500    47.8800    66.6230    59.3480    34.7970    27.9200   -28.4430     2.1090 
  190.3750    46.5420    67.7160    61.0840    34.9930    27.7810   -28.1490     2.1240 
  190.5000    43.4580    67.1940    61.7430    37.6860    27.2610   -27.8400     2.1560 
  190.6250    42.1020    64.5570    60.7840    40.3670    27.0190   -27.5420     2.1820 
  190.7500    41.1980    59.9570    58.2800    40.0730    27.2690   -27.2190     2.1950 
  190.8750    40.0540    55.6600    54.3630    35.6760    27.7990   -26.8640     2.2010 
  191.0000    41.7140    52.4070    49.4170    30.8290    27.7980   -26.5180     2.2130 
  191.1250    47.5250    47.8630    44.0930    28.9340    27.2320   -26.2050     2.2320 
  191.2500    53.0300    43.5030    39.2380    29.7700    26.8730   -25.9310     2.2480 
  191.3750    55.0970    39.6750    35.4240    30.0270    26.8410   -25.7070     2.2490 
  191.5000    53.4260    36.9840    33.0220    27.8960    26.9840   -25.5440     2.2330 
  191.6250    49.2020    36.3450    32.4510    24.6920    27.1040   -25.4310     2.2010 
  191.7500    47.0120    37.3640    33.3610    23.9030    27.3380   -25.3750     2.1600 
  191.8750    47.9190    39.7490    35.4910    24.3320    27.5040   -25.3880     2.1150 
  192.0000    49.3290    43.1120    38.4930    25.7890    27.7770   -25.4620     2.0760 
  192.1250    49.0300    47.0630    42.0210    31.2870    28.6880   -25.6150     2.0580 
  192.2500    47.5810    51.0840    45.6110    35.0460    29.0080   -25.8050     2.0610 
  192.3750    47.4600    54.9920    49.1000    38.3450    28.3960   -26.0040     2.0770 
  192.5000    47.8850    58.9200    52.6070    43.9980    28.3290   -26.1910     2.0960 
  192.6250    46.4330    63.2050    56.4330    46.2010    29.0050   -26.3590     2.1140 
  192.7500    43.9970    67.7210    60.4650    43.1280    29.9900   -26.5280     2.1340 
  192.8750    42.5620    71.8990    64.1960    42.4210    29.9150   -26.6920     2.1580 
  193.0000    43.2570    74.9390    66.9090    46.5870    29.3780   -26.8220     2.1860 
  193.1250    43.8480    76.0460    67.8980    54.1590    28.7750   -26.8850     2.2110 
  193.2500    42.8670    75.9090    67.7760    59.2250    28.2360   -26.9120     2.2260 
  193.3750    40.4480    75.4190    67.3380    58.5620    27.6320   -26.8930     2.2260 
  193.5000    37.3490    75.1830    67.1280    57.1860    26.9670   -26.8370     2.2120 
  193.6250    37.7200    75.0760    67.0320    57.8320    27.3180   -26.7730     2.1850 
  193.7500    40.8970    74.5930    66.6010    58.3690    27.9010   -26.6850     2.1600 
  193.8750    43.2470    73.7610    65.8580    58.6550    28.2330   -26.5700     2.1490 
  194.0000    42.6000    73.2300    65.3840    59.5210    28.4150   -26.4430     2.1580 
  194.1250    41.7940    74.2200    66.2680    56.6330    28.6230   -26.2970     2.1930 
  194.2500    43.4270    76.9640    68.7180    56.7450    28.6940   -26.1360     2.2430 
  194.3750    44.3460    80.9720    72.2960    64.9850    27.9960   -25.9560     2.3010 
  194.5000    42.7600    85.0300    75.9200    87.1310    26.2900   -25.7860     2.3530 
  194.6250    42.0810    87.1600    77.8220    90.8850    25.4590   -25.6080     2.3810 
  194.7500    44.1500    86.5150    77.2460    74.4480    25.4790   -25.4090     2.3790 
  194.8750    46.3810    83.0510    74.1530    61.2680    25.6330   -25.1820     2.3510 
  195.0000    47.1540    77.5000    69.1970    55.8970    26.0710   -24.9400     2.3170 
  195.1250    47.3950    71.3230    63.6810    48.8100    26.6200   -24.6820     2.3030 
  195.2500    48.3050    66.2770    59.1760    45.6640    26.6940   -24.3800     2.3190 
  195.3750    50.6990    63.0300    56.2770    46.0180    26.0110   -24.0470     2.3550 
  195.5000    53.9770    60.7580    54.2480    44.0050    25.5190   -23.6610     2.3960 
  195.6250    55.6480    56.0780    50.0700    38.1470    25.4040   -23.2150     2.4360 
  195.7500    55.5470    46.4270    41.4530    43.0120    25.1580   -22.7500     2.4770 
  195.8750    54.6270    33.2090    29.6510    56.8450    25.1210   -22.2810     2.5190 
  196.0000    52.7970    20.7530    18.5290    47.5980    25.0960   -21.7960     2.5480 
  196.1250    48.1570    12.5500    11.2050    21.3040    25.2950   -21.3500     2.5330 
