~V
VERS. 2.00: Ver 2.00
~W
STRT.M 61.0000:
STOP.M 247.0000:
STEP.M 0.1250:
NULL. -999.2500:
UWI. F10600:
~C
DEPT.M :
GR.API :
RML.OHMM :
RI. :
RXO.OHMM :
CALI.CM :
DEN.GM/CC :
SP.MV :
~A
# ...
  196.0000    66.0020    23.4400    23.1340    24.5500    25.3240     2.3510   -23.2400 
  196.1250    65.3960    23.1940    22.9740    25.2150    25.3280     2.3900   -23.3160 
  196.2500    65.3680    22.9220    22.5930    24.0980    25.3500     2.4070   -23.4270 
  196.3750    65.3650    22.6380    22.0240    22.5800    25.3990     2.3980   -23.5500 
  196.5000    65.1570    22.3080    21.4260    21.1090    25.4330     2.3740   -23.6690 
  196.6250    65.3570    21.9590    21.0980    20.4900    25.4350     2.3600   -23.8470 
  196.7500    65.7070    22.0250    21.2270    20.1000    25.4130     2.3660   -24.0650 
  196.8750    65.6290    22.8430    21.8910    20.5400    25.4060     2.3870   -24.2540 
  197.0000    64.9730    24.2390    23.0130    22.5630    25.4120     2.4070   -24.4150 
  197.1250    64.2850    25.8890    24.3310    26.3370    25.4240     2.4090   -24.5260 
  197.2500    63.8820    27.0050    25.4110    27.6990    25.4330     2.3950   -24.5460 
  197.3750    63.7580    27.3830    25.9590    26.3540    25.4360     2.3740   -24.5300 
  197.5000    64.7040    27.1680    25.8680    24.7090    25.4480     2.3560   -24.4780 
  197.6250    66.3990    26.3820    25.2180    23.5740    25.4640     2.3470   -24.3230 
  197.7500    66.6200    25.4190    24.4040    22.4540    25.4740     2.3420   -24.0890 
  197.8750    65.3760    24.6520    23.6940    21.2240    25.4810     2.3350   -23.8490 
  198.0000    65.9190    24.2250    23.2590    20.9760    25.4830     2.3240   -23.6450 
  198.1250    68.9620    24.1620    23.2110    21.0460    25.5030     2.3110   -23.5300 
  198.2500    69.7540    24.2380    23.4280    22.7500    25.5210     2.2990   -23.4550 
  198.3750    68.4550    24.3500    23.7740    24.1190    25.5280     2.2940   -23.3550 
  198.5000    67.6370    24.4140    24.1170    24.7110    25.5290     2.2950   -23.3360 
  198.6250    67.3240    24.4170    24.4010    24.5420    25.5300     2.3000   -23.4570 
  198.7500    66.7040    24.5300    24.7620    24.5690    25.5330     2.3090   -23.6250 
  198.8750    67.9900    25.1150    25.4250    23.9850    25.5350     2.3190   -23.8000 
  199.0000    71.3840    26.4700    26.6220    23.2460    25.5380     2.3330   -24.0020 
  199.1250    71.4740    28.7050    28.5620    24.1980    25.5490     2.3460   -24.1920 
  199.2500    68.8620    31.3100    30.9280    27.7940    25.5750     2.3530   -24.4300 
  199.3750    67.1460    33.6860    33.2100    34.5520    25.5860     2.3520   -24.7580 
  199.5000    67.2840    35.1310    34.7580    39.6360    25.5370     2.3440   -25.0810 
  199.6250    69.1060    34.9780    34.8620    39.1710    25.3610     2.3360   -25.3410 
  199.7500    71.5580    33.6740    33.7960    38.7460    25.2520     2.3340   -25.5810 
  199.8750    73.7520    31.8600    32.0860    36.3410    25.2110     2.3390   -25.8570 
  200.0000    73.1540    30.2350    30.4020    31.6800    25.2030     2.3470   -26.1280 
  200.1250    69.5090    29.4800    29.4630    30.6550    25.1990     2.3520   -26.3840 
  200.2500    66.3490    29.7340    29.4960    28.7120    25.1920     2.3510   -26.6280 
  200.3750    64.9030    31.0630    30.6040    28.4920    25.1820     2.3430   -26.8490 
  200.5000    65.9340    33.4420    32.7900    30.1470    25.1780     2.3320   -27.0410 
  200.6250    68.2960    36.8940    36.1400    34.5280    25.1790     2.3200   -27.2230 
  200.7500    70.0500    41.0640    40.3430    40.1810    25.1900     2.3090   -27.4260 
  200.8750    70.2370    45.7860    45.2640    45.5140    25.2200     2.3010   -27.6040 
  201.0000    68.6460    50.9710    50.8190    50.8220    25.2730     2.3000   -27.7070 
  201.1250    66.5290    56.7920    57.1610    57.4840    25.3030     2.3140   -27.7830 
  201.2500    65.6990    63.4940    64.4090    65.5330    25.3040     2.3440   -27.8580 
  201.3750    68.0670    71.5620    72.9360    72.0570    25.2780     2.3910   -27.8620 
  201.5000    72.2050    81.2750    83.0020    76.1430    25.2360     2.4530   -27.8110 
  201.6250    74.7320    90.8440    93.4770    95.5050    25.2190     2.5250   -27.7170 
  201.7500    76.0970    94.5560    99.8580   131.4830    25.1960     2.6000   -27.5960 
  201.8750    76.6380    86.5380    96.3800   145.3040    25.1580     2.6700   -27.4280 
  202.0000    74.2830    66.9290    80.4680   142.7720    25.1320     2.7230   -27.2390 
  202.1250    68.9080    44.2790    56.6720   143.9110    25.1310     2.7390   -27.0790 
  202.2500    65.5080    26.9440    35.2300    86.2290    25.1390     2.7140   -26.8540 
  202.3750    66.5870    16.1910    20.3070    28.3390    25.1440     2.6560   -26.6300 
  202.5000    68.9390    10.3750    11.7510     8.6900    25.1460     2.5810   -26.4780 
  202.6250    68.6360     7.8860     7.9670     6.0630    25.1470     2.5160   -26.4380 
  202.7500    67.2310     6.9230     6.3200     5.8490    25.1490     2.4710   -26.4340 
  202.8750    66.4440     6.8210     5.8530     6.1610    25.1500     2.4490   -26.4720 
  203.0000    66.2660     7.1180     6.0400     6.5910    25.1490     2.4430   -26.6280 
  203.1250    64.7160     7.4240     6.5150     6.8200    25.1500     2.4470   -26.8150 
  203.2500    63.0510     7.5140     6.9290     6.8300    25.1520     2.4530   -27.0770 
  203.3750    63.5720     7.3840     7.1370     6.7580    25.1560     2.4570   -27.4520 
  203.5000    66.2230     7.1440     7.1350     6.3720    25.1660     2.4560   -27.8900 
  203.6250    68.7420     6.9530     7.0110     5.8350    25.1870     2.4530   -28.3050 
  203.7500    69.6930     6.9080     6.9130     5.6490    25.2180     2.4500   -28.7350 
  203.8750    71.4990     7.0510     6.9180     5.8930    25.2570     2.4500   -29.2130 
  204.0000    75.0900     7.3810     7.0510     6.5980    25.2840     2.4550   -29.6990 
  204.1250    81.3780     7.8550     7.2810     7.6340    25.2960     2.4610   -30.2130 
  204.2500    89.1990     8.3360     7.4980     8.5530    25.2980     2.4660   -30.6910 
  204.3750    98.0360     8.7140     7.6160     9.0980    25.2960     2.4680   -31.0970 
  204.5000   105.9490     8.9210     7.5960     9.0590    25.2950     2.4670   -31.4680 
  204.6250   108.6380     8.9370     7.4530     8.7630    25.2960     2.4620   -31.8060 
  204.7500   107.3270     8.8600     7.2900     8.1930    25.2970     2.4540   -32.0950 
  204.8750   105.9420     8.7570     7.1720     7.9230    25.2980     2.4440   -32.3610 
  205.0000   106.2930     8.6600     7.1340     7.8180    25.3020     2.4320   -32.5550 
  205.1250   104.1950     8.5660     7.1690     7.6340    25.3060     2.4230   -32.6860 
  205.2500    99.7310     8.4620     7.2200     7.4180    25.3090     2.4190   -32.7740 
  205.3750    98.4700     8.3600     7.2610     7.3520    25.3060     2.4220   -32.8310 
  205.5000   100.4410     8.3090     7.3000     7.4750    25.2880     2.4280   -32.8250 
  205.6250   100.3410     8.4070     7.4000     7.2680    25.2500     2.4320   -32.7440 
  205.7500    97.5420     8.6900     7.6200     6.9670    25.2500     2.4300   -32.6430 
  205.8750    96.1080     9.1620     7.9900     6.8380    25.3340     2.4210   -32.4820 
  206.0000    96.6710     9.7690     8.4840     7.4010    25.4630     2.4060   -32.2220 
  206.1250    98.3120    10.3660     8.9680     8.9460    25.4810     2.3870   -31.8670 
  206.2500   100.3140    10.7610     9.2570    10.4640    25.4030     2.3670   -31.5040 
  206.3750   102.9920    10.8350     9.2330    10.9260    25.3100     2.3510   -31.0520 
  206.5000   104.6100    10.6080     8.9030    10.5710    25.2500     2.3400   -30.5240 
  206.6250   103.1600    10.2740     8.4250     9.0140    25.2190     2.3440   -29.9950 
  206.7500   101.1110    10.1060     8.0500     8.0120    25.2010     2.3620   -29.4090 
  206.8750    99.7860    10.2420     7.9200     8.2050    25.1930     2.3920   -28.7290 
  207.0000    98.0270    10.6910     8.0850     9.7050    25.1950     2.4250   -28.0720 
  207.1250    94.5050    11.4100     8.5770    12.8000    25.1930     2.4460   -27.4970 
