~V
VERS. 2.00: Ver 2.00
~W
STRT.M 52.0000:
STOP.M 240.0000:
STEP.M 0.1250:
NULL. -999.2500:
UWI. F10646:
~C
DEPT.M :
GR.API :
RML.OHMM :
RI. :
RXO.OHMM :
CALI.CM :
DEN.GM/CC :
SP.MV :
~A
# ...
  153.2500    51.2040    18.8070    15.5150    17.8770    23.3490     2.5390   -16.4180 
  153.3750    51.8800    18.7900    15.5530    16.7300    23.3650     2.5260   -16.4750 
  153.5000    50.3900    18.6520    15.4620    15.3440    23.1860     2.5110   -16.5260 
  153.6250    48.6540    18.5660    15.3820    15.3040    22.9810     2.5040   -16.5750 
  153.7500    48.9270    18.5680    15.3540    16.6210    22.9970     2.5060   -16.6380 
  153.8750    51.0840    18.6030    15.3520    18.6800    23.2360     2.5110   -16.7130 
  154.0000    50.9920    18.5650    15.3050    18.4400    23.4880     2.5060   -16.7810 
  154.1250    48.1900    18.4440    15.1890    17.4970    23.6530     2.4920   -16.8500 
  154.2500    47.0110    18.2950    15.0350    16.8070    23.6910     2.4770   -16.9000 
  154.3750    48.7490    18.2010    14.9020    15.5560    23.6560     2.4740   -16.9140 
  154.5000    49.9010    18.2420    14.8780    15.2470    23.5960     2.4910   -16.9220 
  154.6250    49.2290    18.3820    14.9670    15.3100    23.5660     2.5190   -16.9110 
  154.7500    48.3180    18.5520    15.1260    15.2160    23.5510     2.5450   -16.8450 
  154.8750    46.3650    18.6820    15.2900    14.8210    23.4760     2.5570   -16.7670 
  155.0000    43.1710    18.7170    15.3980    14.7710    23.4440     2.5480   -16.7080 
  155.1250    41.1480    18.6450    15.4300    15.3380    23.4770     2.5240   -16.6000 
  155.2500    42.4940    18.4480    15.3670    15.7270    23.5490     2.4970   -16.4460 
  155.3750    46.1650    18.1510    15.2160    15.2640    23.6120     2.4770   -16.3100 
  155.5000    48.6390    17.8520    15.0210    14.5180    23.5930     2.4680   -16.2180 
  155.6250    48.8880    17.6830    14.8750    14.5250    23.5440     2.4630   -16.1110 
  155.7500    47.8360    17.7350    14.8590    14.8180    23.5440     2.4590   -15.9730 
  155.8750    48.1160    18.0340    15.0280    14.9600    23.5090     2.4540   -15.8340 
  156.0000    50.1360    18.5430    15.3970    14.8710    23.3530     2.4530   -15.7120 
  156.1250    50.0960    19.1110    15.8520    15.0600    23.1800     2.4580   -15.6380 
  156.2500    47.9090    19.6540    16.3030    15.6720    23.1790     2.4660   -15.6060 
  156.3750    45.5440    20.1560    16.7050    16.1840    23.3270     2.4740   -15.6020 
  156.5000    45.2100    20.6910    17.0930    17.0770    23.4780     2.4770   -15.6340 
  156.6250    45.3490    21.3520    17.5650    18.2120    23.6100     2.4770   -15.7360 
  156.7500    46.2320    22.1640    18.1780    19.6910    23.6600     2.4790   -15.9210 
  156.8750    49.5050    23.0310    18.8970    21.6670    23.6670     2.4850   -16.1270 
  157.0000    53.4080    23.6790    19.5300    22.9790    23.6470     2.4960   -16.3140 
  157.1250    55.8350    23.9170    19.8760    23.9450    23.6000     2.5110   -16.4990 
  157.2500    55.0900    23.7290    19.8690    24.0470    23.5020     2.5210   -16.7160 
  157.3750    51.1380    23.2840    19.6020    23.2690    23.3420     2.5200   -16.9200 
  157.5000    47.3730    22.9190    19.3010    20.3720    23.1620     2.5070   -17.0600 
  157.6250    45.6490    22.9330    19.2210    19.8670    23.2490     2.4930   -17.1760 
  157.7500    45.4870    23.4370    19.4900    21.2450    23.4860     2.4890   -17.2650 
  157.8750    46.7690    24.3340    20.1000    23.4850    23.6390     2.4970   -17.3230 
  158.0000    49.6810    25.3000    20.8890    23.7020    23.6650     2.5070   -17.3730 
  158.1250    50.6730    25.9080    21.5110    23.6490    23.6680     2.5090   -17.3810 
  158.2500    47.6160    25.9020    21.7040    23.9900    23.6870     2.5000   -17.2920 
  158.3750    44.8530    25.2850    21.3710    23.6670    23.7460     2.4860   -17.1520 
  158.5000    47.8640    24.3260    20.6450    21.9140    23.8110     2.4760   -17.0090 
  158.6250    52.7090    23.4650    19.9090    20.3040    23.8380     2.4720   -16.8250 
  158.7500    54.3920    22.9240    19.3820    19.5040    23.8020     2.4730   -16.6150 
  158.8750    51.4800    22.7900    19.1750    19.2230    23.7390     2.4740   -16.3950 
  159.0000    46.8750    23.0560    19.3260    20.2350    23.7350     2.4710   -16.1540 
  159.1250    44.8790    23.4790    19.6640    21.3550    23.7390     2.4700   -15.9590 
  159.2500    46.6700    23.8750    20.0420    21.5000    23.7420     2.4720   -15.8640 
  159.3750    50.2850    24.1420    20.3530    20.9770    23.7420     2.4820   -15.8280 
  159.5000    50.9930    24.2630    20.5460    21.1890    23.7420     2.4990   -15.7990 
  159.6250    49.0740    24.2920    20.6480    21.6300    23.7430     2.5150   -15.7940 
  159.7500    47.3580    24.2190    20.6540    21.7270    23.7400     2.5260   -15.8630 
  159.8750    47.1600    24.0030    20.5390    21.4470    23.7360     2.5270   -15.9980 
  160.0000    48.1460    23.5870    20.2590    21.8530    23.7270     2.5200   -16.1390 
  160.1250    48.9690    23.0450    19.8640    21.6210    23.7360     2.5120   -16.2550 
  160.2500    48.7120    22.4960    19.4350    20.3230    23.7360     2.5090   -16.3660 
  160.3750    46.4730    22.0720    19.0710    18.8570    23.7000     2.5100   -16.4750 
  160.5000    43.7150    21.8790    18.8580    19.0120    23.6400     2.5110   -16.5570 
  160.6250    43.7550    21.8390    18.7580    19.6010    23.6210     2.5070   -16.6240 
  160.7500    45.7950    21.8430    18.7070    19.3830    23.6580     2.4980   -16.6320 
  160.8750    46.8700    21.7700    18.6290    19.3720    23.7100     2.4880   -16.5600 
  161.0000    46.9160    21.5260    18.4500    19.0950    23.6940     2.4830   -16.4700 
  161.1250    48.6050    21.1960    18.2000    18.0970    23.5330     2.4820   -16.3800 
  161.2500    50.2610    20.9080    17.9650    17.0480    23.1890     2.4840   -16.2530 
  161.3750    48.0900    20.7690    17.8390    16.6020    22.8050     2.4890   -16.0900 
  161.5000    44.5580    20.8140    17.8840    16.8450    22.8820     2.4970   -15.9110 
  161.6250    43.9040    20.9230    18.0060    17.1380    23.2220     2.5030   -15.7240 
  161.7500    44.5360    20.9810    18.0940    17.9840    23.4940     2.5040   -15.5770 
  161.8750    44.1610    20.8990    18.0550    18.7160    23.5560     2.5010   -15.4980 
  162.0000    43.5470    20.6430    17.8590    18.1890    23.5950     2.5000   -15.4460 
  162.1250    44.5830    20.3310    17.6100    16.8680    23.6370     2.5020   -15.4090 
  162.2500    45.2600    20.0680    17.4020    15.8310    23.6580     2.5030   -15.4190 
  162.3750    44.3630    19.9190    17.2800    15.9670    23.6660     2.4970   -15.5040 
  162.5000    42.1680    19.8700    17.2340    17.5330    23.6820     2.4830   -15.6580 
  162.6250    40.5160    19.8170    17.1920    18.5160    23.6950     2.4670   -15.8120 
  162.7500    41.4520    19.6880    17.1030    18.3790    23.6930     2.4560   -15.9530 
  162.8750    45.4140    19.4590    16.9360    17.8680    23.6900     2.4560   -16.1080 
  163.0000    50.0860    19.1700    16.6920    17.2910    23.6770     2.4670   -16.2850 
  163.1250    51.7970    18.9170    16.4560    16.9420    23.6660     2.4800   -16.4100 
  163.2500    48.2840    18.7530    16.2950    17.0730    23.6490     2.4940   -16.4670 
  163.3750    43.6400    18.6860    16.2370    17.0450    23.6100     2.5050   -16.4990 
  163.5000    44.2740    18.7150    16.2890    17.3990    23.5600     2.5110   -16.5080 
  163.6250    47.5230    18.8020    16.3970    17.9650    23.4940     2.5110   -16.4870 
  163.7500    47.7360    18.9030    16.5070    18.5950    23.4860     2.5060   -16.4470 
  163.8750    43.8940    18.9450    16.5600    18.5610    23.5790     2.4980   -16.3590 
  164.0000    41.3540    18.8460    16.5000    17.6520    23.7270     2.4920   -16.1950 
  164.1250    40.9310    18.6160    16.3390    17.0570    23.8100     2.4900   -16.0290 
  164.2500    40.8010    18.3100    16.1070    16.4080    23.8060     2.4940   -15.8810 
  164.3750    40.3850    18.0410    15.8750    15.8890    23.7840     2.5000   -15.7120 
