~V
VERS. 2.00: Ver 2.00
~W
STRT.M 49.0000:
STOP.M 221.0000:
STEP.M 0.1250:
NULL. -999.2500:
UWI. F10615:
~C
DEPT.M :
DEN.GM/CC :
GR.API :
RML.OHMM :
RI. :
RXO.OHMM :
CALI.CM :
SP.MV :
~A
# ...
   60.2500     2.3170    53.5100    15.9150    14.2820    16.7390    24.1210   -15.8050 
   60.3750     2.2190    53.7430    13.0420    11.6120    10.3920    24.5840   -16.7420 
   60.5000     2.1570    55.0040    11.5120     9.9370     9.3690    24.9710   -17.5490 
   60.6250     2.1330    57.3190    10.8800     9.0230     9.5710    25.1580   -18.2130 
   60.7500     2.1250    58.8520    10.8000     8.6550     9.7260    25.2810   -18.7620 
   60.8750     2.1210    57.6900    10.9420     8.6050     9.7080    25.4050   -19.1650 
   61.0000     2.1210    57.2750    11.0540     8.6650     9.3940    25.5330   -19.4230 
   61.1250     2.1200    60.2030    11.0910     8.7160     9.1790    25.7060   -19.5620 
   61.2500     2.1270    63.3540    11.0930     8.7610     8.9520    25.8060   -19.6040 
   61.3750     2.1360    63.8850    11.0570     8.8120     8.6650    25.6460   -19.5980 
   61.5000     2.1390    63.1320    10.8920     8.8170     8.4610    25.4100   -19.4900 
   61.6250     2.1300    63.1120    10.5460     8.6970     8.5720    25.2530   -19.3790 
   61.7500     2.1190    63.1270    10.0110     8.3960     8.7600    25.0620   -19.2440 
   61.8750     2.1220    63.7660     9.3240     7.9190     8.5790    24.7660   -19.0610 
   62.0000     2.1430    65.5490     8.5750     7.3290     7.4360    24.4440   -18.8600 
   62.1250     2.1770    69.1840     7.9010     6.7500     6.1850    24.0510   -18.6460 
   62.2500     2.2110    74.6200     7.3770     6.2470     5.6900    23.5830   -18.4420 
   62.3750     2.2340    79.5900     7.0280     5.8480     5.5960    23.1060   -18.2370 
   62.5000     2.2450    82.2980     6.8560     5.5950     5.4680    22.7860   -18.0890 
   62.6250     2.2510    83.7850     6.8110     5.4870     5.2650    22.7860   -17.9500 
   62.7500     2.2700    83.2880     6.8830     5.5300     5.2060    23.1910   -17.8250 
   62.8750     2.3100    81.4780     7.0590     5.7030     5.2960    23.8410   -17.7550 
   63.0000     2.3620    80.3890     7.3030     5.9630     5.8200    24.1840   -17.7140 
   63.1250     2.4010    78.5170     7.4990     6.1880     6.7350    24.3430   -17.6940 
   63.2500     2.3970    75.0150     7.5430     6.2720     6.7620    24.4100   -17.6700 
   63.3750     2.3580    74.0060     7.3830     6.1590     6.3670    24.5080   -17.6390 
   63.5000     2.3090    78.8310     7.0210     5.8600     5.9130    24.5200   -17.5640 
   63.6250     2.2750    84.5040     6.5830     5.5040     5.5850    24.4700   -17.4960 
   63.7500     2.2730    87.4400     6.1790     5.1830     5.4040    24.4550   -17.3900 
   63.8750     2.2900    88.7130     5.9090     4.9600     5.1670    24.4200   -17.2850 
   64.0000     2.3180    89.1060     5.8760     4.8870     5.1870    24.4020   -17.1970 
   64.1250     2.3520    89.0820     6.0430     4.9430     5.2820    24.2860   -17.1080 
   64.2500     2.3820    88.4670     6.3610     5.1140     5.5190    24.1430   -17.0750 
   64.3750     2.3950    85.2490     6.7460     5.3670     5.7900    23.9580   -17.0650 
   64.5000     2.3880    81.8930     7.0960     5.6390     6.5320    23.6710   -17.1170 
   64.6250     2.3630    81.6480     7.3380     5.8520     7.9200    23.4960   -17.1970 
   64.7500     2.3270    83.4510     7.4340     5.9600     8.8100    23.4850   -17.3130 
   64.8750     2.2860    83.9100     7.3940     5.9590     7.4760    23.6040   -17.4500 
   65.0000     2.2510    81.9680     7.2620     5.8750     6.7630    23.8230   -17.5810 
   65.1250     2.2310    81.2910     7.1110     5.7670     6.4800    24.0640   -17.7460 
   65.2500     2.2300    81.8710     6.9620     5.6620     6.3510    24.3710   -17.8740 
   65.3750     2.2410    81.6940     6.8260     5.5720     6.2680    24.6480   -17.9930 
   65.5000     2.2630    80.2310     6.7160     5.4970     6.3290    24.7750   -18.0740 
   65.6250     2.2900    78.7760     6.6480     5.4320     6.2090    24.8390   -18.1150 
   65.7500     2.3140    79.1440     6.6410     5.3930     5.9730    24.8550   -18.1330 
   65.8750     2.3270    81.8330     6.6950     5.4000     5.9140    24.7750   -18.1150 
   66.0000     2.3260    85.7100     6.7840     5.4650     6.1030    24.5040   -18.0590 
   66.1250     2.3190    88.7090     6.8660     5.5630     6.2610    24.1890   -17.9530 
   66.2500     2.3190    90.2130     6.9170     5.6640     6.3840    23.9930   -17.8160 
   66.3750     2.3300    89.9300     6.9140     5.7280     6.5360    23.9550   -17.6390 
   66.5000     2.3450    87.6360     6.8230     5.7050     6.4080    23.8350   -17.4670 
   66.6250     2.3540    85.8500     6.6790     5.6150     5.9270    23.6630   -17.2700 
   66.7500     2.3540    85.6860     6.5450     5.5030     5.7250    23.4750   -17.0910 
   66.8750     2.3500    85.9130     6.4940     5.4180     5.6730    23.3780   -16.9250 
   67.0000     2.3460    85.1840     6.5800     5.4080     5.6540    23.3700   -16.8000 
   67.1250     2.3350    84.3530     6.7360     5.4540     5.6480    23.3970   -16.7270 
   67.2500     2.3110    83.0810     6.8730     5.5120     5.7390    23.5100   -16.7040 
   67.3750     2.2850    81.2870     6.8960     5.5170     6.0440    23.7540   -16.7600 
   67.5000     2.2710    80.8830     6.7410     5.3990     6.1960    24.0690   -16.8590 
   67.6250     2.2730    82.6740     6.5200     5.2080     6.0930    24.2260   -17.0500 
   67.7500     2.2810    85.0600     6.4380     5.0690     5.7820    24.2520   -17.2960 
   67.8750     2.2820    86.3300     6.7490     5.1540     5.5160    24.2210   -17.5660 
   68.0000     2.2940    84.0210     7.8230     5.7200     5.8040    24.2200   -17.8860 
   68.1250     2.3440    77.6810     9.7200     6.8450     6.8100    24.0330   -18.2220 
   68.2500     2.4410    69.8190    12.3750     8.5760     9.4730    23.5570   -18.5990 
   68.3750     2.5130    63.5870    15.3380    10.7460    15.2500    23.0310   -18.9700 
   68.5000     2.5030    59.1160    17.4580    12.6950    18.0960    22.8140   -19.3530 
   68.6250     2.4180    55.9090    18.0030    13.6930    14.2820    22.9520   -19.6870 
   68.7500     2.3080    55.3140    17.1360    13.5970    11.2450    23.2950   -19.9800 
   68.8750     2.2170    57.8910    15.6850    12.8500    10.4110    23.8120   -20.2450 
   69.0000     2.1640    60.1050    14.5550    12.0740    10.4160    24.1470   -20.4530 
   69.1250     2.1490    58.8250    14.0020    11.5910    10.3160    24.2700   -20.6080 
   69.2500     2.1620    56.4830    13.8990    11.4010    10.1950    24.2860   -20.6860 
   69.3750     2.1870    55.2370    14.0210    11.3990    10.2370    24.2860   -20.7090 
   69.5000     2.2110    55.5690    14.1990    11.4910    10.3770    24.2860   -20.6560 
   69.6250     2.2250    56.0640    14.3500    11.6020    10.4280    24.2860   -20.5990 
   69.7500     2.2260    55.2630    14.4590    11.7000    10.3800    24.2860   -20.5020 
   69.8750     2.2260    53.9240    14.5410    11.7700    10.3050    24.2740   -20.3920 
   70.0000     2.2310    52.4160    14.6290    11.8220    10.1890    24.1970   -20.2880 
   70.1250     2.2400    51.5440    14.7500    11.8830    10.0630    24.0630   -20.1780 
   70.2500     2.2340    50.9380    14.9120    11.9640     9.8330    23.9970   -20.1100 
   70.3750     2.2080    49.6870    15.1090    12.0630     9.7960    24.0910   -20.0680 
   70.5000     2.1680    50.9050    15.2870    12.1480    10.3040    24.2780   -20.0820 
   70.6250     2.1320    54.4270    15.3660    12.1810    11.0220    24.3820   -20.1170 
   70.7500     2.1190    58.2570    15.2980    12.1350    11.2590    24.3710   -20.1840 
   70.8750     2.1270    60.3560    15.1000    12.0140    11.1490    24.3160   -20.3060 
   71.0000     2.1450    59.3340    14.8580    11.8480    11.0690    24.2910   -20.4150 
   71.1250     2.1610    57.0550    14.6770    11.7010    11.0100    24.2860   -20.5660 
   71.2500     2.1700    53.9930    14.6030    11.6110    10.9580    24.2860   -20.6940 
   71.3750     2.1760    51.6880    14.6280    11.5910    10.8910    24.2860   -20.8070 
