~V
VERS. 2.00: Ver 2.00
~W
STRT.M 58.0000:
STOP.M 272.0000:
STEP.M 0.1250:
NULL. -999.2500:
UWI. F10670:
~C
DEPT.M :
DEN.GM/CC :
GR.API :
RML.OHMM :
RI. :
RXO.OHMM :
CALI.CM :
SP.MV :
~A
# ...
   80.5000     2.2240    90.1340     6.0560     4.8780     5.6920    24.1660   -21.0040 
   80.6250     2.2410    86.9900     6.0010     4.8040     5.4350    24.1590   -20.9260 
   80.7500     2.2550    83.1540     6.2050     4.9400     5.3250    24.1530   -20.9400 
   80.8750     2.2580    78.6800     6.5970     5.2430     5.7010    24.1500   -20.9720 
   81.0000     2.2510    77.5600     7.0410     5.6310     6.5380    24.1260   -21.0860 
   81.1250     2.2390    79.7650     7.3630     5.9670     6.9970    24.0850   -21.1820 
   81.2500     2.2280    83.2680     7.4610     6.1550     7.4950    24.0200   -21.2330 
   81.3750     2.2220    86.8150     7.3340     6.1630     7.7970    23.9760   -21.3260 
   81.5000     2.2260    89.0120     7.1020     6.0450     7.1790    23.9570   -21.4130 
   81.6250     2.2370    87.9930     6.9720     5.9500     6.2050    23.9140   -21.3930 
   81.7500     2.2460    84.7270     7.0760     5.9820     5.8840    23.7880   -21.4780 
   81.8750     2.2450    80.9610     7.4530     6.1910     6.4620    23.5900   -21.6370 
   82.0000     2.2270    77.3420     8.0410     6.5650     7.4170    23.3670   -21.6380 
   82.1250     2.2020    74.3000     8.5990     6.9560     7.9080    23.2240   -21.6890 
   82.2500     2.1780    75.0790     8.9120     7.2180     7.6480    23.2060   -21.7850 
   82.3750     2.1660    80.1600     8.8400     7.2320     7.1650    23.2930   -21.7830 
   82.5000     2.1750    86.7790     8.3460     6.9270     6.6330    23.5120   -21.7190 
   82.6250     2.2010    92.4540     7.6440     6.4300     6.0910    23.8390   -21.6640 
   82.7500     2.2390    96.9960     6.8770     5.8530     5.6450    24.0590   -21.5500 
   82.8750     2.2770    99.2510     6.1440     5.2880     5.2090    24.1200   -21.4480 
   83.0000     2.3020    98.0640     5.5580     4.8260     4.9030    24.0960   -21.5560 
   83.1250     2.3090    93.9420     5.2140     4.5420     4.8260    24.0840   -21.6430 
   83.2500     2.3040    86.8500     5.2600     4.5490     4.9940    24.0810   -21.7990 
   83.3750     2.3020    77.9530     5.8720     5.0020     5.5130    24.0820   -22.1310 
   83.5000     2.3340    71.6800     7.3940     6.2220     6.7830    24.0740   -22.6210 
   83.6250     2.4070    70.4480     9.7710     8.2070    11.8010    24.0150   -23.2480 
   83.7500     2.5060    70.7290    12.6330    10.7060    22.8940    23.8670   -23.8890 
   83.8750     2.5940    68.3180    14.9910    12.9760    36.3520    23.7090   -24.4690 
   84.0000     2.6150    64.1350    15.2790    13.7320    35.7800    23.6130   -24.9510 
   84.1250     2.5620    62.9530    13.7160    12.8670    23.5440    23.6680   -25.4730 
   84.2500     2.4550    65.6670    11.4100    11.0450    13.0970    23.9000   -25.8990 
   84.3750     2.3330    68.7710     9.4630     9.1640     8.7940    24.2220   -26.2020 
   84.5000     2.2380    69.1580     8.4860     7.8800     8.0060    24.3940   -26.4940 
   84.6250     2.1790    67.7470     8.2330     7.1830     8.0650    24.4290   -26.6330 
   84.7500     2.1520    66.0630     8.4430     6.9410     8.0350    24.4250   -26.7260 
   84.8750     2.1430    65.6240     8.8380     6.9740     7.8960    24.4190   -26.7460 
   85.0000     2.1450    67.9050     9.1220     7.0900     7.7440    24.4000   -26.6010 
   85.1250     2.1480    70.8710     9.1510     7.1220     7.7970    24.3520   -26.4250 
   85.2500     2.1530    74.2070     8.9300     7.0200     7.8110    24.2460   -26.2730 
   85.3750     2.1610    79.1890     8.5620     6.8150     7.5920    24.0370   -26.1660 
   85.5000     2.1740    84.6290     8.2060     6.5960     6.9020    23.6800   -26.0250 
   85.6250     2.1890    86.0620     7.9850     6.4570     6.1900    23.3060   -26.0160 
   85.7500     2.1990    82.1330     7.9500     6.4460     6.1550    22.9670   -26.0250 
   85.8750     2.1990    75.5970     8.0920     6.5640     6.8620    22.6890   -26.0860 
   86.0000     2.1900    69.8580     8.3500     6.7810     7.4590    22.6250   -26.2620 
   86.1250     2.1780    67.0100     8.5930     7.0130     7.5310    22.9260   -26.4310 
   86.2500     2.1680    67.1830     8.7380     7.1950     7.5060    23.5120   -26.6100 
   86.3750     2.1660    68.8340     8.7560     7.2870     7.5840    24.0690   -26.7390 
   86.5000     2.1700    70.8590     8.6840     7.2750     7.5930    24.2370   -26.8360 
   86.6250     2.1770    72.2740     8.6200     7.2080     7.5490    24.2300   -26.8310 
   86.7500     2.1850    72.2620     8.6150     7.1280     7.5700    24.2560   -26.8080 
   86.8750     2.1920    70.8590     8.6920     7.0720     7.8300    24.3570   -26.7150 
   87.0000     2.1970    68.5590     8.8540     7.0670     8.0820    24.4110   -26.5120 
   87.1250     2.2010    66.5910     9.0590     7.1070     8.1660    24.4260   -26.2690 
   87.2500     2.2010    65.5750     9.2670     7.1820     8.2190    24.4260   -25.9990 
   87.3750     2.1980    64.4430     9.4330     7.2790     8.2230    24.4270   -25.7510 
   87.5000     2.1910    62.2600     9.5080     7.3850     8.1660    24.4250   -25.4410 
   87.6250     2.1810    59.9550     9.5000     7.4880     8.1160    24.4240   -24.9880 
   87.7500     2.1720    60.4790     9.4400     7.5860     8.0630    24.4190   -24.4890 
   87.8750     2.1660    62.9580     9.3660     7.6750     8.0630    24.3990   -24.0720 
   88.0000     2.1650    62.7580     9.2940     7.7360     8.0500    24.3580   -23.7490 
   88.1250     2.1670    61.7690     9.1970     7.7500     8.0640    24.3170   -23.3860 
   88.2500     2.1670    64.2290     9.0250     7.6850     7.9760    24.2610   -22.9860 
   88.3750     2.1660    72.0120     8.7310     7.5140     7.7670    24.0820   -22.4910 
   88.5000     2.1710    82.9130     8.2820     7.2070     7.2830    23.6170   -21.9680 
   88.6250     2.1870    91.4720     7.7600     6.8220     6.6920    22.9840   -21.5510 
   88.7500     2.2150    95.4440     7.2710     6.4330     6.2700    22.5500   -21.2040 
   88.8750     2.2500    95.7780     6.9220     6.1260     6.3240    22.4100   -20.7820 
   89.0000     2.2760    94.1960     6.8270     5.9990     6.1140    22.4890   -20.3720 
   89.1250     2.2810    89.3650     6.9560     6.0390     5.9920    22.7720   -20.0530 
   89.2500     2.2630    80.4500     7.2480     6.1980     6.2530    23.3520   -19.7710 
   89.3750     2.2280    72.6700     7.5890     6.3860     6.9140    24.0920   -19.5740 
   89.5000     2.1920    74.2260     7.8060     6.4780     7.3040    24.4630   -19.4370 
   89.6250     2.1730    82.4330     7.8090     6.4210     7.1780    24.4580   -19.3660 
   89.7500     2.1790    91.9990     7.6020     6.2260     6.6600    24.3060   -19.2410 
   89.8750     2.2080    98.0560     7.2760     5.9570     6.3480    24.2600   -19.1280 
   90.0000     2.2370    98.2950     7.0080     5.7230     6.0070    24.3220   -19.0520 
   90.1250     2.2410    94.4540     6.9550     5.6240     5.8020    24.3540   -19.0460 
   90.2500     2.2050    89.7220     7.2260     5.7380     6.3150    24.3450   -19.1310 
   90.3750     2.1420    85.7350     7.8910     6.1360     7.1040    24.2750   -19.2500 
   90.5000     2.0990    80.4750     9.0090     6.9130     7.9130    23.9660   -19.2960 
   90.6250     2.1200    74.4240    10.3500     7.9540    10.6390    23.3600   -19.1830 
   90.7500     2.2090    70.0610    11.5750     9.0480    20.1050    22.7760   -19.0610 
   90.8750     2.3340    70.0120    12.2470     9.8630    36.7570    22.7170   -19.0190 
   91.0000     2.4290    75.1860    11.9180     9.9700    35.0690    23.0960   -18.9320 
   91.1250     2.4570    81.4540    10.8730     9.4330    19.9640    23.3800   -18.7070 
   91.2500     2.4240    86.0080     9.5400     8.4970    10.9690    23.4730   -18.3780 
   91.3750     2.3580    87.9260     8.3360     7.4900     7.6790    23.4950   -18.0790 
   91.5000     2.2970    90.0900     7.5520     6.7070     6.9060    23.5400   -17.7920 
   91.6250     2.2610    92.9620     7.1350     6.2060     6.4210    23.6000   -17.6240 
