~V
VERS. 2.00: Ver 2.00
~W
STRT.M 51.0000:
STOP.M 221.0000:
STEP.M 0.1250:
NULL. -999.2500:
UWI. F10616:
~C
DEPT.M :
GR.API :
RML.OHMM :
RI. :
RXO.OHMM :
CALI.CM :
DEN.GM/CC :
SP.MV :
~A
# ...
  107.2500    67.0890    13.0980     9.8350    12.4780    24.7520     2.2040     0.3240 
  107.3750    67.6090    13.5600    10.1730    11.2380    24.6370     2.2230     0.5910 
  107.5000    68.8330    14.2500    10.6240     9.5600    24.3910     2.2320     0.8240 
  107.6250    67.5970    15.5200    11.4110    10.4800    24.2310     2.2130     1.0150 
  107.7500    61.8770    17.5360    12.6840    14.2600    24.2050     2.1710     1.1640 
  107.8750    55.2720    20.1460    14.4780    17.8990    24.2300     2.1330     1.2320 
  108.0000    52.5690    22.5490    16.3440    18.3420    24.1720     2.1200     1.2180 
  108.1250    53.5430    23.9550    17.7090    17.4390    24.0400     2.1300     1.1210 
  108.2500    56.1220    23.9650    18.1340    16.3470    23.9130     2.1450     0.9970 
  108.3750    59.6820    22.8390    17.6130    14.7990    23.9410     2.1510     0.8170 
  108.5000    63.5570    21.5470    16.8070    13.6570    24.0090     2.1520     0.6330 
  108.6250    66.7600    20.5660    16.0920    13.4350    24.0090     2.1480     0.4450 
  108.7500    67.2800    20.0940    15.6670    13.8830    23.9140     2.1370     0.2690 
  108.8750    66.1620    20.2720    15.6950    14.0710    23.9880     2.1210     0.1250 
  109.0000    67.1620    20.9450    16.1190    13.8720    24.1910     2.1210     0.0230 
  109.1250    68.6910    21.9320    16.8450    14.2590    24.4140     2.1650    -0.0140 
  109.2500    66.5910    22.9340    17.6740    15.8220    24.5800     2.2570     0.0100 
  109.3750    59.5310    23.4410    18.2300    19.0510    24.6640     2.3510     0.1560 
  109.5000    56.1310    23.1740    18.2360    18.4530    24.6310     2.3860     0.3410 
  109.6250    59.6910    22.1440    17.6320    15.3870    24.4170     2.3530     0.5860 
  109.7500    65.2020    20.7120    16.6290    12.9770    24.1920     2.2870     0.8680 
  109.8750    66.1670    19.5360    15.6710    12.1720    24.0830     2.2300     1.1970 
  110.0000    65.1250    19.1080    15.1570    11.4170    24.0900     2.1960     1.5630 
  110.1250    65.2770    19.6670    15.3070    10.6580    24.2090     2.1780     1.9650 
  110.2500    65.0720    21.1900    16.1880    11.4410    24.4880     2.1670     2.3610 
  110.3750    61.4490    23.3960    17.7370    14.7360    24.9420     2.1530     2.7470 
  110.5000    57.3280    25.5420    19.4590    19.0060    25.3580     2.1380     3.1080 
  110.6250    55.7390    27.0580    20.8990    20.5710    25.5210     2.1260     3.4090 
  110.7500    56.5330    27.6930    21.7550    19.1600    25.4400     2.1250     3.6530 
  110.8750    58.4700    27.7110    22.0600    16.8580    25.2520     2.1390     3.8170 
  111.0000    60.9860    27.9340    22.3740    16.0970    25.0750     2.1610     3.9230 
  111.1250    62.4840    28.8550    23.1090    17.9390    25.0470     2.1830     3.9700 
  111.2500    60.6880    30.5080    24.4050    21.1840    25.1510     2.1940     3.9800 
  111.3750    55.4920    32.3510    25.9950    23.9820    25.3010     2.1870     3.9180 
  111.5000    51.2830    33.4320    27.1340    24.7730    25.2720     2.1690     3.8380 
  111.6250    50.3340    33.0680    27.1810    23.5710    24.9840     2.1500     3.7450 
  111.7500    52.1890    31.1320    25.8940    20.3470    24.5910     2.1430     3.6420 
  111.8750    54.6340    28.1300    23.5730    16.9040    24.2550     2.1550     3.5530 
  112.0000    56.3370    25.1440    21.1330    14.2350    23.9960     2.1740     3.5130 
  112.1250    58.8370    22.7530    19.0810    12.8490    23.8440     2.1870     3.5090 
  112.2500    62.0430    21.2420    17.6740    12.5490    23.8110     2.1870     3.5480 
  112.3750    64.0500    20.8560    17.1330    12.8270    23.8460     2.1740     3.6510 
  112.5000    64.2890    21.3860    17.3330    13.7090    23.9250     2.1600     3.7820 
  112.6250    63.7050    22.7390    18.2370    14.9810    24.1130     2.1510     3.9770 
  112.7500    62.3670    24.7980    19.7860    17.0110    24.5020     2.1490     4.2170 
  112.8750    59.4050    27.4040    21.9280    21.0250    25.1210     2.1520     4.4800 
  113.0000    55.8710    30.0260    24.2690    25.4380    25.7010     2.1520     4.7010 
  113.1250    52.7900    32.0670    26.3290    27.6250    26.1940     2.1440     4.8850 
  113.2500    50.4220    32.9280    27.5330    28.2420    26.6960     2.1270     5.0080 
  113.3750    50.8110    32.0710    27.2580    27.8490    27.0090     2.1060     5.0640 
  113.5000    52.5370    30.0760    25.8570    25.9880    27.0380     2.0870     5.0560 
  113.6250    52.6260    27.6040    23.8610    22.6450    26.8500     2.0700     4.9790 
  113.7500    53.3430    25.2880    21.8330    18.3330    26.5570     2.0560     4.8470 
  113.8750    58.3150    23.6400    20.2400    16.1840    26.1090     2.0570     4.6800 
  114.0000    62.3720    22.6670    19.1610    15.5520    25.8380     2.0880     4.4950 
  114.1250    61.7780    22.2610    18.5500    15.8900    25.7660     2.1510     4.3050 
  114.2500    60.6800    22.2230    18.2830    16.2610    25.4990     2.2230     4.1250 
  114.3750    62.0160    22.3660    18.2280    15.6580    24.9510     2.2600     4.0050 
  114.5000    61.7300    22.5780    18.2640    15.3640    24.5290     2.2510     3.9560 
  114.6250    59.4150    22.9110    18.4020    16.1710    24.4430     2.2100     3.9520 
  114.7500    58.2400    23.4630    18.6990    16.8230    24.6360     2.1640     3.9940 
  114.8750    57.9540    24.3250    19.2320    16.6650    24.9670     2.1330     4.0770 
  115.0000    56.2260    25.3780    19.9370    17.9420    25.2570     2.1190     4.2160 
  115.1250    53.9730    26.4720    20.7230    19.8450    25.4220     2.1210     4.3720 
  115.2500    53.0290    27.4610    21.4840    20.9720    25.5070     2.1360     4.5650 
  115.3750    53.9200    28.2330    22.1150    21.1700    25.5950     2.1550     4.7300 
  115.5000    55.1490    28.8220    22.5990    21.1310    25.6980     2.1660     4.8630 
  115.6250    55.4360    29.2530    22.9310    20.9640    25.8230     2.1630     4.9790 
  115.7500    54.5900    29.5360    23.1220    21.1650    25.9450     2.1480     5.0820 
  115.8750    53.6760    29.6110    23.1540    21.8260    26.0310     2.1280     5.1520 
  116.0000    53.9260    29.4920    23.0450    22.2430    26.0000     2.1150     5.1720 
  116.1250    53.6660    29.2430    22.8290    21.9510    25.8960     2.1150     5.1700 
  116.2500    51.9420    29.0040    22.5870    20.9140    25.7510     2.1240     5.1040 
  116.3750    51.6410    28.9210    22.4250    20.3230    25.5230     2.1330     5.0010 
  116.5000    52.7850    28.9570    22.3520    20.1280    25.3860     2.1330     4.8400 
  116.6250    52.4120    28.9690    22.2950    20.6700    25.4580     2.1260     4.6290 
  116.7500    49.3620    28.7700    22.1290    20.6220    25.7190     2.1180     4.3630 
  116.8750    48.2200    28.1840    21.7120    19.8180    25.8330     2.1200     4.0700 
  117.0000    51.4010    27.3280    21.1020    18.3660    25.6970     2.1320     3.7550 
  117.1250    55.1780    26.3710    20.4160    17.3910    25.5910     2.1430     3.4170 
  117.2500    57.5550    25.4570    19.7660    17.2030    25.5930     2.1360     3.0910 
  117.3750    58.3200    24.6580    19.2350    17.5690    25.6410     2.1090     2.7750 
  117.5000    57.9050    23.9450    18.8150    18.2100    25.6560     2.0840     2.4980 
  117.6250    56.2530    23.3110    18.5020    18.2980    25.4580     2.0800     2.2490 
  117.7500    55.6000    22.8040    18.3150    17.3760    25.0040     2.1070     2.0390 
  117.8750    57.3720    22.5900    18.3500    16.4960    24.6810     2.1470     1.8580 
  118.0000    58.2140    22.6940    18.6270    16.9770    24.9040     2.1710     1.7240 
  118.1250    57.0930    22.9820    19.0800    18.5850    25.5170     2.1650     1.6120 
  118.2500    56.0250    23.1020    19.4820    19.8210    26.0980     2.1350     1.5000 
  118.3750    54.6340    22.3690    19.2870    20.0170    26.3990     2.0920     1.3830 
