~V
VERS. 2.00: Ver 2.00
~W
STRT.M 50.0000:
STOP.M 212.0000:
STEP.M 0.1250:
NULL. -999.2500:
UWI. F10691:
~C
DEPT.M :
GR.API :
RML.OHMM :
RI. :
RXO.OHMM :
CALI.CM :
SP.MV :
DEN.GM/CC :
~A
# ...
   72.5000    62.1230     9.5960     8.3830    10.6130    24.3870   -20.7130     2.2480 
   72.6250    57.7680     9.6680     8.3340     9.2120    23.8460   -20.3750     2.2420 
   72.7500    56.3170     9.7180     8.2960     8.5560    23.4590   -20.0120     2.2310 
   72.8750    60.1600     9.7720     8.2730     7.6360    22.9890   -19.6360     2.2160 
   73.0000    64.2520     9.9420     8.3320     6.5570    21.6980   -19.3060     2.1990 
   73.1250    61.3680    10.3790     8.5920     6.4800    20.4980   -19.0590     2.1790 
   73.2500    56.3420    11.0460     9.0490     7.0330    20.5190   -18.8770     2.1620 
   73.3750    55.4070    11.8460     9.6510     7.7240    21.5560   -18.7400     2.1470 
   73.5000    56.6800    12.6600    10.3180     8.1210    22.2900   -18.6370     2.1250 
   73.6250    54.2660    13.4020    10.9700     8.2090    22.4380   -18.5660     2.1020 
   73.7500    51.5750    14.1090    11.5870     8.0420    22.4490   -18.5280     2.0810 
   73.8750    53.1690    14.8530    12.2020     8.1300    22.3990   -18.5320     2.0670 
   74.0000    55.8430    15.6140    12.8200     9.0120    22.2930   -18.5660     2.0650 
   74.1250    55.0190    16.1620    13.3120     9.9440    22.4320   -18.6280     2.0790 
   74.2500    53.2800    16.2950    13.5270    10.1310    22.6390   -18.6810     2.0990 
   74.3750    53.0730    15.9610    13.3920     9.7230    22.6750   -18.7010     2.1180 
   74.5000    53.2550    15.3140    12.9760     9.1290    22.6790   -18.7030     2.1290 
   74.6250    53.0030    14.6810    12.4830     8.5150    22.6800   -18.7020     2.1310 
   74.7500    54.0550    14.3350    12.1460     8.3690    22.6880   -18.6890     2.1260 
   74.8750    56.2500    14.3560    12.0710     8.5320    22.7380   -18.6670     2.1170 
   75.0000    56.3720    14.6890    12.2660     8.6140    22.7630   -18.6450     2.1020 
   75.1250    53.3220    15.2100    12.6860     8.6740    22.7820   -18.6150     2.0780 
   75.2500    50.7660    15.6680    13.1540     9.1240    22.8580   -18.5910     2.0530 
   75.3750    50.6370    15.8240    13.4720    10.2830    23.1310   -18.5990     2.0390 
   75.5000    51.7010    15.4650    13.4290    12.0740    23.1590   -18.6410     2.0490 
   75.6250    53.5580    14.4520    12.8250    12.7860    23.0410   -18.6970     2.0940 
   75.7500    57.1730    13.0990    11.8460    11.2360    22.7250   -18.7560     2.1520 
   75.8750    59.9990    11.7330    10.7390     9.3560    22.5450   -18.7870     2.2010 
   76.0000    60.2450    10.6260     9.7420     7.6600    22.4720   -18.7780     2.2200 
   76.1250    60.6180     9.9480     9.0390     6.8510    22.5550   -18.7530     2.2090 
   76.2500    61.2650     9.5610     8.5890     6.7440    22.9340   -18.7030     2.1930 
   76.3750    60.3060     9.3100     8.3080     7.0760    23.1770   -18.6080     2.1910 
   76.5000    59.2330     9.0330     8.0820     7.2680    23.2850   -18.4760     2.2080 
   76.6250    61.2090     8.6060     7.7950     6.9360    23.2270   -18.3300     2.2350 
   76.7500    63.6110     8.0790     7.4280     6.4260    23.0100   -18.1810     2.2550 
   76.8750    63.3880     7.5430     7.0240     6.3760    22.8570   -18.0550     2.2650 
   77.0000    64.2410     7.0750     6.6440     6.3910    23.0280   -17.9600     2.2680 
   77.1250    67.2430     6.7350     6.3530     6.0500    23.3060   -17.8590     2.2730 
   77.2500    67.5370     6.5210     6.1690     5.7470    23.6150   -17.7560     2.2780 
   77.3750    65.4720     6.4610     6.1140     5.7480    23.8310   -17.6670     2.2810 
   77.5000    64.7170     6.5900     6.2110     5.8370    23.9720   -17.5720     2.2770 
   77.6250    66.1110     6.9390     6.4930     5.7750    23.8640   -17.4350     2.2680 
   77.7500    66.8480     7.3880     6.8780     5.7920    23.5670   -17.2520     2.2600 
   77.8750    67.2910     7.7780     7.2430     5.9830    23.2620   -17.0420     2.2590 
   78.0000    68.7290     7.9390     7.4320     6.1110    22.8220   -16.8170     2.2650 
   78.1250    71.4300     7.6950     7.2600     6.1280    22.7730   -16.5850     2.2780 
   78.2500    72.5000     7.1200     6.7690     6.0060    23.3150   -16.3640     2.2930 
   78.3750    69.7820     6.3500     6.0630     5.7170    23.7310   -16.1390     2.3030 
   78.5000    65.5590     5.5810     5.3050     5.2920    23.8420   -15.9290     2.3020 
   78.6250    66.1960     5.0620     4.6990     4.9290    23.8260   -15.7650     2.2810 
   78.7500    72.4160     4.9370     4.3720     4.6820    23.7580   -15.6550     2.2450 
   78.8750    77.8780     5.3520     4.4330     4.5840    23.6570   -15.5550     2.2040 
   79.0000    76.7810     6.4560     4.9920     4.8950    23.5260   -15.4610     2.1730 
   79.1250    68.0280     9.1130     6.2740     6.2460    23.3310   -15.3950     2.1620 
   79.2500    58.5740    12.1610     8.2560     8.9220    23.1200   -15.3380     2.1690 
   79.3750    54.3100    15.6870    10.8350    12.6430    23.0910   -15.2900     2.1820 
   79.5000    55.0570    18.9430    13.5840    15.3920    23.1350   -15.2440     2.1930 
   79.6250    55.8800    20.7900    15.6070    13.8550    23.3390   -15.1980     2.1990 
   79.7500    53.2910    21.1420    16.5160    11.7220    23.3700   -15.1540     2.2050 
   79.8750    50.1610    20.4340    16.4640    10.8600    23.3770   -15.1430     2.2110 
   80.0000    50.1340    19.2420    15.8450    10.8050    23.3770   -15.1430     2.2140 
   80.1250    52.3350    18.0240    15.0140    10.6660    23.3730   -15.1420     2.2020 
   80.2500    52.6000    17.0970    14.2780    10.1780    23.3440   -15.1290     2.1780 
   80.3750    51.9270    16.7030    13.8340     9.6180    23.2640   -15.1030     2.1460 
   80.5000    54.1190    17.0090    13.8400     9.0990    23.1640   -15.0730     2.1150 
   80.6250    57.8760    18.0430    14.4290     9.0110    23.0870   -15.0520     2.1010 
   80.7500    56.7880    19.1970    15.2950     9.5080    23.0720   -15.0370     2.1100 
   80.8750    52.3220    19.6740    15.9090    10.6760    23.0620   -15.0230     2.1410 
   81.0000    51.2360    18.6990    15.5880    11.4630    23.0080   -15.0080     2.1850 
   81.1250    56.4120    15.9800    13.8460    10.4180    23.0010   -14.9940     2.2310 
   81.2500    62.6530    12.7550    11.4830     8.5360    23.0000   -14.9820     2.2700 
   81.3750    66.3830    10.0330     9.2660     6.8610    22.9940   -14.9700     2.2950 
   81.5000    70.5270     8.3330     7.6570     5.8750    22.9820   -14.9380     2.3050 
   81.6250    76.2620     7.8820     6.9140     5.5290    22.9240   -14.8530     2.2920 
   81.7500    79.4310     8.3270     6.8750     5.8890    22.9200   -14.7220     2.2610 
   81.8750    77.4240     9.4710     7.4590     6.4810    23.1610   -14.5640     2.2150 
   82.0000    71.3200    11.0350     8.5300     7.0420    23.3450   -14.3910     2.1630 
   82.1250    66.4980    12.4760     9.7660     7.9410    23.4020   -14.2330     2.1170 
   82.2500    62.7380    13.1990    10.6100     8.8430    23.4830   -14.0810     2.0940 
   82.3750    60.6070    12.9710    10.7190     9.0490    23.5930   -13.9240     2.1040 
   82.5000    63.5210    12.1150    10.1940     8.4030    23.6870   -13.7470     2.1520 
   82.6250    68.2470    11.4150     9.5510     7.4400    23.7020   -13.5470     2.2290 
   82.7500    67.8790    11.4700     9.3070     7.1530    23.7050   -13.3270     2.2980 
   82.8750    61.7850    12.5360     9.7140     7.5010    23.7050   -13.0690     2.3270 
   83.0000    55.4510    14.6200    10.8850     8.5800    23.7180   -12.8090     2.3010 
   83.1250    52.9010    17.4970    12.8490    10.6020    23.8060   -12.5340     2.2340 
   83.2500    51.5680    20.3240    15.0940    12.4680    24.0350   -12.2580     2.1650 
   83.3750    50.0570    22.3340    17.0420    13.3210    24.1270   -12.0100     2.1160 
   83.5000    48.9030    23.1310    18.2410    13.0680    24.0600   -11.8110     2.0920 
   83.6250    50.1670    22.9470    18.6540    12.4370    23.9550   -11.6830     2.0890 
