~V
VERS. 2.00: Ver 2.00
~W
STRT.M 61.0000:
STOP.M 247.0000:
STEP.M 0.1250:
NULL. -999.2500:
UWI. F10600:
~C
DEPT.M :
GR.API :
RML.OHMM :
RI. :
RXO.OHMM :
CALI.CM :
DEN.GM/CC :
SP.MV :
~A
# ...
  139.7500    68.3430    42.1260    39.2680    36.6190    24.4180     2.1490   -19.2860 
  139.8750    68.5470    45.7330    41.7140    39.3260    24.2890     2.1570   -19.2690 
  140.0000    65.7720    48.7950    43.8380    40.9560    24.2040     2.1740   -19.2010 
  140.1250    63.3830    50.8640    45.7150    41.6980    24.0740     2.1940   -19.0850 
  140.2500    63.8860    52.3340    47.7100    43.7170    23.9300     2.2120   -18.9130 
  140.3750    65.1010    53.7610    50.1090    48.3210    23.8160     2.2280   -18.7120 
  140.5000    65.5390    55.6650    53.0510    54.6260    23.7710     2.2410   -18.5070 
  140.6250    64.9050    58.2920    56.4970    55.6940    23.8020     2.2430   -18.3000 
  140.7500    64.3900    61.0700    59.9500    55.9360    23.9210     2.2320   -18.0890 
  140.8750    64.5350    63.0690    62.6830    55.9360    24.1820     2.2040   -17.9080 
  141.0000    66.4570    62.9810    63.5890    55.9360    24.6470     2.1620   -17.7660 
  141.1250    69.4770    58.8540    60.7350    55.9610    25.1730     2.1160   -17.6580 
  141.2500    71.5800    51.2480    54.1700    53.9670    25.4990     2.0840   -17.6170 
  141.3750    73.2850    41.8620    45.0530    52.5020    25.5970     2.0730   -17.6520 
  141.5000    74.8870    32.9880    35.5830    46.2770    25.5880     2.0870   -17.6780 
  141.6250    77.3430    26.7430    28.3120    31.5390    25.5190     2.1190   -17.7080 
  141.7500    80.1850    23.2680    23.9660    19.9370    25.4970     2.1540   -17.7850 
  141.8750    81.2340    22.4650    22.6280    16.2250    25.5130     2.1820   -17.8750 
  142.0000    78.2580    24.1960    24.1560    19.0790    25.5120     2.1990   -17.9640 
  142.1250    72.3140    29.0250    28.7720    27.5180    25.4310     2.2030   -18.0690 
  142.2500    67.4040    36.2870    35.5140    34.7520    25.2620     2.2020   -18.1820 
  142.3750    64.2080    44.6870    43.3310    40.8170    25.1300     2.1990   -18.2470 
  142.5000    62.6760    52.3020    50.7220    44.7650    25.0970     2.1980   -18.3450 
  142.6250    61.9050    57.4270    55.9770    45.0670    25.0430     2.1970   -18.5050 
  142.7500    61.0290    60.4930    59.1100    43.6670    24.9980     2.1890   -18.6180 
  142.8750    60.4120    62.2600    60.7160    42.1790    24.8840     2.1710   -18.7310 
  143.0000    61.3290    63.4260    61.4970    34.9420    24.5840     2.1450   -18.8680 
  143.1250    63.3130    64.6750    61.7360    30.9960    24.0790     2.1200   -18.9970 
  143.2500    62.5030    65.9710    61.4360    29.2970    23.4640     2.1100   -19.1340 
  143.3750    59.5270    66.1810    60.3980    29.2370    22.9440     2.1190   -19.2950 
  143.5000    57.5830    64.3090    58.5020    29.3330    22.7000     2.1460   -19.4080 
  143.6250    57.4260    60.4080    55.6690    29.4990    22.7480     2.1930   -19.4570 
  143.7500    57.0710    55.6590    52.2580    30.2620    23.0220     2.2530   -19.5470 
  143.8750    55.2120    50.5800    48.5450    30.9160    23.4780     2.3190   -19.5940 
  144.0000    53.2950    45.7150    44.8360    29.4330    23.9630     2.3780   -19.6380 
  144.1250    51.7490    41.7220    41.5570    32.8370    24.3470     2.4160   -19.6700 
  144.2500    51.2400    38.8590    38.9860    33.4200    24.6540     2.4380   -19.6860 
  144.3750    52.8000    37.2650    37.3110    33.4210    24.9350     2.4500   -19.7190 
  144.5000    55.3050    36.8060    36.5120    34.4000    25.0870     2.4610   -19.7250 
  144.6250    57.0450    36.9110    36.2130    32.5040    25.1240     2.4750   -19.7390 
  144.7500    58.2740    36.3680    35.4310    31.4090    25.1190     2.4850   -19.7850 
  144.8750    60.3220    34.2000    33.2900    36.6590    25.0830     2.4850   -19.8660 
  145.0000    64.6080    30.1260    29.4610    39.1840    24.9820     2.4710   -19.9400 
  145.1250    70.8810    24.8900    24.5290    30.7660    24.8520     2.4450   -20.0270 
  145.2500    75.7730    20.0990    19.9560    20.9090    24.7780     2.4200   -20.0860 
  145.3750    76.5600    16.6560    16.5910    14.0640    24.7810     2.4050   -20.1220 
  145.5000    72.5300    14.9040    14.7570    10.4480    24.8170     2.4060   -20.1700 
  145.6250    66.1470    15.0530    14.6620    11.7130    24.8090     2.4230   -20.2170 
  145.7500    61.0720    16.5610    15.8810    15.3620    24.7230     2.4440   -20.2330 
  145.8750    58.8160    19.0690    18.1810    19.2350    24.6430     2.4570   -20.1950 
  146.0000    58.8890    22.1090    21.1730    24.1250    24.6820     2.4520   -20.1620 
  146.1250    59.4310    25.0670    24.2060    26.6440    24.9800     2.4310   -20.1320 
  146.2500    58.4930    27.4560    26.6470    29.1370    25.4150     2.4120   -20.1060 
  146.3750    56.1310    29.0890    28.2370    29.6580    25.6970     2.4130   -20.0920 
  146.5000    54.1760    30.0080    29.0320    32.1880    25.7630     2.4440   -20.1060 
  146.6250    54.3970    30.3340    29.1980    32.5510    25.6660     2.4980   -20.1460 
  146.7500    55.4100    30.3940    29.0940    32.0020    25.6210     2.5460   -20.1930 
  146.8750    55.4830    30.4160    28.9200    29.2910    25.6110     2.5700   -20.2710 
  147.0000    56.1450    30.6000    28.8500    27.7440    25.6170     2.5640   -20.3600 
  147.1250    58.7030    31.0360    29.0300    27.8060    25.6370     2.5390   -20.4630 
  147.2500    60.8480    31.3600    29.4020    29.0660    25.6490     2.5190   -20.5780 
  147.3750    61.8610    31.2360    29.8320    29.6300    25.6020     2.5160   -20.6870 
  147.5000    62.2710    31.0560    30.1350    29.2190    25.5280     2.5350   -20.8040 
  147.6250    62.1180    30.8590    30.1050    29.0010    25.5170     2.5680   -20.9230 
  147.7500    60.8490    30.6180    29.7880    28.9730    25.5790     2.5970   -21.0420 
  147.8750    58.8190    30.3230    29.3080    29.4820    25.6430     2.6140   -21.1610 
  148.0000    56.5420    30.0930    28.8330    29.0220    25.6630     2.6180   -21.2490 
  148.1250    54.4220    29.9600    28.5320    28.6840    25.6420     2.6160   -21.3200 
  148.2500    53.5060    29.8850    28.4430    29.0050    25.6270     2.6190   -21.4350 
  148.3750    53.1660    29.8570    28.5520    29.8470    25.6210     2.6280   -21.5090 
  148.5000    53.4610    29.8750    28.8040    28.6590    25.6250     2.6430   -21.5820 
  148.6250    56.8460    29.9270    29.1070    28.1640    25.6420     2.6580   -21.6490 
  148.7500    61.1470    29.9290    29.3280    29.3580    25.6650     2.6710   -21.6730 
  148.8750    62.9680    29.7740    29.3380    29.3970    25.6730     2.6810   -21.7090 
  149.0000    61.5900    29.3500    29.0170    28.1470    25.6270     2.6830   -21.7570 
  149.1250    58.9450    28.5570    28.2310    26.6310    25.5260     2.6730   -21.8020 
  149.2500    56.4890    27.5560    27.1220    26.1920    25.4760     2.6520   -21.7920 
  149.3750    54.6790    26.5810    25.8990    24.7410    25.4570     2.6240   -21.8120 
  149.5000    54.8360    25.8930    24.8480    23.5530    25.4160     2.5960   -21.8120 
  149.6250    56.4830    25.7400    24.3270    23.3660    25.3810     2.5770   -21.8460 
  149.7500    57.4810    26.0140    24.3790    24.2040    25.3630     2.5680   -21.9190 
  149.8750    57.8450    26.5300    24.9210    25.4480    25.3080     2.5660   -21.9810 
  150.0000    58.2160    27.0430    25.7270    25.7780    25.1590     2.5710   -22.0820 
  150.1250    58.5750    27.3040    26.4720    25.6210    24.9000     2.5850   -22.1410 
  150.2500    58.0520    27.2940    26.9530    22.8700    24.7360     2.6060   -22.2210 
  150.3750    56.6650    27.1080    27.1550    21.5280    24.6170     2.6330   -22.3360 
  150.5000    56.2700    26.9370    27.1900    21.0060    24.5450     2.6610   -22.4550 
  150.6250    58.9500    27.0520    27.2460    21.4350    24.5230     2.6810   -22.5420 
  150.7500    61.3940    27.5360    27.4400    22.7880    24.5210     2.6880   -22.6170 
  150.8750    60.7110    28.3390    27.7630    24.0200    24.5300     2.6820   -22.6570 
