~V
VERS. 2.00: Ver 2.00
~W
STRT.M 55.0000:
STOP.M 226.0000:
STEP.M 0.1250:
NULL. -999.2500:
UWI. F10689:
~C
DEPT.M :
DEN.GM/CC :
GR.API :
RML.OHMM :
RI. :
RXO.OHMM :
CALI.CM :
SP.MV :
~A
# ...
   88.7500     2.2040    59.4690    15.2850    13.1950     9.5360    21.9570   -14.3180 
   88.8750     2.1970    61.7160    15.6750    13.4610     9.6470    21.7960   -14.2860 
   89.0000     2.1940    63.1210    16.0400    13.8090    10.0260    21.6030   -14.2180 
   89.1250     2.1900    60.5930    16.0980    14.0340    10.7560    21.5680   -14.1410 
   89.2500     2.1860    58.1380    15.6360    13.8940    11.1050    21.5840   -14.0310 
   89.3750     2.1880    59.3340    14.5400    13.2140    10.9380    21.6170   -13.9310 
   89.5000     2.2000    63.6770    12.9310    12.0090    10.2910    21.6120   -13.8570 
   89.6250     2.2290    68.0590    11.2600    10.5720     9.0920    21.6120   -13.8240 
   89.7500     2.2660    71.0310    10.0830     9.3890     7.6530    21.6280   -13.8240 
   89.8750     2.3030    72.8230     9.7120     8.7610     6.7010    21.6300   -13.8650 
   90.0000     2.3250    72.4780    10.2750     8.8530     6.4560    21.6240   -13.9310 
   90.1250     2.3170    68.5510    11.8000     9.8150     7.0730    21.6310   -14.0130 
   90.2500     2.2870    64.5010    13.6730    11.2960     8.4510    21.6380   -14.0770 
   90.3750     2.2530    64.5460    15.0640    12.6990     9.8820    21.6790   -14.1050 
   90.5000     2.2330    67.1950    15.0410    13.1610    10.1740    21.7260   -14.1140 
   90.6250     2.2410    67.6790    13.1190    11.9930     9.6220    21.9300   -14.1090 
   90.7500     2.2670    67.6330    10.5360    10.0410     8.4060    22.3510   -14.0860 
   90.8750     2.2930    70.7570     8.3180     8.1480     6.7120    22.7790   -14.0500 
   91.0000     2.3020    76.8920     6.9450     6.7880     5.4690    23.1210   -14.0160 
   91.1250     2.2850    79.4790     6.5160     6.1550     5.2870    23.1560   -14.0040 
   91.2500     2.2560    76.5560     6.6710     6.0470     5.4740    23.0600   -14.0530 
   91.3750     2.2250    73.0270     7.2150     6.3320     5.6820    22.7820   -14.1470 
   91.5000     2.2020    73.5550     7.9380     6.8480     6.0930    22.6670   -14.2720 
   91.6250     2.1940    73.0340     8.5650     7.3790     6.3360    22.6490   -14.3960 
   91.7500     2.1980    66.2130     8.9080     7.7280     6.4320    22.6500   -14.5170 
   91.8750     2.2110    58.9610     8.9110     7.8100     6.4540    22.6580   -14.6100 
   92.0000     2.2260    60.4830     8.6300     7.6320     6.4210    22.6940   -14.6570 
   92.1250     2.2290    69.1910     8.2560     7.3050     6.3990    22.7760   -14.6540 
   92.2500     2.2140    75.0090     8.0740     7.0560     6.4020    22.7900   -14.5960 
   92.3750     2.1870    77.1030     8.3040     7.0620     6.3160    22.7970   -14.5200 
   92.5000     2.1660    76.5010     9.1160     7.4640     6.2930    22.7840   -14.4430 
   92.6250     2.1720    71.7590    10.6900     8.4420     6.9380    22.6940   -14.3810 
   92.7500     2.1970    65.5130    12.7490     9.8750     8.6730    22.5760   -14.3520 
   92.8750     2.2240    60.9040    14.8460    11.5230    10.5290    22.5140   -14.3550 
   93.0000     2.2320    59.0180    16.3420    12.9380    10.8650    22.3060   -14.4010 
   93.1250     2.2080    58.1100    16.5830    13.5340    10.1060    21.9970   -14.4570 
   93.2500     2.1680    56.8690    15.9690    13.4100     9.5670    21.8870   -14.5320 
   93.3750     2.1320    54.6430    15.1230    12.9390     9.1960    21.8630   -14.5650 
   93.5000     2.1130    53.9280    14.5270    12.5020     9.0600    21.8850   -14.6260 
   93.6250     2.1220    57.9330    14.2760    12.2690     9.2170    21.7970   -14.6780 
   93.7500     2.1510    61.8340    14.0470    12.0850     9.4280    21.7770   -14.7060 
   93.8750     2.1930    63.6470    13.6020    11.7610     9.4090    21.9400   -14.6920 
   94.0000     2.2410    67.3510    12.8460    11.1700     9.0790    22.1600   -14.6570 
   94.1250     2.2800    72.2970    11.8290    10.2990     8.4590    22.3110   -14.5880 
   94.2500     2.3010    73.2380    10.7710     9.3490     7.9410    22.4250   -14.5230 
   94.3750     2.3000    70.6450     9.8200     8.4870     8.0220    22.5150   -14.4750 
   94.5000     2.2760    68.5240     9.0930     7.8320     7.9950    22.3370   -14.4560 
   94.6250     2.2320    68.2460     8.7810     7.5170     7.3900    22.1440   -14.4630 
   94.7500     2.1860    68.3510     8.9230     7.5430     6.7620    21.9720   -14.4770 
   94.8750     2.1520    68.0490     9.5030     7.9140     6.4730    21.9530   -14.5000 
   95.0000     2.1420    65.2520    10.3880     8.5810     6.6690    22.0720   -14.5530 
   95.1250     2.1630    60.9110    11.3020     9.4120     7.4970    22.1670   -14.6430 
   95.2500     2.2010    59.9110    11.8930    10.1170     8.7440    22.4330   -14.7240 
   95.3750     2.2420    62.0480    11.9270    10.4360     9.4060    22.7910   -14.7910 
   95.5000     2.2750    65.8230    11.3910    10.2420     8.4250    23.2970   -14.8160 
   95.6250     2.2910    69.3380    10.5180     9.6020     7.3000    23.3800   -14.7910 
   95.7500     2.2950    71.4930     9.7040     8.8610     6.7480    23.2290   -14.7490 
   95.8750     2.2890    72.1580     9.1320     8.2190     6.6590    23.3030   -14.6690 
   96.0000     2.2780    72.1280     8.8360     7.7680     6.5000    23.5810   -14.5230 
   96.1250     2.2700    72.9920     8.7490     7.5230     6.3860    23.7240   -14.3400 
   96.2500     2.2650    72.8650     8.7050     7.3730     6.3530    23.8600   -14.1600 
   96.3750     2.2580    71.1190     8.6450     7.2510     6.4100    23.8310   -13.9790 
   96.5000     2.2460    68.8890     8.6200     7.1540     6.4680    23.6130   -13.8270 
   96.6250     2.2240    68.1580     8.8350     7.1870     6.4190    23.4960   -13.6940 
   96.7500     2.2020    66.2180     9.4830     7.4690     6.3940    23.2770   -13.5520 
   96.8750     2.1890    61.5040    10.7570     8.1330     6.8010    23.1620   -13.4100 
   97.0000     2.1920    58.5230    12.7910     9.3020     7.9550    22.9910   -13.2650 
   97.1250     2.2050    58.2810    15.6750    11.1280     9.9170    22.8000   -13.0940 
   97.2500     2.2150    56.4890    18.9760    13.4100    11.6410    22.7230   -12.8960 
   97.3750     2.2100    53.5160    22.1920    15.8480    12.4950    22.6900   -12.6660 
   97.5000     2.1830    52.7250    24.8130    18.0330    12.6820    22.5850   -12.3860 
   97.6250     2.1380    53.1730    26.4900    19.5760    12.9130    22.5800   -12.0690 
   97.7500     2.0960    50.8570    27.5920    20.6400    13.2260    22.6360   -11.7760 
   97.8750     2.0720    48.1470    28.4010    21.4650    13.5710    22.7050   -11.5340 
   98.0000     2.0760    47.7940    28.9360    22.1720    13.7860    22.7710   -11.3610 
   98.1250     2.1060    49.1320    28.7870    22.5560    13.8940    22.7600   -11.2570 
   98.2500     2.1410    50.1820    27.7930    22.4000    14.0240    22.8520   -11.2270 
   98.3750     2.1690    49.8880    26.0410    21.6210    14.0510    22.9060   -11.2650 
   98.5000     2.1880    49.6480    23.8090    20.3070    13.5650    22.8790   -11.3610 
   98.6250     2.2030    51.0590    21.3030    18.5460    11.9640    22.7140   -11.5380 
   98.7500     2.2210    52.9830    18.6770    16.5360    10.5970    22.6440   -11.7460 
   98.8750     2.2450    56.4920    15.9970    14.3870    10.6670    22.6070   -11.9390 
   99.0000     2.2700    63.8150    13.3780    12.2180    11.0250    22.6160   -12.1060 
   99.1250     2.2920    71.6850    11.0790    10.2320     9.6890    22.8490   -12.2510 
   99.2500     2.3090    74.9920     9.2290     8.5700     7.1530    22.9860   -12.3830 
   99.3750     2.3230    74.3700     7.8700     7.3020     5.4920    23.2430   -12.5020 
   99.5000     2.3360    74.1730     6.9610     6.4220     4.9880    23.4520   -12.6180 
   99.6250     2.3520    74.2120     6.4990     5.9300     4.8440    23.4840   -12.7210 
   99.7500     2.3670    73.4380     6.3720     5.7180     4.7890    23.4760   -12.8170 
   99.8750     2.3780    73.4620     6.5550     5.7520     4.7960    23.3910   -12.9500 
