~V
VERS. 2.00: Ver 2.00
~W
STRT.M 55.0000:
STOP.M 242.0000:
STEP.M 0.1250:
NULL. -999.2500:
UWI. F10652:
~C
DEPT.M :
SP.MV :
GR.API :
RML.OHMM :
RI. :
RXO.OHMM :
CALI.CM :
DEN.GM/CC :
~A
# ...
  122.5000     6.4330    54.7630    29.8030    26.5330    21.8650    23.9560     2.1430 
  122.6250     6.5890    56.7260    29.9220    26.9150    21.7600    23.9710     2.1450 
  122.7500     6.6890    56.7030    29.9020    27.1780    21.4300    24.0010     2.1480 
  122.8750     6.7350    56.3760    29.9390    27.4310    20.9650    24.0110     2.1520 
  123.0000     6.7750    56.0060    30.1260    27.7280    20.6040    24.0290     2.1530 
  123.1250     6.7280    53.7230    30.3790    28.0220    21.0280    24.1730     2.1440 
  123.2500     6.6710    50.7700    30.4600    28.1800    21.4630    24.4260     2.1300 
  123.3750     6.5730    50.1910    30.1390    28.0460    20.9160    24.6560     2.1180 
  123.5000     6.4580    52.4310    29.2420    27.4560    19.7110    24.7380     2.1130 
  123.6250     6.3030    56.2440    27.6710    26.2380    18.5010    24.4640     2.1200 
  123.7500     6.1280    60.2750    25.7860    24.6310    17.4610    23.9800     2.1340 
  123.8750     5.9800    63.1260    23.9530    22.9370    16.5450    23.6210     2.1510 
  124.0000     5.8170    63.5240    22.5270    21.4920    15.4060    23.5060     2.1670 
  124.1250     5.7070    62.0070    21.9020    20.6540    14.0510    23.5330     2.1800 
  124.2500     5.6610    60.7750    22.0400    20.4400    13.6410    23.5600     2.1890 
  124.3750     5.6790    61.1760    22.8040    20.7880    14.0730    23.5750     2.1880 
  124.5000     5.7860    61.8650    23.9320    21.5390    15.1190    23.5980     2.1770 
  124.6250     5.9720    59.7370    25.0570    22.4610    16.4160    23.6510     2.1570 
  124.7500     6.2230    56.7840    25.8600    23.2640    17.3090    23.7160     2.1370 
  124.8750     6.5280    57.1750    26.2430    23.7990    17.8200    23.7710     2.1230 
  125.0000     6.8660    60.0250    26.3220    24.0780    18.1230    23.7910     2.1160 
  125.1250     7.2190    59.4190    26.4030    24.2760    18.4630    23.7520     2.1130 
  125.2500     7.5380    56.2110    26.7650    24.6310    18.8880    23.6420     2.1090 
  125.3750     7.8430    54.9280    27.5460    25.2860    19.0690    23.4950     2.1060 
  125.5000     8.0870    55.2600    28.7860    26.3080    18.9770    23.3680     2.1060 
  125.6250     8.2870    53.4050    30.4970    27.7490    19.2910    23.3350     2.1110 
  125.7500     8.4560    51.0990    32.4670    29.4600    20.2480    23.4120     2.1190 
  125.8750     8.5250    50.7790    34.4510    31.2570    21.8140    23.5300     2.1240 
  126.0000     8.5510    52.7040    36.0290    32.7990    23.3560    23.5990     2.1240 
  126.1250     8.4520    56.0170    36.4230    33.4400    23.9060    23.5880     2.1180 
  126.2500     8.2370    57.4590    35.3990    32.9110    23.6930    23.5730     2.1130 
  126.3750     7.9030    55.9960    33.1020    31.2270    23.0530    23.5580     2.1110 
  126.5000     7.4100    52.7110    30.0850    28.7580    21.3340    23.5570     2.1130 
  126.6250     6.7870    51.8100    27.0640    26.0810    18.9540    23.5310     2.1190 
  126.7500     6.0520    53.7950    24.5210    23.7090    16.9590    23.5040     2.1260 
  126.8750     5.2290    56.5580    22.6420    21.8640    16.0480    23.4510     2.1360 
  127.0000     4.3640    58.3740    21.4670    20.6260    15.5190    23.3960     2.1470 
  127.1250     3.4880    58.1160    21.0160    20.0580    15.2100    23.3300     2.1560 
  127.2500     2.6310    58.1350    20.9680    19.9230    14.8480    23.2840     2.1590 
  127.3750     1.8100    60.0150    21.0350    20.0140    14.4990    23.2620     2.1590 
  127.5000     1.0560    62.3810    20.8830    20.0450    14.2330    23.2580     2.1600 
  127.6250     0.3980    62.7010    20.1140    19.6060    14.1570    23.2610     2.1670 
  127.7500    -0.2080    61.4700    18.7980    18.6190    13.8370    23.2680     2.1830 
  127.8750    -0.7080    59.7310    17.2510    17.2840    13.0640    23.2810     2.2000 
  128.0000    -1.1170    58.5650    15.9250    15.9980    12.0260    23.3010     2.2140 
  128.1250    -1.3930    59.7500    15.3810    15.2780    11.0780    23.3450     2.2170 
  128.2500    -1.5200    62.4140    15.7630    15.3070    11.1130    23.4060     2.2080 
  128.3750    -1.5230    63.0570    17.0750    16.1190    12.7830    23.4900     2.1960 
  128.5000    -1.3790    60.0230    19.0470    17.5290    15.2430    23.5870     2.1910 
  128.6250    -1.1810    56.3930    20.9070    18.9630    17.0630    23.7160     2.2060 
  128.7500    -0.8910    56.1560    21.6970    19.6290    18.4210    23.7820     2.2350 
  128.8750    -0.5780    58.7850    21.0520    19.1700    18.5500    23.7880     2.2670 
  129.0000    -0.2810    60.0910    19.4670    17.8950    15.7880    23.7540     2.2830 
  129.1250     0.0430    59.8240    17.9980    16.5980    12.6050    23.7510     2.2720 
  129.2500     0.3110    59.7060    17.3140    15.8720    10.1640    23.7820     2.2480 
  129.3750     0.5800    59.2200    17.5520    15.8840     9.7230    23.8260     2.2260 
  129.5000     0.8180    57.4530    18.5760    16.5780    13.2330    23.8690     2.2140 
  129.6250     1.0710    54.8540    20.0970    17.7630    17.0280    23.9060     2.2140 
  129.7500     1.3090    53.9730    21.5730    18.9880    18.1490    23.9290     2.2190 
  129.8750     1.5150    54.3530    22.6850    19.9600    16.1720    23.8860     2.2240 
  130.0000     1.7270    54.8880    23.3500    20.5780    14.4180    23.8110     2.2240 
  130.1250     1.8600    56.0840    23.7100    20.9250    15.8110    23.7390     2.2190 
  130.2500     1.9260    57.5760    24.0620    21.2280    16.2780    23.6660     2.2110 
  130.3750     1.9130    57.7510    24.5030    21.5800    16.0020    23.5430     2.2030 
  130.5000     1.8070    56.1610    24.9930    21.9680    15.8920    23.4450     2.1920 
  130.6250     1.6270    53.9460    25.3210    22.2460    16.1000    23.4120     2.1800 
  130.7500     1.4220    53.3970    25.3090    22.2630    16.3310    23.4200     2.1700 
  130.8750     1.1950    53.5170    24.9130    21.9600    16.4480    23.4860     2.1720 
  131.0000     0.9460    54.7980    24.1990    21.3790    16.9590    23.6470     2.1890 
  131.1250     0.7030    57.7600    23.1430    20.4960    16.2520    23.8060     2.2100 
  131.2500     0.5070    59.4220    21.7660    19.3210    14.4150    23.8540     2.2160 
  131.3750     0.3370    58.3000    20.1550    17.9080    12.7240    23.8190     2.2020 
  131.5000     0.2560    54.8600    18.5390    16.4360    13.0430    23.7860     2.1790 
  131.6250     0.2150    52.9250    17.3200    15.2280    12.5480    23.8070     2.1660 
  131.7500     0.1980    53.5590    16.7690    14.5270    10.6340    23.9330     2.1700 
  131.8750     0.2780    56.4750    17.0650    14.5090    10.1120    24.0990     2.1830 
  132.0000     0.3910    60.0560    18.2230    15.2260    12.8970    24.2280     2.1910 
  132.1250     0.5890    59.9570    20.1000    16.6550    15.7270    24.3510     2.1880 
  132.2500     0.8000    56.3120    22.0750    18.3680    16.4880    24.4380     2.1810 
  132.3750     0.9780    53.0930    23.5220    19.9000    17.0960    24.3450     2.1770 
  132.5000     1.1230    52.8570    23.9830    20.7930    17.5390    24.1320     2.1750 
  132.6250     1.2070    53.9470    23.5130    20.8560    16.4280    24.0460     2.1690 
  132.7500     1.2300    54.3300    22.9380    20.6220    15.9040    24.2420     2.1560 
  132.8750     1.1570    53.7630    22.7500    20.5200    15.6880    24.6690     2.1370 
  133.0000     0.9640    52.0080    23.0890    20.7750    15.2840    25.0680     2.1160 
  133.1250     0.6260    51.2440    23.6600    21.3220    14.9370    24.8710     2.0990 
  133.2500     0.1800    53.5300    23.6130    21.5580    15.6200    24.3140     2.1010 
  133.3750    -0.3620    55.6660    22.0820    20.7070    16.5320    23.8890     2.1310 
  133.5000    -0.9950    55.7990    18.8020    18.3030    16.0660    23.6440     2.1910 
  133.6250    -1.7070    60.3700    14.5460    14.6980    13.3870    23.4040     2.2640 
