~V
VERS. 2.00: Ver 2.00
~W
STRT.M 55.0000:
STOP.M 226.0000:
STEP.M 0.1250:
NULL. -999.2500:
UWI. F10689:
~C
DEPT.M :
DEN.GM/CC :
GR.API :
RML.OHMM :
RI. :
RXO.OHMM :
CALI.CM :
SP.MV :
~A
   55.0000     2.5420    39.3050     1.4260     0.2530     1.2680    24.7050     0.8030 
   55.1250     2.5400    39.8600     1.3370     0.2570     1.5750    24.1000     0.9190 
   55.2500     2.5100    42.8650     1.1560     0.2630     1.8340    23.5900     1.0630 
   55.3750     2.4690    45.7840     0.9710     0.2690     1.8580    23.5600     1.1240 
   55.5000     2.4350    45.3110     0.8410     0.2680     1.6460    24.0780     1.0410 
   55.6250     2.4220    41.3850     0.7710     0.2590     1.3400    24.4540     0.7860 
   55.7500     2.4240    38.3560     0.7430     0.2460     1.1230    24.9570     0.4370 
   55.8750     2.4360    36.6990     0.7540     0.2360     1.0040    25.3580    -0.0130 
   56.0000     2.4490    35.7100     0.7810     0.2300     0.9600    25.4780    -0.5880 
   56.1250     2.4550    35.1210     0.7860     0.2290     0.9620    25.4800    -1.2120 
   56.2500     2.4560    34.6830     0.7620     0.2330     0.9700    25.4540    -1.7420 
   56.3750     2.4570    34.5250     0.7210     0.2420     0.9800    25.4400    -2.0650 
   56.5000     2.4620    35.1080     0.6780     0.2520     0.9960    25.4130    -2.1390 
   56.6250     2.4790    36.2810     0.6270     0.2580     1.0090    25.4080    -1.9170 
   56.7500     2.5090    35.5860     0.5470     0.2550     1.0070    25.4070    -1.3940 
   56.8750     2.5490    33.4030     0.4260     0.2450     1.0000    25.4070    -0.4360 
   57.0000     2.5950    33.3310     0.2800     0.2350     1.0010    25.4070     1.0840 
   57.1250     2.6390    35.6620     0.1680     0.2300     1.0050    25.4070     3.3850 
   57.2500     2.6750    37.8580     0.1410     0.2310     1.0180    25.3990     6.4340 
   57.3750     2.6990    39.6520     0.2170     0.2370     1.0590    25.3310    10.0770 
   57.5000     2.7100    41.2970     0.3660     0.2490     1.1500    25.0690    13.9500 
   57.6250     2.7060    41.6890     0.4950     0.2660     1.3150    24.2110    17.7050 
   57.7500     2.6910    40.7770     0.5340     0.2800     1.4890    23.1490    21.1460 
   57.8750     2.6710    40.0110     0.4820     0.2880     1.6240    22.4070    24.0700 
   58.0000     2.6510    39.3060     0.3860     0.2870     1.6920    22.1600    26.1880 
   58.1250     2.6420    37.5640     0.3240     0.2790     1.6270    22.2900    27.1580 
   58.2500     2.6500    38.0080     0.3310     0.2690     1.4290    22.7990    27.1550 
   58.3750     2.6760    40.9460     0.3850     0.2570     1.2020    23.5510    26.4010 
   58.5000     2.7140    44.1390     0.4420     0.2420     1.0530    24.3320    25.3640 
   58.6250     2.7500    46.9870     0.4750     0.2280     1.0110    24.5420    24.4240 
   58.7500     2.7710    49.5900     0.4820     0.2170     1.0380    24.3530    23.6730 
   58.8750     2.7770    50.6680     0.4480     0.2070     1.0990    23.8080    23.1970 
   59.0000     2.7750    48.6350     0.3570     0.1900     1.1500    23.2960    23.1360 
   59.1250     2.7690    45.5870     0.2210     0.1560     1.1840    23.0720    23.5370 
   59.2500     2.7530    43.9750     0.1060     0.1150     1.2070    22.8920    24.1370 
   59.3750     2.7120    43.5300     0.0380     0.0800     1.2350    22.7790    24.7000 
   59.5000     2.6360    44.2020     0.0170     0.0620     1.2780    22.7510    24.9300 
   59.6250     2.5380    47.1580     0.0500     0.0830     1.4870    22.7470    24.2450 
   59.7500     2.4460    54.1230     0.1590     0.1820     2.1670    22.7380    22.4400 
   59.8750     2.3810    63.8800     0.4080     0.4350     3.6820    22.7030    19.5550 
   60.0000     2.3470    70.6730     0.9220     0.9660     5.4900    22.5260    15.9400 
   60.1250     2.3340    68.9300     1.9730     2.0160     6.5050    22.2090    11.8630 
   60.2500     2.3260    64.1750     3.3990     3.4710     6.7590    21.8070     7.5320 
   60.3750     2.3140    63.7290     4.4960     4.8720     6.5700    21.1590     3.1380 
   60.5000     2.3020    69.1920     4.7220     5.7180     6.1100    20.6500    -1.0830 
   60.6250     2.2960    75.7730     4.4020     5.9240     5.9000    20.3790    -4.6470 
   60.7500     2.2980    78.8220     4.1100     5.9020     5.8080    20.3080    -7.2780 
   60.8750     2.3030    79.6090     3.9850     5.8550     5.7050    20.2970    -9.0200 
   61.0000     2.3030    80.4710     4.0530     5.9090     5.5400    20.3120   -10.2010 
   61.1250     2.2930    79.4830     4.3510     6.2100     5.5210    20.4490   -11.0860 
   61.2500     2.2780    76.0390     4.8520     6.7840     6.0400    20.9230   -11.8010 
   61.3750     2.2630    72.3400     5.5420     7.5870     6.9090    21.5080   -12.4000 
   61.5000     2.2490    68.9910     6.3520     8.4600     7.4270    21.8460   -12.9170 
   61.6250     2.2360    64.7470     7.0290     9.0700     8.2900    22.0850   -13.3160 
   61.7500     2.2220    64.8620     7.2770     9.1810     9.2130    22.5800   -13.6350 
   61.8750     2.2100    72.0620     6.9830     8.7440     8.6150    23.0540   -13.9030 
   62.0000     2.2100    79.9490     6.3020     7.9230     6.9570    23.2760   -14.1560 
   62.1250     2.2300    80.3040     5.5840     7.0200     6.0910    23.3690   -14.3700 
   62.2500     2.2650    76.9950     5.1340     6.3290     5.9850    23.4450   -14.5380 
   62.3750     2.3050    75.3650     5.0820     6.0140     6.1270    23.5130   -14.6740 
   62.5000     2.3350    74.0110     5.4990     6.1780     6.0790    23.5570   -14.7730 
   62.6250     2.3430    68.7740     6.5540     7.0250     7.0800    23.7110   -14.8070 
   62.7500     2.3400    61.9210     8.2420     8.5570    10.3260    23.7420   -14.8220 
   62.8750     2.3330    56.5500    10.5770    10.7870    16.8090    23.4750   -14.8370 
   63.0000     2.3220    53.7890    13.4000    13.5410    18.7280    23.3070   -14.8220 
   63.1250     2.3000    51.7380    16.2120    16.2920    18.8120    23.2820   -14.7760 
   63.2500     2.2670    50.8270    18.3610    18.3690    19.8650    23.2370   -14.7610 
   63.3750     2.2300    52.2900    19.4630    19.4210    19.2600    23.1480   -14.7270 
   63.5000     2.1990    54.1810    19.5330    19.5320    16.6750    22.8700   -14.7000 
   63.6250     2.1880    54.0880    18.8250    18.9980    15.0610    22.4270   -14.7290 
   63.7500     2.1870    53.7460    17.8740    18.2090    14.6700    22.1890   -14.8370 
   63.8750     2.1880    54.6740    16.9920    17.3040    14.1050    22.1640   -14.9730 
   64.0000     2.1860    56.0940    16.3760    16.4100    13.6430    22.4130   -15.1210 
   64.1250     2.1780    58.5790    16.0870    15.6590    13.2270    22.6450   -15.2800 
   64.2500     2.1690    60.6220    15.9110    15.0780    13.0180    23.0040   -15.4080 
   64.3750     2.1610    58.9820    15.7310    14.7010    12.5460    23.1690   -15.5590 
   64.5000     2.1580    54.7140    15.5720    14.5630    12.1260    23.1600   -15.6950 
   64.6250     2.1680    54.4890    15.6270    14.7530    11.6920    23.0810   -15.8180 
   64.7500     2.1980    56.6030    16.0250    15.2630    11.9240    23.1640   -15.9020 
   64.8750     2.2560    56.5530    16.7510    16.0780    12.2990    23.3750   -15.9680 
   65.0000     2.3370    56.0990    17.5530    17.0240    12.6920    23.5230   -16.0300 
   65.1250     2.4170    59.3620    17.7750    17.5680    13.2300    23.6480   -16.1050 
   65.2500     2.4680    62.2740    16.9220    17.1950    13.6800    23.7080   -16.2010 
   65.3750     2.4740    64.3460    14.9460    15.6980    13.5620    23.7560   -16.2740 
   65.5000     2.4460    66.9930    12.3290    13.3760    12.2650    23.8310   -16.3600 
   65.6250     2.4070    69.7920     9.8750    10.9150     9.5060    23.9150   -16.4560 
   65.7500     2.3780    70.5920     8.0520     8.8850     7.3090    24.0740   -16.5730 
   65.8750     2.3580    71.3070     6.9170     7.4440     6.5000    24.0570   -16.6960 
   66.0000     2.3410    74.4080     6.3570     6.5680     5.6910    23.9420   -16.8180 
   66.1250     2.3220    78.3450     6.2410     6.2190     5.2910    23.6980   -16.9180 
