~V
VERS. 2.00: Ver 2.00
~W
STRT.M 49.0000:
STOP.M 217.0000:
STEP.M 0.1250:
NULL. -999.2500:
UWI. F10685:
~C
DEPT.M :
SP.MV :
DEN.GM/CC :
GR.API :
RML.OHMM :
RI. :
RXO.OHMM :
CALI.CM :
~A
# ...
  116.5000    -9.7230     2.1820    58.9030    58.1470    52.3030    41.4150    25.2140 
  116.6250    -9.5350     2.2280    56.2580    60.2330    52.8830    41.8540    25.2080 
  116.7500    -9.3350     2.2700    56.1700    60.9550    52.9080    43.1970    25.1340 
  116.8750    -9.1490     2.2990    57.7580    59.9630    52.0400    45.2860    24.8390 
  117.0000    -8.9970     2.3080    60.4630    57.3360    50.1300    44.2100    24.5810 
  117.1250    -8.8760     2.2930    61.7470    53.7290    47.2840    41.9850    24.6410 
  117.2500    -8.7710     2.2610    60.6320    50.3270    44.2140    38.6620    24.7690 
  117.3750    -8.7070     2.2170    60.4360    47.9010    41.5820    35.1670    24.8380 
  117.5000    -8.6790     2.1740    63.1480    47.1130    40.0700    33.2250    24.7370 
  117.6250    -8.7080     2.1570    63.1780    49.2800    40.8090    34.1390    24.7120 
  117.7500    -8.8070     2.1820    59.3340    54.9700    44.3980    36.6920    24.7470 
  117.8750    -8.9340     2.2570    56.6510    65.1140    51.7690    42.2700    24.8530 
  118.0000    -9.0580     2.3680    57.0260    80.1510    63.6310    53.3060    24.8930 
  118.1250    -9.1550     2.4800    56.9220    98.8150    79.5150    72.8260    24.8140 
  118.2500    -9.2500     2.5480    55.2830   113.7510    93.8280    97.0510    24.8200 
  118.3750    -9.3310     2.5490    52.5820   115.6480    99.1400   111.3970    24.8530 
  118.5000    -9.4240     2.4880    48.6400   100.9620    90.9760   102.5090    24.7990 
  118.6250    -9.5350     2.3910    48.0910    77.9030    72.8770    77.7380    24.7470 
  118.7500    -9.6070     2.2960    52.4570    58.3050    55.2690    50.1520    24.5760 
  118.8750    -9.6740     2.2200    57.2060    45.0350    42.2780    32.6790    24.3030 
  119.0000    -9.7230     2.1710    59.3090    37.3210    34.3030    24.4230    23.9950 
  119.1250    -9.7790     2.1450    59.5860    34.1330    30.7460    22.7140    23.8600 
  119.2500    -9.7630     2.1300    59.6520    33.3580    29.7380    23.7460    23.9330 
  119.3750    -9.6730     2.1180    58.5400    34.0550    30.4640    26.8260    24.2860 
  119.5000    -9.5030     2.1170    56.6660    35.7420    32.3260    30.0870    24.7360 
  119.6250    -9.2590     2.1510    56.0530    38.5430    35.0760    30.7990    25.1030 
  119.7500    -8.9690     2.2280    57.2530    42.0540    38.2780    28.8500    25.1470 
  119.8750    -8.6470     2.3410    59.6920    45.2730    41.1040    23.3650    25.0120 
  120.0000    -8.3250     2.4580    60.8510    46.1050    41.7980    18.6540    24.8860 
  120.1250    -7.9890     2.5240    58.3740    41.4780    37.5860    26.6130    24.7400 
  120.2500    -7.7000     2.5190    56.3120    32.6550    29.6640    38.4610    24.5800 
  120.3750    -7.4510     2.4620    59.7170    22.8290    20.9940    32.2120    24.3760 
  120.5000    -7.2390     2.3850    69.2670    14.9440    14.1100    16.4600    24.1300 
  120.6250    -7.0790     2.3230    77.9610    10.4740    10.0630     8.9300    23.9650 
  120.7500    -6.9610     2.2870    79.7890     8.4050     7.8920     6.8480    23.9420 
  120.8750    -6.8660     2.2780    76.1150     8.0990     7.0670     6.8120    23.9390 
  121.0000    -6.7750     2.2910    72.9590     9.0070     7.2930     7.2000    23.9880 
  121.1250    -6.7340     2.3210    74.3410     9.3770     8.5240     7.9580    24.2060 
  121.2500    -6.6860     2.3540    74.0900    11.3330    10.3030     9.0520    24.5140 
  121.3750    -6.6800     2.3810    71.5180    13.2500    12.0450    11.0290    24.6040 
  121.5000    -6.6830     2.3940    71.2100    14.2630    12.9670    13.0080    24.6250 
  121.6250    -6.6940     2.3920    75.2090    13.5260    12.2960    13.4640    24.6180 
  121.7500    -6.7080     2.3850    76.9200    11.6530    10.5940    10.6650    24.5810 
  121.8750    -6.7210     2.3760    77.3170     9.4950     8.6320     7.3790    24.5610 
  122.0000    -6.7260     2.3660    81.0560     7.6890     6.9900     5.8170    24.5830 
  122.1250    -6.6730     2.3510    86.5760     6.5480     5.9530     5.2770    24.6040 
  122.2500    -6.6130     2.3320    87.8530     5.9190     5.3810     5.0990    24.5330 
  122.3750    -6.5400     2.3120    85.3720     5.6790     5.1630     5.0990    24.5210 
  122.5000    -6.4580     2.2960    83.3710     5.7020     5.1840     5.2370    24.4680 
  122.6250    -6.3750     2.2860    82.2740     5.9010     5.3640     5.3330    24.2560 
  122.7500    -6.3050     2.2800    80.7600     6.1950     5.6320     5.4200    24.1060 
  122.8750    -6.2620     2.2760    80.8330     6.5650     5.9680     5.7320    24.1380 
  123.0000    -6.2380     2.2730    82.8480     6.9770     6.3430     6.2640    24.2890 
  123.1250    -6.2180     2.2750    83.5060     7.3590     6.6900     6.6870    24.2970 
  123.2500    -6.2070     2.2790    81.8170     7.6430     6.9480     6.4470    24.0970 
  123.3750    -6.1970     2.2840    81.4030     7.7860     7.0780     6.3520    24.0940 
  123.5000    -6.2010     2.2860    83.1190     7.7710     7.0640     6.4510    24.2530 
  123.6250    -6.2090     2.2870    82.6790     7.6040     6.9120     6.4600    24.0360 
  123.7500    -6.2470     2.2900    79.9370     7.3720     6.7020     6.4850    23.8880 
  123.8750    -6.2710     2.2940    77.7940     7.1590     6.5080     6.6110    23.8150 
  124.0000    -6.3290     2.2930    77.8070     7.0500     6.4090     6.6730    23.7850 
  124.1250    -6.4160     2.2740    77.8970     7.1440     6.4950     6.5090    23.8030 
  124.2500    -6.5220     2.2370    77.0600     7.4370     6.7610     6.6020    23.8340 
  124.3750    -6.6040     2.1900    76.8340     7.8910     7.1740     7.2600    23.8440 
  124.5000    -6.6650     2.1470    77.1160     8.4310     7.6650     8.0040    24.0260 
  124.6250    -6.6910     2.1240    76.3480     8.9560     8.1420     8.3840    24.4470 
  124.7500    -6.6770     2.1240    73.0660     9.3840     8.5300     8.5740    24.7800 
  124.8750    -6.6630     2.1410    69.1890     9.6690     8.7900     8.7750    25.0430 
  125.0000    -6.6220     2.1640    66.9730     9.8250     8.9320     8.9400    25.1050 
  125.1250    -6.6190     2.1780    66.0940     9.9440     9.0400     9.0770    25.1210 
  125.2500    -6.6410     2.1800    65.9970    10.1480     9.2260     9.2750    25.0980 
  125.3750    -6.6990     2.1700    67.6580    10.4910     9.5370     9.5300    25.1000 
  125.5000    -6.7930     2.1540    70.7630    10.9590     9.9620     9.9360    25.1240 
  125.6250    -6.9210     2.1430    71.9730    11.4470    10.4060    10.5730    25.0900 
  125.7500    -7.0680     2.1420    72.3040    11.7890    10.7170    11.5640    25.1340 
  125.8750    -7.2370     2.1520    73.5490    11.9030    10.8210    12.2320    25.1380 
  126.0000    -7.4340     2.1650    74.5730    11.8800    10.8000    12.1230    25.0870 
  126.1250    -7.6110     2.1620    73.1920    12.0990    10.9990    11.3770    25.0370 
  126.2500    -7.7850     2.1340    71.7870    13.0270    11.8430    11.9390    25.0690 
  126.3750    -7.9220     2.0840    70.3280    15.2040    13.8210    14.3550    25.1250 
  126.5000    -8.0510     2.0320    66.1030    19.2460    17.4960    19.5170    25.2560 
  126.6250    -8.2060     2.0100    61.3400    29.4920    23.6050    29.7330    25.4690 
  126.7500    -8.3950     2.0330    60.2180    48.5750    30.9760    45.2930    25.7150 
  126.8750    -8.6120     2.0920    62.6290    54.6320    36.8460    58.1980    25.8150 
  127.0000    -8.8380     2.1630    65.5450    52.7740    37.7660    63.6370    25.7810 
  127.1250    -9.1050     2.2090    68.1830    43.7240    32.8660    46.1000    25.5410 
  127.2500    -9.3540     2.2130    69.9830    34.5280    26.8210    25.5840    24.8910 
  127.3750    -9.6660     2.1820    70.2590    28.6420    22.3390    16.0590    24.1760 
  127.5000   -10.0040     2.1340    68.3990    26.8300    20.2910    14.8580    23.8440 
  127.6250   -10.3500     2.0920    65.0450    29.3170    21.1270    19.0950    23.8620 
