~V
VERS. 2.00: Ver 2.00
~W
STRT.M 50.0000:
STOP.M 224.0000:
STEP.M 0.1250:
NULL. -999.2500:
UWI. F10690:
~C
DEPT.M :
SP.MV :
DEN.GM/CC :
GR.API :
RML.OHMM :
RI. :
RXO.OHMM :
CALI.CM :
~A
# ...
  128.7500   -14.3490     2.1790    51.4420    33.0540    30.8600    28.1590    25.9120 
  128.8750   -14.2780     2.1770    51.5550    34.3480    31.9880    28.4750    25.9120 
  129.0000   -14.2090     2.1750    51.6080    35.7130    33.2780    28.5160    25.9120 
  129.1250   -14.1620     2.1730    50.0010    37.0550    34.6360    29.2060    25.9120 
  129.2500   -14.1250     2.1770    48.4110    38.2520    35.9270    31.1640    25.9100 
  129.3750   -14.0930     2.1900    49.0420    39.0760    36.9370    33.1830    25.8960 
  129.5000   -14.0520     2.2090    50.3800    39.2130    37.3600    35.0010    25.8400 
  129.6250   -13.9960     2.2180    51.3130    38.2350    36.7600    35.2340    25.7620 
  129.7500   -13.9380     2.2140    52.0910    36.3690    35.2990    32.1410    25.7370 
  129.8750   -13.8830     2.2060    52.4400    34.0220    33.3360    27.9780    25.7340 
  130.0000   -13.8330     2.2030    51.4680    31.7350    31.3740    25.1480    25.6720 
  130.1250   -13.7860     2.2100    49.9020    30.1430    30.0110    23.4890    25.6170 
  130.2500   -13.7720     2.2290    50.6010    29.5000    29.5020    23.0420    25.6190 
  130.3750   -13.8250     2.2640    51.5080    29.9560    30.0080    25.6510    25.6630 
  130.5000   -13.9550     2.3100    49.9540    31.6090    31.6390    31.4070    25.7150 
  130.6250   -14.1550     2.3500    45.9240    34.7990    34.8120    33.7450    25.7760 
  130.7500   -14.3630     2.3740    43.7200    39.1640    39.3920    33.7100    25.8300 
  130.8750   -14.5420     2.3900    44.9040    43.7380    44.6810    32.6650    25.8500 
  131.0000   -14.6920     2.4230    46.3540    46.3390    48.5060    36.5930    25.8260 
  131.1250   -14.8160     2.4870    45.7060    43.3100    46.4800    43.4460    25.7320 
  131.2500   -14.9220     2.5490    46.1280    35.4790    38.8280    45.3980    25.6200 
  131.3750   -15.0120     2.5660    50.5360    26.0850    29.0860    35.2350    25.5510 
  131.5000   -15.0910     2.5300    56.7410    18.3310    20.8980    20.5670    25.5310 
  131.6250   -15.1700     2.4810    61.8160    13.9480    16.0790    11.5710    25.5310 
  131.7500   -15.2570     2.4510    65.6580    12.0610    13.7110     8.4880    25.5310 
  131.8750   -15.3630     2.4400    66.1350    11.9970    13.1480     9.5410    25.5310 
  132.0000   -15.4960     2.4460    62.1540    13.2010    13.9410    13.2750    25.5310 
  132.1250   -15.6410     2.4530    55.6570    15.2630    15.8640    21.8560    25.5310 
  132.2500   -15.7790     2.4340    52.3060    17.5470    18.2850    34.3270    25.5310 
  132.3750   -15.8880     2.3720    51.8390    19.8040    20.8110    34.8510    25.5330 
  132.5000   -15.9510     2.2880    51.3090    22.2080    23.3930    23.6190    25.5630 
  132.6250   -15.9820     2.2240    49.1740    25.4590    26.5840    19.1390    25.6710 
  132.7500   -16.0030     2.1920    47.1350    29.8430    30.8230    25.5460    25.8290 
  132.8750   -16.0330     2.1840    46.6070    35.1730    36.1180    37.0060    25.9320 
  133.0000   -16.0700     2.1810    47.6950    40.6620    41.7750    44.5610    25.9640 
  133.1250   -16.0820     2.1720    48.3990    44.6840    46.0040    45.7590    25.9650 
  133.2500   -16.0730     2.1630    47.5550    46.4430    47.7310    42.8310    25.9650 
  133.3750   -16.0460     2.1640    45.9710    46.1560    47.1340    39.5480    25.9600 
  133.5000   -16.0200     2.1810    44.7790    44.6960    45.2050    37.1010    25.9480 
  133.6250   -16.0180     2.2260    45.9560    42.9260    42.9470    36.7920    25.9240 
  133.7500   -16.0420     2.3000    49.3900    41.4330    41.0300    37.6670    25.9120 
  133.8750   -16.0950     2.4020    52.6990    40.4350    39.6820    36.0090    25.8870 
  134.0000   -16.1560     2.5200    53.1370    39.8860    38.8570    34.4880    25.8100 
  134.1250   -16.2170     2.6190    50.0470    39.4430    38.2310    33.7020    25.6700 
  134.2500   -16.2830     2.6690    46.1080    38.6510    37.3440    36.3250    25.5700 
  134.3750   -16.3460     2.6710    41.8460    37.3480    36.0370    36.3210    25.5350 
  134.5000   -16.4220     2.6470    38.3530    35.7470    34.4940    32.0710    25.5310 
  134.6250   -16.5280     2.6250    37.8780    34.3830    33.1960    25.4120    25.5310 
  134.7500   -16.6490     2.6210    38.9270    33.4800    32.3550    20.7590    25.5310 
  134.8750   -16.7690     2.6350    39.3180    32.8340    31.8170    20.5540    25.5310 
  135.0000   -16.8610     2.6590    38.5620    32.0060    31.2040    24.8130    25.5310 
  135.1250   -16.9120     2.6760    37.6490    30.5100    30.0670    33.5230    25.5310 
  135.2500   -16.9420     2.6680    36.6390    28.4990    28.4610    35.2160    25.5310 
  135.3750   -16.9570     2.6390    36.1140    26.4090    26.7040    26.1830    25.5310 
  135.5000   -16.9690     2.6100    37.3120    24.7430    25.2080    18.5040    25.5310 
  135.6250   -16.9960     2.6030    39.8260    23.8970    24.3410    18.1050    25.5310 
  135.7500   -17.0640     2.6090    40.7010    23.6770    24.0180    20.0630    25.5310 
  135.8750   -17.1790     2.6170    39.9920    23.8300    24.0710    21.3110    25.5270 
  136.0000   -17.2100     2.6250    40.2460    24.0990    24.2850    20.4960    25.5140 
  136.1250   -17.1990     2.6370    41.0020    24.3570    24.5140    22.0590    25.4880 
  136.2500   -17.1890     2.6530    40.0220    24.7110    24.8070    23.8110    25.4770 
  136.3750   -17.1780     2.6720    38.5890    25.3340    25.3210    24.3500    25.4740 
  136.5000   -17.1680     2.6920    38.9550    26.3130    26.1610    26.7260    25.4740 
  136.6250   -17.1570     2.7010    40.4260    27.6140    27.3340    29.5250    25.4740 
  136.7500   -17.1460     2.6960    41.3990    28.9860    28.6200    33.4690    25.4740 
  136.8750   -17.1360     2.6800    41.5050    30.2190    29.8190    32.6010    25.4740 
  137.0000   -17.2920     2.6720    41.1170    31.1480    30.7530    27.2570    25.4740 
  137.1250   -17.2810     2.6850    41.2640    31.6460    31.2560    26.7260    25.4740 
  137.2500   -17.1870     2.7030    41.5790    31.8130    31.3930    28.9100    25.4740 
  137.3750   -17.0930     2.7070    40.6920    31.7150    31.2190    29.8060    25.4740 
  137.5000   -17.2500     2.6930    38.0590    31.4050    30.8040    27.4000    25.4740 
  137.6250   -17.2810     2.6760    37.3970    30.9080    30.2060    25.5870    25.4740 
  137.7500   -17.3950     2.6660    39.6790    30.3420    29.5630    25.4940    25.4740 
  137.8750   -17.3850     2.6600    42.9040    29.8680    29.0210    25.4150    25.4740 
  138.0000   -17.5410     2.6580    45.2140    29.6840    28.7500    23.1780    25.4740 
  138.1250   -17.5610     2.6630    45.5730    29.9790    28.9310    24.4780    25.4740 
  138.2500   -17.6840     2.6720    45.1290    30.6400    29.4660    29.1510    25.4740 
  138.3750   -17.7820     2.6820    44.6720    31.5430    30.2590    32.6980    25.4740 
  138.5000   -17.8810     2.6930    44.4460    32.5430    31.2010    32.5230    25.4740 
  138.6250   -17.9690     2.7000    44.1090    33.4180    32.1150    30.3430    25.4740 
  138.7500   -18.0390     2.6980    42.3370    33.9540    32.7710    28.8110    25.4740 
  138.8750   -18.0970     2.6830    39.3230    33.9760    32.9680    29.4090    25.4740 
  139.0000   -18.1510     2.6620    37.2780    33.3700    32.5580    31.0430    25.4740 
  139.1250   -18.2150     2.6390    39.3630    32.0430    31.4090    30.1310    25.4740 
  139.2500   -18.3220     2.6190    42.9280    30.3300    29.8250    25.5950    25.4740 
  139.3750   -18.4730     2.6030    45.2940    28.5760    28.1380    21.3420    25.4740 
  139.5000   -18.6310     2.5950    46.7390    27.0900    26.6410    20.2000    25.4740 
  139.6250   -18.7500     2.5910    48.1380    26.1240    25.5770    19.8690    25.4720 
  139.7500   -18.8160     2.5830    47.6100    25.6440    24.9520    20.7330    25.4630 
  139.8750   -18.8460     2.5740    44.8820    25.6140    24.7680    21.4250    25.4430 
