~V
VERS. 2.00: Ver 2.00
~W
STRT.M 50.0000:
STOP.M 209.0000:
STEP.M 0.1250:
NULL. -999.2500:
UWI. F10692:
~C
DEPT.M :
DEN.GM/CC :
GR.API :
RML.OHMM :
RI. :
RXO.OHMM :
CALI.CM :
SP.MV :
~A
# ...
   72.5000     2.1960    46.4410    21.7900    18.6370    18.8980    25.4210   -19.0180 
   72.6250     2.2380    49.1680    20.2070    17.5910    16.2350    25.3760   -19.0370 
   72.7500     2.2800    52.8580    17.3420    15.3680    13.5000    25.2930   -18.9880 
   72.8750     2.3030    54.9080    14.3910    12.9330    11.0760    25.1870   -18.8720 
   73.0000     2.2980    56.0540    12.1560    10.9570     9.4860    25.0930   -18.7240 
   73.1250     2.2710    57.9910    10.9950     9.7630     8.6730    25.0590   -18.6330 
   73.2500     2.2410    58.5680    10.5920     9.1680     8.8670    25.0340   -18.6710 
   73.3750     2.2190    56.8740    10.7130     9.0340     9.2470    25.0050   -18.8820 
   73.5000     2.2070    54.9700    11.1190     9.2100     9.4660    24.9790   -19.2580 
   73.6250     2.2030    54.9560    11.5730     9.5440     9.4510    24.9540   -19.7530 
   73.7500     2.2020    56.2260    11.9140     9.8740     9.4210    24.9330   -20.2630 
   73.8750     2.2020    57.0130    12.1050    10.1290     9.3780    24.9370   -20.7180 
   74.0000     2.2060    56.5090    12.1750    10.2880     9.4080    24.9670   -21.0710 
   74.1250     2.2160    55.0970    12.1570    10.3480     9.5520    25.0100   -21.2790 
   74.2500     2.2230    54.8800    12.0960    10.3460     9.6270    25.0420   -21.3700 
   74.3750     2.2230    56.1030    12.0310    10.3120     9.5820    25.0500   -21.3640 
   74.5000     2.2180    57.3130    12.0260    10.2880     9.4120    25.0380   -21.2880 
   74.6250     2.2220    58.3130    12.1660    10.3270     9.4430    25.0070   -21.1630 
   74.7500     2.2400    60.9630    12.4140    10.4210     9.5120    24.9680   -21.0040 
   74.8750     2.2670    63.9890    12.6450    10.5030     9.4700    24.8970   -20.8060 
   75.0000     2.2910    66.2450    12.6640    10.4590     9.3330    24.7730   -20.5650 
   75.1250     2.3020    66.6900    12.2160    10.1260     9.2560    24.6600   -20.2820 
   75.2500     2.2970    65.7700    11.3680     9.5300     9.1660    24.6070   -19.9930 
   75.3750     2.2750    63.7280    10.3380     8.7990     8.8320    24.6290   -19.7340 
   75.5000     2.2380    60.6060     9.4700     8.1480     8.3680    24.7050   -19.5430 
   75.6250     2.1980    59.6400     9.2070     7.8660     8.2610    24.7780   -19.4530 
   75.7500     2.1720    59.3870     9.6600     8.0500     8.4260    24.8060   -19.4320 
   75.8750     2.1700    57.8500    10.8550     8.7560     8.7280    24.8740   -19.4260 
   76.0000     2.1890    55.0600    12.6850     9.9740     9.4860    24.9750   -19.3720 
   76.1250     2.2160    53.0000    14.8190    11.5900    10.2590    25.0140   -19.2030 
   76.2500     2.2340    53.3150    16.5700    13.1430    10.6290    25.0170   -18.9410 
   76.3750     2.2380    53.8130    17.3400    14.1370    10.6930    25.0120   -18.6280 
   76.5000     2.2350    53.5640    16.8470    14.2030    10.6940    24.9760   -18.3160 
   76.6250     2.2410    53.1310    15.1820    13.2210    10.6960    24.9430   -18.0600 
   76.7500     2.2640    54.1090    13.1180    11.7590    10.1860    24.9530   -17.8770 
   76.8750     2.2920    57.8930    11.1730    10.2440     9.2000    24.9850   -17.7780 
   77.0000     2.3070    63.6670     9.6400     8.9490     8.5570    25.0280   -17.7690 
   77.1250     2.3020    68.3010     8.6900     8.0500     8.1860    25.0530   -17.8540 
   77.2500     2.2930    70.3470     8.2100     7.5060     7.8510    25.0620   -17.9930 
   77.3750     2.2890    71.0240     8.1450     7.2980     7.7450    25.0520   -18.1470 
   77.5000     2.2920    70.7200     8.4260     7.3900     7.8060    25.0230   -18.2850 
   77.6250     2.2990    67.1090     8.9970     7.7550     7.9030    24.9330   -18.3830 
   77.7500     2.3050    63.4650     9.6580     8.2480     8.1000    24.7750   -18.4450 
   77.8750     2.3060    61.9030    10.1910     8.7110     8.4080    24.5660   -18.4810 
   78.0000     2.3020    60.6820    10.3520     8.9490     8.6660    24.3860   -18.5060 
   78.1250     2.3000    59.8980     9.9620     8.7850     8.6410    24.3200   -18.5490 
   78.2500     2.3000    61.4280     9.2770     8.3560     8.3610    24.3270   -18.6420 
   78.3750     2.2930    64.3410     8.5930     7.8590     7.9260    24.3770   -18.8060 
   78.5000     2.2710    64.8580     8.1650     7.4820     7.5940    24.4350   -19.0460 
   78.6250     2.2390    62.9220     8.1960     7.3880     7.9760    24.4650   -19.3450 
   78.7500     2.2100    61.8670     8.6090     7.5610     8.6470    24.4640   -19.6560 
   78.8750     2.1870    61.6550     9.3310     7.9770     9.0730    24.4260   -19.9440 
   79.0000     2.1640    61.0510    10.2710     8.5900     9.2360    24.3830   -20.1720 
   79.1250     2.1450    58.7370    11.3540     9.3570     9.4030    24.3450   -20.2960 
   79.2500     2.1420    56.1520    12.5010    10.2010     9.6050    24.3460   -20.3120 
   79.3750     2.1670    55.7330    13.7330    11.1230     9.9120    24.3980   -20.2150 
   79.5000     2.2100    57.6970    15.1170    12.1710    10.4590    24.5030   -20.0170 
   79.6250     2.2470    58.4320    16.6950    13.4110    11.1560    24.6250   -19.7430 
   79.7500     2.2740    56.0330    18.3370    14.7560    11.7130    24.7140   -19.4510 
   79.8750     2.2990    52.8730    19.8590    16.0510    12.5000    24.7690   -19.1810 
   80.0000     2.3150    52.1160    21.0600    17.1050    14.2690    24.8130   -18.9520 
   80.1250     2.2850    55.1410    21.7610    17.7380    15.9330    24.8220   -18.7610 
   80.2500     2.2160    58.9550    22.1870    18.0970    15.8890    24.8210   -18.5740 
   80.3750     2.1540    61.1340    22.6460    18.4160    14.7290    24.8450   -18.3710 
   80.5000     2.1260    60.5270    23.4100    18.9150    15.1980    24.9030   -18.1530 
   80.6250     2.1270    57.3250    24.6360    19.7580    17.6830    24.9540   -17.9300 
   80.7500     2.1290    53.5180    26.0770    20.8300    19.5120    24.9450   -17.7220 
   80.8750     2.1260    50.2660    27.3510    21.8990    20.0260    24.8700   -17.5470 
   81.0000     2.1270    47.9530    28.0190    22.6340    19.6160    24.7610   -17.4210 
   81.1250     2.1410    46.5690    27.7180    22.6850    19.0380    24.7180   -17.3710 
   81.2500     2.1580    45.2930    26.8120    22.2290    18.5050    24.7290   -17.3880 
   81.3750     2.1670    43.8340    25.7250    21.5570    17.5440    24.7480   -17.4560 
   81.5000     2.1590    42.5950    24.8570    20.9870    16.3550    24.7450   -17.5470 
   81.6250     2.1310    44.2860    24.6060    20.8600    15.8790    24.7190   -17.6230 
   81.7500     2.1010    47.1630    25.0300    21.2700    16.5540    24.6960   -17.6680 
   81.8750     2.0840    48.3390    26.1100    22.2500    18.0120    24.6930   -17.6810 
   82.0000     2.0910    47.2140    27.6250    23.6830    19.4800    24.7180   -17.6770 
   82.1250     2.1230    45.8400    28.8470    25.0510    20.8110    24.7780   -17.6730 
   82.2500     2.1660    45.4720    28.7840    25.4340    21.7010    24.8350   -17.6890 
   82.3750     2.2110    45.7020    26.7620    24.0890    21.8740    24.8860   -17.7440 
   82.5000     2.2520    48.3420    22.9620    21.0420    20.7180    24.9260   -17.8530 
   82.6250     2.2880    53.9860    18.5090    17.2340    17.2520    24.9530   -18.0400 
   82.7500     2.3090    58.2950    14.7540    13.8970    13.1330    24.9410   -18.2870 
   82.8750     2.3070    60.3460    12.2320    11.5000    10.4400    24.9180   -18.5710 
   83.0000     2.2760    60.7670    11.0150    10.1150     9.4880    24.8970   -18.8660 
   83.1250     2.2200    59.8730    11.1250     9.7920     9.4760    24.8640   -19.1420 
   83.2500     2.1680    57.3880    12.1480    10.2590    10.0070    24.7950   -19.3730 
   83.3750     2.1440    54.0240    13.8260    11.3940    10.8100    24.7330   -19.5330 
   83.5000     2.1480    52.7450    15.8190    13.0050    11.3070    24.7070   -19.5960 
   83.6250     2.1600    53.0900    17.6570    14.8000    11.7560    24.7210   -19.5360 
