~V
VERS. 2.00: Ver 2.00
~W
STRT.M 52.0000:
STOP.M 240.0000:
STEP.M 0.1250:
NULL. -999.2500:
UWI. F10646:
~C
DEPT.M :
GR.API :
RML.OHMM :
RI. :
RXO.OHMM :
CALI.CM :
DEN.GM/CC :
SP.MV :
~A
   52.0000  -999.2500  -999.2500  -999.2500  -999.2500  -999.2500  -999.2500    29.6080 
   52.1250  -999.2500  -999.2500  -999.2500  -999.2500  -999.2500  -999.2500    29.6080 
   52.2500  -999.2500  -999.2500  -999.2500  -999.2500  -999.2500  -999.2500    29.4530 
   52.3750  -999.2500  -999.2500  -999.2500  -999.2500  -999.2500  -999.2500    29.1710 
   52.5000  -999.2500  -999.2500  -999.2500  -999.2500  -999.2500  -999.2500    28.8860 
   52.6250  -999.2500  -999.2500  -999.2500  -999.2500  -999.2500  -999.2500    28.6080 
   52.7500  -999.2500  -999.2500  -999.2500  -999.2500  -999.2500  -999.2500    28.2840 
   52.8750  -999.2500  -999.2500  -999.2500  -999.2500  -999.2500  -999.2500    27.9240 
   53.0000  -999.2500  -999.2500  -999.2500  -999.2500  -999.2500  -999.2500    27.5230 
   53.1250  -999.2500  -999.2500  -999.2500  -999.2500  -999.2500     1.9610    27.1080 
   53.2500  -999.2500  -999.2500  -999.2500  -999.2500  -999.2500     1.9610    26.6830 
   53.3750  -999.2500  -999.2500  -999.2500  -999.2500  -999.2500     1.9550    26.2190 
   53.5000  -999.2500  -999.2500  -999.2500  -999.2500  -999.2500     1.9440    25.7060 
   53.6250  -999.2500  -999.2500  -999.2500  -999.2500  -999.2500     1.9390    25.1370 
   53.7500  -999.2500  -999.2500  -999.2500  -999.2500  -999.2500     1.9450    24.5420 
   53.8750  -999.2500  -999.2500  -999.2500  -999.2500  -999.2500     1.9630    23.9400 
   54.0000  -999.2500  -999.2500  -999.2500  -999.2500  -999.2500     1.9830    23.4120 
   54.1250  -999.2500  -999.2500  -999.2500  -999.2500  -999.2500     1.9940    22.9440 
   54.2500  -999.2500  -999.2500  -999.2500  -999.2500  -999.2500     1.9910    22.5410 
   54.3750    45.4140     2.2270     0.2130     0.5500    25.3240     1.9740    22.2660 
   54.5000    45.4140     2.2270     0.2130     0.5500    25.3240     1.9520    22.1430 
   54.6250    44.4220     2.1660     0.2150     0.5660    25.3250     1.9330    22.1550 
   54.7500    41.0700     2.0110     0.2200     0.6220    25.3260     1.9210    22.3090 
   54.8750    39.2280     1.8680     0.2220     0.6570    25.3260     1.9120    22.5750 
   55.0000    40.7990     1.7790     0.2240     0.6880    25.3260     1.9060    22.9050 
   55.1250    41.2510     1.7320     0.2260     0.6880    25.3260     1.9020    23.2920 
   55.2500    39.6260     1.7080     0.2280     0.6500    25.3260     1.9020    23.7340 
   55.3750    38.4880     1.6930     0.2270     0.5890    25.3260     1.9080    24.1600 
   55.5000    39.1030     1.6970     0.2240     0.5300    25.3260     1.9180    24.5990 
   55.6250    38.1330     1.7270     0.2240     0.4950    25.3260     1.9220    25.0990 
   55.7500    33.8060     1.7780     0.2300     0.4860    25.3260     1.9180    25.6730 
   55.8750    28.6030     1.8280     0.2410     0.5010    25.3260     1.9060    26.3920 
   56.0000    26.5560     1.8250     0.2470     0.5660    25.3220     1.8980    27.3350 
   56.1250    26.9800     1.7530     0.2410     0.6370    25.2840     1.9030    28.4820 
   56.2500    28.5790     1.6350     0.2200     0.6500    25.1650     1.9210    29.8350 
   56.3750    30.9320     1.5140     0.1910     0.6000    24.9450     1.9420    31.3590 
   56.5000    32.1320     1.4370     0.1650     0.5930    24.6790     1.9580    32.9880 
   56.6250    32.3360     1.4090     0.1500     0.6490    24.4500     1.9660    34.6720 
   56.7500    32.6610     1.3980     0.1480     0.7250    24.3030     1.9700    36.3150 
   56.8750    33.6460     1.3220     0.1520     0.7870    24.1810     1.9750    37.6920 
   57.0000    35.1580     1.0700     0.1460     0.8200    23.9590     2.0010    38.5420 
   57.1250    35.9870     0.7220     0.1290     0.8310    23.6480     2.0930    38.7900 
   57.2500    34.1390     0.4110     0.1050     0.8360    23.4380     2.3050    38.2370 
   57.3750    31.3300     0.2140     0.0810     0.9190    23.2310     2.5800    36.7200 
   57.5000    32.8850     0.1550     0.0690     1.1420    22.8300     2.6660    33.8540 
   57.6250    36.5820     0.1930     0.0760     1.2920    22.5140     2.5040    29.6970 
   57.7500    37.7710     0.3290     0.1180     1.2170    22.9530     2.2240    24.3090 
   57.8750    37.2490     0.5890     0.2200     1.1920    24.8560     1.9320    18.1020 
   58.0000    38.4440     1.0670     0.4410     2.0040    29.8730     1.6910    11.6260 
   58.1250    39.4590     1.7920     0.8140     3.6300    36.2490     1.5140     5.2690 
   58.2500    39.9160     2.7150     1.3700     4.4540    40.7450     1.4130    -0.7040 
   58.3750    41.8810     3.6430     2.0890     4.1320    42.3450     1.3770    -6.0330 
   58.5000    44.5740     4.3690     2.9020     3.8240    42.3210     1.3840   -10.3100 
   58.6250    44.0740     4.9530     3.7150     4.0120    41.5950     1.4160   -13.5470 
   58.7500    41.8870     5.4920     4.4880     4.8120    39.3820     1.4750   -15.7080 
   58.8750    41.1440     6.0130     5.1910     6.3590    35.8270     1.5680   -17.0090 
   59.0000    43.0060     6.4560     5.7570     7.5420    33.1310     1.7020   -17.8680 
   59.1250    45.3390     6.7620     6.1610     7.9750    31.5240     1.8490   -18.5260 
   59.2500    46.8950     6.9190     6.3960     8.0090    30.6430     1.9760   -19.0060 
   59.3750    48.1510     6.9880     6.5070     7.8600    30.1120     2.0680   -19.3850 
   59.5000    51.5600     7.0930     6.5860     7.6560    29.7980     2.1350   -19.6600 
   59.6250    56.0910     7.3220     6.7320     7.4870    29.5470     2.1890   -19.7950 
   59.7500    57.8130     7.6920     6.9710     7.4170    29.2530     2.2100   -19.7970 
   59.8750    56.1050     8.1480     7.2600     7.6010    29.1230     2.1850   -19.7160 
   60.0000    55.1470     8.5270     7.4690     7.9250    29.4190     2.1180   -19.5370 
   60.1250    55.1000     8.6380     7.4750     7.8000    29.6320     2.0400   -19.2930 
   60.2500    56.3380     8.3720     7.2190     7.2560    28.9900     1.9830   -18.9850 
   60.3750    62.2550     7.7850     6.7380     6.3340    27.2650     1.9830   -18.6320 
   60.5000    70.8670     7.0760     6.1560     5.7720    25.9700     2.0590   -18.1900 
   60.6250    74.2900     6.4630     5.6180     5.8560    25.4770     2.1610   -17.7420 
   60.7500    73.7250     6.0170     5.1790     5.9120    25.4430     2.2410   -17.3300 
   60.8750    75.5230     5.7320     4.8520     5.6390    25.5030     2.2810   -16.9120 
   61.0000    80.5020     5.5920     4.6610     5.4990    25.5950     2.2990   -16.5010 
   61.1250    83.5380     5.5820     4.6100     5.5340    25.7070     2.3200   -16.1570 
   61.2500    84.6820     5.7530     4.7320     5.4290    25.8260     2.3430   -15.8850 
   61.3750    82.8880     6.1650     5.0550     5.4330    25.9320     2.3510   -15.6690 
   61.5000    74.4310     6.8700     5.5960     6.0230    26.0240     2.3240   -15.5980 
   61.6250    64.3030     7.7340     6.2520     7.2250    26.1030     2.2760   -15.5820 
   61.7500    59.0550     8.5730     6.9200     8.2710    26.0960     2.2210   -15.5970 
   61.8750    61.0640     9.1770     7.4830     8.3760    25.8550     2.1860   -15.7080 
   62.0000    65.5530     9.3640     7.8020     7.5830    25.5220     2.1920   -15.8500 
   62.1250    67.9030     9.2650     7.8830     7.2410    25.4150     2.2260   -16.0050 
   62.2500    67.0610     9.0150     7.7670     7.2110    25.4340     2.2660   -16.2100 
   62.3750    64.7220     8.6930     7.5200     7.1840    25.4400     2.2910   -16.4110 
   62.5000    65.8520     8.3070     7.1910     6.9300    25.3840     2.3010   -16.5940 
   62.6250    71.9290     7.9130     6.8430     6.6170    25.3060     2.3070   -16.8090 
   62.7500    78.4920     7.5740     6.5130     6.5000    25.2370     2.3140   -17.0200 
   62.8750    80.4150     7.3270     6.2230     6.5600    25.2730     2.3190   -17.2430 
   63.0000    77.1330     7.1750     5.9870     6.5450    25.5780     2.3160   -17.4820 
   63.1250    74.9130     7.0550     5.7840     6.3660    25.9210     2.3100   -17.7020 
