~V
VERS. 2.00: Ver 2.00
~W
STRT.M 58.0000:
STOP.M 240.0000:
STEP.M 0.1250:
NULL. -999.2500:
UWI. F10642:
~C
DEPT.M :
SP.MV :
GR.API :
RML.OHMM :
RI. :
RXO.OHMM :
CALI.CM :
DEN.GM/CC :
~A
# ...
  125.5000    -6.6160    53.9100    24.8200    24.5800    18.1020    24.8700     2.1210 
  125.6250    -6.8010    53.4240    24.3550    23.9870    20.1600    25.0520     2.1460 
  125.7500    -6.9490    51.8800    25.0630    24.5410    22.2690    25.1610     2.1660 
  125.8750    -7.0920    50.7710    26.6280    25.9630    23.3190    25.2410     2.1540 
  126.0000    -7.2690    52.3030    28.6850    27.9190    24.4020    25.3150     2.1140 
  126.1250    -7.5130    54.7200    30.6180    29.8480    24.8740    25.5310     2.0720 
  126.2500    -7.8370    55.2030    31.6790    31.0150    23.6930    25.6760     2.0590 
  126.3750    -8.2200    55.6870    31.3030    30.8300    22.6370    25.4750     2.0830 
  126.5000    -8.7100    58.1430    29.3260    29.0710    23.8820    25.0590     2.1290 
  126.6250    -9.2820    61.4790    25.9320    25.8470    22.6570    24.4850     2.1750 
  126.7500    -9.9300    64.9260    21.9980    22.0190    19.1340    23.7910     2.2130 
  126.8750   -10.5930    69.1150    18.0670    18.1430    15.6050    22.9310     2.2510 
  127.0000   -11.2300    72.2460    14.5380    14.6270    13.6940    22.0010     2.2960 
  127.1250   -11.7580    73.8040    11.8480    11.8750    11.3960    21.0810     2.3330 
  127.2500   -12.1430    73.0930    10.0570     9.9220     9.2910    20.1450     2.3410 
  127.3750   -12.3630    70.7860     9.2290     8.8030     7.3130    19.0480     2.3160 
  127.5000   -12.3900    68.8050     9.3950     8.5270     6.4250    17.9420     2.2720 
  127.6250   -12.1830    68.0410    10.6940     9.2440     6.5070    17.0810     2.2280 
  127.7500   -11.8410    66.4500    12.8160    10.7800     6.8460    16.4600     2.1930 
  127.8750   -11.3980    61.9700    15.4100    12.9620     7.2940    16.1940     2.1680 
  128.0000   -10.9130    57.3930    17.9030    15.3770     8.2530    16.4020     2.1460 
  128.1250   -10.4480    55.5420    19.5300    17.3040    10.0870    17.2820     2.1240 
  128.2500   -10.0430    55.1350    20.2280    18.4210    11.7600    18.8000     2.1080 
  128.3750    -9.7210    56.2600    20.3260    18.8410    12.7590    20.7460     2.1020 
  128.5000    -9.5030    57.2530    20.2800    18.8960    13.5110    22.5000     2.1070 
  128.6250    -9.4210    55.5580    20.4210    18.8850    14.1910    23.1740     2.1150 
  128.7500    -9.4360    53.9630    20.7430    18.9240    14.8790    23.2410     2.1220 
  128.8750    -9.5340    54.9220    21.0700    18.9410    15.4620    23.1270     2.1270 
  129.0000    -9.6980    56.8590    21.1820    18.8000    15.7690    23.0500     2.1330 
  129.1250    -9.9060    56.3410    20.9200    18.3770    15.1650    23.0590     2.1380 
  129.2500   -10.1200    56.6490    20.4540    17.7980    14.7550    23.2680     2.1330 
  129.3750   -10.3380    59.3820    20.0140    17.2420    14.1720    23.6300     2.1160 
  129.5000   -10.5350    61.6110    19.8200    16.8990    13.0020    23.9120     2.0960 
  129.6250   -10.7120    59.8290    20.1020    16.9820    12.7100    23.8910     2.0900 
  129.7500   -10.8520    56.9420    20.8600    17.4930    14.3610    23.8760     2.1050 
  129.8750   -10.9830    55.1730    22.0360    18.3990    18.1570    24.0100     2.1340 
  130.0000   -11.0660    55.1480    23.4690    19.5830    23.0920    24.1380     2.1570 
  130.1250   -11.1500    55.9180    24.8440    20.8310    21.6230    24.1560     2.1570 
  130.2500   -11.2760    55.9550    25.7510    21.8300    21.6410    24.1190     2.1470 
  130.3750   -11.4810    55.9450    25.8640    22.3120    22.2860    24.0320     2.1380 
  130.5000   -11.8100    56.7690    25.1390    22.1710    22.0990    23.9740     2.1300 
  130.6250   -12.3170    56.2850    24.0660    21.6130    20.9480    23.9570     2.1190 
  130.7500   -12.9790    53.8650    23.5520    21.2380    20.5990    23.9740     2.1150 
  130.8750   -13.7970    51.7690    24.0750    21.4520    20.2640    23.9950     2.1470 
  131.0000   -14.7700    51.2490    25.4830    22.2920    19.4270    23.9380     2.2440 
  131.1250   -15.8870    52.2730    26.5110    23.0160    21.0460    23.7070     2.3930 
  131.2500   -17.0560    51.6960    25.4390    22.2880    26.5890    23.5350     2.5050 
  131.3750   -18.2300    51.0750    21.6420    19.4170    28.6050    23.4400     2.5250 
  131.5000   -19.3600    57.0610    16.2760    15.1230    19.8210    23.3980     2.4680 
  131.6250   -20.3780    73.1570    11.4770    11.0390    10.1610    23.4700     2.3950 
  131.7500   -21.2710    87.6430     8.1340     8.0140     5.8770    23.5750     2.3520 
  131.8750   -22.0080    90.2760     6.1410     6.0690     4.4360    23.7360     2.3440 
  132.0000   -22.6070    85.6920     5.1340     4.9790     4.1140    23.8050     2.3550 
  132.1250   -23.0420    87.4940     4.8390     4.5710     4.1530    23.7710     2.3670 
  132.2500   -23.3610    93.1560     4.8940     4.5310     4.2920    23.6360     2.3700 
  132.3750   -23.5750    94.0870     5.1330     4.7060     4.5210    23.4230     2.3690 
  132.5000   -23.6880    89.1030     5.4280     4.9780     4.7420    23.2280     2.3660 
  132.6250   -23.7350    85.0490     5.6730     5.2500     4.8910    23.2480     2.3660 
  132.7500   -23.7150    84.6710     5.8230     5.4730     4.9960    23.4320     2.3660 
  132.8750   -23.6590    85.0190     5.8710     5.6320     5.0510    23.6520     2.3690 
  133.0000   -23.5600    84.6260     5.8400     5.7270     5.1170    23.8280     2.3730 
  133.1250   -23.4100    84.2300     5.7740     5.7560     5.1880    23.9180     2.3740 
  133.2500   -23.2330    84.5600     5.7230     5.7290     5.2100    23.9270     2.3680 
  133.3750   -23.0240    87.2600     5.7010     5.6520     5.1330    23.8860     2.3580 
  133.5000   -22.7840    90.2440     5.7050     5.5360     5.0630    23.9160     2.3520 
  133.6250   -22.5300    90.1030     5.7100     5.3930     5.0100    24.0460     2.3570 
  133.7500   -22.2470    87.2350     5.6890     5.2350     4.9670    24.1230     2.3690 
  133.8750   -21.9380    85.2110     5.6260     5.0660     5.0080    24.1240     2.3810 
  134.0000   -21.6060    86.1030     5.5280     4.8960     5.0200    24.0110     2.3870 
  134.1250   -21.2340    88.2130     5.4710     4.7740     5.0000    23.9610     2.3910 
  134.2500   -20.8250    91.1580     5.5730     4.7710     4.8860    23.9740     2.3980 
  134.3750   -20.3840    95.0270     5.9540     4.9690     4.8560    24.0570     2.4030 
  134.5000   -19.9100    97.7800     6.7200     5.4610     5.1440    24.1570     2.3940 
  134.6250   -19.3560    94.2120     8.0330     6.4100     6.2170    24.2260     2.3640 
  134.7500   -18.7380    83.4160     9.8590     7.8290     7.6630    24.1990     2.3180 
  134.8750   -18.0510    69.9040    12.1630     9.7230     9.2780    24.0170     2.2620 
  135.0000   -17.2850    60.4670    14.7870    11.9800    11.0060    23.8730     2.2030 
  135.1250   -16.4670    58.6180    17.3660    14.2970    12.6910    24.0560     2.1540 
  135.2500   -15.6370    59.5150    19.4790    16.2600    14.3470    24.2400     2.1230 
  135.3750   -14.8070    59.7020    20.8790    17.6140    15.8740    24.2980     2.1150 
  135.5000   -13.9830    58.4850    21.5650    18.3230    17.1950    24.2740     2.1250 
  135.6250   -13.1770    57.7690    21.7250    18.5120    17.5550    24.1970     2.1390 
  135.7500   -12.4180    58.5780    21.8450    18.5790    16.7280    24.0500     2.1430 
  135.8750   -11.7130    59.6800    22.2750    18.8080    15.7620    23.8870     2.1360 
  136.0000   -11.0900    58.5120    23.2590    19.4070    16.3890    23.8110     2.1210 
  136.1250   -10.5210    56.5350    24.9510    20.5430    17.9640    23.8700     2.1090 
  136.2500   -10.0070    57.7810    27.0700    22.0850    19.3170    23.8950     2.1080 
  136.3750    -9.5430    61.1790    29.3020    23.8770    20.3940    23.9180     2.1190 
  136.5000    -9.1550    63.0660    31.2620    25.6600    22.1950    23.9660     2.1370 
  136.6250    -8.8530    61.7950    32.4670    27.0240    24.4070    24.1260     2.1520 
