~V
VERS. 2.00: Ver 2.00
~W
STRT.M 50.0000:
STOP.M 224.0000:
STEP.M 0.1250:
NULL. -999.2500:
UWI. F10690:
~C
DEPT.M :
SP.MV :
DEN.GM/CC :
GR.API :
RML.OHMM :
RI. :
RXO.OHMM :
CALI.CM :
~A
# ...
  117.5000   -21.7990     2.1970    49.5860    23.1290    20.7640    10.0610    24.9900 
  117.6250   -21.6210     2.1860    50.8820    23.1050    20.6880    10.2600    24.9900 
  117.7500   -21.4220     2.1690    52.7260    22.9930    20.5990    10.6220    24.9900 
  117.8750   -21.2090     2.1570    54.3320    22.5870    20.3050    11.0170    24.9900 
  118.0000   -21.0110     2.1610    55.3610    21.7790    19.6840    11.1590    24.9950 
  118.1250   -20.8410     2.1770    55.6290    20.5840    18.7220    11.0440    25.0110 
  118.2500   -20.6740     2.1850    54.9740    19.2660    17.6410    10.7170    25.0360 
  118.3750   -20.5060     2.1830    53.2170    18.0240    16.6140    10.4660    25.0590 
  118.5000   -20.3430     2.1810    52.9900    16.9920    15.7610    10.3430    25.0840 
  118.6250   -20.1990     2.1830    54.8660    16.2410    15.1520    10.2470    25.0960 
  118.7500   -20.0740     2.1800    56.1510    15.6640    14.6940    10.0400    25.0980 
  118.8750   -19.9460     2.1690    55.5770    15.1470    14.2880     9.9150    25.0970 
  119.0000   -19.8020     2.1570    53.2660    14.5820    13.8260     9.8770    25.0980 
  119.1250   -19.6460     2.1560    51.9190    13.8790    13.2150     9.6980    25.0990 
  119.2500   -19.4920     2.1610    51.4860    13.0800    12.4870     9.3430    25.0990 
  119.3750   -19.3520     2.1670    50.9400    12.2630    11.7110     8.7740    25.0990 
  119.5000   -19.2140     2.1700    49.8720    11.5200    10.9700     8.1220    25.0990 
  119.6250   -19.0810     2.1640    47.9440    10.9370    10.3500     7.6120    25.0990 
  119.7500   -18.9660     2.1530    46.4460    10.4860     9.8460     7.4280    25.0990 
  119.8750   -18.8670     2.1460    46.4360    10.1250     9.4370     7.4260    25.1000 
  120.0000   -18.7750     2.1520    48.3660     9.8630     9.1300     7.4750    25.1050 
  120.1250   -18.6590     2.1710    50.0950     9.8890     9.0560     7.4870    25.1220 
  120.2500   -18.5130     2.1920    50.7540    10.3960     9.3430     7.5270    25.1410 
  120.3750   -18.3450     2.2180    50.3210    11.5710    10.1270     8.0860    25.1500 
  120.5000   -18.1660     2.2590    50.4090    13.5220    11.5210    10.5920    25.1510 
  120.6250   -17.9980     2.3150    51.4410    16.2370    13.6270    18.4070    25.1510 
  120.7500   -17.8440     2.3650    51.8470    19.0590    16.0400    28.7400    25.1510 
  120.8750   -17.7060     2.3910    51.0360    21.1550    18.1120    26.3550    25.1510 
  121.0000   -17.5770     2.3930    49.3040    21.7650    19.0910    16.9560    25.1510 
  121.1250   -17.4620     2.3730    48.6660    20.4940    18.4210    14.8900    25.1510 
  121.2500   -17.3740     2.3420    49.3290    18.2660    16.7730    14.2400    25.1540 
  121.3750   -17.3040     2.3170    49.9310    15.8610    14.8130    12.8750    25.1720 
  121.5000   -17.2470     2.3110    49.0770    13.8740    13.0830    11.2830    25.2130 
  121.6250   -17.1810     2.3270    48.1370    12.8360    12.0440     9.7650    25.2470 
  121.7500   -17.0920     2.3580    48.8970    12.7940    11.7700     8.6540    25.2600 
  121.8750   -16.9960     2.4030    49.7900    13.7000    12.2770     8.6510    25.2740 
  122.0000   -16.8930     2.4490    49.8970    15.2240    13.4000    10.1620    25.3110 
  122.1250   -16.7880     2.4620    51.3670    16.5280    14.5850    15.6430    25.3670 
  122.2500   -16.6790     2.4310    54.2700    16.6710    14.9690    22.0240    25.3640 
  122.3750   -16.5610     2.3780    56.1040    15.3120    14.1210    18.2560    25.2820 
  122.5000   -16.4460     2.3370    56.0210    12.9750    12.3680     9.3060    25.1940 
  122.6250   -16.3270     2.3220    56.5300    10.7240    10.5300     6.8590    25.2600 
  122.7500   -16.1980     2.3190    58.5210     9.1750     9.1590     6.1840    25.3590 
  122.8750   -16.0570     2.3190    61.2760     8.3730     8.3520     6.3360    25.4480 
  123.0000   -15.9130     2.3120    64.4890     8.1200     8.0180     6.1110    25.5080 
  123.1250   -15.7990     2.2960    66.7120     8.1410     7.9880     6.0370    25.5320 
  123.2500   -15.7090     2.2780    68.0470     8.1560     8.0110     6.0080    25.5370 
  123.3750   -15.6370     2.2640    69.0180     8.1120     8.0130     6.1170    25.5370 
  123.5000   -15.5820     2.2560    69.1960     8.0900     8.0320     6.1080    25.5370 
  123.6250   -15.5410     2.2600    67.2190     8.2500     8.1860     6.1440    25.5350 
  123.7500   -15.5150     2.2810    64.5570     8.6280     8.5080     6.1950    25.5210 
  123.8750   -15.4940     2.3070    62.9280     9.1680     8.9550     6.8340    25.4860 
  124.0000   -15.4760     2.3210    61.9830     9.7090     9.3990     8.4750    25.4270 
  124.1250   -15.4370     2.3160    60.3090    10.0140     9.6380    10.2630    25.3470 
  124.2500   -15.3690     2.3070    58.1530    10.0710     9.6540     9.2520    25.2770 
  124.3750   -15.2970     2.3000    57.9270    10.0570     9.5810     7.5710    25.2910 
  124.5000   -15.2300     2.2840    60.7510    10.2470     9.6360     7.0890    25.3950 
  124.6250   -15.1700     2.2550    64.5240    10.9680    10.0890     8.0110    25.5450 
  124.7500   -15.1100     2.2290    66.4060    12.2210    10.9890     9.7280    25.6700 
  124.8750   -15.0320     2.2140    65.8340    13.8660    12.2830    11.9850    25.7200 
  125.0000   -14.9320     2.2030    63.0310    15.5880    13.7640    14.2250    25.7120 
  125.1250   -14.8230     2.1910    58.2500    16.8620    15.0110    15.7770    25.7020 
  125.2500   -14.7270     2.1820    56.0760    17.4260    15.7170    16.2600    25.6980 
  125.3750   -14.6550     2.1800    58.0530    17.2820    15.8190    15.8160    25.6980 
  125.5000   -14.6070     2.1840    59.5710    16.6730    15.4780    15.3240    25.6980 
  125.6250   -14.6010     2.1920    58.5260    15.9510    14.9660    14.4740    25.6940 
  125.7500   -14.6280     2.2010    59.1270    15.4050    14.5420    13.5990    25.6800 
  125.8750   -14.6710     2.2080    60.4390    15.1400    14.3150    13.0720    25.6580 
  126.0000   -14.7140     2.2090    59.2470    15.1640    14.3170    13.1730    25.6420 
  126.1250   -14.7330     2.2050    56.8710    15.4320    14.5450    13.5030    25.6370 
  126.2500   -14.7340     2.1990    57.9730    15.7650    14.8630    13.8610    25.6370 
  126.3750   -14.7280     2.1930    60.6190    16.0030    15.1370    13.9520    25.6360 
  126.5000   -14.7160     2.1870    60.5770    15.9930    15.2130    13.8560    25.6360 
  126.6250   -14.7070     2.1820    59.0170    15.5460    14.8900    13.5070    25.6350 
  126.7500   -14.7080     2.1810    59.0130    14.7010    14.1710    12.8250    25.6350 
  126.8750   -14.7280     2.1910    60.9840    13.5960    13.1620    11.9410    25.6350 
  127.0000   -14.7610     2.2130    63.0280    12.5310    12.1280    11.0410    25.6350 
  127.1250   -14.7950     2.2420    62.0340    12.0290    11.5040    10.5830    25.6350 
  127.2500   -14.8160     2.2650    57.8100    12.4430    11.5710     9.7390    25.6350 
  127.3750   -14.7970     2.2700    52.3900    14.0990    12.5960     9.5490    25.6390 
  127.5000   -14.7400     2.2520    48.7910    17.2010    14.8300    12.1840    25.6760 
  127.6250   -14.6550     2.2170    48.7280    21.8490    18.6330    20.9280    25.7770 
  127.7500   -14.5770     2.1870    49.1830    27.0520    23.4190    31.8570    25.8990 
  127.8750   -14.5260     2.1690    48.9210    31.4990    28.0940    37.8230    25.9540 
  128.0000   -14.4970     2.1600    48.7290    33.9000    31.1950    36.6380    25.9630 
  128.1250   -14.4870     2.1630    48.6320    33.7320    31.7260    31.8760    25.9610 
  128.2500   -14.4780     2.1720    48.8320    32.5810    30.9770    29.0980    25.9510 
  128.3750   -14.4620     2.1790    49.3960    31.6160    30.0890    27.4730    25.9310 
  128.5000   -14.4430     2.1820    50.7050    31.3830    29.6970    26.6110    25.9160 
  128.6250   -14.4060     2.1810    51.4530    31.9870    30.0360    27.2690    25.9120 
