~V
VERS. 2.00: Ver 2.00
~W
STRT.M 58.0000:
STOP.M 244.0000:
STEP.M 0.1250:
NULL. -999.2500:
UWI. F10638:
~C
DEPT.M :
SP.MV :
GR.API :
RML.OHMM :
RI. :
RXO.OHMM :
CALI.CM :
DEN.GM/CC :
~A
# ...
  125.5000    -9.9040    86.5300     6.1840     5.1970     6.5080    24.6540     2.3210 
  125.6250    -9.9370    86.3580     6.2970     5.1840     6.5490    24.6500     2.3300 
  125.7500   -10.0040    87.3540     6.7240     5.3910     7.1790    24.6310     2.3290 
  125.8750   -10.1060    86.9960     7.5590     5.9070     8.1380    24.6020     2.3210 
  126.0000   -10.2450    84.3980     8.7030     6.6870     9.1380    24.5710     2.3110 
  126.1250   -10.4110    81.1510    10.0320     7.6680    10.6270    24.5250     2.2980 
  126.2500   -10.5950    77.7580    11.3880     8.7360    12.0760    24.4940     2.2820 
  126.3750   -10.8050    70.4400    12.6420     9.7620    13.0490    24.5010     2.2640 
  126.5000   -11.0010    63.1130    13.8140    10.7190    13.6700    24.4820     2.2490 
  126.6250   -11.1360    61.0270    14.9470    11.6320    14.6550    24.4370     2.2400 
  126.7500   -11.2230    62.1870    16.0280    12.5110    15.3280    24.4190     2.2330 
  126.8750   -11.3160    61.7140    16.9400    13.2860    18.4070    24.5140     2.2200 
  127.0000   -11.3660    59.5740    17.6060    13.8950    21.1710    24.6590     2.2010 
  127.1250   -11.3470    58.4390    18.0160    14.3100    21.1880    24.7550     2.1860 
  127.2500   -11.3380    58.6090    18.2950    14.5840    18.1730    24.7050     2.1840 
  127.3750   -11.3290    58.1420    18.7380    14.8810    16.8380    24.6310     2.1980 
  127.5000   -11.3070    57.1910    19.5550    15.3720    20.2990    24.6610     2.2140 
  127.6250   -11.3400    56.7720    20.8060    16.1590    22.9860    24.7830     2.2180 
  127.7500   -11.3980    58.5550    22.4160    17.2770    23.2250    24.8640     2.2040 
  127.8750   -11.3890    60.7400    24.1690    18.6760    23.6790    24.9670     2.1750 
  128.0000   -11.3700    60.4260    25.7670    20.1070    27.0830    25.1040     2.1450 
  128.1250   -11.3790    58.3670    27.0800    21.3950    28.8570    25.1850     2.1230 
  128.2500   -11.3480    55.8840    28.0850    22.4490    28.6500    25.2100     2.1180 
  128.3750   -11.2890    54.7340    28.6320    23.1230    28.7360    25.2150     2.1330 
  128.5000   -11.2440    54.8060    28.5490    23.2900    29.3360    25.2070     2.1540 
  128.6250   -11.1680    55.7280    27.6800    22.8180    28.7480    25.2070     2.1610 
  128.7500   -11.0670    56.5960    26.0940    21.7340    27.2510    25.2140     2.1470 
  128.8750   -11.0120    56.9980    24.1030    20.2390    24.7670    25.1830     2.1190 
  129.0000   -10.9930    58.4790    22.3030    18.7880    21.6620    25.0760     2.1000 
  129.1250   -10.9560    61.1090    21.1450    17.7190    18.8800    24.9520     2.0990 
  129.2500   -10.9190    64.4950    20.9240    17.2680    18.0860    24.8790     2.1160 
  129.3750   -10.9300    66.8530    21.8340    17.6520    19.3610    24.9010     2.1360 
  129.5000   -10.9220    65.4960    23.3200    18.5970    21.5600    24.9590     2.1450 
  129.6250   -10.9100    60.6930    24.6200    19.6410    23.6460    25.0460     2.1420 
  129.7500   -10.9550    56.2070    24.8240    20.0800    26.0990    25.1530     2.1330 
  129.8750   -11.0300    55.9020    23.2480    19.2220    26.3330    25.1740     2.1270 
  130.0000   -11.0310    57.5180    20.8330    17.5910    23.4090    25.0520     2.1310 
  130.1250   -11.0370    58.9970    18.6670    15.9380    18.2930    24.7530     2.1500 
  130.2500   -11.0760    60.6380    17.5610    14.8680    14.1910    24.4240     2.1830 
  130.3750   -11.0520    62.9570    18.0500    14.8360    15.1130    24.3390     2.2190 
  130.5000   -11.0090    63.0030    19.7420    15.7250    19.9830    24.4780     2.2400 
  130.6250   -10.9700    59.3830    22.2020    17.3710    24.8100    24.7650     2.2370 
  130.7500   -10.8800    55.0610    24.7580    19.3930    27.1140    25.0120     2.2110 
  130.8750   -10.7320    54.7430    26.4840    21.1000    26.8780    25.0630     2.1770 
  131.0000   -10.6260    56.7090    27.1830    22.0800    26.5510    25.0000     2.1540 
  131.1250   -10.5070    58.0170    27.2090    22.4190    26.2390    24.9400     2.1490 
  131.2500   -10.3420    57.7630    27.1350    22.4860    25.9270    24.9300     2.1590 
  131.3750   -10.2090    56.7560    27.3400    22.6130    26.0450    24.9350     2.1740 
  131.5000   -10.1100    55.6020    27.6980    22.8320    26.7690    24.9800     2.1820 
  131.6250   -10.0060    55.0330    27.9500    23.0100    28.4740    25.0860     2.1800 
  131.7500    -9.9020    57.0150    27.8820    22.9980    29.5730    25.1710     2.1700 
  131.8750    -9.8330    61.0360    27.3940    22.6860    29.0970    25.1880     2.1600 
  132.0000    -9.7820    61.8540    26.7250    22.2090    27.4990    25.1750     2.1630 
  132.1250    -9.7550    59.1980    26.1090    21.7330    25.4510    25.1560     2.1880 
  132.2500    -9.7600    58.1230    25.7260    21.4120    24.1040    25.1140     2.2240 
  132.3750    -9.8010    61.3450    25.6910    21.3700    23.9180    25.0150     2.2440 
  132.5000    -9.8390    63.5700    25.9010    21.5580    24.4360    24.9130     2.2320 
  132.6250    -9.9050    62.2060    26.2530    21.9050    25.4380    24.8780     2.1950 
  132.7500    -9.9980    60.0640    26.6380    22.3220    27.0690    24.8870     2.1530 
  132.8750   -10.1130    59.9420    26.9660    22.7360    28.7320    24.8960     2.1320 
  133.0000   -10.2020    60.5740    27.2210    23.1210    29.8070    24.8990     2.1330 
  133.1250   -10.2940    60.7450    27.4020    23.4620    30.3380    24.8970     2.1450 
  133.2500   -10.4300    59.5000    27.4930    23.7290    30.3530    24.8940     2.1570 
  133.3750   -10.5350    57.5910    27.4220    23.8380    28.2060    24.8810     2.1630 
  133.5000   -10.6550    55.7280    27.1530    23.7390    26.5240    24.8210     2.1670 
  133.6250   -10.7760    54.4250    26.6670    23.4040    25.8620    24.7430     2.1680 
  133.7500   -10.8810    54.3290    26.0290    22.8810    26.2540    24.7100     2.1660 
  133.8750   -10.9900    54.7940    25.3940    22.2910    26.0630    24.7250     2.1590 
  134.0000   -11.1340    55.7020    24.9010    21.7690    25.1610    24.6890     2.1530 
  134.1250   -11.2450    57.4450    24.5940    21.3770    24.5150    24.6640     2.1510 
  134.2500   -11.2710    60.7600    24.4420    21.1280    24.7080    24.7070     2.1540 
  134.3750   -11.3040    63.2080    24.4020    21.0230    25.7460    24.8120     2.1560 
  134.5000   -11.3070    63.9900    24.4570    21.0340    25.8440    24.8890     2.1550 
  134.6250   -11.2680    63.8720    24.6790    21.1940    25.2450    24.9680     2.1500 
  134.7500   -11.2330    62.5550    25.1600    21.5530    24.7700    25.0790     2.1470 
  134.8750   -11.1890    59.2130    25.9930    22.1770    25.8060    25.1680     2.1500 
  135.0000   -11.1290    55.9680    27.0720    23.0070    27.2320    25.2600     2.1550 
  135.1250   -11.0920    55.3060    28.2630    23.9650    28.1880    25.3600     2.1590 
  135.2500   -11.1280    57.1900    29.3740    24.9250    28.8190    25.4250     2.1600 
  135.3750   -11.1880    58.6370    30.1350    25.6690    29.0080    25.4240     2.1600 
  135.5000   -11.2290    57.2500    30.4570    26.0660    29.3250    25.3930     2.1590 
  135.6250   -11.3110    54.0710    30.3230    26.0590    29.4100    25.3520     2.1560 
  135.7500   -11.4330    52.2030    29.8400    25.6980    28.5500    25.3010     2.1480 
  135.8750   -11.5320    52.7520    29.2420    25.1560    26.5840    25.2260     2.1370 
  136.0000   -11.6210    53.6110    28.8510    24.7210    25.6990    25.1570     2.1300 
  136.1250   -11.7300    53.7660    28.8640    24.5740    25.7290    25.1190     2.1300 
  136.2500   -11.7980    54.5630    29.3220    24.7810    26.4340    25.1020     2.1370 
  136.3750   -11.8420    55.3160    30.0840    25.2850    29.1560    25.1140     2.1450 
  136.5000   -11.9230    53.4780    30.7740    25.8230    31.4480    25.1260     2.1460 
  136.6250   -11.9580    50.3140    31.1340    26.1960    32.0640    25.1210     2.1400 
