~V
VERS. 2.00: Ver 2.00
~W
STRT.M 58.0000:
STOP.M 240.0000:
STEP.M 0.1250:
NULL. -999.2500:
UWI. F10642:
~C
DEPT.M :
SP.MV :
GR.API :
RML.OHMM :
RI. :
RXO.OHMM :
CALI.CM :
DEN.GM/CC :
~A
# ...
  193.0000   -26.8620    89.0650    16.1280    14.0240    15.9300    23.4720     2.3430 
  193.1250   -26.9850    86.2600    16.2760    14.1530    14.8050    23.4710     2.3190 
  193.2500   -27.1580    83.0810    16.7500    14.5660    16.0510    23.5060     2.3010 
  193.3750   -27.3670    79.8850    17.5580    15.2670    18.7850    23.6650     2.2940 
  193.5000   -27.5940    78.2360    18.5820    16.1580    21.0880    23.9800     2.2990 
  193.6250   -27.8240    77.6490    19.6390    17.0770    21.8320    24.1830     2.3040 
  193.7500   -28.0210    77.3000    20.6640    17.9690    21.1030    24.2760     2.2980 
  193.8750   -28.1810    75.9360    21.8790    19.0250    20.1860    24.2940     2.2790 
  194.0000   -28.2960    74.7740    23.7790    20.6770    20.4550    24.2960     2.2520 
  194.1250   -28.3630    72.3340    27.4560    23.8750    22.3110    24.2880     2.2300 
  194.2500   -28.3900    67.4060    33.5830    29.2020    29.1200    24.2590     2.2190 
  194.3750   -28.3860    62.4570    42.6930    37.1240    48.0020    24.2220     2.2220 
  194.5000   -28.3450    60.9890    54.4940    47.3860    81.7590    24.2280     2.2340 
  194.6250   -28.2550    61.9410    67.0420    58.2980    99.2800    24.2030     2.2410 
  194.7500   -28.1340    61.6570    77.1260    67.0660    96.7250    24.0910     2.2340 
  194.8750   -28.0090    59.5050    83.1470    72.3020    84.4990    23.8980     2.2170 
  195.0000   -27.9050    56.3960    85.7520    74.5670    72.6200    23.6930     2.1980 
  195.1250   -27.8090    53.9710    86.4970    75.2150    75.8610    23.5640     2.1880 
  195.2500   -27.7160    53.3200    85.9430    74.7330    78.9460    23.4850     2.1880 
  195.3750   -27.6140    54.7320    82.7160    71.9270    91.5950    23.4760     2.1940 
  195.5000   -27.5150    57.1810    75.5940    65.7340   108.3470    23.4230     2.1990 
  195.6250   -27.4540    58.9680    65.0140    56.5340   101.5920    23.2990     2.2030 
  195.7500   -27.4320    62.1660    54.2800    47.2000    59.4150    23.2660     2.2110 
  195.8750   -27.4430    68.2810    45.5380    39.5990    34.0290    23.4170     2.2250 
  196.0000   -27.4660    73.5300    39.5910    34.4270    25.6720    23.5430     2.2410 
  196.1250   -27.5370    72.7410    36.4580    31.7020    23.5650    23.5610     2.2490 
  196.2500   -27.6370    71.6300    34.8870    30.3370    24.3930    23.6800     2.2470 
  196.3750   -27.7720    72.6010    34.1060    29.6570    24.9540    23.8750     2.2390 
  196.5000   -27.9050    70.9080    33.4210    29.0620    24.9020    24.0450     2.2320 
  196.6250   -28.0380    64.4620    32.2540    28.0470    24.1960    24.0580     2.2340 
  196.7500   -28.1520    61.6460    30.5940    26.6040    21.7090    23.9520     2.2440 
  196.8750   -28.2580    65.1740    28.6850    24.9440    19.1510    23.8080     2.2590 
  197.0000   -28.3450    72.3860    26.8500    23.3480    17.5110    23.7170     2.2730 
  197.1250   -28.3770    79.3950    25.4700    22.1480    17.1580    23.7220     2.2850 
  197.2500   -28.3690    82.0670    24.7630    21.5330    17.3840    23.8030     2.2930 
  197.3750   -28.3250    79.9980    25.0470    21.7800    18.1140    23.9420     2.2960 
  197.5000   -28.2780    77.5830    26.8110    23.3140    19.5680    24.1350     2.2910 
  197.6250   -28.2180    75.7470    31.3120    27.2280    23.6150    24.3110     2.2760 
  197.7500   -28.1550    71.5310    39.3240    34.1950    32.2240    24.4270     2.2530 
  197.8750   -28.0790    65.4610    51.8030    45.0460    50.1240    24.4910     2.2290 
  198.0000   -28.0090    60.1570    68.7610    59.7930    98.6380    24.5510     2.2080 
  198.1250   -27.9810    56.1140    87.4900    76.0780   153.5440    24.5700     2.1980 
  198.2500   -27.9810    52.7580   101.7640    88.4910   143.8580    24.5410     2.1960 
  198.3750   -28.0320    53.1760   107.2660    93.2750   101.0190    24.4910     2.2000 
  198.5000   -28.1190    57.0410   104.0770    90.5020    84.7720    24.4610     2.2080 
  198.6250   -28.2670    59.3140    95.7920    83.2970    87.9850    24.4630     2.2150 
  198.7500   -28.4480    58.9250    87.5370    76.1190    87.9520    24.4810     2.2200 
  198.8750   -28.6760    58.4730    81.4580    70.8330    77.7960    24.4890     2.2190 
  199.0000   -28.9180    59.3870    78.5280    68.2850    68.6820    24.4810     2.2080 
  199.1250   -29.1530    59.3320    80.1120    69.6630    61.7890    24.4290     2.1830 
  199.2500   -29.3910    57.4740    86.5450    75.2570    61.6670    24.3830     2.1550 
  199.3750   -29.6250    57.4850    98.8500    85.9560    69.8730    24.3430     2.1380 
  199.5000   -29.8460    60.1450   117.6280   102.2850    81.0370    24.2440     2.1440 
  199.6250   -30.0250    60.6620   142.9230   124.2810    81.3860    24.0580     2.1700 
  199.7500   -30.1670    56.2130   170.5230   148.2810    74.6400    23.8120     2.1860 
  199.8750   -30.2540    50.1380   195.7620   170.2280    67.0940    23.4980     2.1780 
  200.0000   -30.2980    48.1600   214.1420   186.2110    63.6810    23.1570     2.1460 
  200.1250   -30.2930    50.4110   221.6680   192.7550    87.7020    23.2580     2.1050 
  200.2500   -30.2490    51.4990   220.0380   191.3380   135.8380    23.8790     2.0730 
  200.3750   -30.1630    50.9450   210.2540   182.8290   179.3630    24.5310     2.0640 
  200.5000   -30.0350    50.9620   193.7960   168.5180   188.1740    24.8220     2.0780 
  200.6250   -29.8840    53.0730   173.1400   150.5570   167.2870    24.8290     2.1050 
  200.7500   -29.7150    54.4190   152.8280   132.8940   136.3940    24.8210     2.1310 
  200.8750   -29.5590    53.7320   135.7300   118.0260   110.3300    24.8490     2.1500 
  201.0000   -29.4310    52.2160   123.4260   107.3270    96.1730    24.8930     2.1600 
  201.1250   -29.3520    52.5110   117.0700   101.8000    90.4980    24.8850     2.1610 
  201.2500   -29.3120    53.4950   115.2770   100.2400    92.0630    24.8340     2.1580 
  201.3750   -29.3090    52.8090   117.2630   101.9680    99.8590    24.7740     2.1540 
  201.5000   -29.3520    49.8350   122.1910   106.2530   108.6040    24.7260     2.1540 
  201.6250   -29.4130    49.2210   129.7670   112.8400   114.5590    24.6690     2.1590 
  201.7500   -29.5070    51.8860   139.4950   121.3000   121.0220    24.6430     2.1670 
  201.8750   -29.6250    55.0290   151.6840   131.8990   132.6110    24.6410     2.1750 
  202.0000   -29.7790    56.1430   166.6960   144.9530   144.7770    24.6430     2.1860 
  202.1250   -29.9440    53.8950   184.8370   160.7280   166.4080    24.5910     2.2030 
  202.2500   -30.1180    50.8600   204.3840   177.7260   203.1420    24.5160     2.2280 
  202.3750   -30.2960    50.6160   223.2490   194.1290   241.5860    24.4410     2.2520 
  202.5000   -30.4630    53.5260   239.1810   207.9840   250.3210    24.3880     2.2640 
  202.6250   -30.6270    57.0280   248.3380   215.9460   237.9240    24.3640     2.2530 
  202.7500   -30.7710    58.8730   246.8850   214.6830   223.7570    24.3730     2.2300 
  202.8750   -30.8820    59.7210   230.1200   200.1040   221.1170    24.4320     2.2110 
  203.0000   -30.9390    59.6900   197.8840   172.0730   240.2330    24.4660     2.2060 
  203.1250   -30.9360    58.3350   157.4350   136.9000   216.4290    24.4930     2.2080 
  203.2500   -30.8780    56.1630   120.7910   105.0360   141.5790    24.4810     2.2040 
  203.3750   -30.7740    54.0330    93.1540    81.0030    76.9560    24.4420     2.1900 
  203.5000   -30.6640    54.0700    75.0290    65.2430    50.1410    24.2430     2.1740 
  203.6250   -30.5300    58.3000    65.1120    56.6190    42.1710    23.6870     2.1610 
  203.7500   -30.4080    62.5300    59.4760    51.7180    38.0300    23.0020     2.1510 
  203.8750   -30.2950    64.5740    56.5860    49.2050    36.6620    22.8210     2.1460 
  204.0000   -30.2060    65.3060    55.6480    48.3900    38.8100    23.2380     2.1610 
  204.1250   -30.1540    66.4810    56.6480    49.2590    41.5930    23.8230     2.2250 
