~V
VERS. 2.00: Ver 2.00
~W
STRT.M 50.0000:
STOP.M 216.0000:
STEP.M 0.1250:
NULL. -999.2500:
UWI. F10607:
~C
DEPT.M :
GR.API :
RML.OHMM :
RI. :
RXO.OHMM :
CALI.CM :
DEN.GM/CC :
SP.MV :
~A
# ...
  128.7500    46.7350    35.5610    30.9320    36.6490    23.6340     2.6730   -10.8950 
  128.8750    49.8050    35.3700    30.8220    35.4920    23.6280     2.6730   -10.8340 
  129.0000    53.0790    34.4890    30.1000    32.8550    23.5840     2.6600   -10.7730 
  129.1250    51.2070    32.8450    28.7410    31.8370    23.5100     2.6400   -10.6950 
  129.2500    46.4810    30.6420    26.9410    31.9830    23.4540     2.6170   -10.5950 
  129.3750    44.6280    28.1410    24.9030    29.3680    23.3940     2.5940   -10.4550 
  129.5000    48.6790    25.7700    22.9510    25.8130    23.2910     2.5730   -10.2650 
  129.6250    55.6080    24.1040    21.5240    23.4100    23.1730     2.5630   -10.0380 
  129.7500    59.5470    23.2970    20.7530    21.1660    23.0960     2.5650    -9.7830 
  129.8750    57.9720    23.2930    20.6230    18.8700    23.1290     2.5780    -9.5140 
  130.0000    53.6270    23.7960    20.9450    18.5760    23.2930     2.6020    -9.2330 
  130.1250    50.2590    24.3050    21.3680    21.6730    23.3000     2.6340    -8.9690 
  130.2500    47.4950    24.3820    21.5080    23.8760    23.2200     2.6540    -8.7290 
  130.3750    44.9970    23.8630    21.1880    22.0350    23.0510     2.6540    -8.5170 
  130.5000    45.2330    22.8180    20.4130    17.5040    22.8870     2.6280    -8.3350 
  130.6250    48.2300    21.4900    19.3340    16.8260    22.8430     2.5830    -8.1630 
  130.7500    49.4070    20.2430    18.2540    16.3770    22.8450     2.5230    -8.0050 
  130.8750    48.2510    19.3090    17.3710    15.5530    22.9030     2.4530    -7.8710 
  131.0000    47.9680    18.8680    16.8500    14.9590    23.0520     2.3830    -7.7730 
  131.1250    49.8720    19.1690    16.8980    15.1380    23.0620     2.3270    -7.7010 
  131.2500    51.7500    20.2100    17.5210    14.7050    22.7000     2.2920    -7.6630 
  131.3750    52.9410    22.0870    18.8050    14.5620    21.7600     2.2830    -7.6700 
  131.5000    54.7390    24.8610    20.8350    14.2630    20.4870     2.2930    -7.7230 
  131.6250    57.8650    28.4650    23.6810    14.6250    19.6360     2.3140    -7.8380 
  131.7500    58.2710    32.1590    26.8350    14.1550    19.0710     2.3460    -7.9950 
  131.8750    55.8170    35.0700    29.6010    13.2630    18.3930     2.3940    -8.1840 
  132.0000    53.1910    36.3560    31.1680    12.9480    17.5470     2.4550    -8.3880 
  132.1250    54.4190    35.3760    30.7670    13.1950    17.0770     2.4990    -8.6000 
  132.2500    57.0720    33.0250    29.0000    13.1850    17.0900     2.5060    -8.7960 
  132.3750    57.4470    30.1440    26.5590    12.7950    17.4440     2.4830    -8.9700 
  132.5000    56.0810    27.3350    24.0200    12.4630    17.9340     2.4510    -9.1380 
  132.6250    54.6820    24.8740    21.7170    12.8000    18.5540     2.4270    -9.2980 
  132.7500    53.7240    22.7280    19.7150    13.3330    19.3020     2.4190    -9.4460 
  132.8750    52.0340    20.9270    18.0720    13.6710    20.0310     2.4230    -9.5660 
  133.0000    49.4880    19.5770    16.8580    13.3360    20.6280     2.4270    -9.6680 
  133.1250    47.2240    18.9520    16.2430    13.0110    20.9660     2.4250    -9.7690 
  133.2500    45.0220    19.0350    16.1930    13.9410    21.2410     2.4210    -9.8810 
  133.3750    43.0780    19.6960    16.6550    16.1690    21.5500     2.4210   -10.0210 
  133.5000    42.6120    20.5770    17.4200    19.0840    22.0100     2.4250   -10.1860 
  133.6250    43.0160    21.0790    18.0420    19.4500    22.3700     2.4290   -10.3780 
  133.7500    44.1000    20.9040    18.1590    18.8190    22.6040     2.4310   -10.5890 
  133.8750    47.0740    20.1300    17.7170    17.9010    22.5990     2.4290   -10.8260 
  134.0000    51.1500    19.1130    16.9420    16.3890    22.3100     2.4220   -11.0950 
  134.1250    53.8530    18.3060    16.1900    14.2340    21.9310     2.4150   -11.3690 
  134.2500    54.6690    17.8730    15.6830    13.1490    21.6990     2.4100   -11.6410 
  134.3750    54.0920    17.7530    15.4400    13.8670    21.5670     2.4070   -11.8940 
  134.5000    52.5250    17.7710    15.3590    14.8600    21.4790     2.4090   -12.1070 
  134.6250    51.3880    17.7160    15.2840    14.6340    21.4440     2.4170   -12.2760 
  134.7500    51.5390    17.4980    15.1100    13.3950    21.3980     2.4300   -12.4090 
  134.8750    50.9820    17.1370    14.8270    13.0410    21.3790     2.4400   -12.5090 
  135.0000    50.1820    16.7200    14.4910    14.0260    21.5250     2.4370   -12.5700 
  135.1250    52.2320    16.3560    14.1900    14.9710    21.7040     2.4130   -12.5980 
  135.2500    54.5460    16.1050    13.9760    14.8520    21.8060     2.3790   -12.5700 
  135.3750    52.7360    16.0090    13.8720    13.8240    21.8420     2.3500   -12.4920 
  135.5000    46.7330    16.1100    13.8980    13.2370    21.8600     2.3360   -12.3620 
  135.6250    41.6850    16.4260    14.0750    13.3350    21.9050     2.3420   -12.1800 
  135.7500    41.5300    16.8250    14.3240    13.7480    22.0230     2.3570   -11.9620 
  135.8750    44.4840    17.1510    14.5470    15.1040    22.2150     2.3750   -11.7070 
  136.0000    46.7340    17.2580    14.6360    16.5630    22.3920     2.3910   -11.4400 
  136.1250    46.2200    17.0410    14.4980    15.9270    22.5090     2.4010   -11.1790 
  136.2500    45.0890    16.6500    14.2100    14.4130    22.5500     2.4090   -10.9510 
  136.3750    44.6440    16.2550    13.8870    13.5370    22.5670     2.4150   -10.7600 
  136.5000    42.6450    16.0120    13.6440    13.7860    22.5940     2.4200   -10.6210 
  136.6250    40.0790    16.0410    13.5870    14.6430    22.6380     2.4210   -10.5540 
  136.7500    41.7270    16.2890    13.7000    15.3530    22.6950     2.4190   -10.5380 
  136.8750    46.9540    16.6820    13.9450    15.9500    22.7300     2.4140   -10.5690 
  137.0000    51.2150    17.1270    14.2630    16.0440    22.7660     2.4120   -10.6450 
  137.1250    51.3450    17.5660    14.6160    15.9360    22.7870     2.4110   -10.7540 
  137.2500    50.8350    17.9890    14.9880    15.9550    22.8040     2.4100   -10.8730 
  137.3750    51.2820    18.3950    15.3760    15.8110    22.8240     2.4050   -10.9870 
  137.5000    51.5850    18.7930    15.7680    15.7050    22.8660     2.3990   -11.0960 
  137.6250    51.3970    19.2040    16.1630    15.6330    22.9210     2.3990   -11.1750 
  137.7500    49.2980    19.6130    16.5420    16.4080    22.9680     2.4070   -11.2290 
  137.8750    46.0930    19.9350    16.8430    16.6010    23.0290     2.4220   -11.2520 
  138.0000    44.3220    20.0330    16.9660    16.1620    23.1540     2.4350   -11.2170 
  138.1250    43.6220    19.7260    16.7630    16.3210    23.2390     2.4370   -11.0950 
  138.2500    43.7610    19.0800    16.2790    16.7250    23.3120     2.4280   -10.9300 
  138.3750    45.5930    18.2630    15.6320    16.1450    23.3550     2.4190   -10.7370 
  138.5000    49.7250    17.5330    15.0140    14.3850    23.3650     2.4160   -10.5260 
  138.6250    52.2950    17.2310    14.6850    13.1910    23.3480     2.4260   -10.2990 
  138.7500    51.0840    17.4640    14.7480    13.3520    23.3670     2.4450   -10.0740 
  138.8750    49.3500    18.2410    15.2460    14.5270    23.4090     2.4650    -9.8590 
  139.0000    49.8290    19.4370    16.1250    15.6300    23.5100     2.4800    -9.6710 
  139.1250    51.2440    20.7550    17.2120    16.8470    23.5740     2.4820    -9.5460 
  139.2500    50.3930    21.8030    18.1750    18.1910    23.6350     2.4720    -9.4510 
  139.3750    47.5890    22.3220    18.7650    18.9310    23.6590     2.4530    -9.3880 
  139.5000    46.2650    22.2180    18.8530    18.6320    23.6530     2.4380    -9.3530 
  139.6250    46.7280    21.5370    18.4150    17.3890    23.6310     2.4370    -9.3560 
  139.7500    46.3060    20.6390    17.7240    16.5090    23.6080     2.4480    -9.3860 
  139.8750    46.2220    19.7800    16.9890    16.3010    23.6130     2.4610    -9.4580 
