~V
VERS. 2.00: Ver 2.00
~W
STRT.M 52.0000:
STOP.M 260.0000:
STEP.M 0.1250:
NULL. -999.2500:
UWI. F10654:
~C
DEPT.M :
SP.MV :
GR.API :
RML.OHMM :
RI. :
RXO.OHMM :
CALI.CM :
DEN.GM/CC :
~A
# ...
  119.5000   -11.1650    59.6140     8.7370     8.3170     9.3060    21.7260     2.2030 
  119.6250   -11.2510    59.1320     9.0000     8.6140     9.0500    21.6520     2.2130 
  119.7500   -11.3370    57.8460     9.2080     8.8670     8.5910    21.6710     2.2230 
  119.8750   -11.4190    57.7370     9.3430     9.0410     8.0490    21.7910     2.2280 
  120.0000   -11.5120    61.0630     9.3840     9.0940     7.6060    21.9260     2.2270 
  120.1250   -11.5700    63.9080     9.3560     9.0460     7.4660    22.0780     2.2190 
  120.2500   -11.5820    62.9560     9.2780     8.9300     7.6130    22.2990     2.2090 
  120.3750   -11.5690    59.7800     9.1780     8.7880     7.8840    22.4820     2.2000 
  120.5000   -11.5730    58.7440     9.0720     8.6590     8.0360    22.5470     2.1960 
  120.6250   -11.5300    58.7600     8.9630     8.5600     8.0280    22.5520     2.1970 
  120.7500   -11.4740    57.7870     8.8490     8.4850     7.9120    22.5440     2.1980 
  120.8750   -11.4180    56.2190     8.7260     8.4260     7.7590    22.5280     2.1960 
  121.0000   -11.3390    55.6810     8.6080     8.3820     7.6420    22.5080     2.1890 
  121.1250   -11.2670    57.4610     8.5110     8.3560     7.6170    22.4510     2.1810 
  121.2500   -11.1880    60.1670     8.4460     8.3570     7.8250    22.3500     2.1750 
  121.3750   -11.0870    62.1370     8.4190     8.3880     8.3330    22.1950     2.1710 
  121.5000   -10.9510    62.5500     8.4310     8.4440     8.8700    21.8450     2.1680 
  121.6250   -10.7900    62.2100     8.4770     8.5150     9.1430    21.3770     2.1630 
  121.7500   -10.6110    63.9820     8.5620     8.6000     9.0380    20.8010     2.1560 
  121.8750   -10.4040    67.2870     8.6820     8.7020     8.5720    20.1070     2.1490 
  122.0000   -10.2010    67.9220     8.7990     8.8000     7.9130    19.2880     2.1460 
  122.1250    -9.9990    66.8850     8.8280     8.8300     7.1730    18.5750     2.1520 
  122.2500    -9.7730    66.7780     8.6790     8.7020     6.5610    18.1010     2.1690 
  122.3750    -9.5830    68.5450     8.2820     8.3380     6.2320    17.8610     2.2000 
  122.5000    -9.4210    72.9160     7.6080     7.6770     5.9330    17.7910     2.2430 
  122.6250    -9.2920    81.1980     6.7960     6.8420     5.5920    17.7810     2.2900 
  122.7500    -9.2020    91.1870     5.9710     5.9580     5.3020    17.7950     2.3340 
  122.8750    -9.1420    97.8350     5.2400     5.1460     5.2070    17.8190     2.3700 
  123.0000    -9.1310    98.9520     4.7200     4.5340     5.2900    17.8300     2.3960 
  123.1250    -9.1690    98.5810     4.4490     4.1610     5.4230    17.8150     2.4150 
  123.2500    -9.2350    98.6840     4.4890     4.0720     5.5870    17.7500     2.4230 
  123.3750    -9.3170    98.7570     4.8980     4.3070     5.8780    17.6390     2.4140 
  123.5000    -9.4280    94.8310     5.7520     4.9380     6.3440    17.4160     2.3810 
  123.6250    -9.5570    86.2250     6.8960     5.8640     6.8180    17.1740     2.3320 
  123.7500    -9.6850    75.5740     8.1390     6.9620     7.2380    17.1820     2.2790 
  123.8750    -9.7990    66.1910     9.2210     8.0380     7.4880    17.6180     2.2320 
  124.0000    -9.9150    60.7420     9.8270     8.8110     7.4300    18.4020     2.2020 
  124.1250   -10.0020    59.0760     9.9530     9.1880     7.3210    19.2530     2.1860 
  124.2500   -10.0740    58.9430     9.7210     9.2010     7.3910    20.0080     2.1830 
  124.3750   -10.1440    58.3790     9.3330     8.9830     7.6040    20.5720     2.1880 
  124.5000   -10.1640    57.1860     8.9800     8.6860     7.7510    20.8820     2.2030 
  124.6250   -10.1640    57.8160     8.7350     8.4120     7.7180    21.0450     2.2210 
  124.7500   -10.1460    59.8720     8.5930     8.1860     7.5610    21.1520     2.2360 
  124.8750   -10.1180    61.2830     8.5300     8.0140     7.3870    21.2760     2.2440 
  125.0000   -10.0910    61.7090     8.5310     7.9120     7.2830    21.4420     2.2430 
  125.1250   -10.0500    61.6270     8.5730     7.8800     7.2830    21.6030     2.2380 
  125.2500   -10.0110    61.2990     8.6500     7.9240     7.3910    21.7420     2.2330 
  125.3750    -9.9730    60.6510     8.7660     8.0460     7.5920    21.8560     2.2270 
  125.5000    -9.9430    62.0960     8.9270     8.2300     8.0470    21.9430     2.2160 
  125.6250    -9.9450    65.6560     9.1020     8.4170     8.6850    21.9990     2.2010 
  125.7500    -9.9720    68.2390     9.2330     8.5440     9.2310    22.0280     2.1870 
  125.8750    -9.9880    68.4580     9.2270     8.5470     9.3750    22.0500     2.1840 
  126.0000    -9.9870    69.0220     8.9550     8.3490     8.9740    22.0810     2.2050 
  126.1250   -10.0040    71.5170     8.4450     7.9810     8.3640    22.0950     2.2410 
  126.2500   -10.0320    73.5760     7.7850     7.4960     7.6750    22.0780     2.2790 
  126.3750   -10.0430    73.8230     7.1210     6.9740     6.9620    22.0210     2.3040 
  126.5000   -10.0310    74.8440     6.6100     6.5000     6.4040    21.9290     2.3050 
  126.6250   -10.0150    78.4450     6.2760     6.1070     6.1680    21.8700     2.2950 
  126.7500    -9.9840    81.6880     6.0820     5.7990     6.1150    21.7820     2.2860 
  126.8750    -9.9400    82.8310     5.9700     5.5750     6.0930    21.5940     2.2840 
  127.0000    -9.8990    83.6870     5.9140     5.4500     5.9980    21.2590     2.2880 
  127.1250    -9.8440    85.5630     5.8950     5.4210     5.8530    20.8290     2.2920 
  127.2500    -9.7890    85.1560     5.9350     5.4950     5.8510    20.4680     2.2960 
  127.3750    -9.7240    82.0280     6.0930     5.6750     6.2110    20.1810     2.3000 
  127.5000    -9.6460    80.0620     6.4380     5.9850     6.8680    19.7880     2.3030 
  127.6250    -9.5570    80.8840     7.0640     6.4220     7.4170    19.2550     2.2990 
  127.7500    -9.4670    82.5850     7.9930     7.0030     7.6460    18.6190     2.2830 
  127.8750    -9.3900    82.8530     9.1630     7.7220     7.8530    18.0880     2.2520 
  128.0000    -9.2840    78.5250    10.3750     8.4950     8.6060    17.8390     2.2150 
  128.1250    -9.1490    70.9600    10.9750     9.1270     9.7140    17.8950     2.1880 
  128.2500    -9.0240    65.8770    11.1210     9.4170    10.6160    18.2280     2.1840 
  128.3750    -8.9050    68.2310    10.7000     9.2320    10.9640    18.7290     2.2060 
  128.5000    -8.8120    76.5740     9.7480     8.5460     9.9200    19.2800     2.2530 
  128.6250    -8.7400    85.1740     8.6470     7.6630     8.1470    19.8460     2.3070 
  128.7500    -8.6730    90.2680     7.6640     6.8150     6.9140    20.4570     2.3530 
  128.8750    -8.6410    90.8750     6.9370     6.1430     6.4650    21.2270     2.3820 
  129.0000    -8.6500    89.9170     6.5000     5.7090     6.3700    22.0510     2.3900 
  129.1250    -8.6940    90.8820     6.2200     5.4320     6.1960    22.5780     2.3880 
  129.2500    -8.7610    92.6340     6.0180     5.2580     5.8980    22.8530     2.3840 
  129.3750    -8.8660    93.7030     5.8540     5.1460     5.5770    23.0230     2.3840 
  129.5000    -8.9830    94.2070     5.7470     5.0860     5.4330    23.2040     2.3860 
  129.6250    -9.0650    94.0230     5.7230     5.0660     5.4460    23.4370     2.3860 
  129.7500    -9.1320    93.2810     5.7880     5.0780     5.5360    23.6810     2.3820 
  129.8750    -9.1410    93.8660     5.9000     5.0980     5.6580    23.8410     2.3730 
  130.0000    -9.1130    96.0420     5.9640     5.0940     5.7310    23.8740     2.3650 
  130.1250    -9.0680    95.3170     5.9210     5.0510     5.7400    23.8740     2.3620 
  130.2500    -8.9420    91.7750     5.7810     4.9800     5.7210    23.8690     2.3630 
  130.3750    -8.7370    90.5220     5.6380     4.9150     5.7040    23.8460     2.3660 
  130.5000    -8.4720    92.6740     5.7070     4.9510     5.7730    23.8250     2.3650 
  130.6250    -8.1240    93.9510     6.1700     5.2050     6.0290    23.8470     2.3650 
