~V
VERS. 2.00: Ver 2.00
~W
STRT.M 48.0000:
STOP.M 229.0000:
STEP.M 0.1250:
NULL. -999.2500:
UWI. F10623:
~C
DEPT.M :
GR.API :
RML.OHMM :
RI. :
RXO.OHMM :
CALI.CM :
DEN.GM/CC :
SP.MV :
~A
# ...
  205.5000    30.1570     3.6150     3.2490     3.3460    23.6140     2.2730    -4.6150 
  205.6250    30.3500     3.5500     3.2060     3.2610    23.5970     2.2530    -4.5850 
  205.7500    31.2620     3.5290     3.2300     3.3110    23.5760     2.2390    -4.5950 
  205.8750    33.0000     3.5660     3.3030     3.4340    23.5730     2.2290    -4.6530 
  206.0000    34.7670     3.6190     3.4000     3.5930    23.5770     2.2230    -4.7490 
  206.1250    35.3040     3.6700     3.4910     3.7380    23.5670     2.2240    -4.8650 
  206.2500    35.2330     3.7250     3.5540     3.8610    23.5590     2.2350    -4.9910 
  206.3750    35.4080     3.7640     3.5860     3.9340    23.4890     2.2560    -5.1190 
  206.5000    36.2720     3.7720     3.5890     3.9140    23.3260     2.2840    -5.2300 
  206.6250    36.8540     3.7680     3.5740     3.9210    23.1650     2.3120    -5.2980 
  206.7500    37.2720     3.7630     3.5510     3.9300    23.1140     2.3270    -5.3180 
  206.8750    38.2330     3.7520     3.5230     3.9200    23.0270     2.3230    -5.2940 
  207.0000    39.3870     3.7270     3.4850     3.9100    22.8940     2.3010    -5.2440 
  207.1250    39.3230     3.6780     3.4280     3.8370    22.7630     2.2700    -5.1780 
  207.2500    37.5970     3.6080     3.3540     3.6850    22.7130     2.2490    -5.1130 
  207.3750    33.9970     3.5310     3.2720     3.5160    22.8800     2.2430    -5.0590 
  207.5000    29.6400     3.4630     3.1960     3.4050    23.2160     2.2520    -5.0300 
  207.6250    27.4110     3.4290     3.1490     3.3840    23.4620     2.2680    -5.0330 
  207.7500    28.0730     3.4400     3.1410     3.4000    23.4910     2.2840    -5.0690 
  207.8750    29.8790     3.4980     3.1760     3.4490    23.3610     2.2980    -5.1380 
  208.0000    30.8900     3.5990     3.2520     3.5420    23.1560     2.3150    -5.2330 
  208.1250    31.4340     3.7290     3.3600     3.7070    23.0600     2.3360    -5.3580 
  208.2500    31.8850     3.8590     3.4750     3.9040    23.2100     2.3560    -5.5040 
  208.3750    31.1290     3.9650     3.5740     4.0580    23.5810     2.3730    -5.6570 
  208.5000    29.3470     4.0330     3.6420     4.1010    23.9750     2.3860    -5.8010 
  208.6250    28.8700     4.0500     3.6620     4.0510    24.1730     2.3990    -5.9340 
  208.7500    29.9290     4.0290     3.6420     3.9880    24.2780     2.4130    -6.0430 
  208.8750    30.7900     3.9790     3.5900     3.9350    24.3620     2.4200    -6.1150 
  209.0000    30.5210     3.9030     3.5120     3.8800    24.4260     2.4120    -6.1480 
  209.1250    31.3400     3.8000     3.4140     3.8230    24.3750     2.3790    -6.1440 
  209.2500    33.3060     3.6970     3.3170     3.7910    24.2700     2.3350    -6.1060 
  209.3750    34.6090     3.6370     3.2520     3.7920    24.1800     2.2950    -6.0510 
  209.5000    34.2150     3.6890     3.2730     3.8510    24.1630     2.2770    -5.9880 
  209.6250    32.3590     3.9590     3.4710     4.1700    24.2540     2.2950    -5.9010 
  209.7500    31.5820     4.4260     3.8470     5.0890    24.4220     2.3430    -5.8240 
  209.8750    32.7720     5.0160     4.3580     6.8700    24.5450     2.4030    -5.7750 
  210.0000    34.3100     5.5780     4.8930     9.1370    24.5020     2.4570    -5.7590 
  210.1250    33.7910     5.8770     5.2540    11.1390    24.2900     2.4800    -5.7600 
  210.2500    33.6750     5.8240     5.3330    11.6610    24.2140     2.4720    -5.7560 
  210.3750    36.1490     5.4520     5.1150     9.3820    24.2750     2.4410    -5.7390 
  210.5000    39.3060     4.9120     4.6960     6.2730    24.3870     2.3990    -5.7270 
  210.6250    40.5720     4.4080     4.2310     5.1050    24.5110     2.3590    -5.7540 
  210.7500    41.7910     4.0450     3.8470     4.6240    24.5840     2.3240    -5.8010 
  210.8750    42.8280     3.8290     3.5820     4.1990    24.5460     2.2990    -5.8590 
  211.0000    41.6820     3.7270     3.4270     3.8620    24.5750     2.2830    -5.9130 
  211.1250    38.8330     3.7100     3.3710     3.7030    24.7740     2.2840    -5.9750 
  211.2500    37.2860     3.7410     3.3750     3.6560    25.0070     2.2960    -6.0490 
  211.3750    37.4830     3.8090     3.4250     3.7000    25.2970     2.3160    -6.1300 
  211.5000    37.6000     3.8950     3.5010     3.7800    25.6180     2.3370    -6.2050 
  211.6250    36.5480     3.9640     3.5750     3.8280    25.6930     2.3490    -6.2620 
  211.7500    36.7230     3.9890     3.6200     3.8470    25.6690     2.3490    -6.3060 
  211.8750    39.0660     3.9620     3.6230     3.8370    25.6410     2.3400    -6.3290 
  212.0000    41.2500     3.8890     3.5860     3.8020    25.6880     2.3250    -6.3450 
  212.1250    39.5480     3.7910     3.5150     3.7000    25.7820     2.3150    -6.3510 
  212.2500    35.9200     3.6940     3.4330     3.5650    25.9320     2.3140    -6.3560 
  212.3750    33.3510     3.6120     3.3540     3.4330    25.9880     2.3230    -6.3700 
  212.5000    32.3950     3.5490     3.2840     3.3420    25.9860     2.3380    -6.3870 
  212.6250    32.7290     3.5080     3.2330     3.2870    26.0840     2.3490    -6.4120 
  212.7500    33.8580     3.4840     3.2000     3.2510    26.2670     2.3520    -6.4290 
  212.8750    35.1040     3.4780     3.1860     3.2300    26.4450     2.3420    -6.4410 
  213.0000    35.7290     3.4920     3.1920     3.2310    26.4100     2.3210    -6.4450 
  213.1250    35.1700     3.5290     3.2200     3.2580    26.0860     2.2980    -6.4360 
  213.2500    34.3850     3.5810     3.2630     3.3080    25.7080     2.2850    -6.4320 
  213.3750    34.2370     3.6380     3.3120     3.3780    25.5250     2.2870    -6.4230 
  213.5000    34.9880     3.6860     3.3590     3.4670    25.5000     2.3020    -6.4090 
  213.6250    36.7100     3.7080     3.3910     3.5600    25.3960     2.3200    -6.3850 
  213.7500    38.1910     3.7010     3.4010     3.6210    25.3290     2.3280    -6.3630 
  213.8750    38.1290     3.6690     3.3860     3.6550    25.3960     2.3230    -6.3380 
  214.0000    35.9720     3.6230     3.3520     3.6540    25.4550     2.3110    -6.3270 
  214.1250    33.5830     3.5830     3.3110     3.5930    25.4920     2.3020    -6.3370 
  214.2500    32.7840     3.5640     3.2800     3.5140    25.6060     2.3030    -6.3420 
  214.3750    32.9200     3.5730     3.2650     3.4910    25.8060     2.3100    -6.3510 
  214.5000    32.9580     3.6020     3.2660     3.5270    25.9570     2.3180    -6.3810 
  214.6250    33.9870     3.6290     3.2720     3.5680    26.0970     2.3200    -6.4250 
  214.7500    36.1380     3.6350     3.2700     3.5790    26.1750     2.3150    -6.4760 
  214.8750    37.6470     3.6140     3.2570     3.5570    26.0920     2.3050    -6.5350 
  215.0000    37.0860     3.5870     3.2480     3.5250    25.8050     2.2970    -6.5770 
  215.1250    36.4740     3.6130     3.2870     3.5380    25.3760     2.3010    -6.5880 
  215.2500    37.8360     3.7380     3.4060     3.6230    25.0720     2.3190    -6.5980 
  215.3750    39.4030     3.9810     3.6230     3.8390    25.0390     2.3460    -6.6120 
  215.5000    39.8380     4.3190     3.9250     4.1410    24.9670     2.3740    -6.6210 
  215.6250    40.0290     4.6730     4.2560     4.4790    24.6960     2.3880    -6.6350 
  215.7500    40.1120     4.9310     4.5210     4.6220    24.3780     2.3850    -6.6460 
  215.8750    39.9540     5.0120     4.6470     4.4710    24.1820     2.3680    -6.6420 
  216.0000    40.2270     4.8920     4.5960     4.2370    24.1630     2.3440    -6.6280 
  216.1250    41.4780     4.5920     4.3680     4.0870    24.2010     2.3220    -6.6340 
  216.2500    41.3090     4.2340     4.0620     3.9540    24.3770     2.3070    -6.6600 
  216.3750    39.6400     3.8970     3.7530     3.7540    24.7260     2.3030    -6.7020 
  216.5000    38.6200     3.6350     3.4950     3.5420    25.0940     2.3080    -6.7490 
  216.6250    39.8020     3.4830     3.3290     3.3530    25.1380     2.3160    -6.7710 
