~V
VERS. 2.00: Ver 2.00
~W
STRT.M 50.0000:
STOP.M 265.0000:
STEP.M 0.1250:
NULL. -999.2500:
UWI. F10671:
~C
DEPT.M :
GR.API :
RML.OHMM :
RI. :
RXO.OHMM :
CALI.CM :
DEN.GM/CC :
SP.MV :
~A
# ...
  117.5000    82.8050     6.5580     5.5580     6.1820    24.3310     2.3410    -6.0860 
  117.6250    81.6550     6.8090     5.7820     7.0210    24.3240     2.3420    -6.1960 
  117.7500    85.9880     6.9280     5.9380     7.7080    24.3100     2.3450    -6.2710 
  117.8750    92.0500     6.8580     5.9580     7.9420    24.2870     2.3380    -6.3750 
  118.0000    94.1170     6.6350     5.8380     7.4150    24.2720     2.3200    -6.4570 
  118.1250    90.3900     6.3760     5.6400     6.1770    24.2670     2.2960    -6.4760 
  118.2500    86.7410     6.1960     5.4650     5.7830    24.2670     2.2780    -6.5260 
  118.3750    84.4150     6.1140     5.3530     5.8100    24.2670     2.2690    -6.5400 
  118.5000    83.4360     6.0930     5.3000     5.8710    24.2660     2.2700    -6.4680 
  118.6250    84.9390     6.0600     5.2630     5.8250    24.2620     2.2760    -6.3590 
  118.7500    86.8070     5.9700     5.1980     5.5590    24.2520     2.2860    -6.2930 
  118.8750    87.6760     5.8290     5.0920     5.2310    24.2350     2.2970    -6.2090 
  119.0000    88.4180     5.6700     4.9590     5.0140    24.2070     2.3080    -6.1300 
  119.1250    90.0240     5.5410     4.8290     4.9440    24.1920     2.3200    -6.0890 
  119.2500    91.5870     5.4660     4.7310     4.9240    24.1900     2.3300    -6.0170 
  119.3750    92.4840     5.4540     4.6810     4.9340    24.1940     2.3350    -5.9900 
  119.5000    93.3140     5.4990     4.6840     4.9420    24.1920     2.3330    -6.0980 
  119.6250    92.7610     5.5860     4.7360     5.0040    24.1790     2.3230    -6.2750 
  119.7500    90.1080     5.6740     4.8000     5.1260    24.1530     2.3110    -6.4000 
  119.8750    89.3550     5.7310     4.8490     5.2620    24.1160     2.3010    -6.5200 
  120.0000    91.1220     5.7340     4.8600     5.4050    24.0800     2.2950    -6.6160 
  120.1250    92.1720     5.6830     4.8240     5.3790    24.0650     2.2920    -6.6610 
  120.2500    91.0770     5.6280     4.7750     5.2150    24.0680     2.2920    -6.6760 
  120.3750    89.8910     5.6220     4.7530     5.0760    24.0710     2.2970    -6.6860 
  120.5000    89.8240     5.7060     4.7920     5.1020    24.0360     2.3110    -6.6750 
  120.6250    90.8100     5.8920     4.9150     5.2910    23.9370     2.3380    -6.5760 
  120.7500    92.5470     6.1130     5.0830     5.5420    23.8110     2.3690    -6.5040 
  120.8750    94.8980     6.3060     5.2530     5.7340    23.7250     2.3900    -6.4730 
  121.0000    95.2810     6.4260     5.3830     5.8340    23.7030     2.3900    -6.5030 
  121.1250    92.7380     6.4530     5.4450     5.8600    23.7170     2.3630    -6.5820 
  121.2500    91.4570     6.4390     5.4650     5.7960    23.7250     2.3270    -6.6580 
  121.3750    92.2740     6.4260     5.4760     5.8120    23.7260     2.2950    -6.7250 
  121.5000    92.2910     6.4350     5.5010     5.9500    23.7260     2.2770    -6.7580 
  121.6250    87.4000     6.4650     5.5520     6.1800    23.7270     2.2780    -6.8440 
  121.7500    83.4740     6.5000     5.6180     6.3410    23.7290     2.2890    -6.9430 
  121.8750    85.2440     6.5280     5.6880     6.3550    23.7330     2.3030    -6.9920 
  122.0000    91.3430     6.5440     5.7450     6.2160    23.7460     2.3130    -7.0000 
  122.1250    96.1090     6.5380     5.7770     5.8490    23.7770     2.3110    -7.0490 
  122.2500    93.7640     6.5000     5.7760     5.7360    23.8280     2.3010    -7.1070 
  122.3750    88.2310     6.4110     5.7310     5.7490    23.9010     2.2860    -7.1180 
  122.5000    86.3730     6.2590     5.6310     5.7380    24.0100     2.2740    -7.1150 
  122.6250    89.6660     6.0490     5.4730     5.6540    24.1290     2.2720    -7.0950 
  122.7500    92.8470     5.8240     5.2860     5.5620    24.1820     2.2790    -7.1170 
  122.8750    93.1620     5.6310     5.1040     5.4460    24.1920     2.2900    -7.1720 
  123.0000    91.7140     5.5190     4.9690     5.3370    24.1810     2.3000    -7.2230 
  123.1250    91.1450     5.5390     4.9290     5.3300    24.1600     2.3020    -7.2960 
  123.2500    92.8380     5.6630     4.9770     5.4330    24.1350     2.2960    -7.4760 
  123.3750    94.3130     5.8420     5.0850     5.6230    24.1170     2.2870    -7.7650 
  123.5000    92.0480     6.0050     5.2020     5.8330    24.0970     2.2780    -8.1010 
  123.6250    87.3460     6.0610     5.2570     6.0630    24.0670     2.2770    -8.4150 
  123.7500    85.6370     6.0070     5.2300     6.0860    24.0380     2.2840    -8.7130 
  123.8750    88.7700     5.9010     5.1500     5.8550    23.9940     2.2950    -9.1400 
  124.0000    92.6400     5.8660     5.1000     5.5770    23.9190     2.3030    -9.6560 
  124.1250    90.7880     6.1190     5.2440     5.6700    23.8160     2.3040   -10.2110 
  124.2500    84.4550     6.7550     5.6820     6.2630    23.7010     2.3030   -10.8050 
  124.3750    78.8720     7.7910     6.4570     7.5410    23.5980     2.3040   -11.4410 
  124.5000    74.7550     9.1040     7.5140     9.6960    23.5610     2.3080   -12.1930 
  124.6250    69.0930    10.3840     8.6510    13.2330    23.5910     2.3080   -13.0820 
  124.7500    64.4540    11.2660     9.5530    17.3160    23.6430     2.2970   -14.0330 
  124.8750    63.9750    11.5350     9.9960    20.5860    23.6790     2.2750   -14.9460 
  125.0000    66.8460    11.2010     9.9220    21.8130    23.6820     2.2490   -15.8540 
  125.1250    69.9740    10.5000     9.4470    18.8330    23.6010     2.2280   -16.7290 
  125.2500    72.3100     9.8340     8.9070    13.9530    23.3800     2.2140   -17.5260 
  125.3750    73.3950     9.3880     8.4850    10.9320    23.0790     2.2020   -18.2210 
  125.5000    71.0710     9.1960     8.2480    10.0290    22.9590     2.1880   -18.7940 
  125.6250    65.9820     9.2060     8.1910     9.8520    23.2390     2.1740   -19.2270 
  125.7500    61.3510     9.2790     8.2160     9.6430    23.7530     2.1650   -19.5630 
  125.8750    58.7720     9.3440     8.2620     9.4040    24.1350     2.1620   -19.7700 
  126.0000    58.8430     9.3650     8.2900     9.2310    24.3000     2.1670   -19.8910 
  126.1250    62.1240     9.3250     8.2750     9.1340    24.3260     2.1760   -19.9610 
  126.2500    65.5100     9.2390     8.2190     9.0440    24.3270     2.1870   -19.9300 
  126.3750    65.3540     9.1130     8.1250     8.9760    24.3170     2.1960   -19.8720 
  126.5000    64.0850     8.9610     8.0030     8.9160    24.2970     2.2030   -19.8530 
  126.6250    67.2670     8.8080     7.8700     8.7710    24.2620     2.2030   -19.9290 
  126.7500    70.2370     8.6890     7.7560     8.6130    24.2270     2.1990   -20.0780 
  126.8750    68.1170     8.6260     7.6820     8.5290    24.1920     2.1930   -20.3150 
  127.0000    63.5390     8.6240     7.6590     8.5390    24.1680     2.1870   -20.5780 
  127.1250    63.1840     8.6680     7.6860     8.6680    24.1610     2.1840   -20.8510 
  127.2500    66.6410     8.7160     7.7350     8.8920    24.1810     2.1810   -21.1730 
  127.3750    67.4330     8.7440     7.7850     9.1250    24.2220     2.1770   -21.4850 
  127.5000    63.6150     8.7410     7.8220     9.2930    24.2960     2.1680   -21.6810 
  127.6250    59.0760     8.7140     7.8460     9.3040    24.4760     2.1600   -21.7630 
  127.7500    57.6800     8.6820     7.8700     9.3060    24.6590     2.1560   -21.7970 
  127.8750    58.5200     8.6530     7.9020     9.3370    24.7310     2.1600   -21.7250 
  128.0000    58.0520     8.6330     7.9460     9.4060    24.6840     2.1700   -21.5150 
  128.1250    57.1140     8.6330     8.0100     9.3980    24.6120     2.1840   -21.2220 
  128.2500    58.4420     8.6640     8.0990     9.3800    24.6170     2.1970   -20.8280 
  128.3750    60.6590     8.7380     8.2200     9.4540    24.7380     2.2030   -20.3240 
  128.5000    60.5020     8.8430     8.3590     9.5850    24.8970     2.1990   -19.6890 
  128.6250    58.6050     8.9040     8.4520     9.6590    25.0330     2.1800   -18.8840 
