~V
VERS. 2.00: Ver 2.00
~W
STRT.M 56.0000:
STOP.M 256.0000:
STEP.M 0.1250:
NULL. -999.2500:
UWI. F10668:
~C
DEPT.M :
SP.MV :
GR.API :
RML.OHMM :
RI. :
RXO.OHMM :
CALI.CM :
DEN.GM/CC :
~A
# ...
  134.7500    -9.5970    58.4830    24.6980    21.6640    21.3810    26.6320     2.1670 
  134.8750    -9.6180    59.7580    24.2080    21.1360    19.0640    26.3610     2.1910 
  135.0000    -9.6870    61.4170    23.9950    20.8340    17.7680    26.1810     2.2050 
  135.1250    -9.7560    60.1500    24.1310    20.8080    18.2610    26.1740     2.1990 
  135.2500    -9.8620    56.3470    24.6060    21.0560    19.2440    26.4830     2.1750 
  135.3750   -10.0030    55.3430    25.2400    21.4660    17.4590    26.7470     2.1490 
  135.5000   -10.2050    57.2970    25.6510    21.7480    13.6450    26.6530     2.1400 
  135.6250   -10.4480    58.1520    25.5320    21.6480    14.6850    26.3720     2.1440 
  135.7500   -10.7190    55.7340    24.7650    21.0410    17.7860    26.1140     2.1480 
  135.8750   -11.0020    54.1020    23.4800    19.9860    19.4370    25.9350     2.1460 
  136.0000   -11.2820    54.5820    22.1370    18.8310    19.0660    25.9800     2.1450 
  136.1250   -11.5520    55.5640    21.0080    17.8000    18.0990    26.1400     2.1500 
  136.2500   -11.7960    55.9840    20.2290    17.0210    16.8920    26.2340     2.1590 
  136.3750   -12.0020    54.9600    19.8930    16.5980    16.0520    26.2070     2.1590 
  136.5000   -12.1570    53.2500    19.9410    16.4900    15.5980    26.1900     2.1460 
  136.6250   -12.2750    51.6930    20.3910    16.7050    16.0490    26.2540     2.1240 
  136.7500   -12.3600    52.5610    21.2270    17.2300    16.7100    26.3060     2.1080 
  136.8750   -12.4050    57.0620    22.3100    17.9880    14.8360    26.0860     2.1120 
  137.0000   -12.4280    60.7650    23.2350    18.6920    13.7760    25.5230     2.1370 
  137.1250   -12.4330    60.3950    23.5970    19.0430    14.7350    24.7420     2.1750 
  137.2500   -12.4480    58.5950    23.1210    18.8050    14.8120    23.8890     2.2140 
  137.3750   -12.4560    60.6680    21.7930    17.9080    12.8930    23.3380     2.2320 
  137.5000   -12.4700    64.0340    20.2290    16.7830    10.6400    23.1640     2.2220 
  137.6250   -12.5030    65.6360    18.9310    15.8070     9.6810    23.1680     2.1920 
  137.7500   -12.5480    65.3910    18.2570    15.2690    10.2000    23.3310     2.1550 
  137.8750   -12.6350    64.2570    18.5600    15.4580    12.4180    23.8000     2.1320 
  138.0000   -12.7500    62.3220    19.7420    16.3440    14.7450    24.2870     2.1340 
  138.1250   -12.9160    59.5790    21.6330    17.8550    16.4520    24.7270     2.1530 
  138.2500   -13.1120    56.0590    23.7400    19.6880    17.7800    25.3120     2.1550 
  138.3750   -13.4310    52.7330    24.8960    20.9610    19.6300    25.9750     2.1150 
  138.5000   -13.8210    51.4030    24.1190    20.7190    21.5450    26.5240     2.0540 
  138.6250   -14.2880    53.4070    21.1740    18.5970    22.4520    27.1450     2.0050 
  138.7500   -14.7990    58.9220    16.9220    15.2250    19.7170    27.4800     2.0040 
  138.8750   -15.3480    69.3630    12.8780    11.8270    13.6770    26.6880     2.0830 
  139.0000   -15.8770    81.6720     9.8720     9.1540     8.7970    25.5000     2.1980 
  139.1250   -16.3690    91.4510     7.9550     7.3160     6.9160    24.8890     2.2910 
  139.2500   -16.7910    94.4460     6.9270     6.2170     6.3200    24.7760     2.3390 
  139.3750   -17.0630    89.6720     6.7130     5.8480     6.3710    24.7950     2.3550 
  139.5000   -17.2160    83.6370     7.1790     6.0840     6.7100    24.7780     2.3600 
  139.6250   -17.2410    79.1370     8.4550     7.0070     7.2610    24.7070     2.3430 
  139.7500   -17.1840    75.5150    10.6700     8.7390     8.7760    24.7710     2.2920 
  139.8750   -17.0520    71.9400    13.7160    11.3800    12.8630    25.2960     2.2090 
  140.0000   -16.9160    68.0580    16.4460    14.1160    18.7170    26.2990     2.1250 
  140.1250   -16.8180    63.8060    17.3630    15.5620    22.2310    27.1570     2.0720 
  140.2500   -16.7710    62.1940    15.6380    14.6280    20.8730    27.2870     2.0740 
  140.3750   -16.8160    69.2780    12.1750    11.8050    16.0300    26.4170     2.1470 
  140.5000   -16.8820    78.2560     9.0530     8.9870    10.4620    25.3700     2.2490 
  140.6250   -16.9800    82.2840     6.9570     6.8790     6.8620    24.8510     2.3390 
  140.7500   -17.0670    82.8790     5.8160     5.5480     5.3140    24.7270     2.3960 
  140.8750   -17.1340    86.1030     5.4090     4.9070     5.0400    24.7090     2.4150 
  141.0000   -17.1500    90.9470     5.3840     4.6750     5.0830    24.6790     2.4100 
  141.1250   -17.0880    92.8750     5.6140     4.7310     5.0920    24.6300     2.3920 
  141.2500   -16.9530    92.1320     6.0200     4.9910     5.2190    24.5200     2.3720 
  141.3750   -16.6990    89.3590     6.6140     5.4460     5.8690    24.1860     2.3590 
  141.5000   -16.4110    84.6740     7.4360     6.1050     6.4640    23.6930     2.3490 
  141.6250   -16.0910    77.9320     8.5930     7.0380     7.0700    23.4490     2.3280 
  141.7500   -15.7590    70.0510    10.2040     8.3270     8.0610    23.7010     2.2920 
  141.8750   -15.4150    65.0200    12.3820    10.0800    11.0660    24.2540     2.2450 
  142.0000   -15.0950    63.3520    14.8300    12.0970    16.0960    24.8240     2.1950 
  142.1250   -14.7940    63.7140    17.0940    14.0300    18.7360    25.3080     2.1420 
  142.2500   -14.5230    63.4740    18.6430    15.4170    16.6180    25.6510     2.0890 
  142.3750   -14.2910    62.7270    19.0570    15.8370    14.1740    25.5730     2.0570 
  142.5000   -14.0750    63.0260    18.8240    15.6430    12.9070    25.4550     2.0850 
  142.6250   -13.8540    63.9070    18.5180    15.2820    11.7030    25.1840     2.2000 
  142.7500   -13.6160    64.4460    18.5990    15.1320    10.6830    24.7380     2.3630 
  142.8750   -13.3490    63.6440    19.3420    15.4450    10.6720    24.2980     2.4490 
  143.0000   -13.0340    62.1250    20.5680    16.1420    12.0890    24.2820     2.4170 
  143.1250   -12.6870    59.4470    22.0900    17.1190    15.3040    24.6790     2.3220 
  143.2500   -12.3000    55.8890    23.6560    18.2110    19.5050    25.4240     2.2150 
  143.3750   -11.8740    53.5920    24.8940    19.1560    22.1260    26.2930     2.1400 
  143.5000   -11.4520    53.7100    25.6170    19.7710    22.6790    26.7410     2.1050 
  143.6250   -11.0670    55.7890    25.8290    20.0180    22.3370    26.8780     2.1020 
  143.7500   -10.7580    57.0310    25.7330    20.0130    22.4420    26.9180     2.1170 
  143.8750   -10.5080    56.0400    25.6850    19.9900    22.2960    27.0010     2.1330 
  144.0000   -10.3410    54.5160    25.9630    20.1660    21.8380    27.1600     2.1410 
  144.1250   -10.2190    54.0390    26.6490    20.6300    21.9340    27.3370     2.1400 
  144.2500   -10.1740    54.6280    27.6500    21.3480    23.0200    27.3810     2.1340 
  144.3750   -10.1930    53.7940    28.6810    22.1520    24.9030    27.0470     2.1340 
  144.5000   -10.2730    52.8750    29.3780    22.7670    26.9670    26.7350     2.1430 
  144.6250   -10.3760    53.9470    29.5270    23.0030    27.1150    26.6650     2.1570 
  144.7500   -10.4940    56.0900    29.1220    22.8170    25.7000    26.6930     2.1670 
  144.8750   -10.6200    56.7860    28.3470    22.3110    22.9740    26.8330     2.1620 
  145.0000   -10.7270    56.0830    27.5730    21.7660    20.4860    26.8770     2.1450 
  145.1250   -10.8350    55.3260    27.0050    21.3490    19.9890    26.7570     2.1260 
  145.2500   -10.9240    55.6190    26.7180    21.1350    21.0320    26.5150     2.1120 
  145.3750   -10.9980    58.1700    26.7180    21.1440    22.3910    26.2690     2.1140 
  145.5000   -11.0350    61.7580    26.8800    21.2860    22.9710    26.1160     2.1290 
  145.6250   -11.0350    63.9950    27.1230    21.5010    23.5080    25.9650     2.1510 
  145.7500   -10.9990    62.5900    27.3790    21.7410    23.5510    25.7760     2.1700 
  145.8750   -10.9180    59.3370    27.5670    21.9510    23.0500    25.7760     2.1770 
