~V
VERS. 2.00: Ver 2.00
~W
STRT.M 50.0000:
STOP.M 212.0000:
STEP.M 0.1250:
NULL. -999.2500:
UWI. F10691:
~C
DEPT.M :
GR.API :
RML.OHMM :
RI. :
RXO.OHMM :
CALI.CM :
SP.MV :
DEN.GM/CC :
~A
# ...
  173.7500    52.0030    16.8600    15.6920    14.8000    25.1440   -14.3090     2.2390 
  173.8750    52.9540    17.1170    15.7130    13.9530    25.0320   -14.3890     2.2500 
  174.0000    51.4420    18.1200    16.3500    14.0820    25.3640   -14.4600     2.2690 
  174.1250    48.9330    19.7740    17.6630    15.9360    25.5900   -14.5290     2.2970 
  174.2500    48.4270    21.4610    19.2360    18.9700    25.5460   -14.6080     2.3220 
  174.3750    48.2640    22.5020    20.4830    21.7850    25.4540   -14.7050     2.3360 
  174.5000    48.0910    22.3600    20.7790    22.7850    25.3190   -14.8040     2.3310 
  174.6250    50.4070    21.0010    19.8340    21.5890    25.1450   -14.9120     2.3080 
  174.7500    53.8250    19.4420    18.4550    19.1390    25.0440   -15.0190     2.2800 
  174.8750    54.6280    18.4600    17.3390    16.2790    25.0460   -15.1360     2.2510 
  175.0000    53.0400    18.4380    16.9050    14.4340    25.2170   -15.2650     2.2250 
  175.1250    52.7130    19.4270    17.3490    16.2770    25.2690   -15.3780     2.2040 
  175.2500    52.5110    20.8640    18.3300    20.4910    25.4030   -15.4800     2.1890 
  175.3750    50.4460    22.3460    19.5520    23.6360    25.4140   -15.5670     2.1850 
  175.5000    48.5240    23.6620    20.7700    22.9900    25.3130   -15.6580     2.1900 
  175.6250    48.5990    24.9580    21.9580    20.6580    25.2670   -15.7490     2.2000 
  175.7500    47.2840    26.5890    23.3480    19.5660    25.3620   -15.8360     2.2080 
  175.8750    44.1500    28.6680    25.1300    21.3960    25.3060   -15.9330     2.2130 
  176.0000    43.4930    30.8800    27.2140    26.8310    25.2320   -16.0390     2.2170 
  176.1250    48.6190    32.2930    28.9500    31.2820    25.2390   -16.1800     2.2250 
  176.2500    53.6690    32.2510    29.5810    32.7210    25.2250   -16.3400     2.2350 
  176.3750    54.8850    30.6960    28.7890    31.6110    25.0910   -16.5170     2.2440 
  176.5000    52.9860    28.2290    26.9080    28.0710    24.9960   -16.7070     2.2490 
  176.6250    49.7050    25.8100    24.7270    25.3120    25.1330   -16.8940     2.2450 
  176.7500    47.6240    24.0470    22.9590    23.1330    25.2240   -17.0380     2.2340 
  176.8750    48.6300    23.0360    21.8100    21.6600    25.1350   -17.1180     2.2180 
  177.0000    52.4920    22.6250    21.2280    20.8430    25.2260   -17.1670     2.2000 
  177.1250    54.3450    22.5330    21.0190    20.6590    25.3480   -17.1790     2.1820 
  177.2500    54.1350    22.3550    20.8100    21.3150    25.3840   -17.1630     2.1720 
  177.3750    54.6580    21.8620    20.3660    22.3440    25.4570   -17.1240     2.1760 
  177.5000    54.2620    21.0080    19.6070    22.3680    25.5770   -17.0660     2.2010 
  177.6250    51.5760    19.9700    18.6400    20.9170    25.5870   -17.0100     2.2500 
  177.7500    50.0980    19.1280    17.7740    17.9720    25.5380   -16.9880     2.3050 
  177.8750    52.1730    18.7870    17.2710    15.5710    25.4130   -17.0120     2.3470 
  178.0000    55.9720    19.1630    17.3410    14.8370    25.2940   -17.0750     2.3590 
  178.1250    58.1830    20.4460    18.2120    15.1280    25.1640   -17.1960     2.3420 
  178.2500    57.6630    22.2900    19.6870    16.6940    25.0490   -17.3450     2.3160 
  178.3750    54.0250    24.2850    21.4830    20.2760    24.9590   -17.4800     2.2940 
  178.5000    50.4520    25.9100    23.1290    25.3580    24.7630   -17.5780     2.2800 
  178.6250    49.8230    26.5280    23.9580    27.2990    24.8230   -17.6550     2.2700 
  178.7500    50.4340    26.2440    23.8930    23.7090    24.8880   -17.7410     2.2580 
  178.8750    51.2340    25.4470    23.1860    21.1460    24.8920   -17.8410     2.2430 
  179.0000    52.5880    24.5950    22.2400    20.1200    24.8350   -17.9410     2.2260 
  179.1250    54.7880    23.9900    21.4090    19.5940    24.8470   -18.0510     2.2100 
  179.2500    56.1600    23.6170    20.8190    19.5110    24.8890   -18.1890     2.1960 
  179.3750    55.5410    23.4510    20.4940    19.2420    24.8810   -18.4010     2.1900 
  179.5000    53.0440    23.4990    20.4350    18.9500    24.7910   -18.7370     2.1930 
  179.6250    51.1260    23.8640    20.7270    19.2570    24.6010   -19.1470     2.2050 
  179.7500    51.8040    24.6000    21.3960    20.5510    24.6160   -19.5320     2.2180 
  179.8750    54.1120    25.7860    22.4950    22.1370    24.8610   -19.9210     2.2250 
  180.0000    55.7220    27.4840    24.0170    24.0840    25.2470   -20.4000     2.2240 
  180.1250    55.1900    29.7780    25.9330    26.2530    25.1050   -20.9910     2.2190 
  180.2500    54.8250    32.3360    28.0280    30.1750    24.7040   -21.6310     2.2170 
  180.3750    55.0000    34.7320    30.1030    34.0200    24.5840   -22.2850     2.2210 
  180.5000    54.1360    36.6570    31.9400    34.7650    24.6560   -22.9170     2.2300 
  180.6250    52.0600    38.0000    33.3190    34.0730    25.1280   -23.5310     2.2390 
  180.7500    50.4940    39.0300    34.3110    36.4400    25.2810   -24.2460     2.2420 
  180.8750    49.2870    40.0440    35.0560    40.0290    25.3770   -25.1350     2.2370 
  181.0000    48.0600    41.3480    35.8030    40.8790    25.5040   -26.1120     2.2250 
  181.1250    46.8630    43.2710    37.0290    39.5140    25.5800   -27.0650     2.2110 
  181.2500    45.5800    45.7570    39.0720    39.7320    25.5480   -28.0200     2.1950 
  181.3750    45.9480    48.5430    42.0070    40.9040    25.4770   -29.0080     2.1780 
  181.5000    48.3610    50.7820    45.2510    43.8480    25.5770   -30.0330     2.1630 
  181.6250    49.6230    49.8560    46.6460    51.4070    25.4250   -31.0730     2.1640 
  181.7500    47.7370    44.8690    44.4980    62.1030    25.1560   -32.0240     2.1980 
  181.8750    45.2130    37.7700    39.0990    67.9350    25.0570   -32.7190     2.2770 
  182.0000    43.3950    31.3540    32.5960    54.9890    25.4170   -33.0810     2.4010 
  182.1250    41.8590    26.9680    27.3310    34.3560    25.4410   -33.0630     2.5500 
  182.2500    40.8150    23.7710    23.6240    22.5540    25.3580   -32.7680     2.6800 
  182.3750    41.7020    22.6910    20.8080    20.3440    25.1570   -32.2210     2.7550 
  182.5000    43.6240    20.0970    17.9440    22.3430    25.0570   -31.4420     2.7610 
  182.6250    46.7290    16.1570    14.4260    22.4510    24.9990   -30.4970     2.6980 
  182.7500    48.7840    12.1120    10.8150    18.2410    24.9160   -29.4870     2.6030 
  182.8750    47.3470     8.7340     7.7980    10.5890    24.6600   -28.5230     2.5030 
  183.0000    44.8970     6.3790     5.6960     5.5820    24.4220   -27.7090     2.4160 
  183.1250    44.8100     5.1170     4.5690     4.1590    24.2010   -27.1440     2.3500 
  183.2500    45.9550     4.5460     4.0590     4.0180    23.8740   -26.7860     2.2900 
  183.3750    46.5780     4.4670     3.9890     4.1780    23.5260   -26.6060     2.2180 
  183.5000    46.8980     4.7090     4.2050     4.2450    23.3860   -26.5770     2.1260 
  183.6250    47.8940     5.1380     4.5880     4.2140    23.5820   -26.6580     2.0240 
  183.7500    48.6870     5.6230     5.0210     4.4520    24.3470   -26.7980     1.9430 
  183.8750    49.9430     6.1240     5.4680     5.0860    25.4050   -26.9370     1.9120 
  184.0000    51.5870     6.6230     5.9130     5.7820    27.3270   -27.0250     1.9470 
  184.1250    52.6620     7.0700     6.3120     6.1350    29.8180   -27.0160     2.0440 
  184.2500    53.4840     7.4110     6.6170     6.2490    33.2940   -26.9070     2.1590 
  184.3750    53.1000     7.5980     6.7840     6.2650    36.2500   -26.6970     2.2560 
  184.5000    51.2530     7.6270     6.8090     6.1970    34.8900   -26.3990     2.3210 
  184.6250    51.3840     7.5350     6.7280     6.0770    32.6360   -26.0450     2.3660 
  184.7500    52.4890     7.4170     6.6230     6.0420    30.8910   -25.6740     2.4060 
  184.8750    53.0310     7.3240     6.5390     6.1220    30.3750   -25.2880     2.4380 
