~V
VERS. 2.00: Ver 2.00
~W
STRT.M 52.0000:
STOP.M 239.0000:
STEP.M 0.1250:
NULL. -999.2500:
UWI. F10645:
~C
DEPT.M :
SP.MV :
GR.API :
RML.OHMM :
RI. :
RXO.OHMM :
CALI.CM :
DEN.GM/CC :
~A
   52.0000    27.0640  -999.2500  -999.2500  -999.2500  -999.2500  -999.2500     1.7970 
   52.1250    26.1770  -999.2500  -999.2500  -999.2500  -999.2500  -999.2500     1.7540 
   52.2500    25.3710  -999.2500  -999.2500  -999.2500  -999.2500  -999.2500     1.7340 
   52.3750    24.6470  -999.2500  -999.2500  -999.2500  -999.2500  -999.2500     1.7330 
   52.5000    24.0150  -999.2500  -999.2500  -999.2500  -999.2500  -999.2500     1.7410 
   52.6250    23.4900  -999.2500  -999.2500  -999.2500  -999.2500  -999.2500     1.7480 
   52.7500    23.1150  -999.2500  -999.2500  -999.2500  -999.2500  -999.2500     1.7550 
   52.8750    22.8970  -999.2500  -999.2500  -999.2500  -999.2500  -999.2500     1.7730 
   53.0000    22.8380  -999.2500  -999.2500  -999.2500  -999.2500  -999.2500     1.8100 
   53.1250    22.9510  -999.2500  -999.2500  -999.2500  -999.2500  -999.2500     1.8580 
   53.2500    23.0920  -999.2500  -999.2500  -999.2500  -999.2500  -999.2500     1.8980 
   53.3750    23.1940  -999.2500  -999.2500  -999.2500  -999.2500  -999.2500     1.9200 
   53.5000    23.2360  -999.2500  -999.2500  -999.2500  -999.2500  -999.2500     1.9270 
   53.6250    23.2600  -999.2500  -999.2500  -999.2500  -999.2500  -999.2500     1.9240 
   53.7500    23.2200  -999.2500  -999.2500  -999.2500  -999.2500  -999.2500     1.9150 
   53.8750    23.0970  -999.2500  -999.2500  -999.2500  -999.2500  -999.2500     1.9020 
   54.0000    22.9610  -999.2500  -999.2500  -999.2500  -999.2500  -999.2500     1.8860 
   54.1250    22.7880  -999.2500  -999.2500  -999.2500  -999.2500  -999.2500     1.8730 
   54.2500    22.6290    35.7650     0.0500     0.0830     0.2130    25.2310     1.8660 
   54.3750    22.5640    35.7650     0.0500     0.0830     0.2130    25.2310     1.8640 
   54.5000    22.5860    36.5740     0.0480     0.0850     0.2160    25.2310     1.8640 
   54.6250    22.5970    37.1790     0.0500     0.0920     0.2230    25.2310     1.8650 
   54.7500    22.4950    37.0860     0.0790     0.1010     0.2270    25.2310     1.8670 
   54.8750    22.2360    38.2850     0.1420     0.1070     0.2340    25.2350     1.8680 
   55.0000    21.6780    40.2850     0.2440     0.1090     0.2400    25.2480     1.8680 
   55.1250    20.7820    40.9450     0.3650     0.1090     0.2430    25.2800     1.8650 
   55.2500    19.4920    39.1840     0.4510     0.1120     0.2520    25.2990     1.8540 
   55.3750    17.8150    38.1030     0.4760     0.1150     0.2640    25.3080     1.8360 
   55.5000    15.8080    38.4470     0.4400     0.1190     0.2730    25.3160     1.8170 
   55.6250    13.6330    37.9830     0.3620     0.1200     0.2870    25.3340     1.8080 
   55.7500    11.4840    36.5100     0.2790     0.1210     0.3100    25.3690     1.8180 
   55.8750     9.4420    35.4100     0.2280     0.1230     0.3280    25.3870     1.8370 
   56.0000     7.6010    35.7900     0.2270     0.1290     0.3290    25.4020     1.8540 
   56.1250     6.0500    37.3530     0.2580     0.1350     0.3260    25.4270     1.8610 
   56.2500     4.8850    39.0980     0.2820     0.1380     0.2950    25.4490     1.8580 
   56.3750     4.0930    42.0500     0.2670     0.1400     0.2570    25.4740     1.8550 
   56.5000     3.6710    46.0950     0.2110     0.1390     0.2190    25.5070     1.8560 
   56.6250     3.5460    47.2270     0.1420     0.1370     0.1940    25.5290     1.8560 
   56.7500     3.6640    42.3670     0.0920     0.1300     0.1720    25.5390     1.8520 
   56.8750     4.0090    37.1930     0.0640     0.1170     0.1550    25.5530     1.8500 
   57.0000     4.5040    35.5380     0.0560     0.0980     0.1420    25.5800     1.8540 
   57.1250     5.0210    35.0190     0.0640     0.0730     0.1310    25.5990     1.8610 
   57.2500     5.3590    35.1250     0.0780     0.0480     0.1320    25.6050     1.8690 
   57.3750     5.2550    37.3300     0.1000     0.0310     0.1410    25.6050     1.8860 
   57.5000     4.5010    39.8870     0.1330     0.0270     0.1750    25.6050     1.9430 
   57.6250     3.0170    40.5940     0.1740     0.0310     0.3640    25.5880     2.0710 
   57.7500     0.6310    42.0470     0.2080     0.0440     0.5160    25.4770     2.2360 
   57.8750    -2.5600    46.7850     0.2320     0.0720     0.6380    25.3160     2.3480 
   58.0000    -6.4650    51.7170     0.2520     0.1400     0.9510    25.4790     2.3750 
   58.1250   -10.8890    51.9930     0.2960     0.2950     1.7670    26.1800     2.3310 
   58.2500   -15.5690    46.6800     0.4620     0.6430     2.8770    26.7690     2.2410 
   58.3750   -20.0970    41.9490     0.8380     1.2330     3.5840    25.9600     2.1490 
   58.5000   -24.2040    42.4020     1.4060     2.0770     3.9590    24.6970     2.0760 
   58.6250   -27.7730    47.4930     2.0010     3.1040     4.3690    24.0470     2.0380 
   58.7500   -30.6740    52.4400     2.3890     4.1590     4.9820    23.8230     2.0380 
   58.8750   -33.0110    54.0980     2.6040     5.0990     5.6870    23.6940     2.0550 
   59.0000   -34.7980    53.9710     2.8410     5.8540     6.3400    23.6240     2.0740 
   59.1250   -36.1430    54.4890     3.2460     6.3920     6.7370    23.5940     2.0810 
   59.2500   -37.1400    54.8750     3.7920     6.6770     6.6930    23.5170     2.0790 
   59.3750   -37.8770    54.3960     4.2410     6.7930     6.6170    23.3910     2.0840 
   59.5000   -38.4320    55.7420     4.4450     6.8100     6.8140    23.2230     2.1040 
   59.6250   -38.8920    59.3210     4.4150     6.7940     7.1670    23.1130     2.1320 
   59.7500   -39.2260    61.2930     4.3280     6.7930     7.2060    23.1240     2.1500 
   59.8750   -39.4790    59.6600     4.3630     6.8220     7.0880    23.2410     2.1500 
   60.0000   -39.6300    57.5330     4.4700     6.8800     7.0030    23.5240     2.1380 
   60.1250   -39.6750    56.9130     4.4850     6.9660     6.8290    24.1360     2.1260 
   60.2500   -39.5850    55.7390     4.3180     7.0920     7.0190    24.8450     2.1230 
   60.3750   -39.4350    53.5440     4.0990     7.2440     7.0900    25.1660     2.1260 
   60.5000   -39.2060    51.7760     3.9540     7.3820     6.9970    25.1340     2.1280 
   60.6250   -38.8770    51.5250     3.9140     7.4340     6.9460    25.1280     2.1200 
   60.7500   -38.4400    52.0340     3.8860     7.2890     6.9020    25.1840     2.1020 
   60.8750   -37.9140    53.1530     3.7640     6.9580     6.7640    24.9310     2.0850 
   61.0000   -37.3290    57.0740     3.5450     6.4920     6.2970    24.2670     2.0800 
   61.1250   -36.7070    64.0980     3.2880     5.9760     5.5370    23.5940     2.0920 
   61.2500   -36.0970    70.9420     3.0540     5.5010     4.6400    23.6570     2.1250 
   61.3750   -35.5170    74.5890     2.8800     5.1220     4.4680    24.1280     2.1680 
   61.5000   -35.0160    75.7030     2.8110     4.8760     4.5970    24.5170     2.2100 
   61.6250   -34.6030    76.3080     2.8830     4.7950     4.6280    24.6610     2.2440 
   61.7500   -34.3240    75.7790     3.0940     4.9270     4.1110    24.6930     2.2680 
   61.8750   -34.1340    74.5080     3.3270     5.2270     4.2120    24.6940     2.2810 
   62.0000   -34.0260    72.2510     3.5120     5.6430     4.7500    24.7180     2.2830 
   62.1250   -33.9640    69.2200     3.6550     6.0790     5.9370    24.7880     2.2740 
   62.2500   -33.9140    68.4670     3.8660     6.3940     6.2790    24.8400     2.2580 
   62.3750   -33.8610    71.3270     4.1880     6.5320     5.8620    24.7780     2.2400 
   62.5000   -33.7950    75.3740     4.5610     6.5180     5.3130    24.6470     2.2240 
   62.6250   -33.7100    76.3680     4.9020     6.4280     5.0450    24.5460     2.2110 
   62.7500   -33.5990    73.3860     5.1610     6.3420     4.9190    24.5060     2.2000 
   62.8750   -33.4820    70.9330     5.3430     6.2640     5.0900    24.5020     2.1900 
   63.0000   -33.3650    70.6830     5.4420     6.1400     5.3650    24.5120     2.1850 
   63.1250   -33.2780    73.1950     5.4250     5.9100     5.2880    24.5330     2.1860 
