~V
VERS. 2.00: Ver 2.00
~W
STRT.M 58.0000:
STOP.M 240.0000:
STEP.M 0.1250:
NULL. -999.2500:
UWI. F10642:
~C
DEPT.M :
SP.MV :
GR.API :
RML.OHMM :
RI. :
RXO.OHMM :
CALI.CM :
DEN.GM/CC :
~A
# ...
   80.5000   -23.0650    68.4170    13.5200    10.6280     9.2190    23.0170     2.2750 
   80.6250   -23.0220    63.8740    17.4690    13.8530    16.0100    23.5950     2.3550 
   80.7500   -22.9280    58.4300    22.0230    17.9290    27.8300    23.9880     2.4570 
   80.8750   -22.8100    55.1510    26.1410    22.0290    38.0520    24.0930     2.5570 
   81.0000   -22.6440    54.2640    28.4590    24.7930    43.8520    24.0010     2.6280 
   81.1250   -22.4500    54.0840    27.6890    24.7000    43.6570    23.8960     2.6280 
   81.2500   -22.2140    54.1720    24.8670    22.4780    37.7450    23.8010     2.5640 
   81.3750   -21.9270    53.8970    21.1800    19.2360    26.6830    23.7110     2.4570 
   81.5000   -21.6000    53.1410    17.5740    15.9390    16.9190    23.6360     2.3460 
   81.6250   -21.1900    55.1000    14.6760    13.2230    11.6070    23.6010     2.2670 
   81.7500   -20.7640    61.0530    12.5840    11.1950     9.6920    23.6140     2.2320 
   81.8750   -20.2880    67.8100    11.3720     9.8980     8.4980    23.6530     2.2300 
   82.0000   -19.7880    69.8230    11.0780     9.3460     7.5410    23.6620     2.2420 
   82.1250   -19.2170    65.3760    11.8340     9.6660     7.5530    23.5740     2.2470 
   82.2500   -18.6250    59.9750    13.3530    10.6890     9.0760    23.4680     2.2370 
   82.3750   -18.0190    56.1660    15.3520    12.2700    11.1840    23.3570     2.2170 
   82.5000   -17.4070    54.3500    17.3630    14.0860    13.0770    23.2990     2.1940 
   82.6250   -16.8590    54.9220    18.6750    15.5150    14.4970    23.3090     2.1770 
   82.7500   -16.3420    55.3380    19.0640    16.1590    14.5320    23.3180     2.1670 
   82.8750   -15.8840    53.9820    18.7130    16.0410    13.0230    23.2700     2.1580 
   83.0000   -15.4910    53.1770    18.0660    15.5150    11.1870    23.3460     2.1450 
   83.1250   -15.2190    55.1990    17.5730    15.0080    11.4070    23.8250     2.1270 
   83.2500   -15.0150    56.5330    17.3750    14.7190    12.2680    24.4990     2.1090 
   83.3750   -14.8880    55.1410    17.4650    14.6740    12.5100    24.8920     2.0980 
   83.5000   -14.8250    53.0030    17.7870    14.8400    12.0000    24.9190     2.0970 
   83.6250   -14.8250    51.8030    18.2720    15.1750    13.0320    24.7980     2.1000 
   83.7500   -14.8710    51.2940    18.8040    15.5750    14.6660    24.6780     2.1030 
   83.8750   -14.9900    51.6770    19.3170    15.9780    15.7800    24.6290     2.1080 
   84.0000   -15.2160    51.7740    19.7460    16.3340    16.4460    24.6680     2.1170 
   84.1250   -15.5430    50.3340    19.9390    16.5380    16.6690    24.8320     2.1260 
   84.2500   -16.0130    48.9430    19.7910    16.4980    15.9150    24.8760     2.1300 
   84.3750   -16.6340    49.4130    19.2330    16.1450    14.8480    24.8730     2.1260 
   84.5000   -17.3770    51.8650    18.2850    15.4740    14.6810    24.8400     2.1150 
   84.6250   -18.2620    54.7620    17.0360    14.5290    13.5790    24.4930     2.1110 
   84.7500   -19.2230    57.6150    15.7330    13.4930    10.7610    23.7560     2.1260 
   84.8750   -20.2120    60.3750    14.5390    12.4980     8.5920    22.9820     2.1570 
   85.0000   -21.1850    61.8210    13.5520    11.6380     7.8570    22.6090     2.1890 
   85.1250   -22.1240    60.2630    12.8410    10.9850     7.7540    22.6780     2.2050 
   85.2500   -22.9860    58.5290    12.3370    10.5070     7.1730    22.9100     2.2060 
   85.3750   -23.7240    58.4250    11.9860    10.1770     6.8430    23.2010     2.2000 
   85.5000   -24.3650    59.9060    11.7400     9.9550     6.9370    23.5740     2.1950 
   85.6250   -24.8460    60.8470    11.5790     9.8240     7.1770    23.9400     2.1940 
   85.7500   -25.2140    61.4320    11.4770     9.7550     7.4170    24.3000     2.1930 
   85.8750   -25.4440    61.1540    11.4170     9.7300     7.6310    24.6030     2.1890 
   86.0000   -25.5740    58.8630    11.3720     9.7230     7.8210    24.8010     2.1830 
   86.1250   -25.5740    56.7310    11.3230     9.7090     7.8330    24.8940     2.1780 
   86.2500   -25.4850    55.6070    11.2740     9.6810     7.6960    24.9330     2.1760 
   86.3750   -25.3230    55.6230    11.2390     9.6450     7.4780    24.8390     2.1760 
   86.5000   -25.0730    56.3700    11.2260     9.5990     7.1340    24.4740     2.1770 
   86.6250   -24.7390    57.1660    11.2340     9.5500     6.9250    23.9300     2.1770 
   86.7500   -24.3290    57.2520    11.2650     9.5120     6.9950    23.8180     2.1730 
   86.8750   -23.8770    56.8850    11.3460     9.5140     7.1250    24.2630     2.1670 
   87.0000   -23.3890    57.4100    11.5120     9.5860     7.4160    24.8780     2.1610 
   87.1250   -22.8710    57.3850    11.8110     9.7710     7.5790    25.1330     2.1610 
   87.2500   -22.3540    56.8700    12.2280    10.0650     7.6860    25.2010     2.1690 
   87.3750   -21.8320    57.4530    12.7560    10.4760     7.8750    25.1950     2.1790 
   87.5000   -21.3500    59.0270    13.4120    11.0230     8.2590    25.2120     2.1780 
   87.6250   -20.9350    59.1030    14.3040    11.7780     9.0440    25.4020     2.1480 
   87.7500   -20.6080    56.8050    15.5270    12.7810     9.6740    25.6110     2.1010 
   87.8750   -20.3780    53.9420    17.1900    14.1090    10.3960    25.5560     2.0610 
   88.0000   -20.2210    51.8470    19.3040    15.7990    12.1360    25.0240     2.0520 
   88.1250   -20.2000    51.8240    21.5990    17.7240    15.8810    24.2340     2.0990 
   88.2500   -20.2510    53.6730    23.3270    19.3210    18.3740    23.7100     2.1760 
   88.3750   -20.3950    56.4520    23.6410    19.8780    17.8030    23.5250     2.2450 
   88.5000   -20.6050    59.5130    22.0410    18.8840    16.9370    23.4980     2.2780 
   88.6250   -20.8950    62.8490    18.7390    16.3900    15.1770    23.4620     2.2790 
   88.7500   -21.2400    66.8960    15.1300    13.5130    11.5190    23.2890     2.2760 
   88.8750   -21.6350    71.7870    12.0620    10.9530     7.9370    22.9470     2.2810 
   89.0000   -22.0640    76.0170     9.8940     9.0360     6.1710    22.5720     2.2920 
   89.1250   -22.4440    79.8760     8.7390     7.9040     5.8150    22.0820     2.3010 
   89.2500   -22.7750    82.4070     8.2580     7.3400     6.2890    21.7330     2.2970 
   89.3750   -23.0510    80.5720     8.2760     7.2350     6.7940    21.9000     2.2780 
   89.5000   -23.2540    74.2560     8.6620     7.4950     7.0240    22.6460     2.2490 
   89.6250   -23.3930    68.9220     9.3490     8.0900     7.3530    23.4230     2.2070 
   89.7500   -23.4440    66.4740    10.1630     8.8830     7.6130    23.7680     2.1610 
   89.8750   -23.4070    64.1420    10.9230     9.7260     7.8050    23.5400     2.1260 
   90.0000   -23.3150    61.3270    11.4020    10.3970     8.2660    23.1240     2.1160 
   90.1250   -23.2390    61.6680    11.3380    10.5930     9.4150    22.8640     2.1480 
   90.2500   -23.2090    65.3290    10.8180    10.3060    10.1190    22.6660     2.2030 
   90.3750   -23.2280    70.4730    10.0210     9.6550     8.8010    22.6250     2.2550 
   90.5000   -23.3150    74.6270     9.1660     8.8390     6.8650    22.6610     2.2870 
   90.6250   -23.4220    73.7490     8.3900     8.0140     6.4010    22.5440     2.2970 
   90.7500   -23.5410    70.6110     7.6800     7.2370     6.6860    22.2990     2.3050 
   90.8750   -23.6830    71.1200     7.0200     6.5220     6.7250    22.0610     2.3220 
   91.0000   -23.8100    76.7490     6.4250     5.8990     6.0950    21.9250     2.3430 
   91.1250   -23.8860    82.3960     6.0220     5.4520     5.5600    21.8950     2.3510 
   91.2500   -23.9010    83.8360     5.9670     5.2640     5.1010    21.8990     2.3390 
   91.3750   -23.8340    83.3970     6.4630     5.4710     5.3950    21.9120     2.3180 
   91.5000   -23.6880    82.0660     7.7370     6.2390     6.4430    21.9580     2.3130 
   91.6250   -23.4240    78.8570    10.2300     7.9380     8.1780    22.0510     2.3690 
