~V
VERS. 2.00: Ver 2.00
~W
STRT.M 50.0000:
STOP.M 224.0000:
STEP.M 0.1250:
NULL. -999.2500:
UWI. F10690:
~C
DEPT.M :
SP.MV :
DEN.GM/CC :
GR.API :
RML.OHMM :
RI. :
RXO.OHMM :
CALI.CM :
~A
# ...
   83.7500   -21.2790     2.4800    51.9420    14.7620    13.3940    19.0400    24.8750 
   83.8750   -21.2580     2.4400    48.1930    17.2310    15.9820    23.4620    24.8120 
   84.0000   -21.2210     2.4030    50.2040    19.1180    18.1930    17.1980    24.7870 
   84.1250   -21.1540     2.4280    53.5020    21.0050    20.2270    11.9210    24.7860 
   84.2500   -21.0710     2.5070    52.7740    24.1070    23.1880    12.0570    24.8140 
   84.3750   -20.9880     2.6070    48.6490    29.0660    28.0390    18.1310    24.8800 
   84.5000   -20.9310     2.6860    44.2760    35.3020    34.7920    33.5420    24.9400 
   84.6250   -20.9140     2.7040    44.0230    39.3230    40.3900    64.3220    24.9780 
   84.7500   -20.9130     2.6690    47.4220    37.2970    39.8620    76.6170    24.9870 
   84.8750   -20.9190     2.5920    50.9000    29.5340    32.5460    53.9110    24.9900 
   85.0000   -20.9090     2.4940    53.3540    20.3700    23.0170    25.6810    24.9900 
   85.1250   -20.8670     2.4100    56.8450    13.7880    15.8500    11.8250    24.9900 
   85.2500   -20.7930     2.3630    62.2690     9.7480    11.2930     7.5340    24.9890 
   85.3750   -20.6960     2.3530    67.0160     7.4170     8.5520     6.2260    24.9880 
   85.5000   -20.6010     2.3590    67.5950     6.0930     6.9200     5.6150    24.9830 
   85.6250   -20.5220     2.3490    67.1100     5.4840     6.1090     4.9880    24.9720 
   85.7500   -20.4630     2.3170    69.8380     5.4050     5.8660     4.4180    24.9540 
   85.8750   -20.4200     2.2720    73.1460     5.9830     6.2250     4.2000    24.9430 
   86.0000   -20.3760     2.2250    70.8540     7.4490     7.3340     4.7940    24.9410 
   86.1250   -20.3210     2.1780    61.8340    10.2420     9.6360     7.3690    24.9450 
   86.2500   -20.2430     2.1340    54.3730    14.1640    13.1740    11.4430    24.9570 
   86.3750   -20.1480     2.1280    51.0120    18.6840    17.7250    13.1380    24.9780 
   86.5000   -20.0380     2.1830    48.9980    22.6740    22.3000    12.4430    24.9920 
   86.6250   -19.9060     2.2460    46.2720    24.5480    24.9880    11.4960    24.9950 
   86.7500   -19.7840     2.3020    43.3940    24.5480    25.5330    10.9800    24.9950 
   86.8750   -19.6850     2.3170    42.2350    23.6560    24.8000    10.5500    24.9950 
   87.0000   -19.6210     2.2890    44.9520    22.7940    23.7690    10.4130    24.9950 
   87.1250   -19.5970     2.2410    50.2400    22.3870    22.9510    10.8430    24.9950 
   87.2500   -19.5850     2.1930    52.3870    22.2880    22.3460    11.2010    24.9950 
   87.3750   -19.5630     2.1510    50.2000    22.3670    21.9000    10.8820    24.9950 
   87.5000   -19.5250     2.1190    47.0300    22.5500    21.5890    10.3680    24.9970 
   87.6250   -19.4860     2.1080    45.3330    22.8540    21.4600     9.9500    25.0090 
   87.7500   -19.4660     2.1130    44.0920    23.3200    21.5380     9.7570    25.0450 
   87.8750   -19.4620     2.1280    44.1910    23.9860    21.8510     9.8840    25.1060 
   88.0000   -19.4730     2.1540    45.9740    24.8190    22.3710    10.2050    25.1760 
   88.1250   -19.4940     2.1970    47.3100    25.7070    23.0120    10.8090    25.2240 
   88.2500   -19.5050     2.2470    48.3130    26.5080    23.6370    12.2910    25.1870 
   88.3750   -19.5040     2.2830    49.9650    27.1530    24.1890    15.0120    25.0590 
   88.5000   -19.4840     2.2830    52.1910    27.6480    24.6690    16.8220    24.8800 
   88.6250   -19.4410     2.2530    51.7850    28.0120    25.0980    14.5390    24.7260 
   88.7500   -19.3890     2.2240    48.6060    28.2500    25.4530    12.6990    24.6430 
   88.8750   -19.3420     2.2090    45.7180    28.2730    25.6330    12.1450    24.6180 
   89.0000   -19.3090     2.2080    45.2820    27.9830    25.5280    12.3540    24.6150 
   89.1250   -19.2960     2.2110    47.4870    27.3170    25.0510    12.2710    24.6230 
   89.2500   -19.3100     2.2030    49.5860    26.4520    24.3580    11.8640    24.6470 
   89.3750   -19.3560     2.1800    50.1610    25.5640    23.6100    11.6170    24.6840 
   89.5000   -19.4290     2.1520    49.4790    24.8170    22.9570    11.9130    24.7290 
   89.6250   -19.5320     2.1340    48.1100    24.3620    22.5360    12.8160    24.7750 
   89.7500   -19.6370     2.1230    48.6150    24.1700    22.3350    13.6040    24.8080 
   89.8750   -19.7320     2.1110    50.3970    24.1880    22.3110    13.8130    24.8240 
   90.0000   -19.8030     2.1020    50.7430    24.3320    22.3910    13.3240    24.8280 
   90.1250   -19.8510     2.1090    50.0270    24.5120    22.4950    12.5750    24.8310 
   90.2500   -19.9060     2.1340    51.1820    24.6330    22.5400    11.8060    24.8440 
   90.3750   -19.9730     2.1750    54.4510    24.6240    22.4660    11.2470    24.8730 
   90.5000   -20.0560     2.2180    57.3300    24.4400    22.2350    10.6640    24.9130 
   90.6250   -20.1530     2.2430    57.3060    24.0710    21.8400    10.1680    24.9740 
   90.7500   -20.2480     2.2470    55.0270    23.6250    21.3810     9.9190    25.0250 
   90.8750   -20.3380     2.2370    51.2010    23.2110    20.9570    10.0270    25.0240 
   91.0000   -20.4140     2.2210    48.2320    22.9330    20.6610    10.2100    24.9720 
   91.1250   -20.4700     2.2060    47.0520    22.9010    20.5900    10.4400    24.9180 
   91.2500   -20.5150     2.1990    45.6390    23.1170    20.7430    10.8430    24.8960 
   91.3750   -20.5570     2.2000    44.1730    23.5690    21.1260    11.3470    24.8920 
   91.5000   -20.6140     2.2090    44.4450    24.1650    21.6800    11.9140    24.8920 
   91.6250   -20.6760     2.2280    46.8520    24.6220    22.1810    12.4360    24.8920 
   91.7500   -20.7220     2.2610    47.9660    24.6170    22.3070    13.0220    24.8920 
   91.8750   -20.7550     2.2940    47.4650    23.9300    21.8150    13.3120    24.8920 
   92.0000   -20.7870     2.3030    47.8600    22.5490    20.6540    12.4440    24.8900 
   92.1250   -20.8480     2.2710    51.4860    20.6990    19.0030    10.4010    24.8770 
   92.2500   -20.9320     2.2290    55.1700    18.8830    17.3300     8.7050    24.8460 
   92.3750   -21.0200     2.2020    55.5890    17.4110    15.9170     7.8540    24.8080 
   92.5000   -21.1060     2.1990    53.1180    16.4300    14.9110     7.5590    24.7810 
   92.6250   -21.1770     2.2110    51.4150    15.9970    14.3940     7.4360    24.7520 
   92.7500   -21.2470     2.2290    52.6640    15.8960    14.2090     7.3540    24.7080 
   92.8750   -21.3160     2.2480    54.6060    15.9750    14.2360     7.2540    24.6600 
   93.0000   -21.3760     2.2570    54.5550    16.1130    14.3620     7.1650    24.6270 
   93.1250   -21.4260     2.2450    53.9080    16.2330    14.4980     7.2020    24.6170 
   93.2500   -21.4680     2.2190    54.3420    16.2950    14.5910     7.4210    24.6150 
   93.3750   -21.5070     2.1910    54.9350    16.2740    14.6120     7.6830    24.6200 
   93.5000   -21.5460     2.1680    54.5440    16.1560    14.5460     7.7750    24.6350 
   93.6250   -21.5790     2.1590    54.9250    15.9390    14.3830     7.7790    24.6670 
   93.7500   -21.6120     2.1570    57.7140    15.6790    14.1610     7.7110    24.6960 
   93.8750   -21.6390     2.1560    60.4230    15.4150    13.9120     7.6050    24.7140 
   94.0000   -21.6600     2.1490    61.5100    15.1770    13.6660     7.5060    24.7210 
   94.1250   -21.6780     2.1340    60.4070    14.9840    13.4510     7.3760    24.7170 
   94.2500   -21.6840     2.1100    58.7070    14.8380    13.2740     7.3010    24.6850 
   94.3750   -21.6830     2.0850    57.0420    14.7440    13.1370     7.4110    24.5970 
   94.5000   -21.6880     2.0690    54.4610    14.6980    13.0420     7.5720    24.4930 
   94.6250   -21.6960     2.0690    51.8560    14.6910    12.9890     7.5480    24.5920 
   94.7500   -21.7100     2.0810    50.6430    14.6860    12.9570     7.4620    24.8980 
   94.8750   -21.7190     2.1080    50.5790    14.6550    12.9270     7.4940    25.2310 
