~V
VERS. 2.00: Ver 2.00
~W
STRT.M 55.0000:
STOP.M 192.0000:
STEP.M 0.1250:
NULL. -999.2500:
UWI. F10682:
~C
DEPT.M :
DEN.GM/CC :
GR.API :
RML.OHMM :
RI. :
RXO.OHMM :
CALI.CM :
SP.MV :
~A
# ...
  167.5000     2.3240    56.6790     9.5610     7.6650     7.7020    24.6430    -6.9270 
  167.6250     2.3200    57.3620     8.2420     7.0660     7.5840    24.5890    -6.9230 
  167.7500     2.3310    54.2920     7.1970     6.5080     7.3190    24.5670    -6.9180 
  167.8750     2.3520    51.2080     6.6550     6.0800     6.6390    24.5290    -6.8680 
  168.0000     2.3760    50.7950     6.4540     5.8540     6.1170    24.5110    -6.7930 
  168.1250     2.3970    53.3210     6.6300     5.9080     6.1470    24.5490    -6.7200 
  168.2500     2.4110    55.6840     7.0950     6.2060     6.1820    24.5060    -6.6160 
  168.3750     2.4190    55.4430     7.7960     6.7090     6.3500    24.5460    -6.5080 
  168.5000     2.4230    54.3800     8.5980     7.3270     7.2070    24.6530    -6.4510 
  168.6250     2.4210    55.3250     9.2270     7.8730     9.2290    24.7830    -6.4070 
  168.7500     2.4150    56.2890     9.4710     8.1610    10.6710    24.8530    -6.3540 
  168.8750     2.4000    54.0460     9.2400     8.0920     9.7680    24.8640    -6.3740 
  169.0000     2.3760    51.7240     8.6230     7.6970     8.2220    24.8860    -6.4450 
  169.1250     2.3450    52.7020     7.8480     7.1120     7.0120    24.9100    -6.5060 
  169.2500     2.3170    54.7200     7.1930     6.5500     6.1180    24.7190    -6.6220 
  169.3750     2.3000    54.3100     6.7760     6.1140     5.6590    24.5050    -6.7750 
  169.5000     2.2960    51.6150     6.6130     5.8470     5.6600    24.4890    -6.8970 
  169.6250     2.3020    50.5070     6.6540     5.7620     6.0080    24.4870    -7.0100 
  169.7500     2.3060    52.0510     6.7480     5.7770     6.0230    24.4930    -7.1440 
  169.8750     2.3070    53.6920     6.8140     5.8350     5.8050    24.4870    -7.2420 
  170.0000     2.3090    53.4530     6.8330     5.8920     5.7040    24.4840    -7.3000 
  170.1250     2.3210    53.5540     6.8400     5.9410     5.6200    24.4910    -7.3460 
  170.2500     2.3400    55.1420     6.8880     6.0120     5.8680    24.5270    -7.3580 
  170.3750     2.3570    56.6650     6.9820     6.1250     6.3520    24.5620    -7.3790 
  170.5000     2.3580    57.4330     7.0920     6.2650     7.1500    24.5520    -7.3970 
  170.6250     2.3350    58.6310     7.1210     6.3420     7.4870    24.4990    -7.4140 
  170.7500     2.3020    59.7790     6.9780     6.2610     7.4670    24.4210    -7.4340 
  170.8750     2.2760    60.7950     6.6400     5.9870     7.2840    24.4090    -7.4580 
  171.0000     2.2680    61.8630     6.1940     5.5860     6.8980    24.4070    -7.5070 
  171.1250     2.2830    60.8680     5.8420     5.2200     6.0470    24.4090    -7.6050 
  171.2500     2.3030    57.7470     5.7370     5.0300     5.4380    24.4250    -7.7090 
  171.3750     2.3130    55.8150     5.9400     5.0790     5.6420    24.5140    -7.7580 
  171.5000     2.3060    57.2090     6.3960     5.3640     6.9200    24.6870    -7.8250 
  171.6250     2.2830    60.0260     6.9140     5.7960     8.3460    24.7180    -7.9480 
  171.7500     2.2620    60.9470     7.2290     6.1660     9.6790    24.7290    -8.0870 
  171.8750     2.2570    60.1140     7.2010     6.3190     9.9960    24.7310    -8.2720 
  172.0000     2.2680    57.9550     6.8650     6.2050     9.1170    24.7400    -8.5390 
  172.1250     2.2890    56.6000     6.4340     5.9140     7.7730    24.7720    -8.8640 
  172.2500     2.3060    56.2140     6.1510     5.6500     6.9140    24.7910    -9.2280 
  172.3750     2.3150    55.3400     6.0980     5.5180     6.6550    24.9430    -9.6620 
  172.5000     2.3180    53.0460     6.2500     5.5480     6.8000    25.0230   -10.1200 
  172.6250     2.3160    51.9000     6.5370     5.7250     7.0070    25.0590   -10.5240 
  172.7500     2.3140    52.7480     6.8230     5.9430     6.9610    25.0590   -10.8760 
  172.8750     2.3100    55.9820     7.0080     6.0950     6.8490    25.0380   -11.1650 
  173.0000     2.3040    60.4110     7.0330     6.1040     6.9450    25.0170   -11.3890 
  173.1250     2.2930    63.0630     6.8930     5.9540     7.0220    24.9930   -11.5390 
  173.2500     2.2800    61.9970     6.7100     5.7630     6.7730    25.0350   -11.6300 
  173.3750     2.2710    59.1970     6.5890     5.6360     6.3540    25.0460   -11.6810 
  173.5000     2.2710    59.1900     6.6170     5.6450     6.1550    25.0750   -11.7130 
  173.6250     2.2860    60.8620     6.8480     5.8400     6.9070    25.1790   -11.7600 
  173.7500     2.3090    59.5840     7.1750     6.1370     7.6660    25.2100   -11.8070 
  173.8750     2.3320    56.6540     7.4560     6.4220     7.8220    25.1130   -11.8130 
  174.0000     2.3460    56.0690     7.5350     6.5580     7.5580    24.9390   -11.7610 
  174.1250     2.3460    58.4420     7.2940     6.4070     7.3480    24.7920   -11.6350 
  174.2500     2.3340    58.6770     6.8680     6.0550     7.0770    24.7160   -11.4500 
  174.3750     2.3140    56.7750     6.4320     5.6470     6.5300    24.6230   -11.2520 
  174.5000     2.2930    54.7320     6.1390     5.3360     5.7260    24.4050   -11.0530 
  174.6250     2.2780    54.6270     6.1070     5.2590     5.2100    24.1740   -10.8570 
  174.7500     2.2690    58.3520     6.2970     5.3950     5.4700    24.3160   -10.6780 
  174.8750     2.2660    63.7110     6.6270     5.6810     6.2920    24.5600   -10.5500 
  175.0000     2.2620    67.0250     6.9360     5.9880     6.8080    24.6370   -10.4800 
  175.1250     2.2580    64.1840     6.9750     6.1140     6.4800    24.6330   -10.4770 
  175.2500     2.2530    58.4150     6.6950     5.9950     5.7710    24.6040   -10.5320 
  175.3750     2.2500    53.7970     6.2150     5.6940     5.1750    24.5760   -10.6000 
  175.5000     2.2510    53.4980     5.7450     5.3510     4.8520    24.5710   -10.6810 
  175.6250     2.2570    56.4320     5.5030     5.1270     4.8430    24.5720   -10.8260 
  175.7500     2.2700    56.0360     5.5040     5.0670     5.3030    24.5780   -11.0630 
  175.8750     2.2840    51.7200     5.6830     5.1560     6.1890    24.6090   -11.3680 
  176.0000     2.2950    48.3110     5.9380     5.3330     6.8410    24.7000   -11.6760 
  176.1250     2.2940    50.4460     6.1600     5.5020     6.7530    24.6830   -11.9460 
  176.2500     2.2840    53.0250     6.3050     5.5910     6.3660    24.5910   -12.2100 
  176.3750     2.2690    52.8130     6.3870     5.5900     6.1030    24.5110   -12.4920 
  176.5000     2.2540    52.1960     6.4420     5.5420     5.9820    24.4880   -12.7140 
  176.6250     2.2450    52.7000     6.5040     5.5090     5.8120    24.4940   -12.7870 
  176.7500     2.2410    52.4830     6.5720     5.5150     5.7470    24.5010   -12.7290 
  176.8750     2.2400    51.2090     6.6180     5.5300     6.0200    24.5390   -12.6300 
  177.0000     2.2430    49.8160     6.6000     5.5040     6.3190    24.5570   -12.5240 
  177.1250     2.2470    48.1100     6.4800     5.3990     6.2510    24.5520   -12.4220 
  177.2500     2.2510    45.9430     6.3160     5.2560     5.8190    24.5180   -12.3320 
  177.3750     2.2580    45.6420     6.1950     5.1450     5.4910    24.4890   -12.2470 
  177.5000     2.2740    46.9850     6.2010     5.1340     5.9510    24.4970   -12.2310 
  177.6250     2.3010    50.7900     6.4160     5.2910     7.4520    24.5680   -12.3210 
  177.7500     2.3290    56.7280     6.7870     5.5790     8.5650    24.6860   -12.4570 
  177.8750     2.3480    61.0790     7.2220     5.9300     8.4380    24.6300   -12.5380 
  178.0000     2.3470    61.1390     7.5900     6.2530     7.7210    24.4470   -12.5790 
  178.1250     2.3260    59.4080     7.7430     6.4410     7.4580    24.3410   -12.5760 
  178.2500     2.3000    59.1480     7.6920     6.4920     7.4060    24.4090   -12.5210 
  178.3750     2.2790    58.5850     7.5070     6.4490     7.3380    24.4620   -12.4210 
  178.5000     2.2690    57.2830     7.2810     6.3630     7.2170    24.4810   -12.2380 
  178.6250     2.2740    56.7480     7.0840     6.2750     6.9820    24.4850   -11.9640 
