~V
VERS. 2.00: Ver 2.00
~W
STRT.M 50.0000:
STOP.M 217.0000:
STEP.M 0.1250:
NULL. -999.2500:
UWI. F10606:
~C
DEPT.M :
DEN.GM/CC :
GR.API :
RML.OHMM :
RI. :
RXO.OHMM :
CALI.CM :
SP.MV :
~A
   50.0000     2.2850    39.4550     7.2200     0.2150     0.7290    24.3150  -999.2500 
   50.1250     2.2540    39.6120     7.7170     0.2120     0.7190    23.9180  -999.2500 
   50.2500     2.2200    41.3730     6.6350     0.2090     0.7370    23.5360  -999.2500 
   50.3750     2.2090    43.5530     4.8450     0.2060     0.7850    23.2890  -999.2500 
   50.5000     2.2340    44.5760     3.7050     0.2040     0.8440    23.1490  -999.2500 
   50.6250     2.2990    44.0630     3.5490     0.2020     0.8900    23.0710  -999.2500 
   50.7500     2.3830    43.3630     3.9730     0.2020     0.8970    23.0170  -999.2500 
   50.8750     2.4710    44.0850     4.6190     0.2040     0.8710    23.0060  -999.2500 
   51.0000     2.5410    46.7110     4.8440     0.2070     0.8650    23.0380  -999.2500 
   51.1250     2.5620    48.0410     4.0920     0.2120     0.9310    23.0780  -999.2500 
   51.2500     2.5370    45.3380     3.0950     0.2170     0.9560    23.1090  -999.2500 
   51.3750     2.4780    41.8430     2.3630     0.2200     0.9040    23.0930  -999.2500 
   51.5000     2.4090    41.5580     1.9470     0.2200     0.8260    23.0310     0.0000 
   51.6250     2.3520    43.6310     1.7750     0.2170     0.7910    22.9980     0.0000 
   51.7500     2.3090    44.3910     1.7270     0.2110     0.7590    23.0050    57.6350 
   51.8750     2.2750    43.8740     1.7570     0.2050     0.7270    23.0550   114.9960 
   52.0000     2.2480    43.5770     1.8310     0.2010     0.7350    23.1160   114.6730 
   52.1250     2.2320    44.5750     1.8900     0.1990     0.7750    23.1630   114.5830 
   52.2500     2.2320    45.8670     1.8700     0.2000     0.8060    23.1800   114.6270 
   52.3750     2.2480    44.9370     1.7870     0.2040     0.7870    23.1450   114.7720 
   52.5000     2.2730    42.0480     1.7420     0.2100     0.7110    23.0430   114.9960 
   52.6250     2.2980    41.4680     1.8720     0.2160     0.6260    22.9260   115.1320 
   52.7500     2.3120    43.9180     2.2030     0.2220     0.5730    22.8230   114.8710 
   52.8750     2.3060    46.4310     2.6990     0.2260     0.5500    22.8280   114.0470 
   53.0000     2.2750    46.2240     3.2090     0.2260     0.5280    23.0770   112.5490 
   53.1250     2.2290    44.3200     3.4280     0.2220     0.5210    23.7110   110.1570 
   53.2500     2.1900    41.9860     3.3390     0.2170     0.5600    24.4340   107.1040 
   53.3750     2.1740    39.5240     3.1250     0.2150     0.6620    24.9250   103.5520 
   53.5000     2.1810    38.2270     2.8900     0.2150     0.7740    25.1130    99.7070 
   53.6250     2.1870    37.9260     2.6180     0.2200     0.8330    25.1420    95.8800 
   53.7500     2.1610    37.3650     2.3230     0.2260     0.8800    25.1450    92.3280 
   53.8750     2.0960    36.0870     2.0760     0.2310     0.9330    25.1660    89.1230 
   54.0000     2.0040    35.3960     1.9950     0.2350     0.9610    25.2150    86.4070 
   54.1250     1.9190    35.9020     2.2270     0.2360     0.9470    25.2780    84.4910 
   54.2500     1.8660    35.6600     2.7880     0.2370     0.9130    25.3090    83.2760 
   54.3750     1.8480    35.1690     3.6670     0.2380     0.8710    25.3150    82.6290 
   54.5000     1.8550    34.9330     4.6160     0.2400     0.8330    25.3040    82.3610 
   54.6250     1.8780    35.1660     4.7250     0.2420     0.8070    25.2720    82.4200 
   54.7500     1.9190    35.8320     3.8670     0.2420     0.7730    25.2410    82.8240 
   54.8750     1.9840    36.8090     2.9240     0.2390     0.7460    25.2220    83.6960 
   55.0000     2.0690    37.3530     2.4800     0.2340     0.7350    25.1940    85.1070 
   55.1250     2.1630    36.5210     2.6820     0.2300     0.7410    25.1360    87.0270 
   55.2500     2.2530    35.5040     3.3190     0.2260     0.7340    24.9560    89.1140 
   55.3750     2.3360    34.6740     3.8190     0.2140     0.7410    24.5970    91.0780 
   55.5000     2.4080    33.8810     3.0080     0.1890     0.7920    24.1140    92.6510 
   55.6250     2.4730    34.7910     1.4490     0.1490     0.9020    23.5800    93.4370 
   55.7500     2.5400    38.0260     0.5710     0.1040     0.9780    23.1780    93.2770 
   55.8750     2.5930    41.7850     0.2080     0.0680     1.0310    23.1400    91.8620 
   56.0000     2.5940    43.3820     0.0790     0.0460     1.1010    23.4110    88.8240 
   56.1250     2.4960    41.7410     0.0690     0.0510     1.2440    23.4110    83.5340 
   56.2500     2.3300    40.4350     0.1510     0.1110     1.6760    23.2350    76.2880 
   56.3750     2.1200    40.9840     0.3900     0.2970     2.7990    23.1830    67.5030 
   56.5000     1.9020    42.5630     0.9340     0.7310     4.3240    23.2340    57.7760 
   56.6250     1.7090    43.7930     2.1380     1.7110     5.3030    22.9000    47.6040 
   56.7500     1.5700    45.0560     3.9980     3.3210     5.8860    22.7500    37.5300 
   56.8750     1.5120    45.5280     5.9530     5.3130     6.3210    23.1740    27.9240 
   57.0000     1.5500    45.7660     7.1580     7.0560     6.4170    23.6670    19.1280 
   57.1250     1.6740    47.7050     7.4690     8.0820     6.4010    22.6420    11.6450 
   57.2500     1.7950    50.5270     7.5690     8.6790     6.5040    21.1470     5.5080 
   57.3750     1.8540    52.4210     7.6960     9.0510     6.5810    20.1830     0.6300 
   57.5000     1.8570    52.8380     7.8820     9.2900     6.5160    20.0290    -3.2100 
   57.6250     1.8450    53.3010     8.1510     9.4810     6.2980    20.4710    -6.1450 
   57.7500     1.8530    54.8290     8.5370     9.7500     6.3230    21.2140    -8.5630 
   57.8750     1.8860    57.4230     9.0950    10.1950     7.3850    22.3490   -10.6340 
   58.0000     1.9280    59.6330     9.8630    10.8660     9.6270    23.8460   -12.4820 
   58.1250     1.9510    59.5120    10.8320    11.7370    11.0950    25.0350   -14.0990 
   58.2500     1.9510    59.0050    11.7770    12.5670    11.5000    25.3950   -15.5520 
   58.3750     1.9400    59.3320    12.3530    13.0450    12.2750    25.1380   -16.8940 
   58.5000     1.9390    59.1440    12.2220    12.8810    13.6460    24.6250   -18.1950 
   58.6250     1.9720    57.9260    11.2620    11.9540    13.7100    24.3450   -19.4030 
   58.7500     2.0310    59.1120    10.0420    10.7340    12.1470    24.1940   -20.4930 
   58.8750     2.0860    63.3190     9.0210     9.6070    10.3960    23.9620   -21.4630 
   59.0000     2.1010    68.3480     8.4870     8.8520     9.0750    23.7210   -22.3450 
   59.1250     2.0640    69.8830     8.6310     8.6930     9.1360    23.6190   -23.1290 
   59.2500     2.0190    67.5750     9.2300     9.0000    10.1900    23.8460   -23.8010 
   59.3750     2.0130    64.5410     9.9800     9.5470    11.2210    24.1620   -24.3070 
   59.5000     2.0810    64.1050    10.4370     9.9620    11.7170    24.2320   -24.6220 
   59.6250     2.2080    69.3660    10.0820     9.7570    12.8690    23.9480   -24.8110 
   59.7500     2.3100    77.1870     9.0770     8.9590    12.9870    23.6650   -24.9480 
   59.8750     2.3420    83.3100     7.8410     7.8630     9.7740    23.6270   -25.0400 
   60.0000     2.3190    86.4270     6.8000     6.8330     6.8900    23.7280   -25.0670 
   60.1250     2.2890    86.6400     6.2470     6.1610     5.9540    23.8160   -25.0520 
   60.2500     2.2740    85.4940     6.1210     5.8550     6.3500    23.8310   -25.0490 
   60.3750     2.2700    82.6210     6.3580     5.8950     6.9280    23.7720   -25.1140 
   60.5000     2.2610    79.2310     6.8670     6.2220     7.2680    23.6520   -25.2500 
   60.6250     2.2390    78.6870     7.5490     6.7560     7.2700    23.4800   -25.4000 
   60.7500     2.2110    79.3600     8.2540     7.3420     7.7380    23.2900   -25.5800 
   60.8750     2.1860    78.6650     8.8710     7.8750     8.6140    23.2120   -25.7960 
   61.0000     2.1680    76.5740     9.2730     8.2550     9.4510    23.2510   -26.0440 
   61.1250     2.1520    75.7870     9.2890     8.3400     9.1550    23.3860   -26.3000 
