~V
VERS. 2.00: Ver 2.00
~W
STRT.M 58.0000:
STOP.M 272.0000:
STEP.M 0.1250:
NULL. -999.2500:
UWI. F10670:
~C
DEPT.M :
DEN.GM/CC :
GR.API :
RML.OHMM :
RI. :
RXO.OHMM :
CALI.CM :
SP.MV :
~A
# ...
  181.7500     2.2550    73.8740    12.6580    12.6010    10.9220    22.4630   -27.6020 
  181.8750     2.2450    73.9150    12.6160    12.5490    10.9260    22.7580   -27.0630 
  182.0000     2.2350    71.9980    12.5410    12.3840    10.7470    22.9420   -26.4800 
  182.1250     2.2340    71.2920    12.4060    12.1110    10.6780    23.0540   -25.8760 
  182.2500     2.2410    72.1900    12.2070    11.7530    11.1910    23.2380   -25.2440 
  182.3750     2.2510    73.0890    12.0110    11.3970    12.1340    23.5840   -24.5730 
  182.5000     2.2560    73.0220    12.0920    11.3170    12.5630    23.9280   -23.8690 
  182.6250     2.2600    73.5660    12.8140    11.8820    12.4440    24.0600   -23.1570 
  182.7500     2.2750    73.8010    14.6330    13.5980    12.8230    24.0930   -22.4440 
  182.8750     2.3150    71.5550    17.9660    16.9740    14.8610    24.1020   -21.7410 
  183.0000     2.3900    68.3560    22.5050    22.1860    22.6080    24.1120   -21.0390 
  183.1250     2.4850    66.5260    26.0270    27.2510    47.3290    24.1230   -20.3400 
  183.2500     2.5760    66.0330    26.2200    29.4040    92.1100    24.1210   -19.6550 
  183.3750     2.6430    65.2590    22.3340    26.8500   122.0330    24.0760   -19.0060 
  183.5000     2.6640    62.4810    16.2500    20.5640    62.4300    24.0400   -18.4300 
  183.6250     2.6450    58.8890    11.0410    14.2810    24.3980    23.9920   -17.9410 
  183.7500     2.5940    55.6740     7.6790     9.6590     9.5190    23.8910   -17.5950 
  183.8750     2.5230    53.4320     5.9350     6.9030     5.5870    23.7160   -17.3770 
  184.0000     2.4490    52.6700     5.4050     5.7160     5.0240    23.4600   -17.2740 
  184.1250     2.3920    53.3440     5.5190     5.3610     5.1020    23.2220   -17.2420 
  184.2500     2.3640    53.0200     6.0210     5.5230     5.4550    23.0110   -17.2610 
  184.3750     2.3640    50.6430     6.5910     5.9540     5.9210    22.8080   -17.3030 
  184.5000     2.3780    49.6690     6.8890     6.4270     6.3470    22.8860   -17.3170 
  184.6250     2.3880    50.8820     7.0270     6.7870     6.5240    23.2840   -17.3060 
  184.7500     2.3890    51.3450     7.0910     6.9890     6.5650    23.8410   -17.2360 
  184.8750     2.3820    49.8230     7.0780     7.0500     6.5390    24.1870   -17.1200 
  185.0000     2.3780    48.0370     7.0310     7.0170     6.6420    24.2810   -16.9460 
  185.1250     2.3790    47.0250     6.9910     6.9660     6.7490    24.3020   -16.7480 
  185.2500     2.3880    46.8330     7.0210     6.9250     6.6430    24.3080   -16.5770 
  185.3750     2.4010    48.1660     7.1180     6.8950     6.5070    24.3000   -16.4370 
  185.5000     2.4140    49.5860     7.1930     6.8580     6.6640    24.2760   -16.3220 
  185.6250     2.4220    49.3840     7.1830     6.8000     6.9040    24.2360   -16.2110 
  185.7500     2.4210    48.7820     7.0880     6.7170     6.9100    24.1790   -16.1090 
  185.8750     2.4120    50.5040     6.9340     6.6130     6.7370    24.1300   -16.0090 
  186.0000     2.3990    54.9740     6.7780     6.5070     6.4970    24.1600   -15.9560 
  186.1250     2.3920    58.7460     6.6760     6.4190     6.4360    24.2340   -15.9360 
  186.2500     2.3930    60.3250     6.6580     6.3620     6.5740    24.2830   -15.9070 
  186.3750     2.4010    61.1690     6.7250     6.3470     6.8220    24.2980   -15.8570 
  186.5000     2.4080    62.0690     6.8560     6.3740     6.8970    24.3010   -15.8070 
  186.6250     2.4120    61.3270     6.9920     6.4150     6.7750    24.3090   -15.7740 
  186.7500     2.4120    57.7630     7.0930     6.4430     6.6490    24.3220   -15.7560 
  186.8750     2.4120    52.7740     7.1250     6.4340     6.6820    24.3300   -15.7470 
  187.0000     2.4150    48.5530     7.0540     6.3660     6.7260    24.2740   -15.7300 
  187.1250     2.4180    45.7840     6.8980     6.2540     6.5540    24.1770   -15.7100 
  187.2500     2.4180    43.6650     6.6910     6.1230     6.1340    24.0940   -15.6860 
  187.3750     2.4150    42.2670     6.4900     6.0050     5.7980    23.9990   -15.6860 
  187.5000     2.4090    43.7380     6.3800     5.9470     5.6500    23.7840   -15.7610 
  187.6250     2.4030    46.2740     6.3920     5.9610     5.5270    23.4070   -15.8810 
  187.7500     2.3980    47.8070     6.5240     6.0410     5.3860    22.9860   -16.0520 
  187.8750     2.3900    46.8410     6.7410     6.1550     5.4580    22.8040   -16.2290 
  188.0000     2.3770    43.6910     6.9760     6.2530     5.7270    22.9320   -16.3940 
  188.1250     2.3640    40.6540     7.1560     6.2980     5.8020    23.2000   -16.5400 
  188.2500     2.3550    38.9150     7.2400     6.2760     5.9010    23.4860   -16.6780 
  188.3750     2.3520    38.2640     7.2260     6.2020     5.9770    23.7380   -16.8030 
  188.5000     2.3550    36.2370     7.1320     6.1070     5.8930    23.8530   -16.8990 
  188.6250     2.3600    33.7180     7.0190     6.0270     5.8290    23.8860   -16.9680 
  188.7500     2.3660    33.2600     6.9200     5.9770     5.9230    23.8890   -17.0040 
  188.8750     2.3730    35.6680     6.8510     5.9570     6.0420    23.8890   -17.0290 
  189.0000     2.3830    39.5250     6.8190     5.9610     6.0630    23.8880   -17.0680 
  189.1250     2.3960    41.6260     6.8130     5.9740     6.0080    23.8860   -17.1510 
  189.2500     2.4100    41.2760     6.8390     5.9980     6.0410    23.8830   -17.2610 
  189.3750     2.4220    40.2760     6.9110     6.0390     6.1760    23.8830   -17.3830 
  189.5000     2.4310    43.5910     7.0700     6.1170     6.3670    23.8850   -17.4910 
  189.6250     2.4360    50.9820     7.3340     6.2490     6.4210    23.8880   -17.5480 
  189.7500     2.4410    57.9200     7.7180     6.4580     6.4700    23.8920   -17.5350 
  189.8750     2.4460    61.3050     8.2160     6.7590     6.6810    23.9030   -17.5050 
  190.0000     2.4500    63.3970     8.7860     7.1590     7.1550    23.9410   -17.4680 
  190.1250     2.4510    67.2390     9.3080     7.5930     7.9360    24.0070   -17.4100 
  190.2500     2.4460    71.5480     9.6600     7.9790     9.1010    24.0760   -17.3430 
  190.3750     2.4360    75.4830     9.7560     8.2300    10.2470    24.1070   -17.2730 
  190.5000     2.4260    77.8000     9.5820     8.2820    10.7510    24.0750   -17.1940 
  190.6250     2.4220    77.1810     9.3320     8.2220    10.2710    24.0130   -17.1690 
  190.7500     2.4220    75.4300     9.1890     8.1610     9.0950    23.9730   -17.2320 
  190.8750     2.4220    75.6830     9.2900     8.2070     8.5290    23.9630   -17.3520 
  191.0000     2.4140    76.9480     9.6870     8.4270     8.6440    23.9860   -17.4640 
  191.1250     2.4030    76.1580    10.1910     8.7250     9.2980    24.0380   -17.5080 
  191.2500     2.3960    73.2540    10.5840     8.9680     9.9980    24.0920   -17.4880 
  191.3750     2.4000    68.4100    10.6670     9.0200    10.5140    24.1130   -17.3890 
  191.5000     2.4140    62.5590    10.3120     8.7660     9.7190    24.1000   -17.1840 
  191.6250     2.4280    58.3920     9.7010     8.3090     8.4310    24.0840   -16.9590 
  191.7500     2.4330    56.7440     9.0140     7.7720     7.5550    24.0760   -16.7280 
  191.8750     2.4280    56.8720     8.3910     7.2730     7.4570    24.0570   -16.4730 
  192.0000     2.4180    59.4370     7.9250     6.9060     7.3680    23.9830   -16.2220 
  192.1250     2.4130    62.5800     7.5990     6.6670     6.8010    23.8950   -16.0220 
  192.2500     2.4160    61.5090     7.3890     6.5330     6.2990    23.8280   -15.8810 
  192.3750     2.4240    55.7980     7.2690     6.4700     6.1370    23.7750   -15.8140 
  192.5000     2.4320    49.6750     7.2250     6.4460     6.1840    23.7470   -15.8490 
  192.6250     2.4360    45.6230     7.2280     6.4270     6.2220    23.7520   -15.8940 
  192.7500     2.4350    42.6620     7.2650     6.4000     6.1850    23.7680   -15.9240 
  192.8750     2.4300    39.7010     7.3210     6.3650     6.0340    23.7750   -15.9420 
