~V
VERS. 2.00: Ver 2.00
~W
STRT.M 51.0000:
STOP.M 206.0000:
STEP.M 0.1250:
NULL. -999.2500:
UWI. F10683:
~C
DEPT.M :
GR.API :
RML.OHMM :
RI. :
RXO.OHMM :
CALI.CM :
SP.MV :
DEN.GM/CC :
~A
# ...
  174.7500    61.1160     7.4260     7.7740     6.8530    24.3850    -7.8490     2.3490 
  174.8750    64.3990     8.0380     8.4220     8.6210    24.3850    -7.8780     2.3580 
  175.0000    68.2190     8.5710     9.0050    11.7410    24.3850    -7.9350     2.3610 
  175.1250    71.6190     8.9160     9.3810    11.7830    24.3850    -8.0030     2.3650 
  175.2500    72.2930     9.0790     9.5430     9.9550    24.3820    -8.0630     2.3690 
  175.3750    69.7720     9.0990     9.5220     8.7640    24.3670    -8.1220     2.3700 
  175.5000    66.0330     9.0480     9.3910     8.4410    24.3330    -8.2460     2.3630 
  175.6250    63.7910     9.0290     9.2410     8.4630    24.3160    -8.4550     2.3500 
  175.7500    65.0390     9.0990     9.1430     8.7220    24.3110    -8.7220     2.3400 
  175.8750    67.7350     9.2610     9.1140     8.5780    24.3110    -9.0030     2.3380 
  176.0000    68.1400     9.4810     9.1390     8.3980    24.3190    -9.2280     2.3410 
  176.1250    66.1790     9.6920     9.1790     8.5280    24.3440    -9.3350     2.3480 
  176.2500    64.5760     9.8310     9.1860     9.3150    24.3850    -9.3660     2.3570 
  176.3750    64.5610     9.8730     9.1380    10.2830    24.4250    -9.3550     2.3740 
  176.5000    64.7860     9.8300     9.0370    10.4230    24.4470    -9.3200     2.3970 
  176.6250    64.0810     9.7400     8.9080     9.7000    24.4540    -9.2440     2.4130 
  176.7500    61.8100     9.6590     8.7900     8.8470    24.4540    -9.1280     2.4150 
  176.8750    59.0580     9.6250     8.7120     8.2430    24.4550    -9.0030     2.4080 
  177.0000    59.1680     9.6610     8.6940     7.8390    24.4630    -8.8990     2.4090 
  177.1250    62.8770     9.7840     8.7490     7.7480    24.4880    -8.8580     2.4210 
  177.2500    66.4840     9.9590     8.8530     8.2150    24.5300    -8.8870     2.4320 
  177.3750    68.6090    10.1500     8.9790     8.8700    24.5720    -8.9480     2.4310 
  177.5000    69.5200    10.3100     9.0920     9.4340    24.5970    -8.9600     2.4150 
  177.6250    70.6960    10.3630     9.1340     9.7510    24.6070    -8.9520     2.3930 
  177.7500    71.1060    10.2760     9.0730     9.7510    24.6090    -8.9970     2.3730 
  177.8750    69.8040    10.0420     8.9000     9.6900    24.6090    -9.1000     2.3590 
  178.0000    66.9320     9.7020     8.6410     9.6360    24.6080    -9.2770     2.3530 
  178.1250    64.6260     9.3640     8.3720     9.3350    24.6050    -9.6150     2.3490 
  178.2500    66.3360     9.1510     8.1880     8.6610    24.6020   -10.0860     2.3390 
  178.3750    70.7280     9.1330     8.1470     7.8670    24.5990   -10.6720     2.3220 
  178.5000    72.9190     9.3210     8.2700     7.7460    24.5970   -11.3950     2.3040 
  178.6250    70.4470     9.6680     8.5400     8.5100    24.5980   -12.1840     2.2960 
  178.7500    66.6080    10.0210     8.8430     9.2770    24.6030   -12.8750     2.3110 
  178.8750    66.6000    10.2520     9.0720     9.3800    24.6220   -13.4110     2.3480 
  179.0000    69.6130    10.2760     9.1360     9.0970    24.6570   -13.7820     2.3930 
  179.1250    68.9730    10.0460     8.9700     8.8080    24.6730   -13.9040     2.4210 
  179.2500    63.2650     9.6530     8.6430     8.7880    24.6660   -13.7510     2.4290 
  179.3750    56.4540     9.1620     8.2170     8.6940    24.6350   -13.3650     2.4250 
  179.5000    52.9990     8.6410     7.7660     8.1820    24.6040   -12.8480     2.4180 
  179.6250    51.4700     8.2030     7.3870     7.7110    24.5740   -12.3020     2.4100 
  179.7500    49.0190     7.9410     7.1500     7.3440    24.5490   -11.8500     2.4040 
  179.8750    48.6780     7.9300     7.1120     6.9730    24.5460   -11.5910     2.3960 
  180.0000    51.4400     8.2020     7.3030     6.5060    24.5690   -11.5600     2.3910 
  180.1250    56.6370     8.7390     7.7320     6.8580    24.6050   -11.7430     2.3930 
  180.2500    61.3920     9.3500     8.2630     8.1280    24.6410   -12.0360     2.4010 
  180.3750    63.3720     9.8610     8.7600     9.3860    24.6670   -12.3340     2.4100 
  180.5000    62.9060    10.1210     9.0770     9.4980    24.6730   -12.5300     2.4210 
  180.6250    61.6860    10.0140     9.0750     9.3160    24.6540   -12.5200     2.4390 
  180.7500    60.7820     9.6500     8.8150     9.2050    24.6200   -12.3050     2.4600 
  180.8750    64.3480     9.1340     8.3840     8.9790    24.5850   -11.8880     2.4650 
  181.0000    71.6930     8.5740     7.8880     8.7370    24.5650   -11.3160     2.4470 
  181.1250    72.7130     8.1010     7.4510     8.0970    24.5970   -10.6410     2.4160 
  181.2500    65.6410     7.8220     7.1670     7.2290    24.6500   -10.0070     2.3940 
  181.3750    59.3020     7.8180     7.1000     6.5270    24.6740    -9.5960     2.3900 
  181.5000    60.2570     8.1230     7.2840     6.3110    24.6780    -9.4670     2.3950 
  181.6250    63.0330     8.7390     7.7460     6.6790    24.6740    -9.6400     2.3980 
  181.7500    64.2910     9.4970     8.3700     7.5220    24.6620   -10.0710     2.3950 
  181.8750    66.6730    10.2340     9.0330     9.2790    24.6490   -10.6930     2.3840 
  182.0000    68.6260    10.7980     9.5970    10.9500    24.6620   -11.3830     2.3680 
  182.1250    69.6230    11.0720     9.9260    10.9770    24.6700   -12.0410     2.3570 
  182.2500    70.0130    11.1390    10.0530    10.4340    24.6580   -12.6460     2.3530 
  182.3750    70.1890    11.0980    10.0540    10.0130    24.6170   -13.1240     2.3510 
  182.5000    70.7280    11.0580    10.0280    10.2620    24.5790   -13.4090     2.3460 
  182.6250    71.2640    11.1100    10.0680    10.8570    24.5950   -13.4770     2.3460 
  182.7500    70.5020    11.2610    10.1960    11.5450    24.6410   -13.4150     2.3550 
  182.8750    66.8350    11.4770    10.3960    12.2970    24.7180   -13.2900     2.3750 
  183.0000    62.7370    11.7030    10.6300    13.3120    24.7890   -13.1590     2.3990 
  183.1250    62.8590    11.8710    10.8490    13.2180    24.8160   -13.0330     2.4180 
  183.2500    66.0730    11.9670    11.0270    12.7090    24.8210   -12.8720     2.4280 
  183.3750    69.3540    12.0040    11.1590    12.1240    24.8190   -12.6710     2.4330 
  183.5000    70.4510    12.0010    11.2450    11.7940    24.8100   -12.4510     2.4340 
  183.6250    69.2050    11.9430    11.2580    11.9540    24.7860   -12.1830     2.4280 
  183.7500    67.0180    11.7840    11.1590    12.1990    24.7620   -11.8130     2.4190 
  183.8750    63.6410    11.4600    10.8900    12.3740    24.7470   -11.3570     2.4070 
  184.0000    60.3580    10.9290    10.4140    12.3860    24.7290   -10.8340     2.3870 
  184.1250    59.1520    10.2060     9.7380    11.9880    24.6970   -10.2540     2.3570 
  184.2500    58.9450     9.4400     9.0010    10.7880    24.6820    -9.6920     2.3290 
  184.3750    59.1080     8.7550     8.3240     8.9190    24.6770    -9.1860     2.3130 
  184.5000    58.6650     8.2470     7.8030     7.0440    24.6660    -8.7100     2.3150 
  184.6250    58.7350     8.0050     7.5280     6.2880    24.6400    -8.3140     2.3370 
  184.7500    58.6570     7.9920     7.4730     6.0470    24.6110    -8.0630     2.3690 
  184.8750    64.9970     8.1770     7.6150     5.3880    24.5990    -7.9160     2.4030 
  185.0000    78.5690     8.5160     7.9170     4.8360    24.5980    -7.8250     2.4250 
  185.1250    84.6300     8.9570     8.3330     4.9750    24.6020    -7.8060     2.4220 
  185.2500    77.4250     9.4050     8.7690     5.6980    24.6210    -7.8580     2.4040 
  185.3750    66.7110     9.7930     9.1500     6.5690    24.6670    -7.9650     2.3860 
  185.5000    63.8810    10.0700     9.4180     7.7110    24.7200    -8.1360     2.3810 
  185.6250    66.3890    10.1850     9.5200     8.9630    24.7420    -8.4260     2.3820 
  185.7500    65.8130    10.1670     9.4840     9.6520    24.7470    -8.8040     2.3760 
  185.8750    63.2990    10.0530     9.3460     9.6540    24.7470    -9.2650     2.3650 
