~V
VERS. 2.00: Ver 2.00
~W
STRT.M 49.0000:
STOP.M 221.0000:
STEP.M 0.1250:
NULL. -999.2500:
UWI. F10615:
~C
DEPT.M :
DEN.GM/CC :
GR.API :
RML.OHMM :
RI. :
RXO.OHMM :
CALI.CM :
SP.MV :
~A
# ...
  184.0000     2.2160    49.6760   133.9110   107.2090   124.5710    24.4870   -31.1350 
  184.1250     2.2350    50.7900   134.9340   109.1560   114.5800    24.5070   -30.9260 
  184.2500     2.2550    52.7550   135.3410   110.4830   111.1830    24.5020   -30.6720 
  184.3750     2.2720    53.5890   135.8120   111.7620   111.5850    24.4840   -30.4200 
  184.5000     2.2810    53.1720   136.7550   113.4420   121.2990    24.4740   -30.0860 
  184.6250     2.2770    52.8760   137.9990   115.4850   133.6860    24.4620   -29.7520 
  184.7500     2.2560    52.8770   139.2650   117.6440   136.8360    24.4530   -29.4810 
  184.8750     2.2260    52.9910   140.4550   119.7370   131.9170    24.4810   -29.2240 
  185.0000     2.2060    52.6440   141.5540   121.6770   129.6440    24.5840   -28.9780 
  185.1250     2.2160    50.6610   142.1990   123.2330   133.2130    24.6130   -28.8240 
  185.2500     2.2560    47.6690   141.5150   123.7620   140.0830    24.5710   -28.7380 
  185.3750     2.3050    46.5980   138.4480   122.3800   144.2230    24.5060   -28.6440 
  185.5000     2.3260    50.1780   132.2260   118.1790   142.2970    24.3570   -28.5860 
  185.6250     2.3050    53.4360   124.6210   112.3430   137.5560    24.2200   -28.5700 
  185.7500     2.2580    53.1110   117.7330   106.5800   123.3390    24.2210   -28.5320 
  185.8750     2.2070    51.3430   113.4630   102.6800   104.0180    24.3290   -28.4730 
  186.0000     2.1730    51.7620   113.4940   102.4630    93.3680    24.3940   -28.4580 
  186.1250     2.1600    53.0880   116.9220   105.4960    98.9610    24.4670   -28.4060 
  186.2500     2.1660    53.0200   122.4020   110.7680   111.5920    24.5800   -28.2850 
  186.3750     2.1800    52.2870   127.9170   116.5370   128.6390    24.6630   -28.1800 
  186.5000     2.1930    51.8480   131.0350   120.4640   134.9800    24.6990   -28.0350 
  186.6250     2.2040    51.0070   131.5750   121.8470   129.7070    24.7020   -27.8530 
  186.7500     2.2250    50.7730   130.7120   121.3300   119.2600    24.6830   -27.6580 
  186.8750     2.2660    51.4170   130.1870   120.3780   108.8890    24.6310   -27.4410 
  187.0000     2.3240    52.0190   131.7510   120.7540   101.1690    24.5170   -27.1560 
  187.1250     2.3640    53.1760   135.8690   123.2790    96.8900    24.3000   -26.8770 
  187.2500     2.3590    53.3790   143.0510   128.5380    95.3540    24.0490   -26.6070 
  187.3750     2.3120    50.9920   153.8950   137.0160    94.9420    23.8930   -26.2940 
  187.5000     2.2520    47.1340   170.0820   150.0550    97.7610    23.9740   -26.0360 
  187.6250     2.2070    45.8670   191.6530   167.6630   119.2590    24.2050   -25.8180 
  187.7500     2.1820    47.2840   218.2950   189.4680   173.5980    24.3720   -25.6040 
  187.8750     2.1720    48.9910   247.8840   213.4670   223.6480    24.2610   -25.4090 
  188.0000     2.1740    49.9020   275.3200   235.3010   256.9340    23.9010   -25.2790 
  188.1250     2.1890    49.7540   295.9130   251.4670   261.6360    23.7560   -25.1770 
  188.2500     2.2180    49.4090   308.3240   261.1020   256.7880    24.0620   -25.0700 
  188.3750     2.2520    49.7300   315.2120   266.2990   254.9560    24.5500   -25.0000 
  188.5000     2.2670    49.5650   321.5800   271.1930   240.2290    24.7430   -24.9680 
  188.6250     2.2600    48.6680   330.7720   278.9670   189.6300    24.7110   -24.8690 
  188.7500     2.2510    47.0260   343.0880   290.3170   121.1040    24.5710   -24.7280 
  188.8750     2.2610    44.6340   356.9100   304.0210    64.4070    24.2940   -24.6280 
  189.0000     2.2850    43.9240   367.5980   316.4870    53.2470    24.0530   -24.4700 
  189.1250     2.3020    46.1280   365.1040   321.7140    71.7520    23.9860   -24.2340 
  189.2500     2.3070    47.5590   328.2630   306.7380   105.9590    24.0500   -24.0070 
  189.3750     2.3080    45.5180   244.1120   254.1930   161.3710    24.1490   -23.7180 
  189.5000     2.3100    44.3110   146.3680   167.8360   144.2070    24.2240   -23.3220 
  189.6250     2.3120    45.6110    77.3100    92.3430   112.1900    24.1850   -22.9400 
  189.7500     2.3170    45.8300    38.6310    45.3130    77.1510    23.8830   -22.5490 
  189.8750     2.3390    42.3820    19.4860    21.4950    34.4640    23.5160   -22.0640 
  190.0000     2.4060    37.1460    11.6530    12.0670    13.3400    23.4850   -21.5960 
  190.1250     2.4920    31.7430     8.2020     8.0210     6.1580    23.5200   -21.1610 
  190.2500     2.5420    25.3870     6.9150     6.3970     5.7440    23.5200   -20.6940 
  190.3750     2.5250    19.6420     6.6340     5.8430     9.9550    23.5100   -20.2820 
  190.5000     2.4570    17.7980     6.6280     5.7190    19.6610    23.6550   -19.9450 
  190.6250     2.3870    19.7450     6.3880     5.5380    18.3650    23.8990   -19.5950 
  190.7500     2.3330    23.2660     5.8360     5.1630     8.9910    24.0320   -19.2830 
  190.8750     2.2940    26.2920     5.1650     4.6650     4.8050    24.0600   -19.0860 
  191.0000     2.2700    28.2600     4.5210     4.2350     4.0450    23.9400   -18.9220 
  191.1250     2.2610    29.1300     3.8330     3.9760     4.0410    23.6990   -18.7710 
  191.2500     2.2690    30.0950     3.7820     3.8890     3.9680    23.4830   -18.7070 
  191.3750     2.2830    32.4530     3.8360     3.9200     3.9450    23.4340   -18.7070 
  191.5000     2.2900    34.1050     3.9430     4.0060     4.0750    23.4640   -18.7160 
  191.6250     2.2910    32.7380     4.0550     4.0900     4.2950    23.4800   -18.7500 
  191.7500     2.2910    29.8010     4.1460     4.1450     4.5240    23.5470   -18.8250 
  191.8750     2.2980    28.1330     4.2070     4.1560     4.6150    23.7420   -18.8720 
  192.0000     2.3150    28.0370     4.2330     4.1230     4.4510    23.9920   -18.9120 
  192.1250     2.3360    28.2640     4.2360     4.0650     4.4250    24.0910   -18.9760 
  192.2500     2.3550    28.5980     4.2160     3.9910     4.4730    24.0970   -18.9800 
  192.3750     2.3690    29.2720     4.1680     3.9020     4.5050    24.0810   -18.9330 
  192.5000     2.3750    29.9320     4.0870     3.7970     4.3910    24.0560   -18.8520 
  192.6250     2.3720    29.0620     3.9900     3.6810     4.2300    24.0050   -18.7410 
  192.7500     2.3600    27.0410     3.8950     3.5640     4.0410    23.9070   -18.6020 
  192.8750     2.3440    25.4330     3.8240     3.4590     3.8720    23.7240   -18.4750 
  193.0000     2.3350    26.1220     3.7810     3.3780     3.7810    23.5040   -18.3110 
  193.1250     2.3350    27.8810     3.7460     3.3240     3.7420    23.3700   -18.1090 
  193.2500     2.3400    29.7050     3.7150     3.2950     3.7060    23.3930   -17.9580 
  193.3750     2.3460    30.9660     3.6950     3.2920     3.7220    23.4730   -17.8280 
  193.5000     2.3510    29.1530     3.7140     3.3110     3.8050    23.5160   -17.7140 
  193.6250     2.3580    26.1500     3.7740     3.3410     3.8990    23.5750   -17.6540 
  193.7500     2.3680    24.6500     3.8600     3.3680     3.9930    23.6420   -17.6500 
  193.8750     2.3750    25.0530     3.9410     3.3790     4.0650    23.6920   -17.6510 
  194.0000     2.3710    26.3740     3.9850     3.3650     4.1030    23.7300   -17.7140 
  194.1250     2.3600    28.0710     3.9950     3.3330     4.0950    23.7540   -17.8620 
  194.2500     2.3490    29.1190     3.9740     3.2880     4.0740    23.7390   -18.0470 
  194.3750     2.3460    28.3410     3.9250     3.2280     4.0980    23.6950   -18.2560 
  194.5000     2.3530    27.5320     3.8830     3.1630     4.2040    23.7210   -18.5100 
  194.6250     2.3690    28.3600     3.9320     3.1430     4.2440    23.7940   -18.8230 
  194.7500     2.3960    30.0980     4.1760     3.2440     4.2970    23.8520   -19.1590 
  194.8750     2.4370    32.2090     4.6850     3.5370     4.4880    23.8820   -19.5070 
  195.0000     2.4760    33.8940     5.4840     4.0790     5.5800    23.8680   -19.8520 
  195.1250     2.4890    32.8520     6.3570     4.7400     8.7020    23.8900   -20.1600 
