~V
VERS. 2.00: Ver 2.00
~W
STRT.M 50.0000:
STOP.M 219.0000:
STEP.M 0.1250:
NULL. -999.2500:
UWI. F10688:
~C
DEPT.M :
SP.MV :
DEN.GM/CC :
GR.API :
RML.OHMM :
RI. :
RXO.OHMM :
CALI.CM :
~A
# ...
  106.2500   -10.2140     2.2900    55.8080    13.3360    11.5710    10.0140    23.1160 
  106.3750   -10.8520     2.2630    56.1510    14.0560    11.7410    10.1430    22.8510 
  106.5000   -11.4010     2.2630    56.3510    15.6980    12.7700    12.5410    22.6660 
  106.6250   -11.8640     2.2970    55.5430    17.1840    13.9830    14.7290    22.5880 
  106.7500   -12.3110     2.3480    55.0950    17.4090    14.4340    15.1700    22.6070 
  106.8750   -12.7030     2.4050    56.8390    16.0320    13.6890    13.3640    22.7400 
  107.0000   -12.9760     2.4520    60.5820    13.6700    12.0720    11.2950    22.9880 
  107.1250   -13.1770     2.4710    64.9270    11.4770    10.3850    11.7520    23.3250 
  107.2500   -13.3390     2.4660    67.6950    10.0650     9.1710    11.9600    23.6800 
  107.3750   -13.4140     2.4440    69.0110     9.4580     8.5280    12.2510    24.0090 
  107.5000   -13.3790     2.4170    68.4310     9.4340     8.3610    11.1450    24.2880 
  107.6250   -13.2460     2.3930    66.2120     9.6470     8.4670    11.9040    24.4880 
  107.7500   -13.0430     2.3810    66.5110     9.6840     8.5110    13.6010    24.6240 
  107.8750   -12.7990     2.3800    69.5820     9.3490     8.3030    12.6490    24.6940 
  108.0000   -12.5980     2.3880    71.4090     8.6700     7.8150    10.3570    24.7220 
  108.1250   -12.3790     2.3980    71.7540     7.8440     7.1650     9.8850    24.7230 
  108.2500   -12.1490     2.3990    74.7550     7.1050     6.5480     9.9850    24.7220 
  108.3750   -11.9510     2.3900    79.2830     6.5620     6.0650     8.8480    24.7190 
  108.5000   -11.7980     2.3770    80.5340     6.2470     5.7610     7.5210    24.7170 
  108.6250   -11.6330     2.3660    78.8320     6.1660     5.6460     7.0680    24.7150 
  108.7500   -11.4200     2.3590    79.3770     6.2220     5.6400     7.0160    24.7140 
  108.8750   -11.2240     2.3520    80.7210     6.3460     5.6850     7.1980    24.7140 
  109.0000   -11.0170     2.3460    80.5670     6.4600     5.7270     7.6410    24.7150 
  109.1250   -10.8170     2.3400    79.5930     6.4620     5.7060     8.0070    24.7170 
  109.2500   -10.6480     2.3390    77.4320     6.3490     5.6130     7.8650    24.7140 
  109.3750   -10.5010     2.3410    74.5070     6.1930     5.4890     7.4090    24.7070 
  109.5000   -10.3880     2.3480    71.9580     6.1210     5.4140     7.1990    24.6940 
  109.6250   -10.3240     2.3710    70.3740     6.3050     5.5050     7.4890    24.6740 
  109.7500   -10.2840     2.4040    69.1120     6.7590     5.7970     7.8270    24.6500 
  109.8750   -10.2630     2.4330    68.7860     7.4130     6.2680     8.7530    24.6240 
  110.0000   -10.2360     2.4390    69.8230     8.0900     6.8200    10.6980    24.6000 
  110.1250   -10.2020     2.4200    70.0160     8.5190     7.2600    12.8860    24.5820 
  110.2500   -10.2050     2.3900    70.2890     8.6470     7.4890    12.6000    24.5720 
  110.3750   -10.2580     2.3580    73.3260     8.6080     7.5480    11.1360    24.5650 
  110.5000   -10.3210     2.3260    76.0650     8.6120     7.5700     9.8100    24.5570 
  110.6250   -10.3300     2.2940    73.4740     8.7940     7.6820     8.9730    24.5460 
  110.7500   -10.3610     2.2700    67.5940     9.0110     7.8400     9.1910    24.5310 
  110.8750   -10.4000     2.2650    63.1540     9.0240     7.8930    10.3290    24.5210 
  111.0000   -10.4310     2.2860    63.5910     8.6540     7.6910    11.2010    24.5230 
  111.1250   -10.4900     2.3230    67.7910     7.9250     7.1870    10.3680    24.5380 
  111.2500   -10.5740     2.3520    71.0590     7.1850     6.6030     8.4330    24.5610 
  111.3750   -10.6170     2.3600    71.4890     6.6740     6.1280     6.7350    24.5920 
  111.5000   -10.5710     2.3520    71.2510     6.4820     5.8700     6.6570    24.6290 
  111.6250   -10.5030     2.3420    72.8720     6.5610     5.8490     8.0000    24.6620 
  111.7500   -10.4000     2.3400    73.6710     6.6880     5.9180     8.8580    24.6870 
  111.8750   -10.2200     2.3470    72.6080     6.7250     5.9650     8.6270    24.6940 
  112.0000   -10.0520     2.3580    71.7260     6.6520     5.9390     7.6520    24.6760 
  112.1250    -9.8880     2.3620    73.5120     6.6050     5.9060     6.9560    24.6320 
  112.2500    -9.6560     2.3520    75.4350     6.7690     6.0050     6.6990    24.5750 
  112.3750    -9.4100     2.3330    76.3810     7.2580     6.3330     7.1500    24.5170 
  112.5000    -9.2220     2.3100    75.0450     8.0870     6.9270     8.5340    24.4640 
  112.6250    -9.1050     2.2880    70.0220     9.1790     7.7580    10.0090    24.4220 
  112.7500    -9.0210     2.2660    63.9000    10.3090     8.6540    11.0190    24.3950 
  112.8750    -8.9780     2.2410    60.6610    11.3560     9.4980    11.7520    24.3860 
  113.0000    -8.9600     2.2140    60.6950    12.3560    10.2750    12.6490    24.3920 
  113.1250    -8.9800     2.1940    60.7370    13.6550    11.1800    13.9870    24.4120 
  113.2500    -9.0240     2.1870    59.3350    15.7360    12.5450    15.2870    24.4740 
  113.3750    -9.0960     2.1900    57.3400    19.1210    14.7670    18.5670    24.6030 
  113.5000    -9.2160     2.1940    55.5710    24.2510    18.2390    27.8980    24.7980 
  113.6250    -9.3860     2.1890    54.1130    31.5900    23.4910    37.6760    25.0520 
  113.7500    -9.5700     2.1740    51.0050    40.2800    30.0480    51.1690    25.3270 
  113.8750    -9.8050     2.1580    46.8720    49.0130    36.9950    63.9770    25.5970 
  114.0000   -10.0590     2.1490    45.3080    56.0530    42.9530    74.4950    25.8370 
  114.1250   -10.2710     2.1510    48.0400    59.6620    46.4430    79.7130    26.0110 
  114.2500   -10.5250     2.1560    49.9840    60.5460    47.8000    78.2280    26.1070 
  114.3750   -10.7940     2.1590    49.7410    59.5770    47.5860    74.7600    26.1300 
  114.5000   -10.9920     2.1600    49.0980    57.5140    46.3470    71.4170    26.1220 
  114.6250   -11.1020     2.1620    49.4050    54.8460    44.4810    71.4340    26.0950 
  114.7500   -11.2300     2.1690    50.7740    52.1050    42.4820    70.4610    26.0340 
  114.8750   -11.3080     2.1810    54.0260    49.7090    40.7010    62.3160    25.9450 
  115.0000   -11.3040     2.1980    58.7330    48.0930    39.4790    52.0060    25.8280 
  115.1250   -11.2990     2.2150    61.0960    47.7450    39.2060    48.7670    25.6700 
  115.2500   -11.2610     2.2260    60.0480    48.4610    39.7680    49.5830    25.4720 
  115.3750   -11.1950     2.2260    57.5430    49.9490    40.9800    52.2170    25.2500 
  115.5000   -11.1390     2.2150    54.7400    51.7560    42.5160    55.2790    25.0190 
  115.6250   -11.1130     2.1970    52.5100    53.3640    43.9540    58.7700    24.7990 
  115.7500   -11.0600     2.1750    50.7280    54.6910    45.1350    58.2890    24.6090 
  115.8750   -11.0060     2.1510    49.9100    56.1810    46.3170    54.7980    24.4490 
  116.0000   -11.0170     2.1410    50.8440    58.5370    48.0160    53.5220    24.3280 
  116.1250   -11.0720     2.1730    53.5380    62.5850    50.9100    53.2250    24.2610 
  116.2500   -11.1360     2.2480    55.2100    68.0990    54.9720    52.9190    24.2150 
  116.3750   -11.2090     2.3370    54.2010    74.3720    59.8320    57.3720    24.1430 
  116.5000   -11.2980     2.3810    52.4890    79.8700    64.4860    75.4040    24.0240 
  116.6250   -11.3850     2.3480    52.2220    81.5970    66.7610    96.6860    23.8650 
  116.7500   -11.4530     2.2760    52.5040    78.4830    65.4940    81.5650    23.7410 
  116.8750   -11.5220     2.2070    53.5150    71.1430    60.7140    56.2430    23.7120 
  117.0000   -11.5720     2.1660    55.0030    61.6540    53.7320    43.6810    23.7940 
  117.1250   -11.6000     2.1550    55.2170    52.5200    46.5070    41.0600    23.9780 
  117.2500   -11.6000     2.1540    55.0120    45.0010    40.3870    41.1630    24.2220 
  117.3750   -11.5680     2.1530    55.9160    39.1940    35.6120    41.6470    24.4960 
