~V
VERS. 2.00: Ver 2.00
~W
STRT.M 52.0000:
STOP.M 239.0000:
STEP.M 0.1250:
NULL. -999.2500:
UWI. F10645:
~C
DEPT.M :
SP.MV :
GR.API :
RML.OHMM :
RI. :
RXO.OHMM :
CALI.CM :
DEN.GM/CC :
~A
# ...
  232.0000   -21.7660    84.5950     4.9890     4.4660     4.1630    24.8380     2.2880 
  232.1250   -20.6910    84.5950     4.5210     4.0500     3.8270    24.9010     2.2680 
  232.2500   -19.7410    84.5950     4.2300     3.8190     3.7490    24.9900     2.2650 
  232.3750   -18.9010    84.5950     4.0600     3.6860     3.9900    24.9820     2.2820 
  232.5000   -18.1610    84.5950     3.9840     3.6090     4.8070    24.7920     2.3110 
  232.6250   -17.5740    84.5950     3.9760     3.5660     6.1330    24.5960     2.3410 
  232.7500   -17.1200    84.5950     4.0010     3.5540     6.3440    24.6140     2.3570 
  232.8750   -16.7600    84.5950     4.0230     3.5630     5.2610    24.7310     2.3580 
  233.0000   -16.5150    84.5950     4.0350     3.5800     4.3170    24.7960     2.3480 
  233.1250   -16.3370    84.5950     4.0450     3.5950     3.9660    24.8000     2.3370 
  233.2500   -16.1930    84.5950     4.0560     3.5940     3.9610    24.7960     2.3300 
  233.3750   -16.1310    84.5950     4.0670     3.5810     3.9170    24.8120     2.3250 
  233.5000   -16.1510    84.5950     4.0750     3.5630     3.8820    24.8800     2.3200 
  233.6250   -16.1560    84.5950     4.0830     3.5530     3.8030    24.9880     2.3200 
  233.7500   -16.1520    84.5950     4.0960     3.5620     3.7280    25.0100     2.3320 
  233.8750   -16.1690    84.5950     4.1110     3.5810     3.8400    25.0310     2.3470 
  234.0000   -16.1640    84.5950     4.1300     3.5950     3.7850    25.0780     2.3500 
  234.1250   -16.1520    84.5950     4.1440     3.5890     3.4860    25.0090     2.3350 
  234.2500   -16.1280    84.5950     4.1490     3.5610     3.2810    24.7700     2.3080 
  234.3750   -16.0650    84.5950     4.1480     3.5370     3.1240    24.5340     2.2910 
  234.5000   -15.9730    84.5950     4.1440     3.5370     2.9870    24.4680     2.2930 
  234.6250   -15.9160    84.5950     4.1390     3.5620     2.9280    24.4970     2.3080 
  234.7500   -15.8880    84.5950     4.1390     3.5620     2.9830    24.5420     2.3220 
  234.8750   -15.7830    84.5950     4.1390     3.5620     3.0350    24.6000     2.3270 
  235.0000   -15.6230    84.5950     4.1390     3.5620     3.0080    24.6510     2.3250 
  235.1250   -15.4910    84.5950     4.1390     3.5620     2.9750    24.6660     2.3170 
  235.2500   -15.3870    84.5950     4.1390     3.5620     3.0090    24.6620     2.3020 
  235.3750   -15.3400    84.5950     4.1390     3.5620     3.0410    24.6500     2.2840 
  235.5000   -15.3140    84.5950     4.1390     3.5620     3.0520    24.6380     2.2670 
  235.6250   -15.2580    84.5950     4.1390     3.5620     3.0660    24.6300     2.2560 
  235.7500   -15.1990    84.5950     4.1390     3.5620     3.0780    24.6320     2.2540 
  235.8750   -15.1860    84.5950     4.1390     3.5620     3.1330    24.6560     2.2640 
  236.0000   -15.2060    84.5950     4.1390     3.5620     3.2230    24.6650     2.2910 
  236.1250  -999.2500    84.5950     4.1390     3.5620     3.4280    24.6630     2.3400 
  236.2500  -999.2500    84.5950     4.1390     3.5620     3.8480    24.6490     2.3980 
  236.3750  -999.2500    84.5950     4.1390     3.5620     4.9020    24.6500     2.4270 
  236.5000  -999.2500    84.5950     4.1390     3.5620     4.1160    24.7450     2.4070 
  236.6250  -999.2500    84.5950     4.1390     3.5620     3.4180    24.8440     2.3460 
  236.7500  -999.2500    84.5950     4.1390     3.5620     3.2090    24.8300     2.2720 
  236.8750  -999.2500    84.5950     4.1390     3.5620     3.3060    24.4470     2.2050 
  237.0000  -999.2500    84.5950     4.1390     3.5620     3.1670    22.4150     2.1460 
  237.1250  -999.2500    84.5950     4.1390     3.5620     2.6600    18.6900     2.0900 
  237.2500  -999.2500    84.5950     4.1390     3.5620     2.3280    15.7000     2.0350 
  237.3750  -999.2500    84.5950     4.1390     3.5620     2.2330    14.5700     1.9880 
  237.5000  -999.2500    84.5950     4.1390     3.5620     2.2330    14.5540     1.9550 
  237.6250  -999.2500    84.5950     4.1390     3.5620     2.2330    14.5540     1.9380 
  237.7500  -999.2500    84.5950     4.1390     3.5620     2.2280    14.5540     1.9330 
  237.8750  -999.2500    84.5950     4.1390     3.5620     2.2160    14.5540     1.9300 
  238.0000  -999.2500    84.5950     4.1390     3.5620     2.2060    14.5540     1.9260 
  238.1250  -999.2500    84.5950     4.1390     3.5620     2.2030    14.5540     1.9210 
  238.2500  -999.2500    84.5950     4.1390     3.5620     2.2030    14.5540     1.9180 
  238.3750  -999.2500    84.5950     4.1390     3.5620     2.2030    14.5540     1.9160 
  238.5000  -999.2500    84.5950     4.1390     3.5620     2.2050    14.5540     1.9190 
  238.6250  -999.2500    84.5950     4.1390     3.5620     2.2090    14.5540     1.9250 
  238.7500  -999.2500    84.5950     4.1390     3.5620     2.2160    14.5540     1.9320 
  238.8750  -999.2500    84.5950     4.1390     3.5620     2.2230    14.5540     1.9350 
  239.0000  -999.2500    84.5950     4.1390     3.5620     2.2290    14.5540     1.9330 
