~V
VERS. 2.00: Ver 2.00
~W
STRT.M 57.0000:
STOP.M 242.0000:
STEP.M 0.1250:
NULL. -999.2500:
UWI. F10636:
~C
DEPT.M :
GR.API :
RML.OHMM :
RI. :
RXO.OHMM :
CALI.CM :
DEN.GM/CC :
SP.MV :
~A
# ...
  113.2500   102.7020     7.4330     6.6560     7.0390    24.1550     2.1850   -18.3380 
  113.3750   100.9320     6.6160     5.8120     5.9660    24.1730     2.2160   -17.5650 
  113.5000    98.5030     6.1000     5.2180     5.5870    24.2210     2.2600   -16.9320 
  113.6250    96.1930     6.0040     4.9730     5.5870    24.2480     2.3070   -16.5100 
  113.7500    90.5610     6.2750     5.0150     5.7130    24.2490     2.3450   -16.2900 
  113.8750    80.9380     6.8860     5.3160     6.0350    24.2190     2.3640   -16.2980 
  114.0000    71.0040     7.7700     5.8460     6.8940    24.1400     2.3590   -16.5380 
  114.1250    66.2450     8.8030     6.5750     8.4570    24.0090     2.3260   -16.9770 
  114.2500    65.7870     9.7560     7.3570     9.5140    23.9360     2.2800   -17.4820 
  114.3750    65.9280    10.4450     8.0400     9.6790    23.9530     2.2330   -17.9830 
  114.5000    64.7460    10.7510     8.4820     9.5220    24.0160     2.1980   -18.4330 
  114.6250    63.6560    10.6350     8.5850     9.3790    24.0800     2.1830   -18.7870 
  114.7500    65.0730    10.3210     8.4780     9.6500    24.1410     2.1810   -19.0440 
  114.8750    67.5510     9.9910     8.2880    10.1250    24.2000     2.1880   -19.1870 
  115.0000    68.5280     9.7670     8.1140    10.0270    24.2420     2.1960   -19.2160 
  115.1250    68.6450     9.6850     8.0000     9.5170    24.2360     2.2010   -19.1800 
  115.2500    68.7980     9.6530     7.9240     9.3070    24.1950     2.1990   -19.1470 
  115.3750    69.0490     9.6130     7.8780     9.6090    24.1600     2.1920   -19.1420 
  115.5000    69.4210     9.5550     7.8780    10.1670    24.1680     2.1830   -19.1390 
  115.6250    70.3380     9.5190     7.9740    10.5320    24.2210     2.1760   -19.1350 
  115.7500    70.0910     9.5420     8.1660    10.5130    24.2630     2.1710   -19.1280 
  115.8750    67.4730     9.6480     8.4250    10.2570    24.2660     2.1680   -19.1120 
  116.0000    65.0970     9.8630     8.7080    10.0230    24.2360     2.1650   -19.0740 
  116.1250    65.3880    10.1830     8.9590     9.9500    24.2060     2.1610   -18.9730 
  116.2500    67.0240    10.4530     9.1230    10.0470    24.1820     2.1580   -18.7790 
  116.3750    68.5310    10.4490     9.1070    10.2420    24.1500     2.1580   -18.4810 
  116.5000    71.2870     9.9710     8.8060    10.3850    24.0990     2.1640   -18.1000 
  116.6250    77.8480     8.9620     8.1170    10.4120    23.9760     2.1710   -17.6250 
  116.7500    86.8220     7.7960     7.2040     9.4000    23.6920     2.1670   -17.0760 
  116.8750    92.4460     6.8020     6.2830     7.5820    23.2260     2.1410   -16.4950 
  117.0000    90.6960     6.2050     5.5780     5.8950    22.7180     2.0970   -15.9420 
  117.1250    84.2770     6.1840     5.3210     5.7550    22.4870     2.0550   -15.5010 
  117.2500    78.8970     6.6360     5.4990     6.9180    22.2900     2.0370   -15.1800 
  117.3750    76.4540     7.4460     6.0460     8.4710    22.1160     2.0440   -14.9360 
  117.5000    76.5430     8.3710     6.7910     9.2610    22.0240     2.0620   -14.7300 
  117.6250    79.5890     9.0080     7.4410     9.1710    22.0530     2.0700   -14.5470 
  117.7500    85.2860     9.1880     7.8010     9.0470    22.1440     2.0680   -14.3890 
  117.8750    89.8770     9.0080     7.8630     8.7700    22.2550     2.0740   -14.2350 
  118.0000    90.3750     8.7160     7.7570     8.3570    22.3480     2.1050   -14.0540 
  118.1250    86.8990     8.5380     7.6390     8.2490    22.3850     2.1670   -13.8000 
  118.2500    83.4410     8.4890     7.5780     8.5070    22.3990     2.2400   -13.4700 
  118.3750    82.1000     8.4960     7.5530     9.4430    22.4480     2.3030   -13.1070 
  118.5000    83.5930     8.4640     7.5160     9.8700    22.5980     2.3390   -12.7690 
  118.6250    89.3040     8.3100     7.4140     9.2750    22.9100     2.3390   -12.4730 
  118.7500    93.9650     8.0620     7.2450     7.8970    23.1450     2.3210   -12.2120 
  118.8750    95.4300     7.7840     7.0210     7.2580    23.3310     2.2980   -11.9730 
  119.0000    95.0880     7.5410     6.7760     7.1370    23.5030     2.2820   -11.7460 
  119.1250    94.0600     7.3750     6.5680     7.1820    23.6660     2.2810   -11.5210 
  119.2500    93.5260     7.2550     6.4360     7.1220    23.8010     2.2860   -11.3010 
  119.3750    94.7310     7.1680     6.3920     6.9350    23.8950     2.2920   -11.1010 
  119.5000    96.5940     7.1390     6.4270     6.8550    23.9460     2.2940   -10.9180 
  119.6250    95.1750     7.2500     6.5410     6.9160    23.9700     2.2940   -10.7660 
  119.7500    92.7800     7.5170     6.7130     7.0250    23.9950     2.2900   -10.6450 
  119.8750    92.0290     7.9140     6.9410     7.4010    24.0370     2.2830   -10.5530 
  120.0000    92.3260     8.3570     7.2020     8.6730    24.0900     2.2690   -10.4940 
  120.1250    92.8190     8.6850     7.4190    10.5530    24.1270     2.2510   -10.4480 
  120.2500    94.9250     8.7650     7.4940    10.7730    24.1250     2.2360   -10.4030 
  120.3750    97.1440     8.5370     7.3610     9.2610    24.0900     2.2310   -10.3440 
  120.5000    97.3160     8.0770     7.0460     8.1570    24.0550     2.2410   -10.2630 
  120.6250    95.8330     7.6220     6.6940     8.0320    24.0620     2.2630   -10.1700 
  120.7500    93.4200     7.4250     6.5060     7.7110    24.1060     2.2870   -10.0740 
  120.8750    88.4020     7.6130     6.6160     7.4520    24.1680     2.3060    -9.9870 
  121.0000    81.0600     8.2200     7.0830     7.6510    24.2300     2.3100    -9.9040 
  121.1250    76.4510     9.2800     7.9540     9.2050    24.2910     2.2950    -9.8470 
  121.2500    75.6040    10.6220     9.0840    11.5070    24.3530     2.2670    -9.8130 
  121.3750    75.7360    12.0180    10.3150    13.2470    24.4110     2.2340    -9.7910 
  121.5000    74.9360    13.1090    11.3960    14.1860    24.4500     2.2050    -9.7890 
  121.6250    74.4920    13.4260    11.9680    15.9840    24.4720     2.1870    -9.8070 
  121.7500    74.8280    13.0810    12.0160    15.5810    24.4860     2.1810    -9.8380 
  121.8750    74.5280    12.4250    11.7320    13.9540    24.4620     2.1860    -9.8640 
  122.0000    73.1940    11.8920    11.4340    11.8600    24.3490     2.1960    -9.8810 
  122.1250    72.0740    11.8570    11.4530    11.1910    24.1470     2.2020    -9.8710 
  122.2500    72.0130    12.2660    11.8080    12.5300    24.0080     2.1970    -9.8480 
  122.3750    71.6270    12.9280    12.3600    16.0750    24.0580     2.1850    -9.8300 
  122.5000    70.8560    13.5500    12.8680    19.0360    24.2860     2.1740    -9.8150 
  122.6250    71.3870    13.7780    13.0480    17.9820    24.5210     2.1760    -9.7920 
  122.7500    73.4810    13.5960    12.9010    14.8560    24.6170     2.1880    -9.7700 
  122.8750    75.3660    13.1560    12.5590    12.9670    24.5870     2.1980    -9.7470 
  123.0000    74.9750    12.6540    12.1800    15.0900    24.5160     2.1990    -9.7240 
  123.1250    71.4860    12.2110    11.8420    14.6720    24.4580     2.2010    -9.7090 
  123.2500    70.0350    11.8300    11.5280    12.7580    24.3790     2.2250    -9.6880 
  123.3750    72.1440    11.5370    11.2470    13.7290    24.2600     2.2760    -9.6490 
  123.5000    74.4060    11.4260    11.0920    17.1830    24.1410     2.3390    -9.5910 
  123.6250    72.0410    11.7470    11.3050    16.3580    24.0930     2.3750    -9.5090 
  123.7500    67.6250    12.6430    12.0450    13.0340    24.1090     2.3660    -9.3870 
  123.8750    63.5370    14.2860    13.4310    14.8850    24.1760     2.3180    -9.2330 
  124.0000    59.1850    16.7140    15.4590    20.6530    24.2940     2.2510    -9.0730 
  124.1250    55.9870    19.6010    17.8620    23.7690    24.4460     2.1920    -8.9180 
  124.2500    55.8430    21.5970    19.8390    24.8410    24.5720     2.1510    -8.7990 
  124.3750    58.9060    21.8460    20.5890    25.0800    24.6500     2.1280    -8.7300 
