~V
VERS. 2.00: Ver 2.00
~W
STRT.M 52.0000:
STOP.M 238.0000:
STEP.M 0.1250:
NULL. -999.2500:
UWI. F10653:
~C
DEPT.M :
GR.API :
RML.OHMM :
RI. :
RXO.OHMM :
CALI.CM :
DEN.GM/CC :
SP.MV :
~A
# ...
  220.7500    80.6470     9.7170     8.7170    11.1430    24.0240     2.3100   -17.9010 
  220.8750    77.3880     9.2690     8.2690     9.8170    23.9210     2.3120   -17.9210 
  221.0000    76.3340     8.8780     7.8780     8.9660    23.7590     2.3020   -17.9200 
  221.1250    79.0280     8.6480     7.6480     9.4540    23.7340     2.2880   -17.9380 
  221.2500    82.1180     8.5240     7.5240     9.9580    23.7710     2.2820   -17.8610 
  221.3750    84.0980     8.4140     7.4140     9.9400    23.7420     2.2870   -17.6920 
  221.5000    85.4070     8.2230     7.2230     9.6960    23.6780     2.2980   -17.5020 
  221.6250    82.7890     7.9180     6.9180     9.3000    23.5860     2.3040   -17.3090 
  221.7500    76.1430     7.5760     6.5760     8.6250    23.5670     2.2980   -17.1770 
  221.8750    70.1950     7.3210     6.3210     7.6140    23.7260     2.2780   -17.1730 
  222.0000    69.7570     7.2620     6.2620     7.0460    23.8620     2.2480   -17.2720 
  222.1250    71.7880     7.4830     6.4830     7.5150    23.8910     2.2230   -17.4150 
  222.2500    70.6950     7.9460     6.9460     8.3440    23.8710     2.2210   -17.6580 
  222.3750    67.7350     8.5840     7.5840     8.9360    23.8810     2.2500   -18.0070 
  222.5000    66.1440     9.2860     8.2860     9.4220    23.8010     2.3000   -18.4220 
  222.6250    67.6640     9.8500     8.8500    10.7900    23.6740     2.3440   -18.8900 
  222.7500    72.0500    10.1360     9.1360    11.9050    23.7080     2.3610   -19.2900 
  222.8750    78.3190    10.1210     9.1210    11.9600    23.8710     2.3470   -19.5210 
  223.0000    82.7280     9.8460     8.8460    11.0820    23.9730     2.3160   -19.5850 
  223.1250    82.4450     9.4220     8.4220    10.1530    23.9730     2.2860   -19.5060 
  223.2500    81.0140     9.0640     8.0640    10.0060    23.9440     2.2690   -19.3200 
  223.3750    80.0530     8.9770     7.9770    10.4660    23.9360     2.2630   -19.0160 
  223.5000    78.8860     9.4470     8.4470    11.0770    23.9440     2.2660   -18.6290 
  223.6250    78.2310    11.0000    10.0000    11.5880    23.9460     2.2780   -18.1790 
  223.7500    76.8240    13.8840    12.8840    13.0660    23.6900     2.3040   -17.6540 
  223.8750    73.6540    18.3480    17.3480    17.4170    22.9750     2.3490   -17.0910 
  224.0000    71.4470    24.1010    23.1010    26.3460    22.1260     2.4140   -16.5560 
  224.1250    72.6540    28.8890    27.8890    37.2420    21.7660     2.4870   -16.0560 
  224.2500    73.9720    29.3020    28.3020    42.2760    21.7850     2.5390   -15.6020 
  224.3750    73.0710    24.8700    23.8700    34.6130    21.8370     2.5480   -15.2080 
  224.5000    72.4750    18.6740    17.6740    20.4350    21.8020     2.5150   -14.8190 
  224.6250    74.9580    13.8100    12.8100    12.7770    21.7160     2.4570   -14.4340 
  224.7500    76.2340    10.6670     9.6670     9.4260    21.6280     2.4010   -14.0850 
  224.8750    75.2180     8.8320     7.8320     8.3030    21.4310     2.3600   -13.7820 
  225.0000    74.3430     7.8660     6.8660     7.8510    21.2490     2.3350   -13.4970 
  225.1250    76.4990     7.5270     6.5270     7.2400    21.1480     2.3240   -13.2510 
  225.2500    78.1920     7.4820     6.4820     6.7590    21.0880     2.3170   -13.0810 
  225.3750    77.7430     7.5940     6.5940     6.7320    21.1130     2.3110   -12.9840 
  225.5000    77.4600     7.7520     6.7520     7.1000    21.3690     2.3010   -12.9690 
  225.6250    78.3450     7.8850     6.8850     7.6270    21.8900     2.2880   -13.0020 
  225.7500    77.8190     8.0030     7.0030     8.1640    22.4130     2.2730   -13.0370 
  225.8750    75.3080     8.1130     7.1130     8.4870    22.7980     2.2610   -13.0730 
  226.0000    73.5100     8.2470     7.2470     8.4510    23.0460     2.2540   -13.1240 
  226.1250    74.5320     8.3930     7.3930     8.4450    23.1360     2.2540   -13.1460 
  226.2500    76.1210     8.4680     7.4680     9.0130    23.1450     2.2570   -13.0670 
  226.3750    76.4770     8.4070     7.4070     9.3480    23.1270     2.2600   -12.8970 
  226.5000    75.3800     8.1360     7.1360     9.2340    23.0950     2.2610   -12.6510 
  226.6250    74.1620     7.6390     6.6390     8.7940    23.1300     2.2610   -12.3950 
  226.7500    75.2450     7.0710     6.0710     7.8670    23.1510     2.2620   -12.2370 
  226.8750    77.2270     6.5750     5.5750     7.1070    23.1630     2.2680   -12.1890 
  227.0000    76.5260     6.3120     5.3120     6.7230    23.1690     2.2800   -12.2080 
  227.1250    73.0020     6.4090     5.4090     6.6130    23.1690     2.2990   -12.3410 
  227.2500    71.3790     6.7850     5.7850     6.7090    23.1790     2.3180   -12.5290 
  227.3750    71.3790     7.3290     6.3290     7.1550    23.2010     2.3300   -12.7310 
  227.5000    71.3790     7.8310     6.8310     7.9620    23.2150     2.3300   -12.9550 
  227.6250    71.3790     8.0270     7.0270     8.7210    23.2400     2.3190   -13.1130 
  227.7500    71.3790     7.9130     6.9130     8.6650    23.2650     2.3070   -13.1030 
  227.8750    71.3790     7.6050     6.6050     8.0390    23.2690     2.3030   -12.9000 
  228.0000    71.3790     7.2560     6.2560     7.4790    23.2280     2.3130   -12.5480 
  228.1250    71.3790     6.9860     5.9860     7.1520    23.2070     2.3340   -12.0840 
  228.2500    71.3790     6.8540     5.8540     7.0800    23.1610     2.3500   -11.5980 
  228.3750    71.3790     6.8660     5.8660     7.3080    23.0870     2.3510   -11.1070 
  228.5000    71.3790     6.9650     5.9650     7.5570    22.9840     2.3400   -10.5980 
  228.6250    71.3790     7.0290     6.0290     7.5560    22.9390     2.3260   -10.1440 
  228.7500    71.3790     6.9750     5.9750     7.3100    22.9180     2.3180    -9.8330 
  228.8750    71.3790     6.8520     5.8520     7.0070    22.8960     2.3190    -9.7010 
  229.0000    71.3790     6.8300     5.8300     6.8670    22.8650     2.3230    -9.6970 
  229.1250    71.3790     7.1070     6.1070     7.0540    22.8410     2.3250    -9.7920 
  229.2500    71.3790     7.5880     6.5880     7.3530    22.8110     2.3250    -9.9580 
  229.3750    71.3790     8.0810     7.0810     8.0040    22.7830     2.3280   -10.1740 
  229.5000    71.3790     8.4020     7.4020     8.8960    22.7700     2.3340   -10.4080 
  229.6250    71.3790     8.4060     7.4060     8.5460    22.7680     2.3410   -10.6110 
  229.7500    71.3790     8.1740     7.1740     7.8450    22.7660     2.3440   -10.7750 
  229.8750    71.3790     7.8200     6.8200     7.2630    22.7680     2.3390   -10.9390 
  230.0000    71.3790     7.4610     6.4610     7.0340    22.7720     2.3320   -11.1120 
  230.1250    71.3790     7.2170     6.2170     7.2890    22.7720     2.3340   -11.2360 
  230.2500    71.3790     7.1540     6.1540     7.5500    22.7710     2.3440   -11.2450 
  230.3750    71.3790     7.2690     6.2690     7.7080    22.7690     2.3560   -11.1840 
  230.5000    71.3790     7.4890     6.4890     7.6360    22.7670     2.3600   -11.1390 
  230.6250    71.3790     7.6950     6.6950     7.4240    22.7660     2.3550   -11.1430 
  230.7500    71.3790     7.8300     6.8300     7.2690    22.7710     2.3490   -11.1370 
  230.8750    71.3790     7.9270     6.9270     7.9860    22.7880     2.3490   -11.0220 
  231.0000    71.3790     8.0200     7.0200     9.1220    22.8060     2.3550   -10.7820 
  231.1250    71.3790     8.1390     7.1390     9.1090    22.7930     2.3630   -10.4660 
  231.2500    71.3790     8.2770     7.2770     8.9790    22.7870     2.3630   -10.1850 
  231.3750    71.3790     8.3770     7.3770     9.7150    22.7960     2.3540    -9.8760 
  231.5000    71.3790     8.4160     7.4160     9.8690    22.8270     2.3380    -9.4660 
  231.6250    71.3790     8.4090     7.4090     9.4150    22.8170     2.3280    -8.9740 
  231.7500    71.3790     8.3820     7.3820     9.5570    22.7530     2.3400    -8.4690 
  231.8750    71.3790     8.3330     7.3330    12.1310    22.6670     2.3790    -7.9920 
