~V
VERS. 2.00: Ver 2.00
~W
STRT.M 50.0000:
STOP.M 209.0000:
STEP.M 0.1250:
NULL. -999.2500:
UWI. F10692:
~C
DEPT.M :
DEN.GM/CC :
GR.API :
RML.OHMM :
RI. :
RXO.OHMM :
CALI.CM :
SP.MV :
~A
   50.0000  -999.2500    30.9990    12.3130     1.3480    -1.3340    25.8670  -999.2500 
   50.1250  -999.2500    29.6050    12.6390     1.3400    -1.3140    25.8670  -999.2500 
   50.2500  -999.2500    30.4080    13.1440     1.3510    -1.1870    25.8670  -999.2500 
   50.3750  -999.2500    32.1110    13.5700     1.3730    -0.9740    25.8670  -999.2500 
   50.5000     0.0000    32.4740    13.7030     1.3950    -0.7940    25.8670    19.0250 
   50.6250     0.0000    32.4780    13.5190     1.4080    -0.8280    25.8670    19.0250 
   50.7500     0.0000    33.9360    13.3070     1.4120    -1.0190    25.8670    19.1610 
   50.8750     0.0000    36.4100    13.2390     1.4150    -1.2340    25.8670    19.6520 
   51.0000     0.0000    38.7040    13.3420     1.4190    -1.3570    25.8670    20.3820 
   51.1250     0.5320    38.0940    13.4660     1.4260    -1.3720    25.8670    21.2350 
   51.2500     2.1520    35.7950    13.4180     1.4310    -1.3300    25.8670    22.0730 
   51.3750     2.2230    34.5860    13.1560     1.4290    -1.2170    25.8670    22.8300 
   51.5000     2.3060    35.3810    12.7830     1.4160    -0.9940    25.8670    23.4800 
   51.6250     2.3920    35.3070    12.4750     1.3910    -0.8110    25.8670    24.0400 
   51.7500     2.4730    33.2250    12.2680     1.3590    -0.8090    25.8670    24.6050 
   51.8750     2.5360    31.0980    12.1110     1.3300    -0.9510    25.8670    25.2630 
   52.0000     2.5720    29.9120    11.9720     1.3130    -1.1340    25.8670    26.0710 
   52.1250     2.5770    28.7620    11.8990     1.3170    -1.2190    25.8670    27.0490 
   52.2500     2.5650    28.2030    11.9690     1.3370    -1.1210    25.8670    28.0920 
   52.3750     2.5520    29.6470    12.1860     1.3640    -0.9450    25.8670    29.0890 
   52.5000     2.5510    31.7720    12.4340     1.3890    -0.7450    25.8670    29.9450 
   52.6250     2.5660    32.4920    12.5080     1.4060    -0.6060    25.8670    30.5620 
   52.7500     2.5720    32.3520    12.4110     1.4200    -0.4760    25.8670    30.9530 
   52.8750     2.5550    32.7060    12.2760     1.4350    -0.3570    25.8670    31.1340 
   53.0000     2.5120    34.0630    12.1750     1.4470    -0.2440    25.8670    31.1490 
   53.1250     2.4480    35.6990    12.0380     1.4470    -0.1250    25.8670    31.0530 
   53.2500     2.3710    36.7330    11.7840     1.4320    -0.0200    25.8670    30.9370 
   53.3750     2.2830    37.0310    11.4030     1.3990    -0.0060    25.8670    30.8550 
   53.5000     2.1900    37.3070    10.9710     1.3570    -0.1210    25.8670    30.8360 
   53.6250     2.1110    37.5390    10.6670     1.3160    -0.2320    25.8670    30.8800 
   53.7500     2.0590    36.5300    10.5920     1.2870    -0.2930    25.8670    30.9580 
   53.8750     2.0320    33.9990    10.7470     1.2720    -0.4440    25.8670    31.0700 
   54.0000     2.0220    32.2030    11.0340     1.2680    -0.7490    25.8670    31.2290 
   54.1250     2.0110    33.4020    11.2650     1.2720    -1.0620    25.8670    31.4860 
   54.2500     1.9920    36.4700    11.3100     1.2780    -1.2950    25.8670    31.8520 
   54.3750     1.9700    39.0770    11.2020     1.2840    -1.4040    25.8670    32.3040 
   54.5000     1.9510    39.5940    11.0820     1.2960    -1.3900    25.8670    32.7860 
   54.6250     1.9340    38.4930    11.0870     1.3170    -1.2750    25.8670    33.2180 
   54.7500     1.9180    37.4330    11.1900     1.3410    -1.1930    25.8670    33.5420 
   54.8750     1.9090    36.2520    11.2850     1.3590    -1.2020    25.8670    33.7260 
   55.0000     1.9160    34.9150    11.2350     1.3640    -1.2820    25.8670    33.7690 
   55.1250     1.9400    33.8450    10.9260     1.3540    -1.3310    25.8670    33.6760 
   55.2500     1.9730    33.9960    10.4600     1.3400    -1.3380    25.8670    33.5000 
   55.3750     2.0050    35.1880     9.9280     1.3320    -1.3120    25.8670    33.2700 
   55.5000     2.0320    35.5940     9.4210     1.3330    -1.2700    25.8670    33.0170 
   55.6250     2.0540    34.8260     9.0940     1.3420    -1.2130    25.8670    32.7560 
   55.7500     2.0760    34.4550     8.9620     1.3530    -1.1660    25.8670    32.4870 
   55.8750     2.0950    35.3690     8.9310     1.3630    -1.1340    25.8670    32.1940 
   56.0000     2.1060    36.9830     8.8630     1.3720    -1.1080    25.8670    31.8440 
   56.1250     2.1040    37.2570     8.6650     1.3810    -1.0850    25.8670    31.3880 
   56.2500     2.0890    36.3410     8.4290     1.3980    -1.0790    25.8670    30.8450 
   56.3750     2.0680    34.7860     8.2690     1.4260    -1.0720    25.8670    30.2470 
   56.5000     2.0520    33.3080     8.2720     1.4670    -1.0520    25.8670    29.6440 
   56.6250     2.0660    32.8670     8.4490     1.5160    -0.9990    25.8670    29.1240 
   56.7500     2.1080    32.8150     8.6600     1.5620    -0.8880    25.8670    28.7600 
   56.8750     2.1730    31.6280     8.7880     1.5980    -0.7330    25.3470    28.6110 
   57.0000     2.2600    28.4760     8.7800     1.6170    -0.6680    25.0130    28.7110 
   57.1250     2.3720    26.8190     8.6490     1.6200    -0.7470    24.8030    29.1090 
   57.2500     2.4830    28.8960     8.4830     1.6190    -0.8220    24.5830    29.7300 
   57.3750     2.5650    31.6890     8.3350     1.6210    -0.7840    24.3780    30.5270 
   57.5000     2.6030    31.9700     8.2320     1.6320    -0.7380    24.2330    31.4430 
   57.6250     2.5940    30.6160     8.1720     1.6550    -0.7590    24.1570    32.4020 
   57.7500     2.5680    30.6340     8.1130     1.6870    -0.7340    24.1210    33.2800 
   57.8750     2.5420    32.6530     8.0270     1.7210    -0.6070    24.1320    33.9620 
   58.0000     2.5170    36.2500     7.9280     1.7500    -0.4280    24.1730    34.3370 
   58.1250     2.4860    39.3080     7.8670     1.7690    -0.3270    24.2680    34.2430 
   58.2500     2.4470    40.8400     7.8710     1.7800    -0.3960    24.4810    33.7360 
   58.3750     2.4100    41.4820     7.9180     1.7920    -0.5340    24.5930    32.9270 
   58.5000     2.3840    42.1830     7.9490     1.8150    -0.6300    24.7300    32.0200 
   58.6250     2.3740    42.4490     7.8860     1.8500    -0.5790    24.6970    31.3250 
   58.7500     2.3680    42.5090     7.7390     1.8840    -0.4110    24.4800    31.0490 
   58.8750     2.3580    43.4820     7.5460     1.9080    -0.2410    24.2360    31.3030 
   59.0000     2.3460    44.2730     7.3430     1.9140    -0.2020    24.1300    32.0720 
   59.1250     2.3400    42.6370     7.1580     1.9020    -0.3830    24.1780    33.2610 
   59.2500     2.3560    39.8450     7.0250     1.8830    -0.6150    24.3060    34.5790 
   59.3750     2.4000    37.9160     6.9770     1.8590    -0.7230    24.4500    35.7950 
   59.5000     2.4590    37.9800     6.9580     1.8160    -0.6650    24.5270    36.6900 
   59.6250     2.5030    40.3730     6.5200     1.6760    -0.4890    24.3720    36.9750 
   59.7500     2.5250    43.0880     5.2000     1.3760    -0.2340    23.9900    36.5830 
   59.8750     2.5380    44.5890     3.3490     0.9720    -0.0100    23.5070    35.4130 
   60.0000     2.5510    44.4680     1.8770     0.6250     0.0840    23.0860    33.3750 
   60.1250     2.5630    44.2950     1.1580     0.4410    -0.0120    22.7990    30.2540 
   60.2500     2.5530    46.1970     0.8480     0.3610    -0.0810    22.5730    26.2090 
   60.3750     2.4960    50.7440     0.7720     0.3490     0.1610    22.4600    21.3560 
   60.5000     2.4060    58.3110     0.8440     0.4040     0.9710    22.4670    15.9700 
   60.6250     2.3470    66.4400     1.0620     0.5930     2.3550    22.5410    10.5410 
   60.7500     2.3410    71.9350     1.4270     0.9870     3.4820    22.7030     5.5990 
   60.8750     2.3720    75.6060     1.9910     1.6960     4.0260    23.0080     1.4690 
   61.0000     2.4200    77.5680     2.8510     2.8730     4.1270    23.4260    -1.7450 
   61.1250     2.4800    74.5280     4.2900     4.9220     5.6720    23.8220    -4.0320 
