~V
VERS. 2.00: Ver 2.00
~W
STRT.M 57.0000:
STOP.M 242.0000:
STEP.M 0.1250:
NULL. -999.2500:
UWI. F10636:
~C
DEPT.M :
GR.API :
RML.OHMM :
RI. :
RXO.OHMM :
CALI.CM :
DEN.GM/CC :
SP.MV :
~A
# ...
   68.2500    70.7390     9.6900     7.8140     9.1510    23.1440     2.1430   -21.4870 
   68.3750    71.5840    12.4020     9.9860    10.2400    23.1560     2.1770   -21.7090 
   68.5000    69.9140    16.4030    13.4030    13.9470    23.2570     2.2780   -22.0260 
   68.6250    64.6780    21.3160    17.9240    22.7640    23.3680     2.4240   -22.4400 
   68.7500    58.6070    25.2990    22.0220    44.4920    23.4160     2.5540   -22.9330 
   68.8750    57.7620    26.4150    23.9550    64.2810    23.3990     2.6260   -23.4950 
   69.0000    63.9220    23.9880    22.8010    53.8360    23.3650     2.6190   -24.1220 
   69.1250    68.0880    19.3290    19.1650    28.6380    23.3720     2.5320   -24.8120 
   69.2500    65.5610    14.9840    15.2510    15.0570    23.4260     2.4140   -25.5360 
   69.3750    62.5100    11.9210    12.1030    10.6230    23.5200     2.3030   -26.2550 
   69.5000    64.3000    10.2030     9.9960     9.5380    23.6540     2.2250   -26.9380 
   69.6250    68.8200     9.6130     8.9070     9.5060    23.8260     2.1930   -27.4950 
   69.7500    71.2570     9.5750     8.4280     9.6250    23.9970     2.1860   -27.8940 
   69.8750    71.6220     9.7840     8.3410     9.5310    24.1430     2.1900   -28.1330 
   70.0000    70.3730    10.0150     8.4400     9.3220    24.2600     2.1940   -28.2280 
   70.1250    69.7260    10.1160     8.5470     9.1200    24.3370     2.1930   -28.1840 
   70.2500    69.8290    10.0930     8.5730     8.9280    24.3610     2.1890   -28.0490 
   70.3750    69.9350    10.0050     8.5270     8.7300    24.3310     2.1830   -27.8450 
   70.5000    70.3320     9.9230     8.4650     8.7340    24.2770     2.1790   -27.5950 
   70.6250    70.5980     9.8990     8.4540     8.9780    24.2610     2.1780   -27.3700 
   70.7500    69.5890     9.9070     8.4920     9.1780    24.3180     2.1800   -27.1910 
   70.8750    67.3250     9.9030     8.5320     9.1150    24.4280     2.1840   -27.0570 
   71.0000    67.3920     9.8610     8.5160     8.9030    24.5220     2.1870   -26.9570 
   71.1250    72.0110     9.7850     8.4030     8.7080    24.5130     2.1900   -26.8800 
   71.2500    74.9930     9.7120     8.2440     8.4390    24.3960     2.1910   -26.8150 
   71.3750    73.0430     9.6690     8.0980     8.1810    24.1760     2.1900   -26.7400 
   71.5000    68.4130     9.6710     8.0120     8.0410    23.8720     2.1870   -26.6540 
   71.6250    67.3680     9.7360     8.0180     8.2530    23.6100     2.1850   -26.5770 
   71.7500    68.1660     9.8570     8.0930     8.2650    23.5410     2.1870   -26.5150 
   71.8750    66.5740    10.0440     8.2370     8.1560    23.6600     2.1930   -26.4670 
   72.0000    64.0960    10.3010     8.4520     8.4020    23.8410     2.2020   -26.4550 
   72.1250    62.9350    10.6020     8.7330     8.9050    24.0070     2.2070   -26.4850 
   72.2500    62.1240    10.8520     9.0070     9.4860    24.1970     2.2060   -26.5320 
   72.3750    62.0500    10.9530     9.1880     9.9850    24.3800     2.2000   -26.5940 
   72.5000    65.0390    10.8470     9.2040     9.8870    24.4510     2.1910   -26.6470 
   72.6250    69.3330    10.5580     9.0210     9.6600    24.3840     2.1860   -26.6520 
   72.7500    69.7830    10.2540     8.7580     9.4570    24.3830     2.1860   -26.6230 
   72.8750    67.0410    10.0630     8.5390     9.0950    24.5670     2.1920   -26.5670 
   73.0000    65.4450    10.0790     8.4810     9.1020    24.8400     2.1990   -26.4600 
   73.1250    66.0700    10.4000     8.6980     9.3510    24.9530     2.2050   -26.3030 
   73.2500    65.6700    10.9960     9.1520     9.5570    24.8650     2.2140   -26.1500 
   73.3750    64.5830    11.7940     9.7740     9.8520    24.6620     2.2310   -26.0280 
   73.5000    64.1070    12.5920    10.4260    10.1930    24.3930     2.2570   -25.9800 
   73.6250    62.9560    12.9930    10.8560    10.5350    24.0420     2.2810   -26.0370 
   73.7500    62.5560    12.8430    10.9150    10.2080    23.6790     2.2890   -26.1790 
   73.8750    64.7750    12.2430    10.5860     9.7920    23.4030     2.2730   -26.3860 
   74.0000    67.9360    11.4910    10.0000     9.8280    23.2860     2.2420   -26.6540 
   74.1250    68.3740    10.9230     9.3860     9.5770    23.4120     2.2170   -26.9670 
   74.2500    68.5290    10.6250     8.9380     9.1770    23.7510     2.2090   -27.3110 
   74.3750    69.9760    10.5430     8.7250     9.0450    24.1950     2.2160   -27.6780 
   74.5000    70.0540    10.5660     8.7260     9.3580    24.5490     2.2260   -28.0410 
   74.6250    66.6920    10.5860     8.8620     9.5010    24.6550     2.2270   -28.3730 
   74.7500    63.9200    10.5440     8.9950     9.5000    24.6390     2.2210   -28.6560 
   74.8750    63.6780    10.4300     9.0510     9.6330    24.6230     2.2080   -28.8790 
   75.0000    64.2290    10.2710     9.0000     9.9190    24.6300     2.1930   -29.0450 
   75.1250    63.7680    10.1400     8.8610    10.1280    24.6140     2.1780   -29.1630 
   75.2500    63.4230    10.0790     8.7160    10.1700    24.5760     2.1670   -29.2290 
   75.3750    64.4470    10.0670     8.6130     9.9920    24.5400     2.1610   -29.2310 
   75.5000    65.9470    10.0500     8.5650     9.7060    24.5140     2.1630   -29.1690 
   75.6250    67.3310     9.9890     8.5450     9.6180    24.4860     2.1700   -29.0350 
   75.7500    67.9250     9.9060     8.5110     9.6090    24.4520     2.1750   -28.8620 
   75.8750    66.4770     9.8310     8.4530     9.6120    24.4200     2.1760   -28.6700 
   76.0000    63.3830     9.7830     8.3880     9.4820    24.4000     2.1710   -28.4700 
   76.1250    60.7820     9.7710     8.3560     9.2900    24.4010     2.1650   -28.2440 
   76.2500    60.1890     9.8010     8.3730     9.2470    24.4060     2.1590   -27.9670 
   76.3750    61.3810     9.8780     8.4290     9.2170    24.3870     2.1520   -27.6210 
   76.5000    63.0760     9.9900     8.4850     9.1460    24.3170     2.1430   -27.1960 
   76.6250    64.0290    10.0950     8.4790     9.0600    24.1860     2.1370   -26.6840 
   76.7500    64.4130    10.1440     8.3860     9.0320    24.0530     2.1370   -26.1020 
   76.8750    65.2910    10.1130     8.2200     9.1450    23.9980     2.1440   -25.4600 
   77.0000    66.6830    10.0040     8.0260     9.3180    24.0790     2.1550   -24.7690 
   77.1250    68.3590     9.8650     7.8870     9.2480    24.2560     2.1650   -24.0380 
   77.2500    69.0710     9.8150     7.8800     9.1260    24.3580     2.1670   -23.2970 
   77.3750    67.9450     9.9930     8.0610     9.1350    24.3000     2.1630   -22.5690 
   77.5000    64.7180    10.4860     8.4440     9.2260    24.1440     2.1590   -21.8600 
   77.6250    63.9360    11.2330     8.9580     9.4740    24.0480     2.1770   -21.1510 
   77.7500    70.4370    11.8590     9.3820    10.4790    24.0570     2.2260   -20.4270 
   77.8750    81.7750    11.9780     9.5010    13.2340    24.1030     2.2990   -19.7030 
   78.0000    91.6180    11.3700     9.1870    16.9820    24.1030     2.3730   -18.9940 
   78.1250    94.0920    10.1320     8.4570    12.5610    24.0200     2.4100   -18.3390 
   78.2500    91.7670     8.8450     7.6170     8.0240    23.9150     2.4010   -17.7560 
   78.3750    87.9340     7.8900     6.8900     6.7750    23.8370     2.3590   -17.2520 
   78.5000    84.2890     7.4600     6.4200     7.3580    23.8070     2.3090   -16.8360 
   78.6250    82.5080     7.6240     6.3150     8.1700    23.8070     2.2740   -16.5450 
   78.7500    82.0760     8.1070     6.4790     8.4040    23.8120     2.2580   -16.3550 
   78.8750    83.6450     8.6540     6.7990     8.5510    23.8430     2.2560   -16.2240 
   79.0000    87.3470     9.0370     7.1230     9.6620    23.9240     2.2630   -16.1180 
   79.1250    90.6840     9.0850     7.2740    11.8300    24.0040     2.2810   -16.0130 
   79.2500    92.2230     8.8740     7.2070    11.9220    23.9930     2.3050   -15.9090 
   79.3750    91.8660     8.5030     6.9510     8.5550    23.8770     2.3270   -15.8360 
