~V
VERS. 2.00: Ver 2.00
~W
STRT.M 58.0000:
STOP.M 244.0000:
STEP.M 0.1250:
NULL. -999.2500:
UWI. F10638:
~C
DEPT.M :
SP.MV :
GR.API :
RML.OHMM :
RI. :
RXO.OHMM :
CALI.CM :
DEN.GM/CC :
~A
# ...
  159.2500   -12.8010    51.0220    15.7730    13.5260    17.4520    24.6370     2.5010 
  159.3750   -12.6900    52.1850    15.6500    13.3540    16.7090    24.6370     2.5150 
  159.5000   -12.6410    52.5520    15.7970    13.4050    16.1880    24.6520     2.5220 
  159.6250   -12.6610    52.2830    16.2200    13.6810    16.1520    24.6620     2.5210 
  159.7500   -12.6900    51.4680    16.8540    14.1290    16.7610    24.6580     2.5130 
  159.8750   -12.6930    50.1870    17.5510    14.6410    18.7020    24.6380     2.5010 
  160.0000   -12.6920    49.2300    18.1210    15.0810    19.8700    24.6140     2.4900 
  160.1250   -12.6880    50.0970    18.4890    15.3980    19.4160    24.6120     2.4860 
  160.2500   -12.6640    52.7530    18.7040    15.6240    18.5450    24.6210     2.4870 
  160.3750   -12.6380    56.2800    18.9170    15.8450    18.8700    24.6100     2.4920 
  160.5000   -12.6090    58.1800    19.2550    16.1340    19.5580    24.5260     2.4950 
  160.6250   -12.5800    56.6130    19.7450    16.5160    19.9090    24.3760     2.4910 
  160.7500   -12.5600    52.9150    20.3390    16.9760    19.8280    24.2280     2.4790 
  160.8750   -12.5110    51.6220    20.9380    17.4740    19.2500    24.2140     2.4650 
  161.0000   -12.4220    53.1590    21.4330    17.9280    19.5370    24.2250     2.4550 
  161.1250   -12.3470    52.1320    21.7180    18.2440    20.5000    24.2680     2.4550 
  161.2500   -12.3450    47.5700    21.6580    18.2950    21.2930    24.3040     2.4640 
  161.3750   -12.3760    45.9120    21.0460    17.8950    20.8310    24.3050     2.4760 
  161.5000   -12.3750    48.9840    19.9980    17.1230    19.6080    24.2760     2.4800 
  161.6250   -12.3520    53.2460    18.7480    16.1510    17.8780    24.2400     2.4740 
  161.7500   -12.3510    55.4260    17.6240    15.2230    16.4710    24.2610     2.4590 
  161.8750   -12.4250    55.1910    16.9700    14.6010    16.3990    24.3840     2.4430 
  162.0000   -12.5390    54.1810    16.8040    14.3340    16.8870    24.4620     2.4340 
  162.1250   -12.6260    52.5010    17.0450    14.4040    17.6440    24.5410     2.4320 
  162.2500   -12.6430    49.3980    17.5400    14.7280    18.4020    24.6030     2.4350 
  162.3750   -12.6440    45.7020    18.1350    15.2080    18.6540    24.6180     2.4400 
  162.5000   -12.6790    44.4890    18.7450    15.7370    19.2130    24.6110     2.4480 
  162.6250   -12.7410    45.8220    19.3780    16.2930    20.0120    24.6020     2.4600 
  162.7500   -12.7820    46.4850    20.0430    16.8760    20.6910    24.5910     2.4780 
  162.8750   -12.7960    45.9230    20.6740    17.4530    21.1010    24.5830     2.4950 
  163.0000   -12.8210    47.1440    21.1510    17.9390    22.0290    24.5770     2.5050 
  163.1250   -12.8520    48.7010    21.3740    18.2380    23.1450    24.5520     2.5040 
  163.2500   -12.8790    48.3110    21.3300    18.3060    23.1400    24.4880     2.4940 
  163.3750   -12.9120    46.9820    21.0990    18.1630    21.6330    24.4560     2.4790 
  163.5000   -12.9270    47.9260    20.8440    17.9510    20.1380    24.4480     2.4670 
  163.6250   -12.9010    50.5140    20.6410    17.7530    19.3900    24.4270     2.4590 
  163.7500   -12.8410    51.9940    20.5050    17.6040    19.4440    24.4230     2.4530 
  163.8750   -12.7370    51.3590    20.3960    17.4880    20.5870    24.4560     2.4510 
  164.0000   -12.5940    50.2710    20.2310    17.3350    21.6990    24.5070     2.4500 
  164.1250   -12.4820    50.0630    19.9630    17.1020    21.5720    24.5250     2.4520 
  164.2500   -12.4320    50.2880    19.6010    16.7900    20.6050    24.5350     2.4570 
  164.3750   -12.3530    50.2270    19.2300    16.4690    19.6180    24.5330     2.4630 
  164.5000   -12.2570    49.4980    19.0010    16.2490    18.8260    24.4970     2.4700 
  164.6250   -12.2070    47.7300    19.0510    16.2310    18.5190    24.4610     2.4760 
  164.7500   -12.2290    46.5640    19.4510    16.4770    18.4890    24.4530     2.4840 
  164.8750   -12.3050    48.1100    20.1720    17.0030    19.1170    24.4760     2.4960 
  165.0000   -12.3840    50.4070    20.9500    17.6390    20.4600    24.5260     2.5060 
  165.1250   -12.4410    51.8280    21.5420    18.2130    22.4680    24.5580     2.5110 
  165.2500   -12.5030    51.6330    21.7860    18.5700    23.4530    24.5570     2.5070 
  165.3750   -12.6080    49.4720    21.6790    18.6310    22.3350    24.5320     2.4920 
  165.5000   -12.7070    46.4480    21.4990    18.5580    21.1860    24.5360     2.4750 
  165.6250   -12.7780    44.8410    21.4410    18.4990    20.9640    24.5570     2.4630 
  165.7500   -12.8500    43.9950    21.5940    18.5580    21.4400    24.5730     2.4600 
  165.8750   -12.9110    41.8110    21.9360    18.7880    22.3110    24.5690     2.4670 
  166.0000   -12.9500    41.3700    22.2730    19.0810    23.0300    24.5340     2.4800 
  166.1250   -12.9810    44.6970    22.4240    19.2920    22.9660    24.4680     2.4960 
  166.2500   -12.9960    49.1220    22.2720    19.2950    23.3940    24.4190     2.5090 
  166.3750   -13.0010    50.8070    21.7950    19.0190    23.7130    24.4030     2.5120 
  166.5000   -13.0160    52.3710    21.1900    18.5860    22.9950    24.4120     2.5030 
  166.6250   -13.0180    53.6860    20.6290    18.1260    21.3040    24.4040     2.4880 
  166.7500   -12.9700    52.3850    20.2530    17.7670    19.6680    24.3560     2.4740 
  166.8750   -12.9230    51.3880    20.1600    17.6220    19.4450    24.2900     2.4690 
  167.0000   -12.9240    53.7290    20.2520    17.6530    19.9220    24.2540     2.4690 
  167.1250   -12.9250    55.8780    20.4070    17.7850    20.8970    24.3310     2.4680 
  167.2500   -12.8720    53.9890    20.4900    17.9100    21.8390    24.4650     2.4650 
  167.3750   -12.7780    51.0280    20.3720    17.9110    23.2800    24.5500     2.4650 
  167.5000   -12.7100    51.1970    20.0860    17.7750    23.3390    24.5800     2.4740 
  167.6250   -12.6910    52.0230    19.7280    17.5540    21.9870    24.5960     2.4900 
  167.7500   -12.6880    51.7540    19.4190    17.3330    20.8650    24.6110     2.5100 
  167.8750   -12.6540    50.8680    19.2720    17.2050    20.4670    24.6280     2.5230 
  168.0000   -12.5870    49.9550    19.2880    17.1940    20.6520    24.6360     2.5230 
  168.1250   -12.5510    48.2030    19.4400    17.2890    20.5640    24.6200     2.5110 
  168.2500   -12.5950    47.1130    19.6610    17.4420    20.7100    24.6020     2.4930 
  168.3750   -12.6560    48.4440    19.8330    17.5580    21.3280    24.6100     2.4800 
  168.5000   -12.6960    50.3800    19.8500    17.5510    21.4940    24.6400     2.4770 
  168.6250   -12.7440    51.0340    19.6630    17.3790    21.4140    24.6540     2.4810 
  168.7500   -12.8140    51.2650    19.3050    17.0680    20.5530    24.6560     2.4840 
  168.8750   -12.8810    51.9600    18.9180    16.7190    19.8920    24.6510     2.4780 
  169.0000   -12.9570    52.0390    18.6860    16.4690    19.2340    24.6450     2.4650 
  169.1250   -13.0290    51.4330    18.6960    16.3870    19.1250    24.6490     2.4520 
  169.2500   -13.0760    51.0780    18.9300    16.4750    19.2010    24.6600     2.4430 
  169.3750   -13.1200    51.6650    19.2740    16.6790    20.0610    24.6700     2.4410 
  169.5000   -13.1640    51.8980    19.5560    16.8860    20.7130    24.6660     2.4450 
  169.6250   -13.1890    50.8320    19.6950    17.0320    20.9820    24.6810     2.4510 
  169.7500   -13.2210    49.5230    19.6920    17.0950    21.2460    24.7350     2.4570 
  169.8750   -13.2810    49.6600    19.5950    17.0720    21.2310    24.7880     2.4590 
  170.0000   -13.3460    50.7400    19.4760    16.9950    21.6880    24.7890     2.4590 
  170.1250   -13.4160    50.7930    19.3380    16.8710    21.5110    24.7430     2.4570 
  170.2500   -13.5190    51.9970    19.1580    16.6960    21.1900    24.6850     2.4530 
  170.3750   -13.6990    56.0620    18.9050    16.4580    20.4520    24.6290     2.4500 
