~V
VERS. 2.00: Ver 2.00
~W
STRT.M 55.0000:
STOP.M 242.0000:
STEP.M 0.1250:
NULL. -999.2500:
UWI. F10652:
~C
DEPT.M :
SP.MV :
GR.API :
RML.OHMM :
RI. :
RXO.OHMM :
CALI.CM :
DEN.GM/CC :
~A
# ...
  156.2500    -2.4080    51.5750    14.3000    12.9400    13.6010    24.0790     2.4390 
  156.3750    -2.3090    52.2410    14.4890    13.1120    14.0700    24.0180     2.4450 
  156.5000    -2.2770    52.1770    14.6260    13.2140    13.8310    23.9710     2.4530 
  156.6250    -2.2520    52.9630    14.6880    13.2240    13.4680    23.9350     2.4610 
  156.7500    -2.2920    53.4100    14.6820    13.1720    13.9670    23.8660     2.4690 
  156.8750    -2.3410    51.9970    14.6530    13.1020    14.5520    23.7880     2.4740 
  157.0000    -2.4350    50.8720    14.6870    13.0790    14.0670    23.7810     2.4760 
  157.1250    -2.5340    52.3770    14.9470    13.2220    13.2930    23.8280     2.4760 
  157.2500    -2.6520    53.8630    15.5090    13.5960    13.7300    23.8470     2.4760 
  157.3750    -2.7740    53.8290    16.3900    14.2370    15.7350    23.8160     2.4810 
  157.5000    -2.8750    53.8890    17.5110    15.1050    18.0570    23.7860     2.4890 
  157.6250    -2.9910    53.8170    18.6530    16.0490    18.7810    23.7590     2.4990 
  157.7500    -3.0820    51.2640    19.4950    16.8060    19.3240    23.7280     2.5030 
  157.8750    -3.1740    47.4020    19.8230    17.1790    19.4360    23.7140     2.5010 
  158.0000    -3.2470    44.6230    19.6110    17.1100    18.6220    23.7120     2.4930 
  158.1250    -3.2880    44.4030    19.0460    16.7090    16.9770    23.7120     2.4830 
  158.2500    -3.3020    44.9540    18.5290    16.2930    15.6210    23.7100     2.4790 
  158.3750    -3.2880    46.0900    18.2930    16.0620    15.2040    23.7080     2.4820 
  158.5000    -3.2530    47.0080    18.4300    16.1100    14.8150    23.6970     2.4910 
  158.6250    -3.2090    46.6840    18.9000    16.4450    15.5570    23.6770     2.5010 
  158.7500    -3.1310    45.8630    19.4100    16.8700    18.2400    23.6630     2.5080 
  158.8750    -3.0400    45.3770    19.6790    17.1830    20.3860    23.6580     2.5100 
  159.0000    -2.9170    44.8130    19.4980    17.1960    19.9300    23.6660     2.5050 
  159.1250    -2.8210    43.9030    18.8230    16.7980    18.4400    23.6930     2.4980 
  159.2500    -2.7280    43.2090    17.9970    16.1930    17.3460    23.7180     2.4920 
  159.3750    -2.6490    44.0150    17.3210    15.6070    16.3290    23.7490     2.4880 
  159.5000    -2.5820    47.0200    17.0010    15.2410    15.6190    23.7790     2.4880 
  159.6250    -2.5250    48.7940    17.1460    15.2450    16.0760    23.7920     2.4910 
  159.7500    -2.5150    48.8590    17.5460    15.4990    17.6270    23.7960     2.4960 
  159.8750    -2.5180    49.2760    17.9690    15.8350    18.7290    23.7980     2.4980 
  160.0000    -2.5760    50.4710    18.1810    16.0610    18.4600    23.8020     2.4940 
  160.1250    -2.6280    49.2130    17.9910    15.9970    17.2480    23.8120     2.4840 
  160.2500    -2.7070    46.6970    17.5220    15.6970    16.2310    23.8140     2.4730 
  160.3750    -2.7770    47.3920    16.9750    15.2990    15.2370    23.7770     2.4670 
  160.5000    -2.8750    51.3670    16.5700    14.9790    14.4460    23.7110     2.4710 
  160.6250    -2.9620    52.7500    16.5210    14.9190    14.1600    23.6680     2.4800 
  160.7500    -3.0360    50.3950    16.7900    15.1180    14.5720    23.6840     2.4870 
  160.8750    -3.1020    47.3700    17.2940    15.5280    15.1410    23.7440     2.4880 
  161.0000    -3.1490    45.6290    17.8950    16.0510    15.5630    23.7770     2.4840 
  161.1250    -3.1810    44.8300    18.3690    16.5080    16.2570    23.7530     2.4790 
  161.2500    -3.1860    44.0440    18.5350    16.7320    16.7790    23.7260     2.4730 
  161.3750    -3.1810    43.8710    18.3110    16.6380    16.8710    23.7370     2.4680 
  161.5000    -3.1430    44.8510    17.7360    16.2460    16.2020    23.8220     2.4620 
  161.6250    -3.0670    45.7760    16.9520    15.6540    15.1260    23.9520     2.4550 
  161.7500    -2.9940    46.0400    16.2170    15.0630    14.1590    24.0520     2.4480 
  161.8750    -2.9070    47.9480    15.7100    14.6010    13.6320    24.0150     2.4400 
  162.0000    -2.7950    52.2950    15.5480    14.3630    13.2510    23.8270     2.4340 
  162.1250    -2.6900    54.2540    15.8390    14.4710    13.0100    23.5610     2.4360 
  162.2500    -2.5730    51.3900    16.4720    14.8960    13.2700    23.3180     2.4440 
  162.3750    -2.4920    48.1520    17.3280    15.5770    14.1050    23.2090     2.4570 
  162.5000    -2.4110    48.9850    18.2440    16.3750    15.5030    23.1520     2.4710 
  162.6250    -2.3830    51.9990    18.9960    17.0830    17.8420    23.0580     2.4780 
  162.7500    -2.3620    53.4870    19.4450    17.5420    19.0160    22.9460     2.4810 
  162.8750    -2.3680    52.2780    19.5470    17.6820    18.0180    22.8910     2.4820 
  163.0000    -2.4050    49.7770    19.3870    17.5540    16.9740    22.9010     2.4840 
  163.1250    -2.4540    48.4980    19.1530    17.3030    17.2630    22.9830     2.4890 
  163.2500    -2.5360    48.8630    19.0360    17.1170    17.6730    23.1750     2.4930 
  163.3750    -2.6050    49.4420    19.1090    17.0830    17.4670    23.4350     2.4970 
  163.5000    -2.6920    50.2290    19.3570    17.2120    17.0060    23.6190     2.4980 
  163.6250    -2.7600    51.3020    19.7160    17.4640    17.8640    23.6630     2.4960 
  163.7500    -2.8260    50.7470    20.0590    17.7310    19.1900    23.6240     2.4880 
  163.8750    -2.8780    48.6820    20.3030    17.9380    19.3230    23.5720     2.4730 
  164.0000    -2.9110    47.8990    20.4030    18.0350    18.8940    23.5860     2.4530 
  164.1250    -2.9330    50.3650    20.3640    17.9960    19.1350    23.6580     2.4360 
  164.2500    -2.9390    54.1550    20.2910    17.8890    19.4870    23.6930     2.4270 
  164.3750    -2.9220    56.6240    20.2610    17.7780    18.8510    23.7010     2.4300 
  164.5000    -2.8870    56.0300    20.2880    17.7020    18.0140    23.7010     2.4450 
  164.6250    -2.8090    53.2420    20.2910    17.6280    18.1510    23.7010     2.4660 
  164.7500    -2.7310    51.8750    20.1680    17.4860    18.8060    23.7000     2.4840 
  164.8750    -2.6440    50.8830    19.8990    17.2550    18.8070    23.6930     2.4970 
  165.0000    -2.5700    49.0940    19.5440    16.9670    17.1060    23.6700     2.5010 
  165.1250    -2.5040    47.3350    19.2430    16.6980    16.5770    23.6340     2.4950 
  165.2500    -2.4510    45.7080    19.0620    16.4870    17.0750    23.6190     2.4820 
  165.3750    -2.4520    43.4000    18.9400    16.3070    17.6990    23.6170     2.4680 
  165.5000    -2.4600    40.7840    18.7410    16.0890    17.8180    23.6100     2.4550 
  165.6250    -2.5630    40.6250    18.3230    15.7390    17.5290    23.5830     2.4500 
  165.7500    -2.6860    42.4790    17.7750    15.2830    16.5680    23.5310     2.4510 
  165.8750    -2.8490    45.0670    17.3000    14.8150    15.3110    23.5020     2.4530 
  166.0000    -3.0520    47.2390    17.0950    14.4530    14.5730    23.5130     2.4550 
  166.1250    -3.2670    47.1120    17.2370    14.2860    14.7060    23.5700     2.4630 
  166.2500    -3.5190    45.8820    17.4800    14.2300    14.8760    23.6480     2.4820 
  166.3750    -3.7660    45.0880    17.5810    14.1650    14.8970    23.6810     2.5090 
  166.5000    -4.0470    45.3250    17.3610    13.9670    15.2000    23.6820     2.5320 
  166.6250    -4.3230    46.0220    16.7320    13.5360    15.1900    23.6850     2.5380 
  166.7500    -4.5900    47.0000    15.8860    12.9560    14.0620    23.6890     2.5330 
  166.8750    -4.8660    49.2530    15.0010    12.3390    12.2500    23.6960     2.5270 
  167.0000    -5.0960    52.3360    14.2310    11.7890    11.2840    23.7000     2.5270 
  167.1250    -5.3420    52.8940    13.6900    11.3700    11.2650    23.6810     2.5280 
  167.2500    -5.5360    52.3470    13.3030    11.0340    11.5170    23.6170     2.5180 
  167.3750    -5.6790    54.5630    12.9090    10.6850    11.7380    23.5250     2.4920 
