~V
VERS. 2.00: Ver 2.00
~W
STRT.M 58.0000:
STOP.M 272.0000:
STEP.M 0.1250:
NULL. -999.2500:
UWI. F10670:
~C
DEPT.M :
DEN.GM/CC :
GR.API :
RML.OHMM :
RI. :
RXO.OHMM :
CALI.CM :
SP.MV :
~A
# ...
  125.5000     2.1670    64.2140     8.9810     8.3020     9.6410    24.4150   -27.7300 
  125.6250     2.1770    62.9170     9.2060     8.3440     9.5970    24.4060   -27.3280 
  125.7500     2.1860    63.2390     9.3370     8.3910     9.5740    24.3970   -26.9000 
  125.8750     2.1950    65.3440     9.3230     8.4210     9.8880    24.3650   -26.4590 
  126.0000     2.2000    66.7550     9.1400     8.4150    10.7920    24.3010   -26.1050 
  126.1250     2.2000    66.0930     8.9810     8.3800    11.4950    24.2750   -25.7780 
  126.2500     2.1950    63.8440     8.7990     8.3350    10.7520    24.3080   -25.4150 
  126.3750     2.1870    60.4320     8.6270     8.3090     9.9470    24.3410   -25.0610 
  126.5000     2.1810    58.7650     8.4950     8.3480     9.6590    24.3500   -24.6700 
  126.6250     2.1800    60.5010     8.4760     8.4670     9.7240    24.3510   -24.2890 
  126.7500     2.1830    62.6610     8.5830     8.6740     9.7520    24.3620   -23.9530 
  126.8750     2.1870    63.9080     8.7800     8.9420     9.6910    24.3820   -23.6270 
  127.0000     2.1850    65.2210     8.9430     9.1590     9.4760    24.3430   -23.2820 
  127.1250     2.1800    68.7610     8.9200     9.1730     8.9220    24.1460   -22.9060 
  127.2500     2.1830    76.0450     8.6080     8.8650     8.3960    23.8110   -22.4210 
  127.3750     2.2000    85.9440     7.9910     8.2100     8.0270    23.3890   -21.8440 
  127.5000     2.2340    94.7460     7.1530     7.2930     6.9500    22.9820   -21.4690 
  127.6250     2.2770   101.3820     6.3130     6.3540     5.8070    22.6630   -21.2190 
  127.7500     2.3170   106.1280     5.6300     5.5560     5.3920    22.4600   -20.9000 
  127.8750     2.3510   108.6330     5.2240     5.0100     5.4850    22.3770   -20.6600 
  128.0000     2.3780   106.3690     5.2400     4.8390     5.5410    22.3650   -20.5470 
  128.1250     2.4010    99.5490     5.6500     5.0190     5.4340    22.3650   -20.5470 
  128.2500     2.4180    89.2090     6.4330     5.5480     5.5010    22.3650   -20.6620 
  128.3750     2.4200    78.5220     7.4970     6.3950     6.4040    22.3990   -20.8980 
  128.5000     2.3940    71.8560     8.6350     7.4640     8.6160    22.6160   -21.1880 
  128.6250     2.3460    67.6930     9.5440     8.5000     9.7880    23.0610   -21.4870 
  128.7500     2.2880    63.4400    10.0370     9.2960     9.7250    23.5150   -21.7680 
  128.8750     2.2360    61.8940    10.1100     9.7380     9.4980    23.7420   -21.9180 
  129.0000     2.2040    63.5440     9.9370     9.8270     9.6160    23.8460   -22.0060 
  129.1250     2.1870    64.3150     9.7940     9.7740     9.6530    23.8580   -22.0090 
  129.2500     2.1790    63.8030     9.7860     9.7090     9.5690    23.7940   -21.9300 
  129.3750     2.1710    64.1720     9.9020     9.6880     9.4770    23.6240   -21.8140 
  129.5000     2.1610    64.8690    10.0800     9.7190     9.5370    23.4430   -21.5910 
  129.6250     2.1490    64.5370    10.2540     9.7720     9.7100    23.2750   -21.2950 
  129.7500     2.1370    63.5250    10.3950     9.8300     9.9540    23.1070   -21.0820 
  129.8750     2.1260    61.9120    10.4850     9.8690     9.9650    22.8920   -20.8310 
  130.0000     2.1200    58.9820    10.4810     9.8510     9.7390    22.6240   -20.5110 
  130.1250     2.1200    57.8360    10.3680     9.7510     9.0880    22.0210   -20.1870 
  130.2500     2.1270    59.7290    10.1490     9.5610     8.0540    20.7450   -19.8320 
  130.3750     2.1360    61.8920     9.8940     9.3280     7.2020    18.8920   -19.4090 
  130.5000     2.1380    61.5000     9.8420     9.2470     7.0280    17.8460   -18.9070 
  130.6250     2.1310    60.1590    10.2830     9.5890     7.0230    17.5580   -18.3110 
  130.7500     2.1310    59.3360    11.5330    10.6660     7.1610    17.6500   -17.6680 
  130.8750     2.1560    59.0720    13.8160    12.7320     7.7810    17.8200   -17.1570 
  131.0000     2.2320    59.6280    17.0010    15.7850     9.1430    18.1650   -16.5740 
  131.1250     2.3410    61.9420    19.7100    18.6880    10.2210    18.8020   -15.9030 
  131.2500     2.4520    67.7020    20.3120    19.9820    10.8330    19.6370   -15.2910 
  131.3750     2.5300    78.0410    18.0800    18.7110    10.5300    20.2930   -14.7400 
  131.5000     2.5420    89.7830    14.0370    15.2300     8.9330    20.7040   -14.2550 
  131.6250     2.5040    97.6830    10.3230    11.5060     7.2340    21.1750   -13.8670 
  131.7500     2.4390    98.9000     7.7280     8.5570     6.2690    21.7720   -13.5120 
  131.8750     2.3740    95.7160     6.2710     6.6740     6.0070    22.3310   -13.1350 
  132.0000     2.3310    93.1790     5.8000     5.8470     5.8630    22.7040   -12.9120 
  132.1250     2.3140    93.2710     5.9000     5.6730     5.6320    22.8510   -12.9120 
  132.2500     2.3230    93.5200     6.3790     5.9630     5.8120    22.8850   -12.9990 
  132.3750     2.3480    91.5330     7.0510     6.5390     6.9630    22.8860   -13.1230 
  132.5000     2.3730    89.3050     7.6720     7.1830     8.7970    22.8860   -13.2840 
  132.6250     2.3850    89.0770     8.0330     7.6540     8.9180    22.8860   -13.3910 
  132.7500     2.3790    89.9760     8.0490     7.8250     8.2000    22.8860   -13.4110 
  132.8750     2.3580    89.9490     7.7760     7.6910     7.3700    22.8860   -13.3730 
  133.0000     2.3320    88.5270     7.3780     7.3500     6.7110    22.8860   -13.3160 
  133.1250     2.3130    88.8630     7.0420     6.9920     6.5070    22.8860   -13.1770 
  133.2500     2.3060    93.0100     6.8360     6.7070     6.5230    22.8860   -12.9560 
  133.3750     2.3130    99.2040     6.7500     6.5200     6.4450    22.8840   -12.7500 
  133.5000     2.3340    99.6850     6.7480     6.4220     6.1510    22.8780   -12.6070 
  133.6250     2.3550    94.1770     6.7620     6.3660     6.1830    22.8660   -12.4690 
  133.7500     2.3650    91.0090     6.7530     6.3280     6.3690    22.8470   -12.3730 
  133.8750     2.3610    96.3510     6.7020     6.2850     6.2440    22.8120   -12.4210 
  134.0000     2.3450   103.3760     6.6070     6.2220     6.1140    22.7280   -12.5030 
  134.1250     2.3290   104.3460     6.4980     6.1420     6.0160    22.6160   -12.4760 
  134.2500     2.3200   102.9860     6.4070     6.0630     6.0940    22.5490   -12.4620 
  134.3750     2.3180   102.9330     6.3670     6.0150     6.2020    22.5230   -12.4630 
  134.5000     2.3180   101.4650     6.4290     6.0460     6.1530    22.5070   -12.3930 
  134.6250     2.3180    96.2380     6.5940     6.1660     6.1970    22.5050   -12.3320 
  134.7500     2.3180    91.1910     6.8430     6.3680     6.5890    22.5340   -12.2890 
  134.8750     2.3200    89.3480     7.1290     6.6260     7.1920    22.6190   -12.2070 
  135.0000     2.3260    89.7100     7.3610     6.8820     7.6280    22.7350   -12.1960 
  135.1250     2.3340    90.6850     7.4840     7.0750     7.2650    22.8080   -12.2040 
  135.2500     2.3380    90.2610     7.4980     7.1820     6.7570    22.8310   -12.1570 
  135.3750     2.3360    88.2920     7.4670     7.2230     6.8790    22.8360   -12.1580 
  135.5000     2.3280    86.1620     7.5110     7.2700     7.1680    22.8630   -12.2310 
  135.6250     2.3180    85.0300     7.6960     7.3970     7.0990    22.9140   -12.3380 
  135.7500     2.3090    84.9360     8.0150     7.6250     7.0350    22.9600   -12.4540 
  135.8750     2.2990    84.7460     8.3870     7.9150     7.1030    22.9790   -12.4880 
  136.0000     2.2900    84.7890     8.6500     8.1540     7.8430    22.9800   -12.4270 
  136.1250     2.2840    85.8230     8.6940     8.2340     8.2040    22.9800   -12.4880 
  136.2500     2.2860    88.6400     8.4950     8.1140     8.0510    22.9830   -12.5810 
  136.3750     2.2970    92.1720     8.1260     7.8290     7.4470    22.9980   -12.5060 
  136.5000     2.3110    92.9960     7.7510     7.4940     6.7930    23.0430   -12.4340 
  136.6250     2.3230    90.5830     7.5330     7.2490     6.7180    23.1200   -12.3470 
