~V
VERS. 2.00: Ver 2.00
~W
STRT.M 56.0000:
STOP.M 256.0000:
STEP.M 0.1250:
NULL. -999.2500:
UWI. F10668:
~C
DEPT.M :
SP.MV :
GR.API :
RML.OHMM :
RI. :
RXO.OHMM :
CALI.CM :
DEN.GM/CC :
~A
# ...
  213.5000   -24.6380    55.3460   112.1210    91.8170    80.1140    25.7610     2.1810 
  213.6250   -24.6900    54.8710   117.0180    95.6250    77.2910    25.6680     2.1770 
  213.7500   -24.7180    54.6650   125.1800   102.6110   102.8420    25.6700     2.1800 
  213.8750   -24.7490    54.4050   132.3380   109.6800   164.0050    25.8390     2.1880 
  214.0000   -24.7770    54.5030   133.5930   112.7410   217.0130    25.9950     2.1990 
  214.1250   -24.8280    54.0380   127.4060   110.0010   205.5490    26.0410     2.2090 
  214.2500   -24.8730    52.9100   116.3890   102.7420   147.1370    25.9910     2.2140 
  214.3750   -24.9070    52.3800   104.8780    94.0990    97.7730    25.8720     2.2110 
  214.5000   -24.9230    53.5340    94.8030    86.2580    82.8080    25.7580     2.2060 
  214.6250   -24.9160    54.9670    85.4250    78.9180    88.2710    25.6140     2.2040 
  214.7500   -24.9250    55.1550    75.5400    71.0050    91.2320    25.3210     2.2080 
  214.8750   -24.8890    55.2640    64.7300    61.8460    73.4330    24.8040     2.2140 
  215.0000   -24.8340    59.4790    54.1710    52.4640    47.9370    24.1580     2.2210 
  215.1250   -24.7430    67.5070    45.0620    44.0670    33.2800    23.7350     2.2280 
  215.2500   -24.6520    73.8910    38.0830    37.4540    26.5330    23.5940     2.2400 
  215.3750   -24.5420    75.4820    33.5840    33.0910    24.4930    23.5480     2.2580 
  215.5000   -24.4370    75.6280    30.7830    30.3310    23.3940    23.4330     2.2800 
  215.6250   -24.3140    74.7420    29.2900    28.8220    23.0260    23.2930     2.3000 
  215.7500   -24.1600    71.6440    28.9160    28.3620    23.7080    23.2040     2.3150 
  215.8750   -23.9980    67.6270    29.9500    29.1530    22.7090    23.1540     2.3230 
  216.0000   -23.8200    64.8580    32.4530    31.2420    23.1280    23.1510     2.3230 
  216.1250   -23.6280    61.9170    36.6380    34.8780    25.0020    23.2560     2.3120 
  216.2500   -23.4000    58.4060    42.4650    40.1540    31.0290    23.5740     2.2890 
  216.3750   -23.1640    57.7010    49.2030    46.6160    46.2790    24.0660     2.2550 
  216.5000   -22.8880    58.8480    54.7070    52.2600    57.0940    24.6350     2.2170 
  216.6250   -22.6220    59.1460    56.8100    54.8590    52.2970    25.0110     2.1850 
  216.7500   -22.3830    58.4020    54.6290    53.2190    45.2130    25.1420     2.1710 
  216.8750   -22.1910    60.3900    49.5990    48.3210    38.1110    25.1660     2.1840 
  217.0000   -22.0580    63.7330    45.2930    43.5870    32.5470    25.2520     2.2140 
  217.1250   -21.9700    64.9040    43.8780    41.0980    29.0720    25.5210     2.2410 
  217.2500   -21.9640    63.4380    46.6840    42.1430    31.3860    26.0060     2.2470 
  217.3750   -22.0260    60.6510    55.4840    48.5150    42.7330    26.4590     2.2300 
  217.5000   -22.1970    57.0660    69.6920    60.0360    74.9150    26.6420     2.2060 
  217.6250   -22.4150    53.0090    88.0860    75.9330   127.6750    26.7500     2.1850 
  217.7500   -22.6930    50.5700   106.8470    93.0830   174.7050    26.8360     2.1740 
  217.8750   -22.9830    50.1660   117.8260   104.6220   179.8990    26.8870     2.1770 
  218.0000   -23.2800    50.7470   118.0560   107.2290   166.7580    26.9140     2.1870 
  218.1250   -23.5770    51.8370   110.4050   102.3860   141.2010    26.9370     2.2010 
  218.2500   -23.8610    52.7940   100.1630    94.2150   119.7070    26.9940     2.2120 
  218.3750   -24.1170    53.6490    90.9140    86.1180   105.6900    27.0940     2.2140 
  218.5000   -24.3140    53.7400    82.9790    79.0200    98.8970    27.1180     2.2070 
  218.6250   -24.4890    53.3510    75.7420    72.5950    94.1810    26.9770     2.1930 
  218.7500   -24.6080    53.5100    68.6940    66.4150    90.1190    26.7030     2.1800 
  218.8750   -24.6880    53.9890    61.9900    60.5290    78.8960    26.6710     2.1760 
  219.0000   -24.7280    52.6380    56.2260    55.4080    65.6890    26.7280     2.1830 
  219.1250   -24.7410    50.3360    51.9320    51.5440    56.8530    26.7520     2.2000 
  219.2500   -24.7390    51.9570    49.2970    49.1530    50.4840    26.7370     2.2190 
  219.3750   -24.6970    56.4090    48.4030    48.3570    46.9030    26.7480     2.2280 
  219.5000   -24.6550    57.1970    48.6800    48.6680    45.4580    26.5730     2.2290 
  219.6250   -24.5990    54.6630    49.8470    49.8550    35.5620    25.8290     2.2280 
  219.7500   -24.5520    53.4100    51.5790    51.6440    20.9740    24.4130     2.2290 
  219.8750   -24.4930    55.1270    53.2460    53.4450    14.6410    23.1720     2.2370 
  220.0000   -24.4430    55.3050    53.9870    54.3580    15.7380    22.9100     2.2450 
  220.1250   -24.3890    53.4500    53.1700    53.6810    23.9720    23.4990     2.2460 
  220.2500   -24.2980    51.4480    50.7500    51.3070    41.5920    24.4760     2.2360 
  220.3750   -24.2420    50.7330    47.5250    47.9480    52.1000    25.5440     2.2240 
  220.5000   -24.1680    52.3370    45.0180    45.0920    44.2450    26.4900     2.2230 
  220.6250   -24.0990    54.9010    44.3290    43.7890    38.4730    27.0100     2.2340 
  220.7500   -24.0080    56.6100    46.1630    44.7360    41.1410    26.8730     2.2460 
  220.8750   -23.9440    56.2070    51.2100    48.6930    53.7660    26.7660     2.2300 
  221.0000   -23.8560    55.2380    58.5130    54.9350    76.6750    26.9560     2.1830 
  221.1250   -23.7730    55.9890    66.7650    62.3660    94.3010    27.5010     2.1170 
  221.2500   -23.7050    57.4270    73.9010    69.1020    98.8720    27.9590     2.0600 
  221.3750   -23.6260    56.9170    77.1200    72.5060   103.4700    27.6050     2.0500 
  221.5000   -23.5530    53.9810    76.4770    72.3800   101.2060    26.8330     2.0940 
  221.6250   -23.4670    51.5370    73.4190    69.8290    88.5460    25.9180     2.1750 
  221.7500   -23.3720    53.6650    70.0400    66.6560    64.8210    25.1130     2.2530 
  221.8750   -23.2360    57.6800    68.3110    64.7280    49.4930    24.6380     2.2810 
  222.0000   -23.0860    59.0740    68.4400    64.4740    50.2780    24.4600     2.2630 
  222.1250   -22.9220    58.1770    69.7360    65.3990    66.6560    24.7460     2.2220 
  222.2500   -22.7270    57.0220    70.9190    66.3990    87.8340    25.5960     2.1780 
  222.3750   -22.4790    56.1220    70.3120    65.9550    99.1000    26.3520     2.1450 
  222.5000   -22.1910    56.0400    67.6850    63.7150    87.7480    26.3910     2.1350 
  222.6250   -21.8760    57.8040    63.7330    60.1660    71.6970    25.9770     2.1650 
  222.7500   -21.5330    60.0260    59.6730    56.3210    64.4960    25.4770     2.2420 
  222.8750   -21.2040    60.6440    56.9040    53.3940    56.5910    25.2160     2.3270 
  223.0000   -20.9000    60.9750    56.0050    51.9770    45.7720    25.0840     2.3670 
  223.1250   -20.6090    61.7450    57.3720    52.4980    37.9050    25.0220     2.3500 
  223.2500   -20.3510    62.2490    61.1520    55.2070    35.0270    25.3630     2.3050 
  223.3750   -20.1640    62.3600    67.2240    60.1660    35.2880    25.0870     2.2930 
  223.5000   -20.0350    61.1010    73.8100    65.9110    39.7300    24.3660     2.3470 
  223.6250   -19.9660    60.4010    78.6570    70.5830    52.2700    23.6510     2.4470 
  223.7500   -19.9450    62.5520    79.4220    72.1570    69.0330    23.4320     2.5370 
  223.8750   -19.9550    65.4910    74.8280    69.1680    80.0700    23.5350     2.5720 
  224.0000   -19.9680    65.6820    68.0170    63.7690    75.8470    23.8290     2.5740 
  224.1250   -19.9890    63.6720    61.7930    58.2500    60.8260    24.2210     2.5710 
  224.2500   -20.0150    61.6570    57.9490    54.4260    51.7830    24.5140     2.5890 
  224.3750   -20.0300    59.2550    57.1010    53.3090    44.1500    24.5470     2.6350 
  224.5000   -20.0430    57.5690    57.1780    53.3790    42.4460    24.4550     2.6740 
  224.6250   -20.0420    57.7970    55.4510    52.2130    45.8010    24.3870     2.6790 
