~V
VERS. 2.00: Ver 2.00
~W
STRT.M 54.0000:
STOP.M 246.0000:
STEP.M 0.1250:
NULL. -999.2500:
UWI. F10643:
~C
DEPT.M :
SP.MV :
GR.API :
RML.OHMM :
RI. :
RXO.OHMM :
CALI.CM :
DEN.GM/CC :
~A
# ...
  189.0000   -19.3770    47.7390    75.7100    62.5860    68.9170    24.0740     2.1780 
  189.1250   -19.2890    48.4860    76.5260    63.3320    77.2220    23.9820     2.1750 
  189.2500   -19.1830    48.2390    74.0540    62.0480    80.9470    23.9150     2.1990 
  189.3750   -19.0550    47.8380    64.2900    55.9950    73.1580    23.7910     2.2740 
  189.5000   -18.8670    48.1250    47.0100    43.5280    60.6510    23.6090     2.4160 
  189.6250   -18.6320    48.1900    30.2590    29.6850    49.3960    23.6110     2.5630 
  189.7500   -18.3890    48.9250    18.1460    18.5030    33.4130    23.6890     2.6390 
  189.8750   -18.0930    50.7740    10.8250    11.2010    17.3260    23.6810     2.6090 
  190.0000   -17.8160    52.4560     7.2470     7.4040     8.0310    23.4540     2.5130 
  190.1250   -17.5140    51.6190     5.4730     5.3960     5.1970    23.2350     2.4120 
  190.2500   -17.2170    46.7860     4.7570     4.4490     4.5460    23.1950     2.3390 
  190.3750   -16.9840    39.8700     4.6650     4.1430     4.3790    23.3760     2.3070 
  190.5000   -16.7710    36.1950     4.9470     4.2700     4.3390    23.5810     2.3080 
  190.6250   -16.6250    37.5740     5.3000     4.5530     4.6750    23.6640     2.3220 
  190.7500   -16.5660    40.4420     5.5400     4.8190     5.0170    23.6410     2.3350 
  190.8750   -16.5830    41.9650     5.5620     4.9400     5.2110    23.5510     2.3410 
  191.0000   -16.7010    44.6660     5.3660     4.8550     5.0170    23.4650     2.3370 
  191.1250   -16.9290    48.1540     5.1270     4.6780     4.7300    23.3550     2.3270 
  191.2500   -17.2390    49.4250     5.0020     4.5330     4.6250    23.3040     2.3170 
  191.3750   -17.6350    49.3470     5.1140     4.5320     4.7620    23.3760     2.3160 
  191.5000   -18.1050    51.3560     5.5890     4.7850     5.3470    23.5980     2.3310 
  191.6250   -18.6030    55.5070     6.3610     5.2670     6.5930    23.9270     2.3580 
  191.7500   -19.0970    59.1910     7.3180     5.9210     8.5870    24.1280     2.3860 
  191.8750   -19.5530    61.5330     8.2620     6.6200     9.4580    24.1970     2.4040 
  192.0000   -19.9410    62.8280     8.9020     7.1550     9.5270    24.1830     2.4030 
  192.1250   -20.2810    63.3360     9.1580     7.4200     9.2610    24.1190     2.3930 
  192.2500   -20.5510    64.5290     9.0920     7.4220     9.0480    24.0450     2.3820 
  192.3750   -20.7390    66.4090     8.8600     7.2540     8.6560    23.8890     2.3750 
  192.5000   -20.8820    68.3970     8.6320     7.0450     8.4020    23.6130     2.3760 
  192.6250   -20.9970    70.8950     8.5000     6.8900     8.1930    23.4350     2.3800 
  192.7500   -21.0610    74.6000     8.4820     6.8150     8.0640    23.3560     2.3830 
  192.8750   -21.1500    81.7100     8.5610     6.8200     8.0970    23.2960     2.3820 
  193.0000   -21.2130    90.8790     8.7150     6.8990     8.0900    23.2160     2.3770 
  193.1250   -21.2370    96.8330     8.8960     7.0170     8.0860    23.0960     2.3710 
  193.2500   -21.2640    98.2030     9.0690     7.1460     8.2330    22.9710     2.3660 
  193.3750   -21.2440    99.0010     9.2090     7.2650     8.2890    22.8600     2.3650 
  193.5000   -21.2330   103.5490     9.2950     7.3500     8.4060    22.9450     2.3670 
  193.6250   -21.2050   107.5400     9.3330     7.4030     8.5000    23.0860     2.3710 
  193.7500   -21.1720   106.7940     9.3330     7.4260     8.5650    23.3510     2.3770 
  193.8750   -21.1540   102.9500     9.3140     7.4280     8.4250    23.6360     2.3830 
  194.0000   -21.1420   100.9580     9.3030     7.4170     8.3840    23.8000     2.3890 
  194.1250   -21.1580    99.7100     9.3090     7.3990     8.4440    23.8950     2.3900 
  194.2500   -21.2100    96.3140     9.3200     7.3730     8.3380    24.0560     2.3840 
  194.3750   -21.2900    92.1610     9.3280     7.3430     8.2100    24.1630     2.3670 
  194.5000   -21.3700    92.2780     9.3730     7.3460     8.3310    24.1740     2.3440 
  194.6250   -21.4770    94.5010     9.5720     7.4500     8.6410    24.1760     2.3290 
  194.7500   -21.5980    94.4730    10.1250     7.7720     9.0240    24.1800     2.3360 
  194.8750   -21.7250    91.5350    11.2850     8.4760     9.9970    24.1950     2.3700 
  195.0000   -21.8630    87.9450    13.4990     9.8970    11.9110    24.1680     2.4180 
  195.1250   -22.0070    83.5510    16.8140    12.1630    15.4560    24.1340     2.4500 
  195.2500   -22.1330    77.1300    21.1670    15.3620    21.1400    24.1370     2.4530 
  195.3750   -22.2710    69.2750    26.0870    19.2830    30.3450    24.1610     2.4310 
  195.5000   -22.4050    62.4480    30.2980    23.0690    37.2070    24.1680     2.3990 
  195.6250   -22.5130    60.2800    32.6610    25.6160    34.8280    24.1200     2.3720 
  195.7500   -22.6240    63.4910    32.9600    26.4810    29.9190    24.0070     2.3480 
  195.8750   -22.6810    67.9640    31.9390    26.0370    26.6000    23.8590     2.3250 
  196.0000   -22.7400    67.9810    30.6840    25.0780    25.1000    23.8030     2.3000 
  196.1250   -22.7620    66.0090    29.8680    24.3100    24.6450    23.7970     2.2780 
  196.2500   -22.7330    64.9330    29.6230    23.9500    24.3810    23.8150     2.2630 
  196.3750   -22.6890    62.5890    29.9300    24.0440    24.6980    23.9290     2.2520 
  196.5000   -22.5860    60.0670    30.9570    24.7210    26.0950    24.0270     2.2470 
  196.6250   -22.4710    62.2130    32.9060    26.0960    28.2500    24.1080     2.2420 
  196.7500   -22.3600    66.5310    36.2110    28.5140    30.5370    24.1550     2.2380 
  196.8750   -22.2520    66.6160    41.3570    32.4060    33.8310    24.1830     2.2310 
  197.0000   -22.1580    61.2670    49.1110    38.5010    41.4300    24.1970     2.2220 
  197.1250   -22.1000    56.4210    58.8980    46.3760    60.0240    24.1990     2.2110 
  197.2500   -22.0790    54.3410    69.3680    54.9790    86.2360    24.1410     2.1980 
  197.3750   -22.0950    55.0460    77.8920    62.3400    97.6680    23.9590     2.1910 
  197.5000   -22.1630    56.2540    80.9040    65.7550    86.3070    23.5910     2.1930 
  197.6250   -22.2700    55.7920    79.3620    65.5180    70.5010    23.3300     2.2020 
  197.7500   -22.4000    53.4840    75.7970    63.1880    55.9850    23.0950     2.2110 
  197.8750   -22.5490    52.6210    72.6350    60.6590    49.7260    22.9380     2.2160 
  198.0000   -22.7170    55.2570    71.2670    59.3400    51.4540    23.2360     2.2140 
  198.1250   -22.8940    57.7400    71.2400    59.1910    56.6670    23.7040     2.2050 
  198.2500   -23.0810    57.0190    71.9170    59.8110    60.9710    23.9550     2.1940 
  198.3750   -23.2520    54.9470    72.7600    60.7650    61.3510    23.9940     2.1840 
  198.5000   -23.4130    55.4020    73.5740    61.7990    60.3340    23.9650     2.1790 
  198.6250   -23.5560    56.7890    74.5710    62.9390    59.3230    23.9520     2.1820 
  198.7500   -23.6480    56.0920    76.0730    64.4000    58.5160    23.8930     2.1910 
  198.8750   -23.7610    53.7650    78.3450    66.4260    58.2740    23.8260     2.2040 
  199.0000   -23.8190    51.6660    81.7610    69.3890    60.2990    23.8050     2.2140 
  199.1250   -23.8470    50.5350    86.2930    73.3440    64.3460    23.8080     2.2200 
  199.2500   -23.8520    50.7650    91.9270    78.3380    68.6630    23.7900     2.2260 
  199.3750   -23.8180    52.1100    98.4810    84.2750    78.1960    23.7490     2.2370 
  199.5000   -23.8200    52.3770   105.8180    91.1500    91.7330    23.6470     2.2540 
  199.6250   -23.7970    51.5010   113.8040    98.8490   116.4070    23.5830     2.2650 
  199.7500   -23.7840    50.8480   122.7510   107.5840   129.6520    23.5390     2.2610 
  199.8750   -23.7770    49.8980   133.0130   117.6030   112.5890    23.5890     2.2410 
  200.0000   -23.7560    46.1110   143.3670   128.1910   104.0240    23.8080     2.2120 
  200.1250   -23.7570    42.1070   148.3330   135.5090   128.7910    23.9660     2.1860 
