~V
VERS. 2.00: Ver 2.00
~W
STRT.M 48.0000:
STOP.M 229.0000:
STEP.M 0.1250:
NULL. -999.2500:
UWI. F10623:
~C
DEPT.M :
GR.API :
RML.OHMM :
RI. :
RXO.OHMM :
CALI.CM :
DEN.GM/CC :
SP.MV :
~A
# ...
  160.5000    89.0200    11.5260    10.0370    10.0320    23.4290     2.3230    -6.9950 
  160.6250    89.9030    11.6800    10.2430     9.9720    23.4040     2.3200    -6.9970 
  160.7500    87.2100    11.6210    10.2750     9.8170    23.3660     2.3250    -6.9640 
  160.8750    83.2610    11.3050    10.0800     9.6790    23.3390     2.3370    -6.9200 
  161.0000    81.0140    10.7430     9.6510     9.2510    23.3290     2.3500    -6.8770 
  161.1250    80.5300    10.0080     9.0290     8.5350    23.3330     2.3600    -6.8280 
  161.2500    80.2100     9.2880     8.3690     7.8680    23.3250     2.3670    -6.7660 
  161.3750    80.5640     8.7430     7.8060     7.2370    23.2840     2.3750    -6.7040 
  161.5000    83.6570     8.5090     7.4580     6.8360    23.2660     2.3880    -6.6480 
  161.6250    87.6780     8.7340     7.4660     6.9180    23.3660     2.4060    -6.6040 
  161.7500    85.2900     9.3640     7.8150     7.6000    23.4840     2.4230    -6.5670 
  161.8750    76.8270    10.3420     8.4890     8.7980    23.5530     2.4310    -6.5220 
  162.0000    70.4160    11.5520     9.4260    10.3130    23.5850     2.4300    -6.4720 
  162.1250    72.0880    12.8130    10.5070    11.6570    23.6150     2.4200    -6.4350 
  162.2500    74.9350    13.9380    11.5520    12.1300    23.6550     2.4070    -6.4060 
  162.3750    73.2910    14.8330    12.4480    12.7350    23.6650     2.3930    -6.3740 
  162.5000    69.2880    15.4970    13.1490    13.6450    23.6410     2.3780    -6.3420 
  162.6250    67.2930    15.9910    13.6670    13.8140    23.6490     2.3640    -6.3270 
  162.7500    67.8800    16.4370    14.1000    13.7570    23.6860     2.3540    -6.3410 
  162.8750    69.9170    16.8550    14.4780    14.1570    23.7290     2.3510    -6.3910 
  163.0000    71.4760    17.1840    14.7740    15.0580    23.7420     2.3550    -6.4610 
  163.1250    72.7260    17.2780    14.8890    15.4680    23.7200     2.3640    -6.5080 
  163.2500    75.5110    17.0920    14.7960    14.8640    23.7190     2.3720    -6.5280 
  163.3750    81.3050    16.6430    14.5010    13.7380    23.7770     2.3740    -6.5390 
  163.5000    86.6520    16.0250    14.0650    12.4560    23.8350     2.3690    -6.5570 
  163.6250    87.1160    15.3490    13.5680    11.4570    23.8460     2.3630    -6.5920 
  163.7500    85.6290    14.6560    13.0450    11.1590    23.8420     2.3630    -6.6370 
  163.8750    85.0000    13.9010    12.4630    11.4640    23.8520     2.3720    -6.6780 
  164.0000    83.8920    13.0430    11.7850    11.9490    23.8650     2.3870    -6.7200 
  164.1250    81.2560    12.1210    11.0310    11.4200    23.8350     2.3970    -6.7680 
  164.2500    79.1000    11.2810    10.3170    10.3460    23.7810     2.3940    -6.8150 
  164.3750    78.4380    10.6480     9.7500     9.0090    23.7420     2.3800    -6.8570 
  164.5000    77.8920    10.2740     9.3850     8.1750    23.7050     2.3610    -6.8960 
  164.6250    75.1950    10.1190     9.2050     8.6430    23.6820     2.3510    -6.9200 
  164.7500    72.5760     9.9930     9.0620     9.3520    23.6550     2.3520    -6.9340 
  164.8750    71.3880     9.7660     8.8430     9.6920    23.6390     2.3580    -6.9380 
  165.0000    71.1470     9.3820     8.4890     9.0760    23.6740     2.3600    -6.9300 
  165.1250    72.1790     8.8980     8.0260     7.7670    23.7540     2.3480    -6.9170 
  165.2500    73.6820     8.5000     7.6050     7.0190    23.8080     2.3310    -6.9050 
  165.3750    75.6200     8.3570     7.3710     7.0010    23.8150     2.3240    -6.8900 
  165.5000    76.0290     8.6090     7.4460     7.3570    23.8020     2.3380    -6.8600 
  165.6250    73.5230     9.4460     7.9980     7.9400    23.7740     2.3730    -6.8330 
  165.7500    70.0940    10.8520     9.0300     8.7270    23.7510     2.4070    -6.8130 
  165.8750    66.9290    12.8490    10.5820    10.1870    23.6890     2.4180    -6.8110 
  166.0000    66.0340    15.3980    12.6500    12.4730    23.5480     2.3940    -6.8350 
  166.1250    66.3680    18.4120    15.2120    15.5570    23.3770     2.3400    -6.8780 
  166.2500    65.7460    21.5310    17.9780    18.5710    23.2400     2.2840    -6.9370 
  166.3750    64.1130    24.3910    20.6370    21.5180    23.1940     2.2420    -7.0170 
  166.5000    63.0980    26.5920    22.8210    23.6330    23.2420     2.2220    -7.1320 
  166.6250    64.1570    27.5990    24.0190    24.1770    23.4170     2.2230    -7.2690 
  166.7500    64.7720    27.4660    24.1990    23.8310    23.4490     2.2320    -7.3910 
  166.8750    65.2750    26.4090    23.4890    23.1240    23.3650     2.2420    -7.4790 
  167.0000    65.5960    24.9070    22.2660    22.0340    23.2820     2.2500    -7.5200 
  167.1250    65.3440    23.6460    21.1040    20.5190    23.2220     2.2570    -7.5260 
  167.2500    64.7220    23.0520    20.4410    18.9230    23.1100     2.2670    -7.5240 
  167.3750    65.0380    23.2270    20.4430    18.1930    22.9680     2.2820    -7.5140 
  167.5000    65.4390    23.9910    21.0490    19.0390    22.8670     2.3000    -7.4840 
  167.6250    63.8270    24.9110    21.9950    21.1770    22.8620     2.3110    -7.4340 
  167.7500    64.9560    25.4570    22.7960    22.6410    22.9130     2.3110    -7.3790 
  167.8750    69.6690    25.3500    23.1290    22.5130    22.9630     2.3000    -7.3260 
  168.0000    71.9540    24.5800    22.8630    21.3250    23.0020     2.2830    -7.2780 
  168.1250    69.0630    23.3660    22.0550    20.1070    23.1080     2.2670    -7.2240 
  168.2500    66.9570    22.1120    21.0510    19.2150    23.3130     2.2580    -7.1610 
  168.3750    67.8960    20.9730    20.0270    18.8270    23.5530     2.2560    -7.0990 
  168.5000    69.4020    19.9450    19.0310    18.6270    23.7070     2.2620    -7.0530 
  168.6250    69.0380    18.9540    18.0400    18.2740    23.7470     2.2710    -7.0170 
  168.7500    67.2110    17.9680    17.0470    17.5440    23.7360     2.2790    -6.9750 
  168.8750    65.4880    17.0630    16.1200    16.3280    23.6960     2.2860    -6.9320 
  169.0000    65.8290    16.4020    15.3910    15.1030    23.6710     2.2890    -6.9050 
  169.1250    70.7140    16.3200    15.1360    14.5230    23.7010     2.2890    -6.9310 
  169.2500    76.0760    17.0020    15.5160    14.6300    23.7490     2.2860    -7.0210 
  169.3750    78.4720    18.6440    16.7200    15.6110    23.7450     2.2830    -7.1630 
  169.5000    76.5940    21.3610    18.8940    17.6660    23.6770     2.2820    -7.3310 
  169.6250    71.3100    25.2420    22.2150    21.2540    23.6320     2.2810    -7.5140 
  169.7500    66.1540    29.7560    26.2770    25.7840    23.7460     2.2810    -7.7120 
  169.8750    63.7890    34.3330    30.5960    30.7010    23.9130     2.2770    -7.9230 
  170.0000    63.8610    38.2820    34.5160    35.5270    24.0220     2.2670    -8.1410 
  170.1250    63.5520    40.7410    37.1570    39.1610    24.1060     2.2520    -8.3600 
  170.2500    60.3140    41.7060    38.3740    41.0430    24.1580     2.2370    -8.5570 
  170.3750    57.5230    41.4800    38.3610    40.7250    24.1290     2.2270    -8.7150 
  170.5000    57.8580    40.6850    37.6480    38.7720    24.0540     2.2220    -8.8210 
  170.6250    59.8400    40.1290    36.9600    36.5750    24.0580     2.2210    -8.8780 
  170.7500    62.6120    40.2940    36.8220    35.6170    24.1010     2.2170    -8.9050 
  170.8750    65.8110    41.2530    37.3830    36.7230    24.1210     2.2090    -8.9050 
  171.0000    67.7810    42.7180    38.4730    39.6480    24.1230     2.2010    -8.8880 
  171.1250    65.9370    43.9960    39.5740    42.5230    24.1060     2.2000    -8.8450 
  171.2500    63.9310    44.3830    40.0480    43.6880    24.1300     2.2120    -8.7730 
  171.3750    63.3270    43.4630    39.4780    43.2700    24.1500     2.2340    -8.6890 
  171.5000    61.1940    41.2310    37.7780    41.6450    24.1430     2.2580    -8.6170 
  171.6250    57.7670    38.0570    35.1860    38.3680    24.0800     2.2740    -8.5620 
