~V
VERS. 2.00: Ver 2.00
~W
STRT.M 50.0000:
STOP.M 240.0000:
STEP.M 0.1250:
NULL. -999.2500:
UWI. F10736:
~C
DEPT.M :
DEN.GM/CC :
GR.API :
RML.OHMM :
RI. :
RXO.OHMM :
CALI.CM :
SP.MV :
~A
# ...
  151.2500     2.6510    39.6300    32.8210    32.3390    25.5770    25.1800   -11.8810 
  151.3750     2.6350    41.0150    31.7000    31.5270    22.0990    25.1570   -11.7720 
  151.5000     2.6100    43.2190    30.0360    29.9900    19.5590    25.1330   -11.6510 
  151.6250     2.5860    44.6250    28.6940    28.5040    19.1740    25.2090   -11.5330 
  151.7500     2.5730    44.0400    28.0800    27.5660    20.3710    25.3380   -11.4280 
  151.8750     2.5710    42.0000    28.2440    27.3210    23.0170    25.4460   -11.3340 
  152.0000     2.5730    40.0200    29.0640    27.7300    24.9410    25.5330   -11.2460 
  152.1250     2.5730    39.9730    30.4600    28.7630    25.7390    25.6140   -11.1700 
  152.2500     2.5780    41.2290    32.2370    30.2350    26.8120    25.6750   -11.1120 
  152.3750     2.5950    41.5270    34.2700    32.0430    28.6690    25.6990   -11.0690 
  152.5000     2.6140    39.8690    36.3250    33.9910    30.8970    25.7040   -11.0300 
  152.6250     2.6270    38.0420    37.9730    35.7060    34.6390    25.6960   -10.9740 
  152.7500     2.6330    37.2300    38.9250    36.8690    39.2840    25.6740   -10.9050 
  152.8750     2.6320    37.4830    39.0580    37.2930    40.4870    25.6470   -10.8440 
  153.0000     2.6170    39.4250    38.4870    36.9980    37.2050    25.6330   -10.8070 
  153.1250     2.5900    42.4400    37.4440    36.1230    34.3880    25.6190   -10.7920 
  153.2500     2.5690    44.3230    36.2100    34.9680    33.1090    25.5800   -10.7860 
  153.3750     2.5680    44.5950    34.8100    33.6040    30.6570    25.5180   -10.7830 
  153.5000     2.5760    44.2600    33.2150    32.0460    27.2380    25.4680   -10.7790 
  153.6250     2.5840    43.6720    31.4720    30.3490    25.0240    25.4630   -10.7650 
  153.7500     2.5860    42.8760    29.8220    28.7130    24.2930    25.5180   -10.7490 
  153.8750     2.5850    42.8330    28.5120    27.3480    23.7940    25.5890   -10.7370 
  154.0000     2.5780    43.0890    27.7060    26.4130    22.8690    25.6290   -10.7280 
  154.1250     2.5690    42.5640    27.4760    26.0190    23.7820    25.6320   -10.7110 
  154.2500     2.5740    42.6650    27.5880    25.9960    26.0670    25.6190   -10.6830 
  154.3750     2.6020    43.9180    27.9370    26.2550    27.7970    25.6040   -10.6490 
  154.5000     2.6440    45.1520    28.5340    26.7870    27.9100    25.5760   -10.6170 
  154.6250     2.6830    44.0030    29.5960    27.7530    26.5010    25.4680   -10.5970 
  154.7500     2.6990    41.1750    31.1980    29.2040    26.8920    25.3270   -10.5930 
  154.8750     2.6960    39.0870    33.2130    31.0580    29.8990    25.2220   -10.5980 
  155.0000     2.6880    38.6540    35.0720    32.8510    34.9870    25.1590   -10.5990 
  155.1250     2.6860    39.8540    35.4630    33.4230    38.1940    25.0380   -10.5900 
  155.2500     2.6860    41.9000    33.7900    32.1330    38.4520    24.9420   -10.5750 
  155.3750     2.6820    44.2890    30.3470    29.1390    34.6410    24.8990   -10.5640 
  155.5000     2.6740    46.6480    26.2040    25.3440    27.6610    24.9970   -10.5630 
  155.6250     2.6670    47.0210    22.6260    21.8890    20.7880    25.2710   -10.5810 
  155.7500     2.6580    45.1930    20.0480    19.2660    17.1830    25.5120   -10.6100 
  155.8750     2.6380    41.8390    18.4390    17.5120    15.9630    25.5990   -10.6370 
  156.0000     2.6100    39.8570    17.6330    16.5230    15.7140    25.5790   -10.6490 
  156.1250     2.5850    41.4740    17.5600    16.2690    15.8530    25.5150   -10.6520 
  156.2500     2.5700    43.1280    17.9770    16.5270    15.7300    25.4020   -10.6600 
  156.3750     2.5600    43.3740    18.7760    17.1940    15.7670    25.2470   -10.6780 
  156.5000     2.5510    42.5740    19.8390    18.1650    16.2070    25.0960   -10.7040 
  156.6250     2.5460    42.0160    20.9800    19.2850    17.8470    24.9640   -10.7330 
  156.7500     2.5430    41.9870    21.9110    20.2760    19.8750    24.8760   -10.7530 
  156.8750     2.5410    42.8800    22.3950    20.8870    20.9980    24.8460   -10.7500 
  157.0000     2.5440    43.5070    22.3040    20.9540    20.7870    24.8730   -10.7260 
  157.1250     2.5570    42.7980    21.6320    20.4160    19.0180    24.9390   -10.6900 
  157.2500     2.5720    42.2590    20.6870    19.5520    17.4790    24.9680   -10.6440 
  157.3750     2.5750    42.0130    19.6360    18.5330    16.6030    24.9810   -10.5850 
  157.5000     2.5650    41.2920    18.5330    17.4420    16.1600    24.9980   -10.5110 
  157.6250     2.5510    41.6270    17.3510    16.2920    15.6300    25.0270   -10.4280 
  157.7500     2.5360    44.1670    16.1190    15.1200    15.0540    25.0400   -10.3470 
  157.8750     2.5140    46.5500    14.9460    14.0120    13.3410    25.0440   -10.2680 
  158.0000     2.4770    47.1690    13.9920    13.0950    11.3250    25.0440   -10.1890 
  158.1250     2.4340    47.7610    13.4430    12.5230    10.4120    25.0730   -10.1150 
  158.2500     2.4100    48.3080    13.2550    12.2690    10.5020    25.1690   -10.0610 
  158.3750     2.4130    47.2530    13.3660    12.2910    11.1700    25.3260   -10.0370 
  158.5000     2.4360    44.7940    13.6710    12.5190    12.0500    25.4450   -10.0370 
  158.6250     2.4630    43.9260    14.0630    12.8700    12.6120    25.4820   -10.0390 
  158.7500     2.4790    45.7380    14.4450    13.2350    12.3250    25.4870   -10.0250 
  158.8750     2.4850    48.6940    14.7780    13.5600    12.1790    25.4870   -10.0020 
  159.0000     2.4820    51.2200    15.0330    13.8080    12.8040    25.4870    -9.9920 
  159.1250     2.4710    50.8960    15.1550    13.9280    13.2040    25.4720   -10.0140 
  159.2500     2.4600    48.1100    15.1520    13.9290    13.1450    25.4320   -10.0530 
  159.3750     2.4620    44.3070    15.0610    13.8330    12.9900    25.3770   -10.0940 
  159.5000     2.4820    43.2280    14.9840    13.7130    12.5140    25.3470   -10.1290 
  159.6250     2.5130    46.2840    15.1130    13.7230    12.4770    25.3520   -10.1530 
  159.7500     2.5390    48.6430    15.5570    13.9700    12.6140    25.3930   -10.1680 
  159.8750     2.5560    47.9800    16.3600    14.5210    12.7300    25.4550   -10.1880 
  160.0000     2.5700    46.2520    17.4570    15.3550    13.8050    25.4840   -10.2270 
  160.1250     2.5840    45.0600    18.5840    16.3100    15.7440    25.4560   -10.2790 
  160.2500     2.5840    44.1760    19.3580    17.0550    16.7650    25.4210   -10.3190 
  160.3750     2.5670    44.8080    19.5370    17.3470    17.2960    25.5020   -10.3290 
  160.5000     2.5430    46.6880    19.1240    17.1320    17.4650    25.6560   -10.3080 
  160.6250     2.5260    46.6370    18.3910    16.5730    16.7320    25.7520   -10.2640 
  160.7500     2.5250    45.4500    17.8250    16.0670    15.3960    25.7400   -10.2270 
  160.8750     2.5350    44.4040    17.7310    15.8840    15.6870    25.6780   -10.2140 
  161.0000     2.5490    43.1640    18.2430    16.1770    17.2960    25.6360   -10.2250 
  161.1250     2.5550    40.6090    19.3470    17.0080    18.1910    25.6170   -10.2410 
  161.2500     2.5470    38.0370    20.5890    18.0510    19.2730    25.5780   -10.2410 
  161.3750     2.5330    36.9410    21.4610    18.9010    20.3510    25.4860   -10.2250 
  161.5000     2.5160    38.4430    21.5160    19.1530    20.9730    25.3660   -10.2010 
  161.6250     2.4930    40.9950    20.5860    18.5670    20.8850    25.2670   -10.1850 
  161.7500     2.4680    41.7690    19.2760    17.5660    18.0200    25.2220   -10.1860 
  161.8750     2.4480    40.8040    18.0800    16.5440    14.7890    25.2270   -10.1990 
  162.0000     2.4420    39.3500    17.3080    15.7910    13.4530    25.2600   -10.2070 
  162.1250     2.4520    39.3540    17.1480    15.5160    14.3670    25.3430   -10.1910 
  162.2500     2.4780    41.9140    17.4470    15.6550    15.1030    25.3890   -10.1590 
  162.3750     2.5100    45.4120    18.0650    16.1330    15.0510    25.3760   -10.1290 
