~V
VERS. 2.00: Ver 2.00
~W
STRT.M 50.0000:
STOP.M 229.0000:
STEP.M 0.1250:
NULL. -999.2500:
UWI. F10777:
~C
DEPT.M :
DEN.GM/CC :
GR.API :
RML.OHMM :
RI. :
RXO.OHMM :
CALI.CM :
SP.MV :
~A
# ...
  128.7500     2.2140    62.3830    23.2150    18.5990    14.7320    24.3570   -12.7630 
  128.8750     2.2010    62.3690    24.6280    19.5270    15.5430    24.3550   -13.0240 
  129.0000     2.1930    59.7670    26.2430    20.7530    16.4490    24.3520   -13.0520 
  129.1250     2.1920    57.6620    27.4340    21.8050    16.2280    24.3480   -12.8430 
  129.2500     2.1960    56.4740    27.9040    22.3550    15.8570    24.3360   -12.5190 
  129.3750     2.2040    56.5470    27.6670    22.3430    16.4640    24.3090   -12.1770 
  129.5000     2.2080    57.8820    26.9840    21.9440    18.1920    24.2870   -11.8870 
  129.6250     2.2050    58.3460    26.2710    21.4900    18.1400    24.2630   -11.6770 
  129.7500     2.1920    56.8950    25.9020    21.2950    16.9990    24.2310   -11.5090 
  129.8750     2.1810    54.2500    26.0390    21.5000    15.8920    24.1950   -11.3600 
  130.0000     2.1820    53.1450    26.6670    22.1140    15.7310    24.1730   -11.2370 
  130.1250     2.1980    54.7480    27.6090    23.0220    16.3750    24.1750   -11.1970 
  130.2500     2.2210    57.7800    28.4720    23.9060    17.0680    24.2110   -11.2750 
  130.3750     2.2360    59.7550    28.9690    24.5050    17.4570    24.2960   -11.4880 
  130.5000     2.2410    58.6820    28.9550    24.6550    18.1170    24.4480   -11.8290 
  130.6250     2.2400    54.9450    28.3240    24.2250    19.1830    24.5100   -12.2970 
  130.7500     2.2410    53.0660    27.1030    23.2520    18.5190    24.5080   -12.8580 
  130.8750     2.2450    54.9270    25.1530    21.6510    17.2150    24.4810   -13.4990 
  131.0000     2.2520    57.7880    22.4160    19.3960    15.7380    24.5110   -14.2150 
  131.1250     2.2620    58.7530    19.1100    16.6600    15.3080    24.5790   -15.0170 
  131.2500     2.2760    62.0300    15.9240    13.9900    14.8620    24.6170   -15.8760 
  131.3750     2.2900    69.3140    13.3810    11.7900    14.1890    24.6390   -16.7610 
  131.5000     2.3010    77.1840    11.7930    10.3020    13.4460    24.6790   -17.6250 
  131.6250     2.3060    80.0830    11.4220     9.7380    13.2300    24.7160   -18.3980 
  131.7500     2.3020    76.0610    12.0270     9.9470    12.8910    24.6970   -19.0420 
  131.8750     2.2900    67.9380    13.4540    10.8620    14.9740    24.6710   -19.5250 
  132.0000     2.2720    62.0670    15.4300    12.3320    15.9800    24.6870   -19.8460 
  132.1250     2.2520    62.4140    17.4920    14.0660    20.1940    24.7590   -20.0120 
  132.2500     2.2390    62.1610    19.0910    15.5690    21.7340    24.8120   -20.0960 
  132.3750     2.2400    57.9210    19.9240    16.5010    19.4230    24.7710   -20.1320 
  132.5000     2.2540    53.0140    19.9820    16.7590    17.9540    24.6810   -20.1320 
  132.6250     2.2750    53.2490    19.4930    16.4610    15.5710    24.6060   -20.0830 
  132.7500     2.2910    57.6590    18.9080    15.9880    14.0500    24.5830   -19.9940 
  132.8750     2.2930    61.9460    18.4180    15.5120    13.0620    24.5910   -19.8890 
  133.0000     2.2820    62.0530    18.0670    15.0920    12.0840    24.5990   -19.8000 
  133.1250     2.2610    59.0470    17.8210    14.7270    12.1260    24.5900   -19.7670 
  133.2500     2.2380    57.7680    17.6050    14.3940    12.4710    24.5900   -19.7890 
  133.3750     2.2230    58.9520    17.3840    14.0820    12.7090    24.6440   -19.8630 
  133.5000     2.2160    59.4530    17.1340    13.7790    11.7510    24.7670   -19.9780 
  133.6250     2.2190    57.6720    16.8260    13.4670    10.5480    24.8010   -20.1220 
  133.7500     2.2310    56.0110    16.4490    13.1310    10.4560    24.6340   -20.2960 
  133.8750     2.2460    55.5940    16.0100    12.7700    10.8290    24.3710   -20.5310 
  134.0000     2.2580    56.2310    15.5580    12.4140    11.1040    24.1620   -20.8680 
  134.1250     2.2620    56.7770    15.1870    12.1190    10.9580    24.0150   -21.3350 
  134.2500     2.2610    56.8050    14.9500    11.9110    10.8470    23.9050   -21.8590 
  134.3750     2.2590    57.7930    14.8530    11.8040    10.7310    23.8670   -22.3480 
  134.5000     2.2560    61.5430    14.8450    11.7870    10.9490    23.8600   -22.7160 
  134.6250     2.2500    65.6230    14.8130    11.8170    11.1240    23.8180   -22.9050 
  134.7500     2.2410    65.8790    14.6910    11.8420    11.6780    23.7880   -22.9750 
  134.8750     2.2300    63.3970    14.5200    11.8690    12.0700    23.7520   -22.9740 
  135.0000     2.2210    60.8750    14.3990    11.9450    11.5200    23.7320   -22.9380 
  135.1250     2.2160    59.0630    14.4630    12.1520    10.6940    23.8780   -22.8640 
  135.2500     2.2180    57.2440    14.7390    12.5070    10.5700    24.1050   -22.7400 
  135.3750     2.2240    56.1760    15.2210    13.0140    10.8500    24.2870   -22.5590 
  135.5000     2.2290    55.2970    15.8410    13.6400    11.0580    24.3880   -22.3310 
  135.6250     2.2360    55.2870    16.3590    14.2340    11.1850    24.4330   -22.0860 
  135.7500     2.2490    57.1210    16.4030    14.4960    11.3670    24.4190   -21.8630 
  135.8750     2.2750    59.8110    15.6220    14.0910    12.5580    24.3870   -21.6910 
  136.0000     2.3140    62.7570    13.8990    12.8520    15.5960    24.4000   -21.5990 
  136.1250     2.3560    67.1990    11.4820    10.9150    17.6980    24.6090   -21.6130 
  136.2500     2.3840    73.4670     9.0990     8.8870    13.8870    24.7680   -21.6950 
  136.3750     2.3910    79.5920     7.1850     7.1430     8.6690    24.8040   -21.8040 
  136.5000     2.3820    85.4130     5.9040     5.8600     5.2310    24.7790   -21.9080 
  136.6250     2.3670    89.4210     5.2780     5.1170     4.4240    24.8710   -21.9980 
  136.7500     2.3550    90.2540     5.0450     4.7440     4.3040    25.0610   -22.0970 
  136.8750     2.3480    88.5040     5.0730     4.6460     4.6780    25.0550   -22.2200 
  137.0000     2.3460    86.3470     5.2910     4.7610     5.2850    24.8520   -22.3600 
  137.1250     2.3470    86.2000     5.7930     5.1330     5.6260    24.7050   -22.4930 
  137.2500     2.3550    86.1310     6.7520     5.8380     5.8680    24.6800   -22.5860 
  137.3750     2.3790    83.0950     8.4500     7.0490     6.9790    24.6460   -22.6250 
  137.5000     2.4290    75.5210    11.1360     8.9630    10.1720    24.5160   -22.6070 
  137.6250     2.4910    65.5290    14.9530    11.8110    16.2030    24.3490   -22.5400 
  137.7500     2.5170    58.2250    19.1290    15.1520    22.0010    24.1800   -22.4430 
  137.8750     2.4840    55.2580    22.5280    18.1410    30.5440    23.9710   -22.3170 
  138.0000     2.4080    56.2140    23.9940    19.7090    30.9300    23.7440   -22.1530 
  138.1250     2.3230    58.4210    23.0690    19.2480    23.6550    23.6090   -21.9260 
  138.2500     2.2640    59.7910    21.2570    17.8980    19.3150    23.5540   -21.6450 
  138.3750     2.2350    60.8760    19.6770    16.5560    16.8470    23.5550   -21.3340 
  138.5000     2.2240    61.5900    18.9220    15.7230    15.2310    23.6100   -21.0290 
  138.6250     2.2170    60.0630    19.2350    15.6480    14.7890    23.6880   -20.7670 
  138.7500     2.2030    57.8930    20.2070    16.1060    14.6660    23.7320   -20.5570 
  138.8750     2.1870    57.9850    21.4510    16.8570    14.4630    23.7080   -20.4000 
  139.0000     2.1740    60.7310    22.5820    17.6260    15.6150    23.7250   -20.2910 
  139.1250     2.1670    62.7980    23.2610    18.1500    17.5480    23.8560   -20.2430 
  139.2500     2.1720    62.7020    23.5550    18.4100    16.7230    24.0530   -20.2480 
  139.3750     2.1860    61.7780    23.6550    18.5070    15.3960    24.2870   -20.2880 
  139.5000     2.2040    59.4500    23.7330    18.5580    16.6070    24.5050   -20.3270 
  139.6250     2.2220    55.9880    23.8210    18.6000    19.8960    24.6220   -20.3110 
  139.7500     2.2340    55.1700    23.8490    18.6060    20.7820    24.6030   -20.2250 
  139.8750     2.2360    58.9320    23.7890    18.5630    20.0680    24.5680   -20.0750 
