~V
VERS. 2.00: Ver 2.00
~W
STRT.M 45.0000:
STOP.M 272.0000:
STEP.M 0.1250:
NULL. -999.2500:
UWI. F10774:
~C
DEPT.M :
DEN.GM/CC :
SP.MV :
GR.API :
RML.OHMM :
RI. :
RXO.OHMM :
CALI.CM :
~A
# ...
  202.5000     2.3630   -26.8000    54.6130    21.9960    19.6170    22.1000    24.8130 
  202.6250     2.3040   -26.7010    52.6370    22.0440    20.0620    20.6060    24.8220 
  202.7500     2.2640   -26.5990    54.7950    20.5310    19.1520    17.2960    24.8080 
  202.8750     2.2610   -26.4940    59.2150    18.5100    17.6110    13.4880    24.7580 
  203.0000     2.2780   -26.3990    62.3240    16.9130    16.2120    10.6980    24.6740 
  203.1250     2.2940   -26.3150    61.4640    16.2130    15.4260     9.5380    24.5930 
  203.2500     2.3020   -26.2460    56.7480    16.3710    15.3400     9.9970    24.5110 
  203.3750     2.3020   -26.1960    52.6630    16.7920    15.5590    11.1670    24.4380 
  203.5000     2.2930   -26.1670    52.6730    16.9370    15.6490    12.1130    24.3740 
  203.6250     2.2810   -26.1520    55.8800    16.3780    15.2070    11.8170    24.2950 
  203.7500     2.2810   -26.1520    59.7290    15.0590    14.1160    10.1270    24.1930 
  203.8750     2.2910   -26.1740    62.4230    13.5390    12.8030     8.6240    24.0980 
  204.0000     2.2980   -26.2170    62.3000    12.3290    11.6740     7.7700    24.0390 
  204.1250     2.2910   -26.2810    60.8080    11.8230    11.0370     7.8880    24.0020 
  204.2500     2.2730   -26.3750    60.5460    12.3160    11.1280     8.8290    24.0020 
  204.3750     2.2530   -26.4950    60.3270    13.7940    11.9670     9.8520    24.0680 
  204.5000     2.2360   -26.6320    59.1980    16.3000    13.6260    11.0980    24.2170 
  204.6250     2.2210   -26.7840    58.2910    19.8260    16.1740    13.0540    24.4700 
  204.7500     2.2040   -26.9440    56.9350    24.2200    19.5930    17.0170    24.8120 
  204.8750     2.1930   -27.1020    53.0480    28.8050    23.3720    22.8010    25.1370 
  205.0000     2.1990   -27.2480    47.7980    32.7440    26.8120    27.2010    25.3150 
  205.1250     2.2270   -27.3690    45.1440    35.1350    29.0810    27.3020    25.3140 
  205.2500     2.2610   -27.4560    45.9160    35.4810    29.6260    25.8020    25.2500 
  205.3750     2.2780   -27.5040    47.7330    34.5500    28.9650    25.0330    25.2280 
  205.5000     2.2720   -27.5040    49.7120    33.1690    27.7320    24.2400    25.2520 
  205.6250     2.2490   -27.4670    51.3270    32.0050    26.5070    23.2150    25.3090 
  205.7500     2.2230   -27.4090    52.4410    31.3700    25.6440    22.5570    25.3750 
  205.8750     2.2060   -27.3340    53.4750    31.1170    25.1430    22.0840    25.3510 
  206.0000     2.2020   -27.2390    55.0490    31.0480    24.9210    21.9850    25.2410 
  206.1250     2.2050   -27.1320    56.6470    30.9770    24.8590    22.1700    25.1170 
  206.2500     2.2110   -27.0240    56.7620    30.7740    24.8420    22.2100    25.0430 
  206.3750     2.2190   -26.9150    55.3300    30.4470    24.7960    22.1180    25.0330 
  206.5000     2.2300   -26.8200    53.8370    30.0520    24.7180    21.6470    25.0020 
  206.6250     2.2470   -26.7360    53.8380    29.5570    24.5700    20.9160    24.9150 
  206.7500     2.2650   -26.6570    55.7500    28.6660    24.1160    20.1410    24.8310 
  206.8750     2.2780   -26.5740    57.4060    26.9610    22.9880    19.5820    24.8280 
  207.0000     2.2920   -26.4960    56.1850    24.1780    20.9100    19.1480    24.8120 
  207.1250     2.3130   -26.4170    53.0650    20.4990    17.9830    17.8170    24.6500 
  207.2500     2.3380   -26.3330    52.5460    16.5870    14.7480    13.9710    24.4270 
  207.3750     2.3500   -26.2490    56.2510    13.2110    11.8820     9.8100    24.4090 
  207.5000     2.3500   -26.1680    63.5580    10.7270     9.6970     7.3190    24.6840 
  207.6250     2.3520   -26.1010    71.1490     9.2130     8.2710     6.4270    25.0610 
  207.7500     2.3650   -26.0540    75.1370     8.5880     7.5700     6.3100    25.2800 
  207.8750     2.3770   -26.0300    76.2710     8.5000     7.3390     6.2810    25.3480 
  208.0000     2.3810   -26.0280    75.4570     8.6960     7.4030     6.4390    25.3580 
  208.1250     2.3750   -26.0480    73.1270     8.9250     7.5720     6.6920    25.3590 
  208.2500     2.3660   -26.1040    70.1540     8.9950     7.6880     6.8560    25.3650 
  208.3750     2.3580   -26.1860    69.8040     8.9130     7.7070     6.7430    25.3890 
  208.5000     2.3520   -26.2850    71.4230     8.7850     7.6710     6.4100    25.4430 
  208.6250     2.3500   -26.3790    72.0130     8.7350     7.6560     6.1260    25.5130 
  208.7500     2.3480   -26.4690    69.8160     8.8340     7.7200     6.0760    25.5580 
  208.8750     2.3450   -26.5430    65.4620     9.0180     7.8440     6.1260    25.5280 
  209.0000     2.3400   -26.5990    60.6180     9.1830     7.9640     6.2680    25.4090 
  209.1250     2.3330   -26.6470    58.8020     9.2120     7.9970     6.5980    25.2550 
  209.2500     2.3240   -26.6640    62.7310     9.0330     7.8730     6.7360    25.1260 
  209.3750     2.3180   -26.6520    68.4510     8.7160     7.6260     6.4960    25.0500 
  209.5000     2.3180   -26.6240    72.0650     8.3460     7.3210     6.0940    25.0110 
  209.6250     2.3230   -26.5900    72.3220     8.0100     7.0330     5.7220    24.9970 
  209.7500     2.3290   -26.5420    69.8100     7.7760     6.8240     5.5820    24.9950 
  209.8750     2.3320   -26.4960    68.9160     7.6590     6.7090     5.5660    24.9950 
  210.0000     2.3360   -26.4570    70.9100     7.6590     6.6890     5.6010    24.9920 
  210.1250     2.3390   -26.4130    74.3340     7.7620     6.7500     5.6590    24.9800 
  210.2500     2.3430   -26.3710    76.9820     7.9270     6.8650     5.7220    24.9540 
  210.3750     2.3470   -26.3360    77.7480     8.0860     6.9880     5.8970    24.9170 
  210.5000     2.3490   -26.3000    76.7140     8.1880     7.0830     6.1870    24.9020 
  210.6250     2.3490   -26.2610    73.9750     8.2050     7.1250     6.3050    24.9280 
  210.7500     2.3500   -26.2230    71.0530     8.1490     7.1140     6.1500    24.9800 
  210.8750     2.3520   -26.1860    67.7760     8.0840     7.0850     5.9430    25.0210 
  211.0000     2.3530   -26.1550    63.7600     8.0590     7.0690     5.8670    25.0500 
  211.1250     2.3530   -26.1320    61.1780     8.0900     7.0860     5.9450    25.0640 
  211.2500     2.3540   -26.1200    62.8640     8.1540     7.1310     6.0590    25.0660 
  211.3750     2.3550   -26.1210    67.0560     8.2010     7.1770     6.1680    25.0660 
  211.5000     2.3560   -26.1450    70.1300     8.2040     7.1990     6.2250    25.0660 
  211.6250     2.3560   -26.2000    71.0630     8.1650     7.1830     6.2020    25.0680 
  211.7500     2.3560   -26.2890    71.3160     8.1080     7.1320     6.1710    25.0620 
  211.8750     2.3540   -26.4030    71.3860     8.0620     7.0680     6.1260    25.0330 
  212.0000     2.3460   -26.5210    70.8380     8.0570     7.0260     6.1790    24.9910 
  212.1250     2.3360   -26.6440    69.4330     8.1500     7.0560     6.3300    24.9690 
  212.2500     2.3310   -26.7800    68.8390     8.4470     7.2410     6.4670    24.9780 
  212.3750     2.3290   -26.9330    68.2740     9.0380     7.6450     6.6820    24.9590 
  212.5000     2.3210   -27.0960    66.4960    10.0010     8.3300     7.1960    24.8800 
  212.6250     2.3020   -27.2720    63.8160    11.3540     9.3310     8.1960    24.7490 
  212.7500     2.2750   -27.4640    60.9510    13.0220    10.6300     9.8090    24.6500 
  212.8750     2.2520   -27.6620    58.3280    14.7340    12.0380    11.6810    24.6790 
  213.0000     2.2360   -27.8920    56.4040    16.2150    13.3300    13.0450    24.7930 
  213.1250     2.2300   -28.1630    56.5980    17.2150    14.2650    13.3940    24.8950 
  213.2500     2.2320   -28.4840    58.1260    17.6210    14.6900    13.4430    24.9160 
  213.3750     2.2360   -28.8490    58.6570    17.6600    14.7680    13.5310    24.9010 
  213.5000     2.2330   -29.2580    59.2320    17.5850    14.7100    13.4300    24.8840 
  213.6250     2.2190   -29.6970    59.8670    17.6460    14.7330    13.1070    24.8980 
