~V
VERS. 2.00: Ver 2.00
~W
STRT.M 50.0000:
STOP.M 230.0000:
STEP.M 0.1250:
NULL. -999.2500:
UWI. F10780:
~C
DEPT.M :
DEN.GM/CC :
GR.API :
RML.OHMM :
RI. :
RXO.OHMM :
CALI.CM :
SP.MV :
~A
# ...
  117.5000     2.2030    64.7130    19.0470    16.6140     8.6370    24.0320   -15.3420 
  117.6250     2.1990    64.3320    20.3910    17.7000     9.0040    23.9840   -15.0260 
  117.7500     2.1860    66.7730    22.1470    19.2010     9.4720    23.9350   -14.5640 
  117.8750     2.1700    69.7530    24.1860    21.0460    10.1470    23.9060   -14.0060 
  118.0000     2.1600    69.4420    26.2000    23.0220    11.0100    23.9030   -13.4680 
  118.1250     2.1600    64.1140    27.4670    24.5230    11.6390    23.9230   -13.0900 
  118.2500     2.1690    59.3640    27.3930    24.9020    11.6700    23.9490   -12.8640 
  118.3750     2.1840    59.2070    25.6800    23.7530    11.9350    24.0200   -12.8170 
  118.5000     2.2010    62.9840    22.6150    21.2270    12.1280    24.1690   -13.0350 
  118.6250     2.2130    66.7580    19.0740    18.0580    11.1090    24.4740   -13.6030 
  118.7500     2.2190    70.5360    16.1330    15.2780     9.2890    24.8370   -14.3810 
  118.8750     2.2230    75.8820    14.2970    13.3790     8.0030    25.2130   -15.2420 
  119.0000     2.2340    81.3140    13.6400    12.4880     7.9530    25.3700   -16.0990 
  119.1250     2.2620    81.8070    13.9620    12.5670     9.0760    25.1760   -16.9670 
  119.2500     2.2960    78.0220    14.5270    13.0580     9.7390    24.8330   -17.8050 
  119.3750     2.3240    74.1700    14.7610    13.4600     9.2560    24.5040   -18.5330 
  119.5000     2.3350    74.8810    14.2730    13.3210     8.3510    24.2070   -19.0590 
  119.6250     2.3260    80.9530    12.9680    12.3840     7.8770    24.0130   -19.2900 
  119.7500     2.3090    86.0930    11.3980    11.0540     7.4530    23.9600   -19.3430 
  119.8750     2.2870    88.3390    10.0200     9.7440     6.6550    24.0440   -19.3690 
  120.0000     2.2580    90.1700     9.1040     8.7530     5.9640    24.2330   -19.4380 
  120.1250     2.2290    91.6210     8.7490     8.2390     6.2710    24.6030   -19.4610 
  120.2500     2.2100    88.5660     8.7210     8.0510     6.7440    24.9880   -19.3950 
  120.3750     2.2120    82.6460     8.8600     8.0670     7.1690    25.0800   -19.2700 
  120.5000     2.2340    79.1620     9.0450     8.1740     7.2970    24.8870   -19.1630 
  120.6250     2.2630    81.8040     9.2060     8.2950     7.2750    24.8270   -19.1630 
  120.7500     2.2850    86.8200     9.3260     8.3900     6.9000    24.8340   -19.2300 
  120.8750     2.2980    89.5730     9.3950     8.4430     6.7530    24.7230   -19.2790 
  121.0000     2.3080    88.7720     9.3830     8.4280     7.5100    24.5660   -19.2730 
  121.1250     2.3210    87.4100     9.2370     8.2930     7.6830    24.6680   -19.2480 
  121.2500     2.3340    90.8520     8.9910     8.0550     7.4780    24.8410   -19.2670 
  121.3750     2.3440    98.6780     8.7180     7.7630     7.2700    24.7750   -19.3310 
  121.5000     2.3510   105.4270     8.5170     7.4970     7.0620    24.3960   -19.3890 
  121.6250     2.3590   106.4060     8.5110     7.3670     6.4760    23.9740   -19.3720 
  121.7500     2.3660   102.9050     8.7050     7.4010     6.6890    23.6430   -19.3130 
  121.8750     2.3650    99.4050     9.0670     7.5960     7.3130    23.5990   -19.2580 
  122.0000     2.3470    98.4430     9.5340     7.9140     7.5970    23.7790   -19.2420 
  122.1250     2.3060    97.4730    10.0250     8.2990     7.4490    24.1240   -19.2770 
  122.2500     2.2620    93.7460    10.4590     8.6710     7.3810    24.5070   -19.2940 
  122.3750     2.2330    87.7690    10.7690     8.9700     7.4220    24.7780   -19.3160 
  122.5000     2.2310    84.2730    10.8940     9.1370     7.3930    24.8660   -19.3710 
  122.6250     2.2550    86.3340    10.7490     9.0920     7.3810    24.6780   -19.4730 
  122.7500     2.2840    90.1470    10.3840     8.8590     7.4250    24.3490   -19.5840 
  122.8750     2.3060    92.0590     9.8730     8.4810     7.3330    23.9870   -19.6680 
  123.0000     2.3130    91.3310     9.3250     8.0360     7.1380    23.6880   -19.7000 
  123.1250     2.3040    90.9720     8.8750     7.6240     6.7780    23.6600   -19.7080 
  123.2500     2.2880    92.1370     8.5820     7.3120     6.3400    23.7380   -19.7580 
  123.3750     2.2740    94.2410     8.4540     7.1290     6.3310    23.8980   -19.8180 
  123.5000     2.2670    95.4410     8.4590     7.0680     6.4680    24.2140   -19.8410 
  123.6250     2.2720    92.9270     8.5500     7.1100     6.4670    24.6230   -19.8150 
  123.7500     2.2800    89.1800     8.6630     7.2020     6.8770    24.7330   -19.7760 
  123.8750     2.2870    87.0510     8.7670     7.3140     7.5640    24.5620   -19.7660 
  124.0000     2.2890    87.5580     8.8480     7.4300     8.1800    24.4560   -19.8040 
  124.1250     2.2870    87.8030     8.8850     7.5280     7.2340    24.4560   -19.8050 
  124.2500     2.2840    86.6820     8.8640     7.5840     7.2060    24.4140   -19.7340 
  124.3750     2.2820    85.0720     8.7700     7.5750     7.8830    24.2280   -19.6390 
  124.5000     2.2800    82.5500     8.6070     7.4900     8.4790    24.0510   -19.5960 
  124.6250     2.2790    81.4770     8.4130     7.3430     7.5940    24.2670   -19.6500 
  124.7500     2.2780    85.0370     8.2490     7.1930     6.8870    24.6310   -19.7340 
  124.8750     2.2770    92.6440     8.1410     7.0810     6.5000    24.8010   -19.7860 
  125.0000     2.2730    98.6340     8.0700     7.0110     6.3960    24.8070   -19.7920 
  125.1250     2.2700    98.0920     7.9510     6.9320     6.2780    24.7770   -19.8150 
  125.2500     2.2740    95.3310     7.7000     6.7640     6.6690    24.7060   -19.8800 
  125.3750     2.2900    95.2000     7.2880     6.4570     6.8590    24.5440   -19.9410 
  125.5000     2.3150    98.1710     6.7680     6.0280     6.4160    24.3450   -19.9440 
  125.6250     2.3370   100.8960     6.3070     5.5860     5.4520    24.2120   -19.8440 
  125.7500     2.3450   102.2280     6.0930     5.2920     4.9860    24.1090   -19.6730 
  125.8750     2.3330   105.6780     6.2690     5.2800     4.8850    24.0240   -19.5250 
  126.0000     2.3020   110.4140     6.9110     5.6440     4.9520    23.9390   -19.3950 
  126.1250     2.2590   108.1460     8.0040     6.4530     5.2850    23.8280   -19.2060 
  126.2500     2.2150    98.8520     9.1730     7.4600     6.1280    23.6460   -18.9400 
  126.3750     2.1820    88.3830     9.9870     8.3190     7.1070    23.4120   -18.6430 
  126.5000     2.1710    80.9540    10.0810     8.6510     7.3430    23.2210   -18.3630 
  126.6250     2.1860    80.1010     9.3170     8.1990     6.5620    23.2240   -18.1480 
  126.7500     2.2140    87.5960     8.2390     7.3390     5.3530    23.4110   -18.0000 
  126.8750     2.2380    99.6770     7.3490     6.4800     4.4820    23.5500   -17.8660 
  127.0000     2.2440   106.9030     7.0010     5.9500     4.1720    23.4970   -17.7410 
  127.1250     2.2300   103.2500     7.4430     6.0050     4.7870    23.2700   -17.6840 
  127.2500     2.2120    95.8170     8.5000     6.5820     5.6560    23.0920   -17.6710 
  127.3750     2.2010    88.3150    10.0230     7.6260     6.4000    23.0280   -17.5930 
  127.5000     2.2010    81.8260    11.8130     9.0210     6.5290    23.0140   -17.3560 
  127.6250     2.2060    76.7380    13.6540    10.6150     6.7430    22.9590   -16.8830 
  127.7500     2.2090    71.7870    15.4050    12.2120     7.2990    22.8490   -16.2520 
  127.8750     2.2040    66.6620    17.0720    13.7510     7.9420    22.7380   -15.5420 
  128.0000     2.1910    63.6520    18.7210    15.2480     8.6140    22.6180   -14.7750 
  128.1250     2.1730    64.3410    20.3730    16.7260     8.8820    22.4780   -13.9510 
  128.2500     2.1600    63.9800    21.9090    18.1230     8.9030    22.4050   -13.1480 
  128.3750     2.1590    61.3950    23.1180    19.2810     9.0190    22.5240   -12.4550 
  128.5000     2.1710    60.2260    23.7760    20.0040    10.1650    22.9770   -11.9790 
  128.6250     2.1900    63.0660    23.6460    20.0590    12.3470    23.4810   -11.7590 
