~V
VERS. 2.00: Ver 2.00
~W
STRT.M 59.0000:
STOP.M 248.0000:
STEP.M 0.1250:
NULL. -999.2500:
UWI. F10727:
~C
DEPT.M :
GR.API :
RML.OHMM :
RI. :
RXO.OHMM :
CALI.CM :
SP.MV :
DEN.GM/CC :
~A
# ...
  126.5000    56.2230    17.9170    18.1910    10.0950    23.8840   -10.7810     2.1600 
  126.6250    53.6060    18.2980    18.1570    10.3030    23.8690   -10.9130     2.1550 
  126.7500    54.4300    19.7620    19.1280    10.5370    23.9930   -11.0730     2.1380 
  126.8750    55.9180    21.9490    20.8770    11.2900    24.1870   -11.2690     2.1190 
  127.0000    54.9190    24.3520    23.0540    13.7300    24.3940   -11.5600     2.1080 
  127.1250    53.6670    26.1990    25.0080    17.7400    24.4690   -11.8000     2.1130 
  127.2500    54.7030    27.0490    26.1620    17.2860    24.5250   -12.0300     2.1290 
  127.3750    56.9220    26.8950    26.3480    14.7910    24.7260   -12.2830     2.1470 
  127.5000    57.6600    26.1550    25.8410    14.0250    24.7630   -12.4870     2.1580 
  127.6250    55.0250    25.5440    25.2440    14.4550    24.8010   -12.6220     2.1560 
  127.7500    51.6150    25.6190    25.1470    14.9080    24.8290   -12.7850     2.1430 
  127.8750    49.9950    26.5590    25.7710    15.3450    24.7870   -12.9110     2.1250 
  128.0000    49.8460    28.1920    27.0100    15.8110    24.7030   -12.9550     2.1080 
  128.1250    50.5430    30.0050    28.4880    16.6550    24.7720   -13.0430     2.0970 
  128.2500    51.6410    31.1780    29.5270    18.7880    24.9680   -13.1250     2.0940 
  128.3750    53.6340    30.9490    29.4140    22.5490    25.0640   -13.1750     2.1010 
  128.5000    55.3820    28.9730    27.7250    25.7970    24.9030   -13.2530     2.1200 
  128.6250    53.8940    25.6830    24.7210    23.7690    24.5050   -13.3250     2.1530 
  128.7500    52.5000    22.4400    21.6100    19.2130    24.2300   -13.3280     2.1960 
  128.8750    51.6970    20.0390    19.1200    14.5870    24.1570   -13.3120     2.2410 
  129.0000    50.0550    18.7810    17.5840    11.7060    24.0700   -13.3300     2.2810 
  129.1250    49.5620    18.5800    17.0790    11.0540    23.9500   -13.2780     2.3050 
  129.2500    51.0060    18.7250    17.1010    11.9150    23.7650   -13.2070     2.3140 
  129.3750    51.7030    18.7470    17.2760    11.7120    23.6270   -13.1600     2.3110 
  129.5000    50.8490    18.4190    17.3390    10.8810    23.5570   -13.0850     2.3020 
  129.6250    54.8750    17.8110    17.1990    10.3150    23.5480   -12.9740     2.2920 
  129.7500    61.2350    17.2800    17.0280    10.2950    23.5490   -12.8820     2.2820 
  129.8750    60.6860    17.0560    16.9890    10.8950    23.5830   -12.7770     2.2690 
  130.0000    52.9380    17.2090    17.1560    11.7400    23.8250   -12.6560     2.2520 
  130.1250    49.9060    17.7010    17.5280    12.7160    24.4290   -12.5960     2.2330 
  130.2500    54.4890    18.3660    18.0100    13.6440    24.7630   -12.5240     2.2150 
  130.3750    58.8280    19.1140    18.5460    14.2240    24.8570   -12.4520     2.2000 
  130.5000    58.2920    19.8540    19.0630    14.9280    24.9380   -12.4350     2.1890 
  130.6250    56.9390    20.4520    19.4490    15.9230    25.0010   -12.4510     2.1820 
  130.7500    57.4580    20.8660    19.6650    16.6260    24.8980   -12.4800     2.1810 
  130.8750    57.2190    21.1650    19.7460    16.4690    24.8300   -12.5590     2.1850 
  131.0000    55.2200    21.5350    19.8340    15.6080    24.9120   -12.6410     2.1920 
  131.1250    53.3810    22.2810    20.1720    14.7470    24.9350   -12.6750     2.1980 
  131.2500    53.0820    23.5040    20.8840    14.7090    24.9500   -12.7250     2.1980 
  131.3750    54.1340    25.1590    21.9990    16.3640    25.0050   -12.7430     2.1920 
  131.5000    54.8360    27.0380    23.4210    20.7470    25.3630   -12.6940     2.1820 
  131.6250    53.4350    28.8280    24.9340    24.8620    25.5610   -12.6570     2.1710 
  131.7500    51.3950    30.4160    26.3430    25.9920    25.5430   -12.5890     2.1630 
  131.8750    49.6970    32.0130    27.7010    25.2650    25.7110   -12.4580     2.1590 
  132.0000    48.2310    34.0770    29.3070    25.8570    25.5780   -12.3320     2.1620 
  132.1250    47.1120    37.2880    31.7490    27.0820    25.6640   -12.2100     2.1760 
  132.2500    46.4290    41.6030    35.1950    28.9300    25.0990   -12.0900     2.2010 
  132.3750    44.9960    46.5610    39.4700    32.5450    24.8470   -12.0170     2.2310 
  132.5000    42.9470    51.0930    43.8160    38.6720    24.6350   -11.9770     2.2580 
  132.6250    42.8400    52.9760    46.3550    57.7200    24.7800   -11.9260     2.2720 
  132.7500    44.7630    51.0340    45.6830    70.8230    25.1410   -11.9360     2.2690 
  132.8750    46.4630    45.4050    41.5530    57.0170    25.2640   -11.9830     2.2540 
  133.0000    48.0880    37.7820    35.2590    32.4670    24.9680   -12.0480     2.2320 
  133.1250    51.1090    30.5700    28.9140    22.2890    24.7850   -12.1240     2.2130 
  133.2500    53.7130    25.0980    23.8760    16.5420    24.4430   -12.1580     2.1980 
  133.3750    54.1060    21.6430    20.4570    12.9320    24.1120   -12.1770     2.1880 
  133.5000    53.6860    19.9950    18.5270    11.3310    23.9950   -12.1690     2.1810 
  133.6250    52.7130    19.9460    17.9830    11.3520    23.9740   -12.1550     2.1780 
  133.7500    51.1890    20.8880    18.3790    12.5280    24.1070   -12.1500     2.1800 
  133.8750    51.2470    22.5390    19.5400    14.8250    24.3280   -12.1630     2.1870 
  134.0000    54.1270    24.6080    21.2680    17.8540    24.5920   -12.1430     2.1980 
  134.1250    56.3480    26.8260    23.3730    18.5930    24.5370   -12.1640     2.2050 
  134.2500    55.5470    29.0800    25.6480    20.5890    24.2360   -12.2060     2.2040 
  134.3750    54.9670    31.5300    28.1110    21.5550    23.9910   -12.1710     2.1920 
  134.5000    55.8900    34.4370    30.8980    22.4950    24.0440   -12.1540     2.1710 
  134.6250    54.8740    37.8350    34.1070    25.0750    24.3220   -12.1200     2.1460 
  134.7500    52.6660    40.6940    37.0410    29.3680    24.3120   -11.9850     2.1240 
  134.8750    51.9230    41.2880    38.2230    33.8360    24.0110   -11.8270     2.1070 
  135.0000    53.3930    38.0660    36.0380    35.7860    23.9090   -11.6760     2.0970 
  135.1250    55.2760    30.9420    30.0380    27.6470    23.8580   -11.4650     2.0990 
  135.2500    57.4750    23.1500    23.1020    15.4520    23.6890   -11.2880     2.1120 
  135.3750    63.0000    16.8290    17.2250     8.4510    23.3710   -11.1560     2.1330 
  135.5000    70.7670    12.7150    13.1790     5.9830    23.1420   -11.0090     2.1580 
  135.6250    75.6730    10.7730    11.0750     5.8350    23.0830   -10.9170     2.1790 
  135.7500    75.2310    10.1030    10.1980     6.1810    23.0270   -10.8920     2.1930 
  135.8750    73.8570    10.3340    10.2470     6.2210    23.0180   -10.9090     2.1980 
  136.0000    76.0020    11.1870    10.9800     5.8130    23.0120   -10.9770     2.1930 
  136.1250    76.3570    12.3720    12.1490     5.7000    22.9820   -11.0870     2.1800 
  136.2500    70.3970    13.4800    13.3320     6.3470    22.9370   -11.2210     2.1660 
  136.3750    62.0230    14.2550    14.2400     7.7750    22.9290   -11.4000     2.1520 
  136.5000    57.7960    14.6020    14.7160     9.1580    23.0900   -11.5680     2.1440 
  136.6250    59.4430    14.5950    14.7420     9.6170    23.2810   -11.7240     2.1420 
  136.7500    62.2110    14.5980    14.6220     9.6170    23.3660   -11.8750     2.1490 
  136.8750    63.2080    14.9810    14.6620     9.6540    23.3910   -11.9430     2.1610 
  137.0000    62.4200    16.1210    15.1870    10.0150    23.4870   -11.9630     2.1750 
  137.1250    61.0580    18.5140    16.6400    11.6820    23.9800   -11.9650     2.1880 
  137.2500    58.8950    22.0730    19.0810    15.3270    24.6930   -11.8950     2.1920 
  137.3750    55.6320    26.5170    22.4630    21.1950    25.4980   -11.8110     2.1870 
  137.5000    54.6840    31.0830    26.3390    26.2520    25.8400   -11.7540     2.1730 
  137.6250    57.5720    34.1370    29.4240    27.9920    25.9310   -11.6940     2.1530 
