~V
VERS. 2.00: Ver 2.00
~W
STRT.M 59.0000:
STOP.M 248.0000:
STEP.M 0.1250:
NULL. -999.2500:
UWI. F10727:
~C
DEPT.M :
GR.API :
RML.OHMM :
RI. :
RXO.OHMM :
CALI.CM :
SP.MV :
DEN.GM/CC :
~A
# ...
   81.5000    68.7500     8.4910     7.1820     9.0340    24.9720   -13.0870     2.3250 
   81.6250    63.3640     7.7430     6.6140     7.4270    25.0660   -12.9750     2.3510 
   81.7500    60.1370     7.0400     6.0090     6.5330    25.1050   -12.8450     2.3650 
   81.8750    61.5720     6.5620     5.5430     6.1400    25.0630   -12.7510     2.3650 
   82.0000    64.1830     6.3880     5.3050     5.9020    25.0270   -12.7010     2.3570 
   82.1250    66.3390     6.5200     5.3230     6.0220    24.9130   -12.6880     2.3510 
   82.2500    68.5670     6.7580     5.4640     6.1540    24.7500   -12.6780     2.3540 
   82.3750    70.8720     6.9320     5.6000     6.2020    24.5720   -12.6600     2.3630 
   82.5000    70.6660     6.9220     5.6340     6.5740    24.4350   -12.6380     2.3710 
   82.6250    68.3990     6.6940     5.5160     6.9310    24.3590   -12.6310     2.3720 
   82.7500    67.1900     6.4170     5.3340     6.5190    24.4070   -12.6190     2.3690 
   82.8750    66.2660     6.2530     5.1890     5.7510    24.5850   -12.5790     2.3630 
   83.0000    66.9230     6.3090     5.1680     5.6840    24.8150   -12.5270     2.3550 
   83.1250    68.5910     6.6220     5.3190     6.1300    24.9160   -12.4710     2.3430 
   83.2500    68.2680     7.0610     5.5750     6.3950    25.0110   -12.4040     2.3290 
   83.3750    65.6050     7.4960     5.8540     6.7390    25.0220   -12.3360     2.3130 
   83.5000    61.8620     7.8030     6.0640     7.1180    25.0320   -12.2690     2.2980 
   83.6250    61.5530     7.9060     6.1360     7.0850    25.0360   -12.2040     2.2870 
   83.7500    65.4910     7.9030     6.1240     6.5700    25.0410   -12.1610     2.2800 
   83.8750    70.7490     7.8750     6.0880     6.4060    25.0360   -12.1450     2.2770 
   84.0000    72.8860     7.8770     6.0730     6.5510    24.9900   -12.1570     2.2760 
   84.1250    69.2070     7.9520     6.1170     6.7880    25.0230   -12.2040     2.2750 
   84.2500    64.9650     8.1090     6.2240     6.8810    25.0030   -12.2910     2.2740 
   84.3750    64.1580     8.3580     6.3940     6.8090    24.9480   -12.4050     2.2740 
   84.5000    66.2690     8.6820     6.6070     6.9170    24.8260   -12.5340     2.2750 
   84.6250    67.1560     9.0000     6.8200     7.4190    24.6310   -12.6500     2.2790 
   84.7500    65.0130     9.1730     6.9620     7.9930    24.5210   -12.7130     2.2860 
   84.8750    62.9420     9.0890     6.9840     7.6920    24.3780   -12.7450     2.2950 
   85.0000    63.9850     8.7430     6.8750     7.1280    23.9390   -12.7520     2.3030 
   85.1250    68.5020     8.2450     6.6660     6.7070    23.4890   -12.6950     2.3050 
   85.2500    72.3300     7.8000     6.4470     6.5470    23.3970   -12.6110     2.3000 
   85.3750    73.9180     7.5240     6.2800     6.5440    23.4050   -12.4860     2.2900 
   85.5000    72.6150     7.4420     6.2060     6.6090    23.2930   -12.3360     2.2790 
   85.6250    72.2340     7.4850     6.2360     6.6060    23.2130   -12.2010     2.2720 
   85.7500    73.3920     7.4940     6.2960     6.5560    23.4220   -12.0850     2.2690 
   85.8750    73.1010     7.3470     6.3000     6.5180    23.7010   -11.9870     2.2670 
   86.0000    71.9070     6.9800     6.1590     6.5400    24.1130   -11.8890     2.2640 
   86.1250    72.7790     6.3800     5.8020     6.4830    24.7170   -11.8170     2.2570 
   86.2500    72.9880     5.6970     5.3100     5.8590    25.4400   -11.7570     2.2470 
   86.3750    68.7160     5.0700     4.7900     5.0030    26.0340   -11.6920     2.2360 
   86.5000    63.1040     4.6060     4.3460     4.4600    26.0390   -11.6060     2.2240 
   86.6250    61.2360     4.3860     4.0660     4.3380    26.1730   -11.5450     2.2130 
   86.7500    60.1190     4.3460     3.9260     4.3460    26.2920   -11.5480     2.2020 
   86.8750    59.2510     4.4130     3.8870     4.3720    27.8950   -11.5410     2.1900 
   87.0000    60.5570     4.4950     3.8930     4.4170    29.3470   -11.5070     2.1780 
   87.1250    63.3470     4.4950     3.8850     4.4910    28.9270   -11.4990     2.1740 
   87.2500    65.2310     4.4010     3.8330     4.5760    27.8230   -11.5280     2.1840 
   87.3750    69.2100     4.2590     3.7470     4.6140    26.8110   -11.5790     2.2080 
   87.5000    74.6610     4.1840     3.6840     4.7030    25.9290   -11.6580     2.2430 
   87.6250    74.7760     4.4040     3.7910     4.8250    25.8830   -11.7510     2.2790 
   87.7500    71.1220     5.0670     4.1940     5.0250    25.8680   -11.8010     2.3080 
   87.8750    69.2380     6.2890     5.0070     5.3160    25.7400   -11.8460     2.3310 
   88.0000    69.7310     8.0570     6.2790     6.4590    25.2130   -11.9370     2.3520 
   88.1250    67.8160    10.0150     7.8690     9.6270    24.8170   -12.0360     2.3740 
   88.2500    64.2120    11.3190     9.1650    13.1740    24.4390   -12.0890     2.3930 
   88.3750    63.6690    11.3290     9.5770    12.9040    24.1740   -12.1330     2.3960 
   88.5000    66.1340    10.1370     9.0030     9.2090    24.2730   -12.1560     2.3760 
   88.6250    67.5360     8.5570     7.9240     7.0840    24.5620   -12.1700     2.3380 
   88.7500    67.3780     7.3570     6.9750     6.3300    25.1260   -12.2130     2.3020 
   88.8750    67.3790     6.6780     6.3360     6.5070    25.4080   -12.2600     2.2780 
   89.0000    66.3810     6.3950     5.9830     6.8820    25.4470   -12.2880     2.2670 
   89.1250    62.7940     6.3420     5.8310     6.8830    25.4110   -12.2820     2.2650 
   89.2500    62.7050     6.3810     5.7760     6.5530    25.3190   -12.2720     2.2640 
   89.3750    69.9160     6.5400     5.8220     5.9110    25.2510   -12.2580     2.2590 
   89.5000    77.8770     6.9070     6.0250     5.4970    25.0960   -12.2440     2.2510 
   89.6250    75.7540     7.5690     6.4750     5.6380    24.9300   -12.1830     2.2400 
   89.7500    67.9580     8.3650     7.0860     6.3700    24.5880   -12.0750     2.2280 
   89.8750    62.0620     9.0160     7.6750     7.1170    24.2090   -11.9450     2.2180 
   90.0000    60.1160     9.2050     7.9850     7.4940    24.1110   -11.8090     2.2180 
   90.1250    59.4290     8.7630     7.7940     7.3520    24.2990   -11.6900     2.2330 
   90.2500    59.9780     8.1370     7.3470     6.8870    24.7680   -11.5760     2.2570 
   90.3750    61.6990     7.7970     6.9690     6.4840    25.0350   -11.4810     2.2810 
   90.5000    64.4750     8.0870     6.9470     6.3810    25.0120   -11.4170     2.2960 
   90.6250    68.1380     9.3100     7.5500     7.0580    24.8180   -11.3280     2.2950 
   90.7500    69.3140    11.3020     8.7470     8.2070    24.4470   -11.2060     2.2830 
   90.8750    66.6850    13.8120    10.4500     9.6320    24.1620   -11.0650     2.2660 
   91.0000    62.2380    16.3360    12.3680     9.7370    24.1410   -10.9030     2.2510 
   91.1250    59.8300    18.0650    13.9130     9.1150    24.1570   -10.6440     2.2380 
   91.2500    59.6190    18.7840    14.7580     8.7680    24.1190   -10.3070     2.2250 
   91.3750    59.9380    18.7900    15.0000     8.7500    24.0770    -9.9050     2.2140 
   91.5000    61.2300    18.6370    15.0100     8.7870    24.0460    -9.4420     2.2070 
   91.6250    62.0830    18.8460    15.1960     8.8170    23.8960    -8.9640     2.2050 
   91.7500    61.2250    19.4740    15.6930     9.0830    23.7310    -8.5170     2.2050 
   91.8750    57.6670    20.3760    16.4590     9.5340    23.5950    -8.1610     2.2050 
   92.0000    53.0230    21.3090    17.3470     9.7790    23.5430    -7.9090     2.2000 
   92.1250    52.1050    21.9090    18.0820     9.8480    23.4550    -7.8140     2.1900 
   92.2500    54.3880    21.9840    18.4320     9.8500    23.3970    -7.8720     2.1810 
   92.3750    56.5190    21.5280    18.3080     9.7330    23.3830    -8.0660     2.1740 
   92.5000    57.8950    20.7150    17.7960     9.3750    23.3880    -8.3900     2.1700 
   92.6250    58.7870    19.7490    17.0600     9.1140    23.4280    -8.8450     2.1660 
