~V
VERS. 2.00: Ver 2.00
~W
STRT.M 55.0000:
STOP.M 262.0000:
STEP.M 0.1250:
NULL. -999.2500:
UWI. F10759:
~C
DEPT.M :
DEN.GM/CC :
GR.API :
RML.OHMM :
RI. :
RXO.OHMM :
CALI.CM :
SP.MV :
~A
# ...
  156.2500     2.1470    62.0160    57.9270    55.9740    28.0030    22.0840    -5.6300 
  156.3750     2.1420    63.0970    55.5760    54.4570    25.9700    22.1520    -5.8210 
  156.5000     2.1390    61.3830    51.7080    51.3090    24.2730    22.1770    -6.0550 
  156.6250     2.1440    60.2180    46.6120    46.7060    24.4890    22.1950    -6.3710 
  156.7500     2.1580    61.6150    40.9910    41.3620    24.5280    22.1990    -6.7230 
  156.8750     2.1740    63.5760    35.3710    35.8260    22.9250    22.2070    -7.0980 
  157.0000     2.1860    63.6450    30.3510    30.7470    21.0880    22.2610    -7.4590 
  157.1250     2.1860    62.4330    26.7590    26.9530    19.5030    22.2650    -7.7550 
  157.2500     2.1760    63.2820    24.7680    24.6200    16.7830    22.2880    -7.9800 
  157.3750     2.1630    64.6800    24.4840    23.8440    14.1560    22.3680    -8.1280 
  157.5000     2.1540    65.3150    25.8510    24.6310    14.1020    22.3890    -8.2030 
  157.6250     2.1560    64.7220    28.7960    27.0930    17.8230    22.3300    -8.1730 
  157.7500     2.1650    63.0000    32.5270    30.6200    21.5720    22.2360    -8.0750 
  157.8750     2.1750    60.2920    36.3710    34.6220    20.9670    22.0520    -7.9040 
  158.0000     2.1780    57.5670    39.6450    38.3540    18.8120    21.8720    -7.7030 
  158.1250     2.1730    58.1780    41.6750    40.9310    17.9250    21.5130    -7.5110 
  158.2500     2.1640    59.5530    42.5990    42.2640    18.0510    21.4290    -7.3340 
  158.3750     2.1570    58.0400    42.6780    42.5370    18.8560    21.4620    -7.1890 
  158.5000     2.1540    55.0230    42.1900    42.0330    19.5600    21.6820    -7.0680 
  158.6250     2.1580    55.3160    41.3890    40.9890    19.9240    21.7820    -6.9610 
  158.7500     2.1620    58.7980    40.6710    39.8740    19.5990    21.8760    -6.8520 
  158.8750     2.1630    61.8750    40.2370    38.9720    19.5880    22.0870    -6.7830 
  159.0000     2.1570    62.6220    40.0200    38.3190    20.6630    22.2510    -6.7260 
  159.1250     2.1440    61.8350    39.7810    37.7390    22.0860    22.3140    -6.6730 
  159.2500     2.1300    60.1920    39.5160    37.1550    22.2020    22.3470    -6.6140 
  159.3750     2.1220    57.9040    39.6260    36.8260    20.5720    22.3370    -6.5590 
  159.5000     2.1300    55.5460    40.8150    37.2600    18.7000    22.2800    -6.5190 
  159.6250     2.1670    55.0250    44.3240    39.4740    17.8190    22.1990    -6.5280 
  159.7500     2.2270    56.1580    50.4580    43.9720    19.5660    22.0990    -6.5710 
  159.8750     2.3010    59.4810    59.0680    50.9540    24.7340    21.9650    -6.6230 
  160.0000     2.3700    62.8210    69.0290    59.6930    30.9510    21.4680    -6.6660 
  160.1250     2.3790    62.3610    77.7080    67.9970    33.3410    21.3570    -6.6780 
  160.2500     2.4150    59.3870    82.9570    73.5830    32.0210    21.3360    -6.6570 
  160.3750     2.4220    58.7380    84.4760    75.7610    30.1270    21.3670    -6.6120 
  160.5000     2.4130    61.1590    83.7080    75.5140    29.6950    21.5210    -6.5440 
  160.6250     2.4150    60.0160    82.5100    74.5010    31.5050    22.0010    -6.4380 
  160.7500     2.4410    54.6440    81.5380    73.6370    35.9910    22.3560    -6.2900 
  160.8750     2.4900    51.9100    80.2940    72.6160    43.5840    22.5430    -6.1150 
  161.0000     2.5500    55.3350    78.2420    70.9540    50.0100    22.5590    -5.9460 
  161.1250     2.6000    58.9460    75.1270    68.3580    46.7810    22.4530    -5.8340 
  161.2500     2.6290    56.7440    71.4940    65.2300    44.5350    22.3060    -5.7660 
  161.3750     2.6360    52.4600    67.9470    62.0750    43.2280    22.2750    -5.7200 
  161.5000     2.6220    51.2180    65.0250    59.4280    42.5940    22.2600    -5.6890 
  161.6250     2.5870    53.3010    62.9830    57.6470    41.9710    22.1950    -5.6570 
  161.7500     2.5420    54.7750    61.3170    56.3280    38.7120    22.1800    -5.6250 
  161.8750     2.4960    56.1640    59.5970    55.0410    35.4710    22.1780    -5.5750 
  162.0000     2.4590    58.6910    57.6420    53.5430    37.5350    22.1860    -5.4940 
  162.1250     2.4410    59.6800    55.6230    51.9140    39.4260    22.1970    -5.3420 
  162.2500     2.4390    56.6010    53.9100    50.4790    39.1580    22.2290    -5.1650 
  162.3750     2.4530    51.2430    52.7200    49.4750    35.4070    22.3480    -4.9650 
  162.5000     2.4800    48.3870    51.9400    48.8900    33.8670    22.7300    -4.7370 
  162.6250     2.5160    49.7690    50.8690    48.1860    35.9070    22.9220    -4.5190 
  162.7500     2.5500    51.1930    48.6970    46.5540    35.3080    22.9260    -4.3560 
  162.8750     2.5720    50.4000    45.1110    43.5690    31.9010    22.8940    -4.2610 
  163.0000     2.5750    47.8640    40.5570    39.4920    29.3760    22.8790    -4.2430 
  163.1250     2.5570    46.0220    36.2590    35.3370    24.6770    22.8780    -4.2970 
  163.2500     2.5310    46.3380    33.2670    32.1660    19.4940    22.8730    -4.3900 
  163.3750     2.5040    48.3120    31.9510    30.4220    17.0030    22.8270    -4.5420 
  163.5000     2.4790    49.1250    32.1860    30.0960    17.3560    22.7770    -4.7440 
  163.6250     2.4460    49.3380    33.6300    31.0040    20.5380    22.6390    -4.9530 
  163.7500     2.3980    51.8370    35.4240    32.4190    24.0680    22.5060    -5.1440 
  163.8750     2.3370    56.6350    37.0050    33.8080    25.0370    22.4530    -5.2750 
  164.0000     2.2770    61.6690    38.0880    34.8010    23.5820    22.4220    -5.3240 
  164.1250     2.2440    63.0720    38.8020    35.3700    22.1280    22.4140    -5.2900 
  164.2500     2.2450    61.1960    39.6290    35.9300    23.1250    22.4150    -5.2020 
  164.3750     2.2790    55.7990    40.7940    36.7470    26.4240    22.4140    -5.0350 
  164.5000     2.3320    49.3150    42.2570    37.8790    31.0840    22.4220    -4.8050 
  164.6250     2.3910    46.9280    43.7750    39.1910    35.2700    22.5010    -4.5240 
  164.7500     2.4460    47.8830    45.0910    40.4370    35.2510    22.6400    -4.2100 
  164.8750     2.4950    49.7060    46.1220    41.4950    33.4290    22.6700    -3.9050 
  165.0000     2.5380    50.8420    46.9380    42.3590    32.7580    22.7410    -3.6150 
  165.1250     2.5680    52.1620    47.6260    43.0820    33.9480    22.7520    -3.3590 
  165.2500     2.5870    53.1440    48.0340    43.5960    34.5320    22.7530    -3.1140 
  165.3750     2.5990    51.3540    47.5380    43.4230    34.6350    22.7400    -2.9110 
  165.5000     2.6120    49.0090    45.3330    41.8230    32.6220    22.6610    -2.7730 
  165.6250     2.6310    49.3420    40.8930    38.1790    31.8250    22.5900    -2.7160 
  165.7500     2.6510    50.6040    35.5820    33.5930    30.8110    22.5550    -2.7030 
  165.8750     2.6630    51.7340    30.8010    29.2700    27.2830    22.5320    -2.7250 
  166.0000     2.6630    52.4640    27.5390    26.0960    21.2480    22.5340    -2.7910 
  166.1250     2.6490    52.3620    26.3530    24.6380    18.1240    22.5670    -2.8950 
  166.2500     2.6280    50.8400    26.4990    24.4290    20.2820    22.5530    -3.0020 
  166.3750     2.6030    50.2830    27.2370    24.9590    24.1830    22.5410    -3.0810 
  166.5000     2.5790    51.8850    27.7790    25.5800    23.5290    22.5770    -3.1210 
  166.6250     2.5570    52.2960    27.3810    25.5570    19.8770    22.6440    -3.1070 
  166.7500     2.5370    52.0580    26.1840    24.7980    17.4130    22.6630    -3.0540 
  166.8750     2.5150    53.8310    24.6550    23.6020    16.4310    22.7010    -2.9820 
  167.0000     2.4930    57.4880    23.3050    22.4110    15.8840    22.8660    -2.9260 
  167.1250     2.4730    58.7590    22.4660    21.5820    15.0800    22.9230    -2.8630 
  167.2500     2.4630    57.4630    22.0420    21.1010    15.3570    23.0270    -2.8220 
  167.3750     2.4670    56.5630    21.9980    20.9330    15.6230    23.1530    -2.8040 
