~V
VERS. 2.00: Ver 2.00
~W
STRT.M 10.0000:
STOP.M 237.0000:
STEP.M 0.1250:
NULL. -999.2500:
UWI. F10776:
~C
DEPT.M :
DEN.GM/CC :
GR.API :
RML.OHMM :
RI. :
RXO.OHMM :
CALI.CM :
SP.MV :
~A
# ...
  212.5000     2.3820    57.6730    17.6890    17.2130    14.3590    24.9310    -8.8290 
  212.6250     2.3360    58.8550    13.3760    13.4610     8.6260    24.8250    -9.0360 
  212.7500     2.3160    63.6220    10.8510    10.8620     6.8570    24.8180    -9.2330 
  212.8750     2.3240    66.1660     9.2800     9.1370     6.5470    25.0760    -9.4530 
  213.0000     2.3390    64.8040     8.4150     8.1000     6.7310    25.3940    -9.6760 
  213.1250     2.3460    62.5580     8.0320     7.5710     6.9460    25.5490    -9.8880 
  213.2500     2.3370    62.7740     7.9860     7.4330     7.1850    25.5360   -10.1130 
  213.3750     2.3180    65.8040     8.0910     7.4920     7.4600    25.4890   -10.3780 
  213.5000     2.3040    69.3700     8.2500     7.6470     7.7930    25.4320   -10.6300 
  213.6250     2.3070    71.2190     8.3820     7.8040     8.0210    25.3660   -10.8560 
  213.7500     2.3260    68.0040     8.4130     7.8750     8.1230    25.3730   -11.0650 
  213.8750     2.3440    63.7190     8.3520     7.8460     7.7750    25.4310   -11.2770 
  214.0000     2.3460    61.3410     8.2400     7.7390     7.3280    25.4700   -11.4610 
  214.1250     2.3410    60.7960     8.1350     7.6020     7.1420    25.4890   -11.5930 
  214.2500     2.3420    62.7480     8.0930     7.4920     7.5560    25.4970   -11.7340 
  214.3750     2.3560    66.1820     8.1180     7.4320     8.2590    25.4510   -11.8270 
  214.5000     2.3690    68.0420     8.1980     7.4180     8.9570    25.3720   -11.8920 
  214.6250     2.3750    66.2310     8.3060     7.4340     9.1630    25.2700   -12.0000 
  214.7500     2.3730    62.5700     8.4040     7.4500     9.2200    25.2450   -12.0660 
  214.8750     2.3640    60.9180     8.4500     7.4300     9.1350    25.2790   -12.0900 
  215.0000     2.3470    62.5180     8.4030     7.3470     8.6430    25.3100   -12.1330 
  215.1250     2.3270    65.2680     8.2320     7.1760     8.0090    25.2840   -12.1570 
  215.2500     2.3100    65.3850     7.9130     6.8920     7.7700    25.2120   -12.1740 
  215.3750     2.2990    63.5870     7.5230     6.5450     7.7170    25.1440   -12.2290 
  215.5000     2.2890    62.1510     7.1480     6.1990     7.4870    25.1660   -12.2880 
  215.6250     2.2870    60.8540     6.8820     5.9240     6.8770    25.3180   -12.3620 
  215.7500     2.3050    59.0460     6.8170     5.7990     6.3430    25.4220   -12.5250 
  215.8750     2.3320    58.8290     6.9320     5.8170     6.6610    25.3230   -12.7060 
  216.0000     2.3320    62.9560     7.1780     5.9530     7.4320    25.0550   -12.8820 
  216.1250     2.3090    70.1780     7.4730     6.1560     7.8040    24.8740   -13.0980 
  216.2500     2.2890    75.1350     7.7120     6.3500     7.4100    24.8590   -13.2760 
  216.3750     2.2930    74.3510     7.8350     6.4740     7.1830    24.8950   -13.4330 
  216.5000     2.3080    69.1760     7.8350     6.5030     7.0460    24.9310   -13.5990 
  216.6250     2.3200    65.4410     7.7470     6.4490     7.0020    24.9660   -13.7130 
  216.7500     2.3230    66.2130     7.6250     6.3450     6.9410    24.9800   -13.7780 
  216.8750     2.3150    66.3830     7.5200     6.2400     6.8380    25.0060   -13.8060 
  217.0000     2.3000    63.1120     7.4510     6.1560     6.7640    25.0770   -13.8210 
  217.1250     2.2840    60.5560     7.4240     6.1040     6.6650    25.1930   -13.8510 
  217.2500     2.2740    63.9700     7.4490     6.0930     6.7910    25.2640   -13.8900 
  217.3750     2.2740    66.7230     7.5200     6.1200     6.9730    25.3030   -13.9200 
  217.5000     2.2750    63.3210     7.6370     6.1850     6.9620    25.3510   -13.9640 
  217.6250     2.2750    55.8660     7.7870     6.2830     6.9030    25.4150   -14.0200 
  217.7500     2.2810    53.1930     7.9270     6.3920     7.0150    25.4120   -14.0260 
  217.8750     2.3030    57.1220     7.9990     6.4730     7.4180    25.3160   -14.0560 
  218.0000     2.3310    64.4840     7.9640     6.4870     7.8330    25.1520   -14.0770 
  218.1250     2.3490    70.0050     7.8100     6.4100     7.8170    25.0570   -14.0300 
  218.2500     2.3490    70.1220     7.5640     6.2360     7.1160    25.0840   -13.9870 
  218.3750     2.3460    68.6110     7.3110     6.0260     6.5950    25.1290   -13.9620 
  218.5000     2.3460    67.2040     7.1140     5.8340     6.3010    25.1520   -13.8910 
  218.6250     2.3410    66.5060     7.0210     5.7100     6.1520    25.1830   -13.8390 
  218.7500     2.3310    68.9520     7.0620     5.6980     6.1030    25.2710   -13.8190 
  218.8750     2.3250    74.4160     7.1840     5.7700     6.0980    25.3760   -13.7710 
  219.0000     2.3260    78.5150     7.3220     5.8810     6.0720    25.4240   -13.7410 
  219.1250     2.3270    76.9030     7.4080     5.9720     6.0820    25.3830   -13.7210 
  219.2500     2.3240    70.0630     7.3810     5.9830     6.0620    25.2720   -13.6760 
  219.3750     2.3190    64.4940     7.2690     5.9150     6.0770    25.2000   -13.6340 
  219.5000     2.3200    62.1790     7.1210     5.7990     6.0740    25.1300   -13.6020 
  219.6250     2.3310    61.9600     6.9900     5.6750     6.0330    25.0750   -13.5600 
  219.7500     2.3430    61.9250     6.9180     5.5820     6.0040    25.0390   -13.5600 
  219.8750     2.3430    63.1010     6.8930     5.5280     6.0370    25.0230   -13.5780 
  220.0000     2.3310    65.1580     6.8930     5.5030     6.0450    24.9900   -13.6140 
  220.1250     2.3180    65.2480     6.9040     5.4960     6.0300    24.9170   -13.6990 
  220.2500     2.3090    64.0380     6.9420     5.5130     6.0200    24.8610   -13.7940 
  220.3750     2.3030    64.0200     7.0400     5.5680     6.1320    24.8360   -13.8780 
  220.5000     2.2990    66.1960     7.2240     5.6810     6.3440    24.8170   -14.0070 
  220.6250     2.2980    69.9320     7.4910     5.8550     6.6260    24.7910   -14.1120 
  220.7500     2.2990    73.5960     7.7940     6.0730     7.1920    24.7800   -14.1740 
  220.8750     2.2990    75.2030     8.0370     6.2730     7.8620    24.7810   -14.2480 
  221.0000     2.2980    74.7380     8.1370     6.3910     8.0860    24.8010   -14.2720 
  221.1250     2.2970    74.1490     8.0500     6.3790     7.6420    24.8440   -14.2740 
  221.2500     2.2930    74.4890     7.7760     6.2110     6.8330    24.8680   -14.2980 
  221.3750     2.2880    74.5370     7.4370     5.9630     6.1420    24.8450   -14.2950 
  221.5000     2.2860    72.5650     7.1270     5.7050     5.6550    24.8060   -14.2640 
  221.6250     2.2960    69.6960     6.9260     5.5070     5.6180    24.7870   -14.2840 
  221.7500     2.3180    69.3140     6.8900     5.4280     5.8550    24.7840   -14.2870 
  221.8750     2.3430    70.1240     6.9780     5.4530     5.9760    24.7820   -14.2800 
  222.0000     2.3600    68.8260     7.1530     5.5600     6.0480    24.7810   -14.3240 
  222.1250     2.3650    65.7210     7.3610     5.7120     6.2950    24.7800   -14.3500 
  222.2500     2.3630    65.3170     7.5350     5.8590     6.6540    24.7810   -14.3520 
  222.3750     2.3560    66.7480     7.6330     5.9630     6.9060    24.7810   -14.3970 
  222.5000     2.3460    67.5000     7.6430     6.0050     7.0000    24.7850   -14.4290 
  222.6250     2.3350    67.1820     7.5760     5.9840     6.9050    24.8140   -14.3960 
  222.7500     2.3280    66.3690     7.4620     5.9120     6.7430    24.8870   -14.3990 
  222.8750     2.3250    65.7150     7.3530     5.8290     6.5870    24.9700   -14.4230 
  223.0000     2.3200    65.1340     7.2830     5.7640     6.5530    25.0150   -14.4330 
  223.1250     2.3090    65.3140     7.2650     5.7360     6.5930    25.0270   -14.4860 
  223.2500     2.2930    65.9510     7.3020     5.7550     6.6410    25.0270   -14.6210 
  223.3750     2.2890    67.2350     7.3660     5.8000     6.7680    25.0280   -14.7660 
  223.5000     2.3020    69.9820     7.4340     5.8510     6.9220    25.0330   -14.9150 
  223.6250     2.3240    71.1750     7.4920     5.8930     6.9180    25.0480   -15.0760 
