~V
VERS. 2.00: Ver 2.00
~W
STRT.M 50.0000:
STOP.M 230.0000:
STEP.M 0.1250:
NULL. -999.2500:
UWI. F10780:
~C
DEPT.M :
DEN.GM/CC :
GR.API :
RML.OHMM :
RI. :
RXO.OHMM :
CALI.CM :
SP.MV :
~A
# ...
   72.5000     2.1710    75.0340    17.0990    16.2910     7.7600    24.2730   -13.5970 
   72.6250     2.2090    76.6700    16.5880    15.8410     7.8330    24.2650   -13.4700 
   72.7500     2.2300    77.1090    16.1720    15.4350     7.7670    24.1910   -13.3100 
   72.8750     2.2260    75.7010    15.8780    15.1260     7.6140    24.0620   -13.1220 
   73.0000     2.2030    73.0320    15.6860    14.9170     7.5190    23.9720   -12.9310 
   73.1250     2.1810    72.3710    15.5740    14.7970     7.4980    23.9640   -12.6860 
   73.2500     2.1700    72.5950    15.5180    14.7350     7.5100    23.9560   -12.4060 
   73.3750     2.1680    73.4900    15.5380    14.7370     7.3970    23.9050   -12.1500 
   73.5000     2.1660    74.9000    15.6720    14.8300     7.3020    23.8090   -11.9060 
   73.6250     2.1570    76.2440    15.9890    15.0780     7.2650    23.7410   -11.6450 
   73.7500     2.1460    76.0620    16.4670    15.4820     7.5520    23.6900   -11.3870 
   73.8750     2.1380    75.0310    17.0420    16.0070     7.6880    23.6520   -11.1710 
   74.0000     2.1340    73.7110    17.5840    16.5510     8.6400    23.6330   -10.9840 
   74.1250     2.1360    71.2410    17.8800    16.9180     9.6030    23.6330   -10.8900 
   74.2500     2.1430    68.4340    17.8500    16.9970    10.2920    23.6480   -10.9540 
   74.3750     2.1490    67.6860    17.5130    16.7720    10.4110    23.6520   -11.1320 
   74.5000     2.1520    69.7820    17.0020    16.3360     9.8030    23.6530   -11.3810 
   74.6250     2.1440    72.7320    16.5500    15.8790     8.8540    23.7590   -11.6590 
   74.7500     2.1350    74.8870    16.3410    15.5940     8.4730    24.1990   -11.8970 
   74.8750     2.1340    77.1510    16.4570    15.5830     8.1600    24.9100   -12.0570 
   75.0000     2.1440    79.5870    16.8760    15.8700     7.4260    25.4880   -12.1680 
   75.1250     2.1530    79.0300    17.4980    16.4120     6.9250    25.3860   -12.2280 
   75.2500     2.1470    74.0410    18.1140    17.0190     7.5250    24.9700   -12.1440 
   75.3750     2.1260    67.1550    18.5850    17.5470     9.0720    24.5320   -11.9550 
   75.5000     2.1050    63.1200    18.8460    17.9000    10.2940    24.3730   -11.6920 
   75.6250     2.1090    63.9110    18.8870    18.0320     9.9300    24.7400   -11.4130 
   75.7500     2.1360    65.1840    18.8220    18.0360     8.9230    25.1600   -11.2070 
   75.8750     2.1680    64.4790    18.7240    17.9830     8.6490    25.3160   -11.0840 
   76.0000     2.1870    63.6130    18.6300    17.9200     9.0470    25.1980   -10.9840 
   76.1250     2.1790    66.0470    18.5370    17.8530     9.3600    25.0060   -10.9190 
   76.2500     2.1550    70.0270    18.4180    17.7560     9.3620    24.8820   -10.8740 
   76.3750     2.1250    72.2880    18.2620    17.6130     9.3610    24.8270   -10.7660 
   76.5000     2.1000    72.8130    18.0800    17.4280     9.2950    24.8230   -10.6490 
   76.6250     2.0820    72.1130    17.9060    17.2340     9.2280    24.8890   -10.5400 
   76.7500     2.0720    70.8070    17.7700    17.0690     9.0640    25.0100   -10.4260 
   76.8750     2.0700    68.9320    17.6830    16.9480     8.8350    25.1500   -10.3210 
   77.0000     2.0810    66.4880    17.6410    16.8680     8.6110    25.2300   -10.2400 
   77.1250     2.1080    64.0940    17.6270    16.8180     8.4790    25.2470   -10.1270 
   77.2500     2.1420    62.6980    17.6080    16.7720     8.1520    25.2950   -10.0290 
   77.3750     2.1730    62.6430    17.5550    16.7070     7.7900    25.3080   -10.0510 
   77.5000     2.1940    62.6380    17.4650    16.6110     7.6880    25.1740   -10.1540 
   77.6250     2.2050    63.3800    17.3900    16.5090     7.9700    24.9150   -10.3480 
   77.7500     2.2240    67.2680    17.4230    16.4760     8.1750    24.7370   -10.5850 
   77.8750     2.2600    74.4100    17.6390    16.5850     8.1240    24.6970   -10.8070 
   78.0000     2.3080    82.3100    18.0520    16.8770     8.0110    24.7100   -11.0330 
   78.1250     2.3440    87.4440    18.5740    17.3230     8.0270    24.5920   -11.2940 
   78.2500     2.3460    87.6520    18.9870    17.7470     8.1840    24.2190   -11.5920 
   78.3750     2.3130    84.0920    19.1000    17.9710     8.4060    23.8080   -11.8570 
   78.5000     2.2560    80.0210    18.8070    17.8520     8.3770    23.5960   -12.0650 
   78.6250     2.2000    77.8330    18.0890    17.3090     8.1680    23.5550   -12.2600 
   78.7500     2.1620    76.5800    17.1820    16.5180     8.0430    23.5670   -12.4890 
   78.8750     2.1450    76.4500    16.2540    15.6340     7.9520    23.5950   -12.7910 
   79.0000     2.1440    77.4240    15.4230    14.7910     7.8110    23.6760   -13.1940 
   79.1250     2.1510    75.3280    14.7500    14.0860     7.6340    23.8560   -13.7030 
   79.2500     2.1570    70.7350    14.2070    13.5220     7.5480    24.0160   -14.2470 
   79.3750     2.1570    68.0300    13.7890    13.0990     7.4540    24.0050   -14.8080 
   79.5000     2.1520    71.4740    13.5100    12.8260     7.3190    23.9010   -15.3480 
   79.6250     2.1470    78.1390    13.4070    12.7360     7.2810    23.8020   -15.8170 
   79.7500     2.1490    80.5500    13.4220    12.7830     7.2490    23.7220   -16.2300 
   79.8750     2.1610    78.2680    13.4630    12.8890     7.2680    23.6740   -16.6120 
   80.0000     2.1830    75.7240    13.3770    12.9200     7.2240    23.6380   -16.9110 
   80.1250     2.2080    75.9290    12.9450    12.6530     7.2300    23.5880   -17.0620 
   80.2500     2.2310    78.3180    12.1490    12.0280     7.2630    23.5830   -17.1310 
   80.3750     2.2450    82.1250    11.0670    11.0840     7.1030    23.6850   -17.1990 
   80.5000     2.2500    87.1740     9.8730     9.9640     6.6240    23.8740   -17.3440 
   80.6250     2.2440    92.7950     8.7900     8.8750     6.1260    24.1150   -17.5590 
   80.7500     2.2340    97.6280     7.9170     7.9460     6.0800    24.2680   -17.7560 
   80.8750     2.2270   100.6110     7.2520     7.2020     5.9680    24.2960   -17.8800 
   81.0000     2.2280   100.5850     6.7570     6.6240     5.8810    24.2570   -17.9550 
   81.1250     2.2440   100.1820     6.4520     6.2310     5.8180    24.1880   -18.0550 
   81.2500     2.2790   102.9410     6.3630     6.0370     5.8090    24.1610   -18.1960 
   81.3750     2.3340   107.2980     6.5430     6.0960     5.2940    24.1530   -18.3130 
   81.5000     2.4080   108.0940     6.9930     6.4260     5.1280    24.1510   -18.3510 
   81.6250     2.4830    99.8860     7.5980     6.9680     7.0050    24.1360   -18.3090 
   81.7500     2.5300    91.2380     8.0740     7.4770    10.9440    24.0970   -18.2540 
   81.8750     2.5330    90.3890     8.2020     7.7270    12.5680    24.0430   -18.2220 
   82.0000     2.4910    95.0350     7.9070     7.5940     9.2460    24.0080   -18.2230 
   82.1250     2.4220    97.4600     7.3050     7.1060     6.2210    24.0130   -18.2480 
   82.2500     2.3560    99.2270     6.7280     6.5470     5.4210    24.0220   -18.2720 
   82.3750     2.3070   102.1280     6.3670     6.1110     5.4740    24.0340   -18.2640 
   82.5000     2.2790   102.3130     6.2750     5.8940     5.6320    24.0270   -18.2410 
   82.6250     2.2660    98.8750     6.3950     5.9010     5.7720    24.0080   -18.1990 
   82.7500     2.2600    98.8200     6.5490     5.9930     5.8930    23.9920   -18.1410 
   82.8750     2.2590   100.6810     6.6390     6.0780     5.9300    23.9930   -18.1010 
   83.0000     2.2590    98.3680     6.6270     6.0980     6.0210    23.9970   -18.0710 
   83.1250     2.2600    95.3410     6.5210     6.0380     5.8220    23.9920   -17.9790 
   83.2500     2.2600    97.3730     6.3880     5.9380     5.6940    23.9780   -17.8140 
   83.3750     2.2600   101.0770     6.2690     5.8300     5.5710    23.9640   -17.6590 
   83.5000     2.2620    99.0680     6.1920     5.7380     5.6540    23.9610   -17.5700 
   83.6250     2.2660    96.2980     6.1880     5.6880     5.7310    23.9750   -17.5530 
