~V
VERS. 2.00: Ver 2.00
~W
STRT.M 40.0000:
STOP.M 236.0000:
STEP.M 0.1250:
NULL. -999.2500:
UWI. F10781:
~C
DEPT.M :
GR.API :
RML.OHMM :
RI. :
RXO.OHMM :
CALI.CM :
SP.MV :
DEN.GM/CC :
~A
# ...
   51.2500    42.4930     6.4440     1.5710     0.4180    25.5320    71.8720     2.0510 
   51.3750    38.1650     6.1520     1.5400     1.8700    25.5450    71.3770     2.0180 
   51.5000    35.9410     6.1480     1.4920     3.9880    25.5680    70.8150     1.9900 
   51.6250    36.8620     6.4310     1.4410     5.2640    25.5640    70.2840     1.9720 
   51.7500    38.8220     6.7590     1.4010     4.8190    25.5430    69.8560     1.9610 
   51.8750    40.3320     6.9610     1.3800     2.9760    25.5040    69.5960     1.9580 
   52.0000    40.3630     6.9770     1.3790     1.0950    25.4720    69.5200     1.9520 
   52.1250    38.9880     6.8560     1.3910     0.0060    25.4460    69.5940     1.9130 
   52.2500    36.1220     6.7120     1.4030    -0.3250    25.4460    69.7000     1.8410 
   52.3750    32.3730     6.5320     1.4050    -0.2250    25.4610    69.7510     1.7800 
   52.5000    29.7540     6.2690     1.3920     0.4270    25.4910    69.6610     1.8250 
   52.6250    30.3670     5.9510     1.3660     2.4670    25.5270    69.3680     2.0530 
   52.7500    33.7830     5.7160     1.3410     5.9770    25.5750    68.9040     2.3100 
   52.8750    37.5550     5.6520     1.3280     7.9070    25.6120    68.2820     2.4550 
   53.0000    38.9230     5.7730     1.3330     6.5580    25.6240    67.5350     2.4700 
   53.1250    38.0740     6.0480     1.3510     5.7330    25.6220    66.7210     2.4190 
   53.2500    37.9240     6.3340     1.3660     5.1440    25.6070    65.9240     2.3560 
   53.3750    38.7420     6.5100     1.3700     4.6710    25.5870    65.1920     2.2850 
   53.5000    39.1920     6.4890     1.3670     3.3920    25.5510    64.5670     2.2030 
   53.6250    39.9460     6.2040     1.3660     1.3630    25.5200    64.0890     2.1240 
   53.7500    41.2360     5.7780     1.3700     0.0980    25.4810    63.7520     2.0760 
   53.8750    41.9780     5.3600     1.3750    -0.4360    25.4600    63.5840     2.0680 
   54.0000    41.7580     5.0850     1.3790    -0.5180    25.4460    63.5910     2.0850 
   54.1250    40.3600     5.0270     1.3800    -0.3000    25.4610    63.7650     2.0950 
   54.2500    39.6210     5.0670     1.3770     0.1630    25.4800    64.0340     2.0820 
   54.3750    40.3320     5.0830     1.3680     1.2750    25.5110    64.3650     2.0540 
   54.5000    40.6710     4.9850     1.3480     3.2910    25.5390    64.7420     2.0270 
   54.6250    37.4840     4.7770     1.3150     5.1270    25.5680    65.1400     2.0160 
   54.7500    33.6330     4.5710     1.2780     5.5540    25.5800    65.5380     2.0230 
   54.8750    32.8260     4.4350     1.2470     5.4850    25.5810    65.9180     2.0490 
   55.0000    34.9410     4.3880     1.2250     5.0590    25.5770    66.2780     2.0960 
   55.1250    35.2010     4.4160     1.2140     4.1250    25.5530    66.6360     2.1510 
   55.2500    33.2760     4.4660     1.2020     2.8790    25.5220    67.0080     2.1880 
   55.3750    32.3210     4.5070     1.1810     1.3960    25.4800    67.3960     2.1950 
   55.5000    33.6040     4.5000     1.1510     0.1680    25.4370    67.7860     2.1790 
   55.6250    34.2290     4.3950     1.1170    -0.3970    25.3750    68.1580     2.1590 
   55.7500    33.2000     4.2190     1.0920    -0.5670    25.3190    68.5070     2.1460 
   55.8750    33.5020     4.0400     1.0800    -0.5940    25.2580    68.8130     2.1380 
   56.0000    36.9780     3.9230     1.0820    -0.5820    25.2160    69.0720     2.1240 
   56.1250    40.8840     3.9060     1.0920    -0.5790    25.1840    69.2700     2.1000 
   56.2500    42.0590     3.9480     1.0990    -0.5740    25.1740    69.4230     2.0760 
   56.3750    40.9230     3.9820     1.0980    -0.5810    25.1650    69.5610     2.0610 
   56.5000    39.4240     3.9480     1.0840    -0.5880    25.1560    69.7270     2.0570 
   56.6250    38.1460     3.8260     1.0640    -0.5710    25.1440    69.9690     2.0630 
   56.7500    37.8600     3.6580     1.0470    -0.5290    25.1280    70.3020     2.0750 
   56.8750    38.6510     3.4980     1.0420    -0.4800    25.1070    70.7450     2.0880 
   57.0000    39.2280     3.4070     1.0450    -0.4430    25.0760    71.2960     2.0970 
   57.1250    38.1610     3.4410     1.0520    -0.4130    25.0500    71.9470     2.0960 
   57.2500    36.7570     3.5440     1.0530    -0.3970    25.0240    72.6190     2.0920 
   57.3750    36.4660     3.6370     1.0490    -0.3970    25.0080    73.2400     2.0890 
   57.5000    38.0480     3.6680     1.0410    -0.4140    24.9890    73.7490     2.0880 
   57.6250    42.6880     3.6260     1.0300    -0.4270    24.9830    74.0720     2.0830 
   57.7500    48.8780     3.5670     1.0210    -0.4170    24.9630    74.2190     2.0760 
   57.8750    53.9770     3.5430     1.0140    -0.3630    24.9430    74.1850     2.0780 
   58.0000    56.1270     3.5560     1.0160    -0.2300    24.9150    73.9900     2.1030 
   58.1250    55.6050     3.6220     1.0290     0.0610    24.8960    73.6360     2.1600 
   58.2500    54.1140     3.7570     1.0470     0.3840    24.8760    73.1550     2.2350 
   58.3750    52.6270     3.9820     1.0650     0.6120    24.8630    72.5400     2.3090 
   58.5000    52.2650     4.2800     1.0790     0.6910    24.8580    71.7610     2.3660 
   58.6250    52.6800     4.5320     1.0890     0.6510    24.8550    70.7240     2.3930 
   58.7500    52.5540     4.5830     1.0950     0.5520    24.8610    69.4080     2.3890 
   58.8750    52.4980     4.4040     1.0930     0.4560    24.8760    67.7480     2.3600 
   59.0000    53.5390     4.0900     1.0630     0.3970    24.9130    65.6630     2.3200 
   59.1250    55.1750     3.6390     0.9550     0.2640    24.9550    63.0180     2.2890 
   59.2500    55.7450     2.8900     0.7600     0.0570    25.0170    59.8610     2.2810 
   59.3750    53.9760     1.8630     0.5180    -0.1890    25.0890    56.2200     2.3020 
   59.5000    49.5070     0.8960     0.2970    -0.3770    25.1860    52.1210     2.3520 
   59.6250    44.1030     0.3220     0.1560    -0.4540    25.3040    47.5610     2.4430 
   59.7500    40.8890     0.0550     0.0820    -0.2820    25.4840    42.7080     2.5650 
   59.8750    41.5780    -0.0190     0.0620     0.5790    25.7090    37.6750     2.6910 
   60.0000    46.1630     0.0290     0.0990     2.7510    25.9570    32.5940     2.7700 
   60.1250    50.5950     0.2340     0.2430     4.4250    26.1700    27.6390     2.7590 
   60.2500    51.6910     0.6780     0.5770     4.7690    26.3080    22.9280     2.7200 
   60.3750    50.3030     1.5210     1.2560     4.7270    26.3370    18.5780     2.6740 
   60.5000    49.7030     2.9360     2.4560     4.8490    26.2430    14.6980     2.6220 
   60.6250    51.2690     4.8730     4.2480     5.7070    26.0420    11.4380     2.5510 
   60.7500    54.9070     6.5680     6.1310     7.7620    25.7830     8.6970     2.4600 
   60.8750    60.9560     7.5620     7.6450    10.7660    25.5320     6.4170     2.3590 
   61.0000    65.8030     8.0100     8.6380    12.5790    25.3400     4.5260     2.2660 
   61.1250    65.7010     8.2880     9.2080    12.6790    25.2610     2.9710     2.2030 
   61.2500    63.5020     8.6030     9.6070    13.0160    25.2510     1.6230     2.1700 
   61.3750    61.6930     8.9090     9.9110    13.1360    25.2990     0.4370     2.1580 
   61.5000    60.1880     9.1280    10.1420    12.9800    25.3590    -0.6060     2.1520 
   61.6250    58.5680     9.2390    10.3220    12.6360    25.4150    -1.4820     2.1460 
   61.7500    58.0690     9.3170    10.4910    12.2220    25.4450    -2.2230     2.1470 
   61.8750    57.6370     9.4310    10.6690    11.7300    25.4640    -2.8460     2.1600 
   62.0000    56.4200     9.6240    10.8700    11.2880    25.4660    -3.3620     2.1810 
   62.1250    57.1900     9.9220    11.1100    10.9670    25.4640    -3.7670     2.1950 
   62.2500    58.6560    10.3040    11.3860    10.6710    25.4530    -4.0800     2.1930 
   62.3750    57.8930    10.7170    11.6690    10.3790    25.4300    -4.3180     2.1820 
