~V
VERS. 2.00: Ver 2.00
~W
STRT.M 50.0000:
STOP.M 230.0000:
STEP.M 0.1250:
NULL. -999.2500:
UWI. F10780:
~C
DEPT.M :
DEN.GM/CC :
GR.API :
RML.OHMM :
RI. :
RXO.OHMM :
CALI.CM :
SP.MV :
~A
# ...
   95.0000     2.3340    97.2520     5.0160     4.7750     4.1490    23.9010   -15.5070 
   95.1250     2.3230    93.3170     5.2050     4.8250     4.2810    23.7650   -15.3930 
   95.2500     2.3000    90.5960     5.6390     5.0960     4.9390    23.6450   -15.2510 
   95.3750     2.2670    91.2820     6.3050     5.5810     5.5420    23.5640   -15.1450 
   95.5000     2.2280    92.5280     7.1780     6.2580     5.9200    23.5550   -15.0860 
   95.6250     2.1940    89.7940     8.2580     7.1250     5.9960    23.6340   -15.0130 
   95.7500     2.1710    83.7180     9.4760     8.1290     6.1690    23.7640   -14.8450 
   95.8750     2.1620    76.9390    10.7790     9.2350     6.5030    23.9110   -14.5720 
   96.0000     2.1640    70.7320    12.0790    10.3860     7.0310    24.1110   -14.2990 
   96.1250     2.1700    66.9450    13.2540    11.4850     7.4220    24.2960   -14.0800 
   96.2500     2.1790    64.9840    14.2800    12.4730     7.5860    24.3720   -13.8680 
   96.3750     2.2040    63.9830    15.2130    13.3670     7.8020    24.3800   -13.6100 
   96.5000     2.2630    64.0530    16.1670    14.2440     8.1470    24.3950   -13.2730 
   96.6250     2.3610    66.4220    17.2680    15.2240     8.3870    24.3920   -12.8720 
   96.7500     2.4550    69.6250    18.4740    16.3220     8.5250    24.4020   -12.5250 
   96.8750     2.4990    71.9430    19.6130    17.4430     8.5340    24.4460   -12.2890 
   97.0000     2.4680    71.4480    20.3800    18.3600     8.5720    24.5750   -12.0710 
   97.1250     2.3710    67.0760    20.2240    18.5760     8.5840    24.5200   -11.8630 
   97.2500     2.2710    63.4010    18.9810    17.8290     8.6050    24.3850   -11.7560 
   97.3750     2.2070    64.6510    16.6930    16.0510     8.5650    24.2390   -11.8140 
   97.5000     2.1910    71.0030    13.7320    13.5160     8.4160    24.1640   -12.0830 
   97.6250     2.2130    78.7370    10.7690    10.7970     7.5450    24.1600   -12.5500 
   97.7500     2.2450    86.5010     8.3830     8.4730     6.1860    24.2110   -13.0900 
   97.8750     2.2710    92.7540     6.8180     6.8000     5.0420    24.3000   -13.6260 
   98.0000     2.2830    95.5780     6.0800     5.8280     4.5900    24.3690   -14.1890 
   98.1250     2.2770    96.0860     6.1370     5.5890     4.6230    24.4130   -14.7820 
   98.2500     2.2660    95.1090     6.6570     5.8450     5.1930    24.4160   -15.3210 
   98.3750     2.2600    92.1330     7.3980     6.4250     5.9890    24.3700   -15.7770 
   98.5000     2.2660    86.1890     8.0820     7.0940     6.6270    24.2770   -16.0810 
   98.6250     2.2800    80.9250     8.3940     7.5480     6.4320    24.2340   -16.2120 
   98.7500     2.2940    79.5230     8.3120     7.6650     6.1560    24.2340   -16.2270 
   98.8750     2.2990    80.6640     7.9620     7.4840     6.2280    24.2720   -16.2200 
   99.0000     2.2950    82.8750     7.5660     7.1650     6.3850    24.3090   -16.2520 
   99.1250     2.2820    86.7450     7.4000     6.9340     6.3890    24.3080   -16.2720 
   99.2500     2.2660    91.6540     7.6190     6.9530     6.2730    24.2540   -16.2520 
   99.3750     2.2520    94.5850     8.3330     7.3380     6.3750    24.1940   -16.1400 
   99.5000     2.2450    92.4830     9.5860     8.1760     6.8640    24.1740   -15.9650 
   99.6250     2.2450    87.8860    11.3050     9.5270     7.6840    24.1760   -15.7950 
   99.7500     2.2470    83.8630    12.9900    11.0520     9.0240    24.1200   -15.6690 
   99.8750     2.2520    82.4730    14.0550    12.2470    10.8480    24.0240   -15.5650 
  100.0000     2.2590    84.2750    13.9960    12.5630    10.4420    23.9690   -15.4280 
  100.1250     2.2720    87.0460    12.5680    11.5970     8.8610    23.9400   -15.3000 
  100.2500     2.2860    88.6570    10.5170     9.9160     7.0620    23.8830   -15.2320 
  100.3750     2.2940    89.9870     8.5130     8.1100     5.6220    23.7980   -15.2430 
  100.5000     2.2910    92.6680     7.0300     6.6330     5.0160    23.7560   -15.3180 
  100.6250     2.2780    95.4910     6.3500     5.7700     4.8790    23.6790   -15.4080 
  100.7500     2.2620    97.4110     6.3210     5.4380     4.7450    23.5670   -15.4700 
  100.8750     2.2440    96.6660     6.8910     5.6110     5.8630    23.4880   -15.4600 
  101.0000     2.2230    92.2640     8.0410     6.2890     8.2960    23.6060   -15.4030 
  101.1250     2.1970    84.5890     9.8070     7.5730     9.6300    23.9010   -15.2930 
  101.2500     2.1710    77.5810    11.8750     9.2900     8.4530    24.1550   -15.1260 
  101.3750     2.1550    72.8630    13.7630    11.1110     9.6940    24.2230   -14.9170 
  101.5000     2.1610    69.2930    14.8130    12.4540    12.2000    24.2220   -14.7140 
  101.6250     2.1970    66.8950    14.2860    12.5250    14.0180    24.3050   -14.6020 
  101.7500     2.2490    67.5040    12.5720    11.4460    13.4080    24.4030   -14.6190 
  101.8750     2.2980    72.2370    10.3550     9.7170    10.0470    24.4290   -14.7910 
  102.0000     2.3290    80.6850     8.3820     7.9790     6.5950    24.3760   -15.0310 
  102.1250     2.3330    90.0360     7.2170     6.7650     5.2680    24.2940   -15.2870 
  102.2500     2.3190    96.2770     6.7450     6.1000     5.2970    24.2970   -15.5650 
  102.3750     2.2960    98.1220     6.7750     5.8920     5.6610    24.3360   -15.8610 
  102.5000     2.2730    98.2810     7.1010     6.0150     5.7190    24.3530   -16.1600 
  102.6250     2.2630    96.4140     7.5500     6.3510     5.9510    24.3500   -16.3910 
  102.7500     2.2690    91.5260     7.9550     6.7310     6.0700    24.3420   -16.5200 
  102.8750     2.2930    86.4760     8.2300     7.0520     6.0130    24.3020   -16.5170 
  103.0000     2.3250    85.1880     8.3390     7.2480     6.5080    24.1590   -16.4590 
  103.1250     2.3510    87.2230     8.2790     7.2790     7.0770    23.9870   -16.4440 
  103.2500     2.3610    88.7210     8.1460     7.2060     7.1070    23.8570   -16.4590 
  103.3750     2.3580    89.2250     8.0190     7.0910     6.2970    23.8030   -16.4560 
  103.5000     2.3480    88.6350     7.9630     6.9950     5.8020    23.7760   -16.4230 
  103.6250     2.3370    87.2250     8.0150     6.9610     6.3460    23.7760   -16.3660 
  103.7500     2.3240    86.4650     8.1290     6.9800     7.0170    23.9110   -16.3100 
  103.8750     2.3040    87.2710     8.2600     7.0280     6.8170    24.2300   -16.3130 
  104.0000     2.2760    89.6130     8.3660     7.0770     6.2130    24.5540   -16.3680 
  104.1250     2.2500    92.0630     8.4140     7.0980     6.1490    24.7340   -16.3920 
  104.2500     2.2340    91.7720     8.4110     7.0880     6.4260    24.8310   -16.3400 
  104.3750     2.2340    88.3880     8.3700     7.0550     6.5980    24.9880   -16.2430 
  104.5000     2.2450    86.0890     8.3200     7.0180     6.5100    25.2120   -16.1230 
  104.6250     2.2560    87.8920     8.3100     7.0110     6.4810    25.2990   -16.0440 
  104.7500     2.2570    90.3680     8.3660     7.0550     6.3350    25.1450   -16.0260 
  104.8750     2.2480    90.8250     8.4820     7.1480     6.0900    24.8320   -16.0030 
  105.0000     2.2370    89.3710     8.6080     7.2570     6.0080    24.5250   -15.9220 
  105.1250     2.2370    86.2690     8.6460     7.3080     6.4590    24.4750   -15.8350 
  105.2500     2.2480    83.0200     8.5540     7.2580     6.8690    24.6760   -15.8340 
  105.3750     2.2630    82.8860     8.3430     7.1010     6.7010    24.9030   -15.9330 
  105.5000     2.2720    87.0840     8.0740     6.8730     5.8420    25.0720   -16.0930 
  105.6250     2.2670    90.5280     7.8280     6.6310     5.7290    25.3510   -16.2440 
  105.7500     2.2560    89.6830     7.6570     6.4310     5.9460    25.6660   -16.3370 
  105.8750     2.2450    87.7490     7.5880     6.3090     6.0950    25.8270   -16.4030 
  106.0000     2.2340    89.0690     7.6460     6.2920     6.1230    25.8030   -16.5320 
  106.1250     2.2210    93.2320     7.8910     6.4290     5.9950    25.6320   -16.7450 
