~V
VERS. 2.00: Ver 2.00
~W
STRT.M 50.0000:
STOP.M 261.0000:
STEP.M 0.1250:
NULL. -999.2500:
UWI. F10772:
~C
DEPT.M :
GR.API :
RML.OHMM :
RI. :
RXO.OHMM :
CALI.CM :
SP.MV :
DEN.GM/CC :
~A
# ...
  162.5000    53.1510    40.3680    38.7630    16.3590    23.8870     0.9860     2.3660 
  162.6250    49.8160    40.5820    38.9370    17.3530    23.8960     1.4520     2.3530 
  162.7500    48.1330    40.5820    38.8810    16.3800    23.9200     1.8830     2.3500 
  162.8750    49.5950    40.3330    38.4960    15.5180    23.9440     2.2970     2.3520 
  163.0000    52.3110    39.9140    37.7620    15.2360    23.9470     2.6160     2.3500 
  163.1250    52.0550    39.6460    36.8760    14.8390    23.9330     2.6890     2.3330 
  163.2500    50.5270    40.0070    36.3660    14.1590    23.9470     2.5390     2.3080 
  163.3750    50.8590    41.5540    36.8030    13.6400    24.0310     2.2750     2.2870 
  163.5000    51.5500    44.8940    38.7710    13.3300    24.0870     1.9930     2.2900 
  163.6250    50.6550    51.0670    43.4400    15.8110    24.0950     1.5790     2.3330 
  163.7500    50.8210    60.0140    51.2600    26.6090    24.1010     0.9240     2.4020 
  163.8750    52.6300    71.3810    62.5310    57.3030    24.1490     0.0540     2.4780 
  164.0000    53.1950    83.7230    76.5540    94.8300    24.2040    -0.9250     2.5440 
  164.1250    51.6760    93.4010    90.3910    97.4300    24.2990    -1.9000     2.5910 
  164.2500    50.7290    96.9940    98.8880    88.7540    24.3240    -2.7990     2.6250 
  164.3750    50.4320    92.6210    97.6620    84.3090    24.2250    -3.6160     2.6500 
  164.5000    50.3970    81.0990    86.0930    78.2370    24.1140    -4.4600     2.6540 
  164.6250    51.4680    65.7550    68.4380    70.2620    24.0450    -5.2460     2.6160 
  164.7500    52.6920    51.6040    52.0680    46.6630    24.0140    -5.8330     2.5420 
  164.8750    52.2290    41.1720    40.0950    28.2580    24.0910    -6.1970     2.4580 
  165.0000    49.1380    35.3390    33.1210    18.7160    24.3380    -6.3770     2.4000 
  165.1250    46.1910    34.5590    31.1350    18.1050    24.5350    -6.4230     2.4000 
  165.2500    46.4860    37.4720    32.7460    25.9360    24.6410    -6.3860     2.4400 
  165.3750    48.3160    43.4890    37.7460    40.0250    24.6270    -6.2530     2.4940 
  165.5000    47.7220    51.8760    45.9140    49.6470    24.5430    -5.9560     2.5390 
  165.6250    45.0110    61.4550    56.6450    47.8390    24.4500    -5.5960     2.5680 
  165.7500    42.8160    70.0800    67.5140    47.0000    24.3440    -5.2700     2.5940 
  165.8750    41.7070    75.7670    75.9580    54.0300    24.1930    -4.9890     2.6260 
  166.0000    40.9470    76.9310    79.4950    67.7830    24.0580    -4.7790     2.6650 
  166.1250    41.6790    72.3190    75.8240    69.1610    23.9960    -4.6140     2.7000 
  166.2500    42.3010    63.9970    67.0650    58.1770    23.8790    -4.5220     2.7190 
  166.3750    41.7340    54.0040    55.7780    41.2370    23.7320    -4.5230     2.7150 
  166.5000    41.5760    44.3880    44.7820    28.9840    23.6430    -4.5900     2.6890 
  166.6250    43.4000    36.9890    36.4900    23.6510    23.6530    -4.6230     2.6480 
  166.7500    44.2340    32.0140    30.9920    21.8980    23.5800    -4.6600     2.6090 
  166.8750    42.5830    29.3130    27.9470    19.0740    23.4460    -4.7660     2.5790 
  167.0000    40.6010    28.5120    26.9170    16.5650    23.3410    -4.9140     2.5560 
  167.1250    41.0250    29.3740    27.7680    16.7260    23.2810    -5.0660     2.5390 
  167.2500    43.2360    31.2250    29.8630    19.5300    23.2260    -5.1670     2.5280 
  167.3750    44.3870    33.7360    32.8630    23.5140    23.2520    -5.1860     2.5300 
  167.5000    43.1480    36.6450    36.4010    25.9810    23.4160    -5.1220     2.5470 
  167.6250    39.9480    39.7130    40.1720    27.4020    23.5990    -5.0880     2.5770 
  167.7500    38.7300    42.5090    43.9600    29.2490    23.6700    -5.0670     2.6050 
  167.8750    41.1260    44.3430    47.3870    32.4370    23.6430    -5.0320     2.6240 
  168.0000    43.9100    44.2510    49.2630    33.8820    23.6130    -5.0120     2.6350 
  168.1250    44.6430    40.9230    46.7690    32.9380    23.6590    -5.0310     2.6460 
  168.2500    44.3300    35.0080    39.6500    33.2280    23.8070    -5.0580     2.6600 
  168.3750    45.1120    27.7680    30.1270    34.0940    24.0140    -5.0910     2.6690 
  168.5000    49.0260    20.9090    21.4920    24.9470    24.2440    -5.1590     2.6580 
  168.6250    55.2940    16.2410    16.0540    14.5280    24.4400    -5.2110     2.6170 
  168.7500    60.4720    14.0200    13.2590     9.2660    24.4600    -5.1990     2.5670 
  168.8750    61.8790    14.0960    12.5840     8.3150    24.4140    -5.0960     2.5350 
  169.0000    58.8290    16.0500    13.7440    11.8040    24.3240    -4.9100     2.5400 
  169.1250    53.6670    19.3890    16.9170    21.5040    24.2700    -4.6880     2.5810 
  169.2500    49.1630    23.0170    21.3430    29.7360    24.2860    -4.4790     2.6200 
  169.3750    46.3510    26.1250    25.8520    29.5220    24.3700    -4.3120     2.6340 
  169.5000    44.4890    28.1920    29.0130    26.9250    24.4510    -4.1650     2.6150 
  169.6250    42.6370    29.0770    30.0760    26.2640    24.5660    -4.0480     2.5770 
  169.7500    42.5660    29.4220    30.2400    25.9510    24.6550    -4.0190     2.5450 
  169.8750    44.8940    29.6310    30.3640    24.6390    24.5790    -4.1050     2.5290 
  170.0000    48.8990    29.8210    30.6820    24.8990    24.5180    -4.2330     2.5340 
  170.1250    52.3610    29.7740    30.7750    29.6230    24.5630    -4.2960     2.5530 
  170.2500    52.4070    29.3060    30.2210    34.4230    24.5410    -4.3400     2.5690 
  170.3750    50.4330    28.4180    28.9560    31.8120    24.3160    -4.4120     2.5710 
  170.5000    49.6400    27.3240    27.2770    26.0580    24.0190    -4.5080     2.5510 
  170.6250    51.4450    26.4310    25.7600    22.5970    24.0520    -4.5980     2.5220 
  170.7500    51.3850    26.0300    24.8410    20.1970    24.3390    -4.6640     2.5070 
  170.8750    47.0240    26.2310    24.6810    20.8610    24.5520    -4.6700     2.5190 
  171.0000    42.8090    26.9750    25.2180    22.5180    24.5520    -4.6790     2.5540 
  171.1250    42.7630    28.0950    26.3110    22.6190    24.4880    -4.7820     2.5940 
  171.2500    43.2530    29.2510    27.6140    23.5060    24.4740    -4.9330     2.6210 
  171.3750    42.8360    30.1930    28.8680    24.4340    24.4860    -5.0930     2.6340 
  171.5000    42.2770    30.7180    29.7920    23.9480    24.5020    -5.2410     2.6410 
  171.6250    42.0370    30.6120    30.0270    25.5050    24.4490    -5.3160     2.6480 
  171.7500    42.7120    29.9970    29.5820    29.4800    24.4450    -5.3090     2.6510 
  171.8750    45.7070    29.0450    28.5690    30.0370    24.4980    -5.2690     2.6410 
  172.0000    50.2810    28.0230    27.2850    23.3060    24.5330    -5.1930     2.6120 
  172.1250    51.7880    27.2990    26.1890    21.2910    24.5000    -5.0590     2.5710 
  172.2500    49.6540    27.0670    25.5640    23.3800    24.5250    -4.8520     2.5340 
  172.3750    46.1460    27.3950    25.5220    25.1330    24.5490    -4.5940     2.5150 
  172.5000    43.0240    28.2220    26.0830    24.8130    24.4750    -4.3450     2.5210 
  172.6250    43.1030    29.3970    27.2210    24.6500    24.4680    -4.1760     2.5510 
  172.7500    45.2870    30.6090    28.5740    25.8060    24.4630    -4.0830     2.5930 
  172.8750    47.2130    31.6370    29.8390    24.9190    24.3520    -4.0360     2.6310 
  173.0000    48.0900    32.3120    30.8030    24.8520    24.2350    -3.9790     2.6520 
  173.1250    48.5560    32.4620    31.2370    28.1190    24.2810    -3.8800     2.6430 
  173.2500    49.3930    32.1590    31.1330    29.2950    24.3870    -3.7940     2.6130 
  173.3750    49.5900    31.4820    30.5530    26.7130    24.4580    -3.7430     2.5780 
  173.5000    48.6130    30.5570    29.6450    24.4360    24.4980    -3.7110     2.5530 
  173.6250    48.3150    29.5540    28.5530    25.6820    24.5490    -3.7040     2.5470 
