~V
VERS. 2.00: Ver 2.00
~W
STRT.M 51.0000:
STOP.M 263.0000:
STEP.M 0.1250:
NULL. -999.2500:
UWI. F10758:
~C
DEPT.M :
DEN.GM/CC :
GR.API :
RML.OHMM :
RI. :
RXO.OHMM :
CALI.CM :
SP.MV :
~A
# ...
  118.5000     2.0890    51.9960    26.6870    21.1430    18.9200    22.8750   -11.6890 
  118.6250     2.0970    54.3990    27.7930    21.9830    17.9620    22.9130   -11.5060 
  118.7500     2.1020    57.4900    28.5870    22.8290    17.5230    23.0630   -11.3380 
  118.8750     2.1050    57.5090    29.0600    23.5850    18.6230    23.5990   -11.2070 
  119.0000     2.1090    54.8080    29.3710    24.2340    20.3040    24.1250   -11.0780 
  119.1250     2.1180    51.8700    29.6510    24.7580    20.9310    24.3740   -10.9980 
  119.2500     2.1310    49.5790    29.8410    25.1280    20.7680    24.3580   -10.9530 
  119.3750     2.1440    50.7220    29.7900    25.2960    20.9420    24.2310   -10.8860 
  119.5000     2.1530    55.2200    29.3790    25.2420    20.9690    24.0260   -10.8340 
  119.6250     2.1560    59.2750    28.5830    24.9240    18.9830    23.9410   -10.8310 
  119.7500     2.1550    61.5830    27.6310    24.3940    16.3690    23.9620   -10.8070 
  119.8750     2.1500    62.9030    26.7420    23.6960    14.3720    24.0880   -10.7920 
  120.0000     2.1420    62.9930    26.0770    22.9360    13.3810    24.1260   -10.8100 
  120.1250     2.1290    62.7440    25.7520    22.2940    13.0600    23.9630   -10.8110 
  120.2500     2.1130    64.1420    25.6950    21.8950    13.0530    23.8320   -10.8370 
  120.3750     2.0980    64.8900    25.8400    21.7900    13.2980    23.8270   -10.9000 
  120.5000     2.0930    61.7560    26.1150    21.9400    13.9010    23.7900   -10.9440 
  120.6250     2.1030    57.2720    26.4410    22.2270    14.9610    23.6680   -10.9970 
  120.7500     2.1220    55.7340    26.7240    22.4570    15.6450    23.4180   -11.0810 
  120.8750     2.1370    57.5450    26.8960    22.5180    15.1380    23.2330   -11.1650 
  121.0000     2.1400    61.1800    26.9060    22.4060    14.0490    23.3090   -11.2490 
  121.1250     2.1250    64.4240    26.7580    22.2400    13.7390    23.3580   -11.3270 
  121.2500     2.1000    64.6570    26.5540    22.1760    14.0490    23.2890   -11.4140 
  121.3750     2.0690    61.9450    26.3250    22.2530    14.6220    23.1030   -11.5010 
  121.5000     2.0400    58.8130    26.0340    22.3900    15.2720    23.0620   -11.6030 
  121.6250     2.0220    57.6250    25.6120    22.4310    15.6980    23.2930   -11.7310 
  121.7500     2.0190    57.2860    25.1640    22.3460    15.8380    23.5770   -11.8540 
  121.8750     2.0320    56.8400    24.9310    22.2640    15.5630    23.8380   -11.9760 
  122.0000     2.0560    56.3510    25.2310    22.4350    14.2010    23.9220   -12.1160 
  122.1250     2.0810    55.2700    26.4280    23.2410    13.6900    23.9270   -12.2500 
  122.2500     2.1070    53.7520    28.1320    24.5570    14.9670    23.9200   -12.3420 
  122.3750     2.1430    53.0630    29.4320    25.7610    17.6640    23.8490   -12.4700 
  122.5000     2.1980    53.9760    28.9990    25.6950    20.1180    23.7870   -12.6230 
  122.6250     2.2740    56.9220    25.5330    23.0290    20.1500    23.6950   -12.7160 
  122.7500     2.3470    61.0050    20.3320    18.7360    17.2420    23.7420   -12.8300 
  122.8750     2.3950    66.7480    15.1200    14.2910    12.3660    24.0810   -12.9540 
  123.0000     2.4070    73.8300    11.1690    10.7800     7.9750    24.2120   -13.0620 
  123.1250     2.3810    79.2760     9.1280     8.7280     6.6300    24.1670   -13.2470 
  123.2500     2.3410    81.5600     8.5830     7.8190     6.5290    23.9410   -13.4590 
  123.3750     2.3000    80.2560     9.4720     8.0040     6.7920    23.7700   -13.6530 
  123.5000     2.2750    74.5600    11.8960     9.3950     7.5520    23.7300   -13.8310 
  123.6250     2.2880    67.3340    16.1260    12.4740    11.3920    23.6670   -13.9870 
  123.7500     2.3410    62.4240    21.3010    16.9330    20.2420    23.5150   -14.1120 
  123.8750     2.4210    60.9200    25.8420    21.7450    32.3370    23.0740   -14.2050 
  124.0000     2.5010    60.2230    27.3420    24.5570    39.3590    22.7250   -14.2710 
  124.1250     2.5340    59.7530    23.8260    22.6210    33.3360    22.5570   -14.3060 
  124.2500     2.5110    61.6970    18.2450    18.1370    21.2560    22.5050   -14.3160 
  124.3750     2.4460    65.9000    13.3960    13.7220    12.2380    22.3820   -14.2770 
  124.5000     2.3700    71.2570    10.4660    10.6340     8.4450    22.2050   -14.2340 
  124.6250     2.3060    75.5550     9.5150     9.1300     7.2070    22.1110   -14.2130 
  124.7500     2.2590    75.2590     9.6160     8.6190     6.9710    22.0200   -14.1640 
  124.8750     2.2280    70.2010    10.1870     8.7520     7.4420    21.9660   -14.1330 
  125.0000     2.2090    65.3830    10.6570     9.1200     7.9560    21.7980   -14.1060 
  125.1250     2.2040    65.0860    10.4450     9.1920     8.4280    21.6980   -14.0030 
  125.2500     2.2100    65.9310     9.6010     8.7760     8.3810    21.6410   -13.9100 
  125.3750     2.2250    67.7590     8.4820     8.0350     7.5400    21.6550   -13.8680 
  125.5000     2.2420    72.6890     7.5360     7.2980     6.3760    21.6740   -13.8010 
  125.6250     2.2510    78.1860     7.1470     6.8940     6.1980    21.6580   -13.7610 
  125.7500     2.2480    79.0060     7.2760     6.8610     6.6200    21.6040   -13.7730 
  125.8750     2.2420    76.6930     7.7930     7.1430     7.0770    21.5980   -13.7720 
  126.0000     2.2390    74.8970     8.4710     7.6050     7.2250    21.6350   -13.7820 
  126.1250     2.2470    74.2470     9.0150     8.0510     7.2710    21.7000   -13.7940 
  126.2500     2.2600    75.6820     9.3010     8.3510     7.2350    22.1670   -13.7910 
  126.3750     2.2680    79.6450     9.3800     8.4880     7.0710    23.0170   -13.7750 
  126.5000     2.2630    82.8860     9.3660     8.5040     7.0340    23.6280   -13.7520 
  126.6250     2.2450    80.1950     9.3170     8.4330     7.1990    23.9210   -13.7200 
  126.7500     2.2260    75.8400     9.2220     8.3070     7.3100    24.3800   -13.6910 
  126.8750     2.2180    74.2320     9.0790     8.1460     7.1410    25.0470   -13.6850 
  127.0000     2.2240    74.1840     8.9270     7.9800     6.6470    25.3590   -13.7030 
  127.1250     2.2400    73.8860     8.8690     7.8630     6.4420    24.6210   -13.7650 
  127.2500     2.2540    76.6440     8.9510     7.8360     6.7720    24.0820   -13.8280 
  127.3750     2.2600    82.1820     9.1550     7.9030     7.2400    23.8830   -13.8770 
  127.5000     2.2580    85.3770     9.3920     8.0280     7.2890    23.9320   -13.9100 
  127.6250     2.2510    84.0630     9.5180     8.1240     7.5540    24.0510   -13.9010 
  127.7500     2.2440    82.8680     9.4820     8.1330     7.8030    24.0820   -13.8950 
  127.8750     2.2390    82.9040     9.3490     8.0790     7.9210    24.0940   -13.8980 
  128.0000     2.2360    83.2360     9.2940     8.0550     7.6140    24.0970   -13.9100 
  128.1250     2.2330    83.1970     9.5800     8.2130     7.2540    24.0770   -13.9940 
  128.2500     2.2240    81.1210    10.2560     8.6080     7.2370    23.9650   -14.1120 
  128.3750     2.2080    76.2810    11.2580     9.2470     8.0430    23.7740   -14.2520 
  128.5000     2.1850    71.5010    12.3890    10.0450     9.2050    23.5780   -14.4290 
  128.6250     2.1650    70.7130    13.3250    10.8100     9.1510    23.4460   -14.6400 
  128.7500     2.1550    72.9470    13.9010    11.3540     8.6640    23.2900   -14.8110 
  128.8750     2.1560    76.1260    14.0890    11.5900     8.4770    23.1020   -14.9360 
  129.0000     2.1650    78.1650    13.9220    11.5270     8.5690    22.9150   -15.0270 
  129.1250     2.1760    77.4680    13.3710    11.1900     8.6350    22.8620   -15.0400 
  129.2500     2.1840    77.7530    12.5320    10.6880     8.5660    22.8310   -15.0210 
  129.3750     2.1890    81.2520    11.5130    10.0720     8.5130    22.8630   -14.9430 
  129.5000     2.1910    84.2100    10.5120     9.4260     8.4810    23.0770   -14.8500 
  129.6250     2.1910    83.0800     9.8340     8.9020     8.5040    23.7350   -14.7500 
