~V
VERS. 2.00: Ver 2.00
~W
STRT.M 45.0000:
STOP.M 272.0000:
STEP.M 0.1250:
NULL. -999.2500:
UWI. F10774:
~C
DEPT.M :
DEN.GM/CC :
SP.MV :
GR.API :
RML.OHMM :
RI. :
RXO.OHMM :
CALI.CM :
~A
# ...
   78.7500     2.1550   -25.5080    64.2940    10.2530     7.9930     6.4300    24.8270 
   78.8750     2.1730   -25.5430    63.2590     9.5640     7.5620     6.2510    24.8710 
   79.0000     2.2040   -25.4640    64.4140     8.6250     6.9160     5.9590    24.8850 
   79.1250     2.2340   -25.2900    68.6040     7.6150     6.1770     5.5030    24.9150 
   79.2500     2.2530   -25.0580    73.4660     6.7190     5.4780     4.9200    25.0020 
   79.3750     2.2600   -24.8360    78.4660     6.0670     4.9220     4.2800    25.1270 
   79.5000     2.2610   -24.6710    83.1710     5.7510     4.5840     3.8880    25.2130 
   79.6250     2.2540   -24.6050    84.6920     5.8290     4.5160     3.8620    25.2350 
   79.7500     2.2400   -24.6750    80.3660     6.3400     4.7590     4.2230    25.2070 
   79.8750     2.2300   -24.8920    71.8730     7.1740     5.2520     4.7370    25.1220 
   80.0000     2.2310   -25.2480    63.3640     8.2180     5.9350     5.2960    24.9470 
   80.1250     2.2330   -25.7230    58.4600     9.2910     6.7050     5.9870    24.7430 
   80.2500     2.2160   -26.2930    56.7800    10.1580     7.4110     6.5970    24.7330 
   80.3750     2.1810   -26.8810    56.6800    10.6870     7.9240     7.0950    24.8610 
   80.5000     2.1470   -27.4360    57.7640    10.8590     8.1850     7.3030    24.9800 
   80.6250     2.1350   -27.9230    59.7960    10.7340     8.1940     7.2550    25.0440 
   80.7500     2.1440   -28.3330    60.7500    10.4200     7.9960     7.0610    25.0810 
   80.8750     2.1550   -28.6730    59.5480    10.0740     7.7160     6.8880    25.0950 
   81.0000     2.1610   -28.9440    58.1020     9.7980     7.4420     6.7700    25.0870 
   81.1250     2.1670   -29.1420    58.5100     9.6640     7.2470     6.7250    25.0450 
   81.2500     2.1780   -29.2750    60.6100     9.7150     7.1830     6.7530    25.0040 
   81.3750     2.1800   -29.3880    60.7710     9.9070     7.2370     6.9330    25.0550 
   81.5000     2.1690   -29.5150    58.6510    10.1800     7.3750     7.2260    25.1830 
   81.6250     2.1560   -29.6780    56.9350    10.4350     7.5400     7.3220    25.2150 
   81.7500     2.1560   -29.8770    56.7400    10.5670     7.6580     7.1790    25.0760 
   81.8750     2.1550   -30.0920    56.4480    10.5380     7.6880     6.9660    24.9230 
   82.0000     2.1380   -30.2940    55.5250    10.3710     7.6290     6.8130    24.8160 
   82.1250     2.1090   -30.4650    56.1680    10.1480     7.5160     6.7810    24.7110 
   82.2500     2.0960   -30.5930    58.3160     9.9720     7.4100     6.8190    24.6420 
   82.3750     2.1070   -30.6960    58.3150     9.8960     7.3530     6.7920    24.6750 
   82.5000     2.1310   -30.7790    55.1400     9.9240     7.3550     6.6530    24.8270 
   82.6250     2.1440   -30.8500    51.3520    10.0260     7.4100     6.5680    25.0210 
   82.7500     2.1410   -30.9170    50.2430    10.1610     7.4960     6.5880    25.0920 
   82.8750     2.1350   -30.9560    50.2640    10.2780     7.5850     6.6450    25.0250 
   83.0000     2.1330   -30.9560    50.2740    10.3540     7.6560     6.7330    24.9430 
   83.1250     2.1340   -30.9020    51.5410    10.3680     7.6920     6.8610    24.9180 
   83.2500     2.1440   -30.7620    53.3690    10.3070     7.6740     6.9740    24.8790 
   83.3750     2.1630   -30.5370    54.3440    10.1780     7.6000     6.9800    24.7310 
   83.5000     2.1840   -30.2420    55.7090     9.9640     7.4600     6.8090    24.6050 
   83.6250     2.1940   -29.8890    58.7660     9.6340     7.2390     6.4560    24.5570 
   83.7500     2.1980   -29.4930    62.3340     9.1740     6.9260     6.1670    24.5990 
   83.8750     2.2100   -29.0860    63.7490     8.6440     6.5600     6.1520    24.6740 
   84.0000     2.2270   -28.6930    64.4690     8.1320     6.1930     6.1020    24.7280 
   84.1250     2.2310   -28.3440    66.8910     7.7520     5.8950     5.7590    24.7540 
   84.2500     2.2030   -28.0870    70.3480     7.6190     5.7430     5.2880    24.7760 
   84.3750     2.1570   -27.9470    71.9870     7.7410     5.7530     5.0830    24.8010 
   84.5000     2.1130   -27.9200    69.9090     8.0840     5.9210     5.2180    24.8130 
   84.6250     2.0810   -27.9950    65.2400     8.5550     6.2030     5.6040    24.8300 
   84.7500     2.0640   -28.1530    61.6440     9.0100     6.5190     5.9760    24.8690 
   84.8750     2.0610   -28.3650    59.1040     9.3130     6.7740     6.1070    24.9170 
   85.0000     2.0700   -28.6310    56.6650     9.4240     6.9240     6.0850    24.9550 
   85.1250     2.0800   -28.9420    54.5840     9.3920     6.9750     6.0810    24.9870 
   85.2500     2.0780   -29.2680    53.7220     9.3260     6.9750     6.1300    25.0370 
   85.3750     2.0630   -29.5540    52.6380     9.3150     6.9770     6.1480    25.1310 
   85.5000     2.0480   -29.7710    50.9050     9.3810     7.0050     6.1340    25.3370 
   85.6250     2.0460   -29.8940    49.7420     9.5080     7.0610     6.1060    25.6980 
   85.7500     2.0650   -29.9020    49.7840     9.6770     7.1400     6.1230    26.0930 
   85.8750     2.0970   -29.8320    48.7440     9.8530     7.2270     6.1590    26.3650 
   86.0000     2.1380   -29.6830    46.2850     9.9890     7.2960     6.1770    26.4070 
   86.1250     2.1810   -29.4480    45.0810     9.9970     7.2980     6.1520    26.2620 
   86.2500     2.2160   -29.1180    48.2420     9.7620     7.1670     6.0270    26.0040 
   86.3750     2.2370   -28.7000    54.9750     9.2820     6.8950     5.7870    25.6970 
   86.5000     2.2430   -28.2110    62.6720     8.6500     6.5200     5.4560    25.4230 
   86.6250     2.2320   -27.6880    70.0300     8.0510     6.1340     5.1420    25.2620 
   86.7500     2.2050   -27.1960    74.3000     7.7250     5.8730     4.9020    25.2200 
   86.8750     2.1700   -26.7640    75.4010     7.7890     5.8290     4.9300    25.2300 
   87.0000     2.1370   -26.4150    75.5790     8.2790     6.0530     5.2930    25.2480 
   87.1250     2.1120   -26.1530    74.6050     9.1310     6.5410     6.3360    25.2270 
   87.2500     2.0960   -25.9810    68.9050    10.1650     7.2140     9.2040    25.1160 
   87.3750     2.0890   -25.8760    59.7740    11.0420     7.8670    15.4240    24.9410 
   87.5000     2.0920   -25.8200    53.0080    11.4650     8.2960    21.7220    24.8130 
   87.6250     2.1040   -25.7740    52.9260    11.2590     8.3410    18.6260    24.7670 
   87.7500     2.1270   -25.6580    57.7270    10.4880     7.9700    10.3800    24.7980 
   87.8750     2.1540   -25.4180    63.2980     9.5330     7.3930     6.8840    24.9300 
   88.0000     2.1780   -25.0270    69.4590     8.6440     6.7790     5.7620    25.0630 
   88.1250     2.1950   -24.5110    75.6630     7.9630     6.2500     5.3150    25.0500 
   88.2500     2.2050   -23.9240    80.4170     7.5270     5.8690     5.1050    24.8940 
   88.3750     2.2110   -23.3390    83.3780     7.2670     5.6150     5.0210    24.8130 
   88.5000     2.2140   -22.7990    85.9650     7.1660     5.4790     4.9380    24.9660 
   88.6250     2.2130   -22.3320    86.8160     7.2510     5.4760     4.8900    25.1910 
   88.7500     2.2090   -21.9820    82.9710     7.5820     5.6400     4.9490    25.2800 
   88.8750     2.2030   -21.7380    79.2990     8.1180     5.9490     5.1760    25.2660 
   89.0000     2.2000   -21.5910    78.4090     8.7620     6.3480     5.6700    25.2110 
   89.1250     2.2060   -21.5010    77.1480     9.3080     6.7180     6.1620    25.1800 
   89.2500     2.2240   -21.3960    73.7880     9.4830     6.8930     6.2970    25.1410 
   89.3750     2.2410   -21.2560    71.3560     9.2070     6.8050     5.8620    25.0460 
   89.5000     2.2410   -21.0850    71.6310     8.5890     6.4900     5.1410    24.9290 
   89.6250     2.2290   -20.8930    73.1190     7.8720     6.0700     4.6060    24.9220 
   89.7500     2.2210   -20.6830    74.7900     7.3040     5.6850     4.3860    25.0480 
   89.8750     2.2310   -20.4570    77.5710     6.9600     5.4110     4.2670    25.1550 
