~V
VERS. 2.00: Ver 2.00
~W
STRT.M 50.0000:
STOP.M 226.0000:
STEP.M 0.1250:
NULL. -999.2500:
UWI. F10778:
~C
DEPT.M :
DEN.GM/CC :
GR.API :
RML.OHMM :
RI. :
RXO.OHMM :
CALI.CM :
SP.MV :
~A
# ...
  151.2500     2.6120    57.2360    29.8430    26.4260    28.6840    24.4210    -9.5120 
  151.3750     2.6670    55.8070    31.0390    28.1170    29.1910    24.5160    -9.4160 
  151.5000     2.6960    54.5320    30.1380    27.9990    26.2600    24.5690    -9.3300 
  151.6250     2.6960    54.4940    27.4890    26.0450    20.1790    24.5690    -9.2020 
  151.7500     2.6830    53.2150    24.5800    23.5490    16.9720    24.5240    -9.0100 
  151.8750     2.6680    50.5260    22.2780    21.3700    17.5440    24.4680    -8.8140 
  152.0000     2.6580    48.6850    20.9350    19.9330    19.8520    24.6030    -8.6420 
  152.1250     2.6570    48.1720    20.6420    19.4190    21.1790    24.9160    -8.5000 
  152.2500     2.6560    49.5400    21.0210    19.5600    20.6960    25.1810    -8.3870 
  152.3750     2.6510    52.1640    21.8470    20.1970    20.3460    25.1840    -8.3370 
  152.5000     2.6410    52.8610    22.8930    21.1510    19.9740    24.9060    -8.3390 
  152.6250     2.6280    51.2690    23.8910    22.2180    19.5360    24.6050    -8.3530 
  152.7500     2.6180    50.3530    24.6240    23.1640    21.9660    24.5170    -8.4190 
  152.8750     2.6160    51.0740    24.9730    23.8390    26.1590    24.7640    -8.5490 
  153.0000     2.6220    51.3160    24.8860    24.1420    24.0900    25.1440    -8.6700 
  153.1250     2.6320    50.4790    24.2330    23.8780    22.2750    25.2890    -8.7760 
  153.2500     2.6410    50.0830    23.0240    23.0050    21.0730    25.2630    -8.9300 
  153.3750     2.6440    48.8070    21.2480    21.4860    20.1130    25.2800    -9.1260 
  153.5000     2.6410    47.2490    19.0330    19.4470    19.9020    25.3710    -9.2640 
  153.6250     2.6290    51.5430    16.6620    17.1600    19.3640    25.3700    -9.3670 
  153.7500     2.6060    59.0130    14.4910    14.9930    15.9080    25.1810    -9.5150 
  153.8750     2.5680    63.4660    12.7380    13.1620    12.1730    24.9270    -9.6270 
  154.0000     2.5170    63.2740    11.5140    11.7920    12.4160    24.7270    -9.6810 
  154.1250     2.4650    63.6670    10.9700    11.0400    13.5550    24.6170    -9.7390 
  154.2500     2.4340    67.6260    11.0460    10.8570    10.9070    24.5150    -9.7980 
  154.3750     2.4400    70.6090    11.7640    11.2720     8.5620    24.3800    -9.7830 
  154.5000     2.4800    68.8930    13.0860    12.2860     8.6810    24.2730    -9.7440 
  154.6250     2.5330    63.1050    14.9070    13.8990    11.2040    24.2190    -9.7320 
  154.7500     2.5700    58.1000    16.8490    15.8090    14.6600    24.2050    -9.6870 
  154.8750     2.5810    55.4560    18.6060    17.7300    17.1870    24.2180    -9.6280 
  155.0000     2.5710    54.1320    19.9660    19.3740    16.6630    24.2840    -9.5930 
  155.1250     2.5550    54.5960    20.8330    20.5060    16.5370    24.3640    -9.5520 
  155.2500     2.5470    56.6200    21.4230    21.2520    15.8550    24.3120    -9.4960 
  155.3750     2.5490    58.1740    21.8760    21.7400    16.0580    24.2060    -9.4310 
  155.5000     2.5550    57.6240    22.2470    22.0510    17.3080    24.1540    -9.3810 
  155.6250     2.5570    55.5030    22.4960    22.1730    19.5110    24.2070    -9.3700 
  155.7500     2.5510    54.3670    22.6120    22.1410    19.6230    24.2490    -9.3180 
  155.8750     2.5430    54.4880    22.6010    21.9860    19.3360    24.2660    -9.2350 
  156.0000     2.5390    54.3790    22.4710    21.7440    20.3230    24.3970    -9.1820 
  156.1250     2.5460    53.3350    22.2010    21.4200    20.4140    24.6230    -9.1240 
  156.2500     2.5550    52.6000    21.8200    21.0340    20.3580    24.7570    -8.9930 
  156.3750     2.5560    53.1580    21.3870    20.6230    18.6830    24.6420    -8.8350 
  156.5000     2.5420    54.6730    21.0150    20.2660    16.2390    24.3420    -8.6890 
  156.6250     2.5160    57.1480    20.8720    20.1030    14.6940    24.1670    -8.4900 
  156.7500     2.4930    60.3580    20.9840    20.1690    15.2020    24.1810    -8.3270 
  156.8750     2.4820    60.5710    21.2950    20.4410    15.9650    24.2810    -8.2880 
  157.0000     2.4850    56.9560    21.6940    20.8360    17.4350    24.3090    -8.2880 
  157.1250     2.4960    53.5820    22.0690    21.2470    19.4310    24.0370    -8.2750 
  157.2500     2.5100    53.3840    22.4190    21.6260    18.6210    23.7790    -8.2890 
  157.3750     2.5260    53.7220    22.8560    22.0330    17.9510    23.6990    -8.3720 
  157.5000     2.5490    53.0310    23.5360    22.5980    19.7720    23.7150    -8.4610 
  157.6250     2.5760    54.1880    24.6170    23.5080    21.1390    23.6360    -8.5150 
  157.7500     2.5990    55.7000    25.9500    24.7070    20.8320    23.5760    -8.5930 
  157.8750     2.6160    55.0210    27.2580    25.9880    21.1400    23.5660    -8.5980 
  158.0000     2.6270    53.2600    28.1700    26.9950    23.6160    23.6360    -8.5120 
  158.1250     2.6310    52.2620    28.2560    27.2500    24.7290    23.6530    -8.4360 
  158.2500     2.6280    51.4900    27.6420    26.7720    23.6090    23.5910    -8.4490 
  158.3750     2.6170    50.3110    26.6460    25.8120    20.4010    23.5750    -8.4890 
  158.5000     2.5950    49.2920    25.7270    24.7960    18.0610    23.6510    -8.5140 
  158.6250     2.5680    49.8190    25.4470    24.2760    19.1790    23.7970    -8.6130 
  158.7500     2.5410    50.3210    25.9430    24.4870    22.5520    23.8490    -8.7340 
  158.8750     2.5220    49.9520    27.1390    25.4590    24.4730    23.7930    -8.8370 
  159.0000     2.5160    49.6300    28.7320    26.9950    22.9530    23.7620    -8.9670 
  159.1250     2.5210    51.1520    30.1960    28.6550    23.6270    23.8380    -9.1550 
  159.2500     2.5220    54.2320    31.0820    29.8950    27.1880    23.8710    -9.2980 
  159.3750     2.5110    57.2140    31.2010    30.4070    28.3030    23.8450    -9.3800 
  159.5000     2.4870    59.0210    30.6410    30.1610    24.6140    23.7870    -9.5060 
  159.6250     2.4600    58.1330    29.7140    29.3700    23.4220    23.8090    -9.6040 
  159.7500     2.4440    54.5440    28.8970    28.5330    23.6210    23.9470    -9.6350 
  159.8750     2.4420    50.9370    28.4450    27.9540    23.6850    23.9850    -9.7030 
  160.0000     2.4530    48.7340    28.4400    27.7830    22.7310    23.7610    -9.8070 
  160.1250     2.4690    49.5070    28.8180    28.0340    23.2530    23.3440    -9.8390 
  160.2500     2.4880    51.7860    29.2720    28.4300    24.5390    22.9960    -9.8170 
  160.3750     2.5060    53.0670    29.5620    28.7260    24.2580    22.8490    -9.7990 
  160.5000     2.5240    52.7900    29.5240    28.7210    22.7810    22.8880    -9.7480 
  160.6250     2.5360    52.4940    29.0600    28.2670    22.7720    23.1270    -9.6400 
  160.7500     2.5410    53.4660    28.3370    27.4980    21.6770    23.4740    -9.5350 
  160.8750     2.5390    54.3150    27.5170    26.5650    20.5470    23.8190    -9.4390 
  161.0000     2.5350    54.8190    26.7390    25.6200    21.6620    24.0350    -9.3040 
  161.1250     2.5370    54.1280    26.1030    24.7780    21.5750    24.1140    -9.1790 
  161.2500     2.5510    51.8300    25.5870    24.0510    20.7240    24.1220    -9.1710 
  161.3750     2.5780    49.1940    25.1440    23.4140    20.5210    24.1490    -9.2220 
  161.5000     2.6140    48.1450    24.7260    22.8320    19.3730    24.2000    -9.2630 
  161.6250     2.6520    47.9680    24.3070    22.2960    16.7670    24.2370    -9.3140 
  161.7500     2.6840    47.0150    23.9120    21.8240    14.7440    24.1420    -9.3710 
  161.8750     2.7030    47.5100    23.6170    21.4790    14.9630    24.0060    -9.3780 
  162.0000     2.7040    49.2180    23.5260    21.3520    17.1920    23.9630    -9.3690 
  162.1250     2.6870    50.0390    23.8070    21.6040    18.1400    23.9760    -9.4070 
  162.2500     2.6630    50.2600    24.4240    22.2210    18.7350    23.9610    -9.3820 
  162.3750     2.6450    50.6410    25.2290    23.1040    19.3070    23.9470    -9.3020 
