~V
VERS. 2.00: Ver 2.00
~W
STRT.M 50.0000:
STOP.M 229.0000:
STEP.M 0.1250:
NULL. -999.2500:
UWI. F10777:
~C
DEPT.M :
DEN.GM/CC :
GR.API :
RML.OHMM :
RI. :
RXO.OHMM :
CALI.CM :
SP.MV :
~A
# ...
  117.5000     2.3320    78.9500     9.9620     8.5780    12.3170    24.8780   -21.4480 
  117.6250     2.3310    80.1640    10.4260     8.9830    12.8910    24.9450   -21.5670 
  117.7500     2.3120    78.7520    10.7250     9.2170    11.7820    24.9740   -21.7810 
  117.8750     2.2860    73.9120    10.9690     9.3580    11.4340    24.9790   -22.0780 
  118.0000     2.2660    71.3470    11.2010     9.4590    11.7270    24.9610   -22.4160 
  118.1250     2.2640    74.4210    11.2920     9.4550    12.1310    24.9220   -22.7200 
  118.2500     2.2810    77.6920    11.0800     9.2410    11.9960    24.9050   -22.9200 
  118.3750     2.3070    78.9940    10.5090     8.7680    11.3570    24.9110   -22.9730 
  118.5000     2.3310    80.8190     9.6930     8.1030    10.3660    24.9110   -22.8690 
  118.6250     2.3450    84.2980     8.9040     7.4310     8.7630    24.8880   -22.6230 
  118.7500     2.3520    86.4570     8.3950     6.9470     7.4900    24.8490   -22.3210 
  118.8750     2.3560    87.1850     8.2940     6.7560     7.3520    24.8200   -22.0300 
  119.0000     2.3560    88.4930     8.6290     6.8990     8.1350    24.8040   -21.7990 
  119.1250     2.3480    88.0110     9.3720     7.3850     9.2050    24.8040   -21.6640 
  119.2500     2.3300    82.4190    10.2810     8.0480    10.2230    24.7700   -21.6060 
  119.3750     2.3090    75.1980    11.1460     8.7360    11.9330    24.7520   -21.5970 
  119.5000     2.2930    71.1750    11.7710     9.2900    13.9530    24.7500   -21.6010 
  119.6250     2.2860    72.1830    11.9740     9.5480    14.9450    24.7260   -21.5820 
  119.7500     2.2860    74.3930    11.8420     9.5410    12.7430    24.6830   -21.5320 
  119.8750     2.2880    77.5310    11.4690     9.3280    11.2990    24.6200   -21.4540 
  120.0000     2.2890    81.9590    10.9470     8.9760    10.5970    24.5590   -21.3580 
  120.1250     2.2900    83.6310    10.3550     8.5420    10.1140    24.5210   -21.2580 
  120.2500     2.2940    81.6400     9.8120     8.1150     9.4930    24.5090   -21.1720 
  120.3750     2.3000    80.6870     9.4390     7.7750     8.6670    24.5410   -21.1130 
  120.5000     2.3030    83.4740     9.3510     7.6070     8.4800    24.5970   -21.0930 
  120.6250     2.2940    87.3230     9.6770     7.7130     8.2980    24.6160   -21.1340 
  120.7500     2.2710    88.0310    10.2920     8.0440     8.5440    24.5760   -21.2300 
  120.8750     2.2510    86.7440    10.9990     8.4980     9.5610    24.5450   -21.3570 
  121.0000     2.2460    83.5010    11.5390     8.9160    10.6930    24.5780   -21.4730 
  121.1250     2.2580    78.6600    11.6480     9.0980    11.1950    24.6680   -21.5060 
  121.2500     2.2720    76.0750    11.4280     9.0490    10.8430    24.7330   -21.4380 
  121.3750     2.2700    77.1190    11.1240     8.8870     9.9820    24.7320   -21.2840 
  121.5000     2.2510    79.2940    11.0650     8.8070     9.9890    24.6600   -21.0960 
  121.6250     2.2250    79.0130    11.6830     9.1040    10.6780    24.5190   -20.9500 
  121.7500     2.2250    77.1530    13.0300     9.8930    11.4190    24.4350   -20.8830 
  121.8750     2.2690    74.6700    14.9730    11.1730    12.3360    24.4420   -20.9000 
  122.0000     2.3570    71.8070    17.0870    12.7360    14.5190    24.5260   -20.9820 
  122.1250     2.4600    69.4760    18.3960    13.9740    21.9370    24.6490   -21.1030 
  122.2500     2.5250    67.4920    18.1610    14.2290    33.9840    24.7460   -21.2370 
  122.3750     2.5320    67.2020    16.2890    13.2630    34.9440    24.7760   -21.3690 
  122.5000     2.4970    70.4110    13.5080    11.4630    19.7150    24.7840   -21.4820 
  122.6250     2.4460    76.6050    10.9060     9.5630    12.7400    24.7970   -21.5440 
  122.7500     2.3990    82.5280     9.0180     8.0470     9.4710    24.8200   -21.5400 
  122.8750     2.3640    87.6040     7.8800     7.0240     7.9500    24.8360   -21.4580 
  123.0000     2.3390    91.3830     7.3230     6.4470     7.2560    24.8330   -21.3120 
  123.1250     2.3270    91.9910     7.1390     6.2210     7.5830    24.8040   -21.1330 
  123.2500     2.3280    90.6990     7.0860     6.1510     7.3950    24.7830   -20.9660 
  123.3750     2.3330    89.6180     7.0880     6.1530     6.6090    24.7370   -20.8390 
  123.5000     2.3350    88.5110     7.1060     6.1800     6.2390    24.6610   -20.7680 
  123.6250     2.3330    88.0010     7.1100     6.1920     6.3790    24.5830   -20.7670 
  123.7500     2.3320    87.4610     7.0820     6.1740     6.5500    24.5500   -20.8140 
  123.8750     2.3330    85.3650     7.0150     6.1230     6.3240    24.5410   -20.8970 
  124.0000     2.3340    84.0820     6.9240     6.0490     6.1180    24.5390   -21.0100 
  124.1250     2.3310    88.7050     6.8900     6.0030     6.1780    24.5400   -21.1420 
  124.2500     2.3170    93.8400     7.0320     6.0710     6.3370    24.5360   -21.2710 
  124.3750     2.2920    94.2530     7.4760     6.3460     6.3400    24.5020   -21.3690 
  124.5000     2.2610    90.0200     8.3170     6.9000     6.8240    24.4140   -21.4120 
  124.6250     2.2300    84.0360     9.6450     7.8110     8.2700    24.2630   -21.3900 
  124.7500     2.2100    79.0840    11.2650     8.9710    10.1180    24.1730   -21.3390 
  124.8750     2.2020    76.3550    12.9250    10.2320    11.4250    24.1550   -21.2850 
  125.0000     2.2030    74.0780    14.2930    11.3580    11.7890    24.1830   -21.2340 
  125.1250     2.2070    69.6470    14.9320    11.9880    11.7550    24.2370   -21.1630 
  125.2500     2.2110    66.3950    14.8560    12.0510    11.8130    24.2720   -21.0580 
  125.3750     2.2130    66.5560    14.2490    11.6380    11.7860    24.2850   -20.9280 
  125.5000     2.2130    69.2940    13.4450    10.9940    11.5010    24.2850   -20.7880 
  125.6250     2.2130    72.9210    12.8690    10.4460    10.9980    24.3090   -20.6480 
  125.7500     2.2310    74.2430    12.7730    10.2090    10.6630    24.3950   -20.4970 
  125.8750     2.2790    71.3320    13.2700    10.3800    10.9810    24.5620   -20.3020 
  126.0000     2.3530    66.5030    14.3460    10.9750    12.4970    24.7420   -20.0240 
  126.1250     2.4190    64.1670    15.9050    11.9700    15.6500    24.7670   -19.5860 
  126.2500     2.4230    63.5200    17.5860    13.1340    17.6990    24.6310   -18.9770 
  126.3750     2.3680    63.1360    19.1120    14.2710    16.5270    24.4900   -18.1900 
  126.5000     2.2850    63.1360    20.3350    15.2440    14.7540    24.4310   -17.2520 
  126.6250     2.2110    61.3610    21.2880    16.0270    15.0550    24.4270   -16.2170 
  126.7500     2.1740    58.9630    22.2330    16.7710    16.4590    24.4180   -15.1780 
  126.8750     2.1670    58.9060    23.3790    17.6250    17.1220    24.4160   -14.1870 
  127.0000     2.1790    61.1060    24.8710    18.7110    17.3300    24.4280   -13.2720 
  127.1250     2.1920    60.3020    26.8240    20.1440    18.0780    24.4630   -12.4610 
  127.2500     2.1880    55.4710    29.1260    21.8720    18.7840    24.4910   -11.7460 
  127.3750     2.1720    51.3510    31.6620    23.8440    18.6270    24.5210   -11.1320 
  127.5000     2.1640    50.5720    34.1790    25.9120    18.6070    24.5600   -10.6200 
  127.6250     2.1820    49.3670    36.0720    27.6730    18.7950    24.6410   -10.2230 
  127.7500     2.2290    45.4870    36.8250    28.6850    19.1540    24.7500    -9.9270 
  127.8750     2.2750    41.9110    36.0750    28.5920    20.5280    24.7860    -9.7570 
  128.0000     2.2970    42.3520    33.8280    27.2840    21.1450    24.6960    -9.7570 
  128.1250     2.2910    48.4930    30.4970    24.9540    20.3670    24.5670   -10.0000 
  128.2500     2.2690    55.7250    27.1280    22.4180    18.0740    24.4430   -10.4420 
  128.3750     2.2520    59.1320    24.4080    20.2350    15.9240    24.3810   -11.0320 
  128.5000     2.2410    58.9170    22.7520    18.7600    14.5650    24.3630   -11.6880 
  128.6250     2.2290    59.8500    22.4760    18.2790    14.3390    24.3590   -12.2960 
