~V
VERS. 2.00: Ver 2.00
~W
STRT.M 50.0000:
STOP.M 226.0000:
STEP.M 0.1250:
NULL. -999.2500:
UWI. F10778:
~C
DEPT.M :
DEN.GM/CC :
GR.API :
RML.OHMM :
RI. :
RXO.OHMM :
CALI.CM :
SP.MV :
~A
# ...
   83.7500     2.2300    76.5920     7.4030     6.5560     6.6030    24.2840   -15.0890 
   83.8750     2.2280    73.4010     7.4100     6.6660     6.4520    24.4370   -15.0030 
   84.0000     2.2260    69.0740     7.3490     6.6920     6.4130    24.5710   -14.9070 
   84.1250     2.2270    67.6760     7.2820     6.6770     6.9150    24.7300   -14.8570 
   84.2500     2.2340    67.6710     7.2490     6.6620     7.1000    24.8310   -14.7280 
   84.3750     2.2460    70.5180     7.2700     6.6640     7.0680    24.8570   -14.5710 
   84.5000     2.2560    78.7510     7.3570     6.6970     6.9950    24.8170   -14.4820 
   84.6250     2.2570    84.6880     7.5200     6.7760     7.0570    24.7960   -14.3780 
   84.7500     2.2480    84.1110     7.7250     6.8890     7.0690    24.7990   -14.2200 
   84.8750     2.2370    81.3610     7.9260     7.0100     7.1630    24.8230   -14.0990 
   85.0000     2.2310    79.4980     8.0620     7.0930     7.1430    24.8210   -14.0200 
   85.1250     2.2320    76.2530     8.0520     7.0670     7.1810    24.7690   -13.8930 
   85.2500     2.2350    72.7950     7.9270     6.9350     7.1320    24.7300   -13.7980 
   85.3750     2.2330    74.4720     7.7850     6.7540     7.1340    24.7450   -13.7520 
   85.5000     2.2270    81.3100     7.8040     6.6460     7.1700    24.7740   -13.7220 
   85.6250     2.2300    84.4550     8.3050     6.8420     7.2670    24.7970   -13.6710 
   85.7500     2.2610    81.7190     9.4530     7.4990     7.5330    24.7900   -13.6320 
   85.8750     2.3260    76.8720    11.3680     8.7790     8.7690    24.6480   -13.6020 
   86.0000     2.4190    72.9350    14.0100    10.7790    12.7420    24.2710   -13.5960 
   86.1250     2.5150    69.4750    17.0380    13.4550    22.5500    23.7290   -13.6030 
   86.2500     2.5900    67.0050    19.6420    16.1500    28.8280    23.3910   -13.5700 
   86.3750     2.6310    66.1320    21.0960    18.1130    27.7900    23.2830   -13.5410 
   86.5000     2.6310    65.5140    21.0200    18.7530    24.8480    23.2960   -13.5190 
   86.6250     2.5850    64.8400    19.4880    17.8430    25.6910    23.3110   -13.5110 
   86.7500     2.5050    66.3930    17.4700    16.2010    25.1500    23.3140   -13.4950 
   86.8750     2.4070    68.5290    15.6130    14.4620    18.7200    23.4400   -13.4650 
   87.0000     2.3080    67.1580    14.2960    13.0570    11.4700    23.8160   -13.4410 
   87.1250     2.2290    63.1800    13.7320    12.2660     9.0970    24.2270   -13.4200 
   87.2500     2.1750    61.2770    13.7180    12.0040     8.4140    24.5300   -13.3840 
   87.3750     2.1410    62.6540    14.0720    12.1710     8.8660    24.6460   -13.2610 
   87.5000     2.1240    67.6040    14.5560    12.5950    10.1450    24.5790   -13.0830 
   87.6250     2.1190    71.8730    14.8800    13.0280    12.0230    24.5000   -12.9510 
   87.7500     2.1200    70.9220    14.9150    13.2620    10.8290    24.5100   -12.8310 
   87.8750     2.1250    67.1940    14.6780    13.2390     9.2360    24.5530   -12.6880 
   88.0000     2.1310    67.2060    14.2880    13.0130     8.3900    24.5820   -12.5290 
   88.1250     2.1360    72.4320    13.8910    12.6910     8.2580    24.6150   -12.3830 
   88.2500     2.1420    74.0870    13.5700    12.3820     8.3770    24.6660   -12.2890 
   88.3750     2.1490    70.8140    13.3310    12.1160     8.4850    24.7030   -12.2730 
   88.5000     2.1590    66.5850    13.1540    11.8940     8.4690    24.7060   -12.2810 
   88.6250     2.1740    64.8650    13.0520    11.7260     8.3840    24.6780   -12.1910 
   88.7500     2.1900    65.6570    13.0530    11.6360     8.3550    24.6400   -12.0350 
   88.8750     2.2040    69.3130    13.2180    11.6710     8.3210    24.5980   -11.8090 
   89.0000     2.2120    74.1750    13.5990    11.8850     8.3190    24.5660   -11.4650 
   89.1250     2.2080    74.0940    14.2700    12.3560     8.6630    24.5730   -11.0340 
   89.2500     2.1950    70.5280    15.1760    13.0600     8.9860    24.6110   -10.5140 
   89.3750     2.1790    67.7180    16.2640    13.9700     9.2220    24.6540    -9.8980 
   89.5000     2.1660    68.2800    17.4480    15.0230     9.5940    24.6910    -9.2390 
   89.6250     2.1610    69.8250    18.5930    16.1090    10.0210    24.6850    -8.5960 
   89.7500     2.1610    70.2630    19.5780    17.0970    10.1600    24.6620    -7.9640 
   89.8750     2.1620    69.9870    20.3300    17.9010    10.4270    24.6280    -7.3330 
   90.0000     2.1590    68.7870    20.8410    18.4910    10.8000    24.5620    -6.7750 
   90.1250     2.1490    67.5170    21.1160    18.8660    11.0630    24.4760    -6.3620 
   90.2500     2.1380    67.5370    21.1690    19.0740    11.2470    24.5400    -6.0710 
   90.3750     2.1280    69.1250    20.8620    19.0240    11.4940    24.6690    -5.8850 
   90.5000     2.1240    70.9980    20.0700    18.5140    11.6720    24.7510    -5.8250 
   90.6250     2.1280    70.8740    18.5980    17.2330    11.5010    24.7350    -6.0110 
   90.7500     2.1440    69.8490    16.5390    15.3470    10.7690    24.6560    -6.4360 
   90.8750     2.1750    70.5700    14.1470    13.1860     9.4870    24.4950    -7.0580 
   91.0000     2.2170    74.8540    11.9250    11.1830     7.8910    24.2370    -7.7920 
   91.1250     2.2550    82.5440    10.5120     9.7950     6.9800    24.0310    -8.5450 
   91.2500     2.2730    88.2410     9.8760     9.0460     6.7980    23.8520    -9.2820 
   91.3750     2.2610    88.4580     9.7750     8.8250     6.9790    23.6650   -10.0060 
   91.5000     2.2300    83.9990     9.8600     8.8820     7.8960    23.5750   -10.6990 
   91.6250     2.2030    78.8180     9.6980     8.8470     9.2200    23.5790   -11.2810 
   91.7500     2.1980    76.7770     9.1260     8.4800     8.5760    23.7610   -11.7560 
   91.8750     2.2160    78.0360     8.2510     7.7950     7.0880    24.1730   -12.1810 
   92.0000     2.2440    82.9150     7.3570     6.9970     6.1660    24.5170   -12.5690 
   92.1250     2.2610    89.9380     6.8200     6.4090     5.7190    24.6270   -12.9120 
   92.2500     2.2570    92.3540     6.7490     6.1890     5.4010    24.6180   -13.2140 
   92.3750     2.2340    87.2500     7.1230     6.3660     5.6410    24.6140   -13.4920 
   92.5000     2.2050    78.7420     7.8120     6.8720     6.3810    24.6490   -13.7300 
   92.6250     2.1870    75.9050     8.6140     7.5680     6.9390    24.6950   -13.8470 
   92.7500     2.1840    78.0110     9.3030     8.2320     7.0630    24.6990   -13.8990 
   92.8750     2.1930    80.0290     9.7840     8.7390     6.9550    24.6590   -13.9150 
   93.0000     2.2020    79.4520    10.0730     9.0590     6.8490    24.6060   -13.8600 
   93.1250     2.2060    78.7120    10.2800     9.2470     6.8840    24.5820   -13.7110 
   93.2500     2.2040    78.3470    10.5600     9.4450     7.1100    24.5780   -13.4980 
   93.3750     2.1980    77.6760    11.0130     9.7580     7.5730    24.5810   -13.2300 
   93.5000     2.1910    76.4020    11.7130    10.2650     8.0150    24.5820   -12.8550 
   93.6250     2.1790    74.3330    12.7620    11.0840     8.2250    24.5840   -12.3180 
   93.7500     2.1600    71.1420    14.1230    12.2200     8.9110    24.6130   -11.6290 
   93.8750     2.1380    66.4050    15.7180    13.6610    10.8800    24.6940   -10.8260 
   94.0000     2.1210    62.2660    17.3450    15.2970    13.0540    24.8030    -9.9760 
   94.1250     2.1180    62.1450    18.5720    16.7990    12.9570    24.9110    -9.1830 
   94.2500     2.1240    64.2020    19.0470    17.7480    11.7220    24.9770    -8.5980 
   94.3750     2.1360    66.0000    18.5480    17.8060    11.1770    24.9710    -8.2360 
   94.5000     2.1470    66.5000    17.1020    16.8570    10.7890    24.9440    -8.0610 
   94.6250     2.1580    68.2050    14.9350    15.0010     9.6890    24.9300    -8.2010 
   94.7500     2.1710    74.6520    12.6120    12.8160     8.5620    24.8970    -8.6420 
   94.8750     2.1890    83.6960    10.4790    10.6820     7.7140    24.8360    -9.2800 
