~V
VERS. 2.00: Ver 2.00
~W
STRT.M 60.0000:
STOP.M 239.0000:
STEP.M 0.1250:
NULL. -999.2500:
UWI. F10775:
~C
DEPT.M :
DEN.GM/CC :
SP.MV :
GR.API :
RML.OHMM :
RI. :
RXO.OHMM :
CALI.CM :
~A
# ...
  150.0000     2.6220     1.7600    35.6200    22.9060    22.3100    19.7140    25.0680 
  150.1250     2.6320     2.0840    35.9370    23.1020    21.9290    22.1210    25.4190 
  150.2500     2.6570     2.3210    37.3090    23.6240    21.8510    22.4640    25.6540 
  150.3750     2.6830     2.5430    38.8480    24.4830    22.1600    21.3780    25.7380 
  150.5000     2.7000     2.7320    40.3100    25.6550    22.9230    19.5450    25.7360 
  150.6250     2.7040     2.8480    41.2750    27.0110    24.1820    20.5170    25.8870 
  150.7500     2.7080     2.9090    41.1640    28.1930    25.6190    23.7710    25.9930 
  150.8750     2.7160     2.8720    41.3510    28.8270    26.7870    25.8970    25.9480 
  151.0000     2.7250     2.7250    42.8150    28.6390    27.1890    25.0390    25.8700 
  151.1250     2.7190     2.4930    42.8990    27.5640    26.4550    22.6070    25.7990 
  151.2500     2.6910     2.2520    42.4290    26.1940    25.1150    19.8480    25.6420 
  151.3750     2.6470     2.0200    42.7500    25.0850    23.7800    18.4860    25.3860 
  151.5000     2.6040     1.7230    43.6020    24.6800    22.9860    18.0180    25.2360 
  151.6250     2.5880     1.4660    44.0140    25.2920    23.1600    18.2590    25.2110 
  151.7500     2.6030     1.1910    44.4260    26.5910    24.1270    19.4240    25.2380 
  151.8750     2.6390     0.9670    43.7440    28.1920    25.6030    22.5860    25.1870 
  152.0000     2.6770     0.8450    39.9820    29.6540    27.1500    26.2010    25.1220 
  152.1250     2.6980     0.7210    37.5740    30.5230    28.2180    27.1160    25.0860 
  152.2500     2.7030     0.6620    39.3190    30.7970    28.6630    24.7420    25.0250 
  152.3750     2.7040     0.5740    41.7840    30.6200    28.5920    21.9180    24.9350 
  152.5000     2.7140     0.5280    41.5390    30.2060    28.2340    22.8760    24.8970 
  152.6250     2.7350     0.5540    40.5830    29.7010    27.7800    26.0180    24.9640 
  152.7500     2.7560     0.6180    41.3410    29.1590    27.3030    27.3790    25.0360 
  152.8750     2.7650     0.6820    41.0270    28.5660    26.7850    25.5160    25.0310 
  153.0000     2.7590     0.6770    38.6710    27.9310    26.2210    26.0100    24.9790 
  153.1250     2.7420     0.7470    39.2040    27.3040    25.6460    25.4120    24.9520 
  153.2500     2.7260     0.7950    43.2450    26.7470    25.1090    23.9870    24.9680 
  153.3750     2.7170     0.8250    45.5580    26.3110    24.6390    22.5780    25.0320 
  153.5000     2.7150     0.8270    42.8960    26.0570    24.2700    20.8040    25.0990 
  153.6250     2.7180     0.6880    39.5350    26.1390    24.1440    19.6670    25.0710 
  153.7500     2.7240     0.5310    39.4580    26.5960    24.3800    19.8730    24.9890 
  153.8750     2.7320     0.3880    40.3010    27.3960    25.0450    22.2710    24.9270 
  154.0000     2.7400     0.2600    41.3770    28.3390    26.0410    25.6910    24.9410 
  154.1250     2.7450     0.0860    42.6640    29.0010    26.9930    28.2820    25.0220 
  154.2500     2.7430    -0.1350    41.6650    29.0780    27.4450    30.2070    25.0830 
  154.3750     2.7310    -0.3380    39.8330    28.5030    27.1830    27.0000    25.0710 
  154.5000     2.7090    -0.4990    39.8360    27.4730    26.3170    21.2790    25.0610 
  154.6250     2.6790    -0.6020    41.6520    26.3720    25.2110    18.6930    25.1060 
  154.7500     2.6540    -0.6610    41.7360    25.5240    24.2750    18.2060    25.1700 
  154.8750     2.6390    -0.7490    40.6460    25.0060    23.6410    18.8140    25.2250 
  155.0000     2.6380    -0.7730    40.6720    24.7480    23.2570    20.3450    25.2050 
  155.1250     2.6460    -0.7720    40.8320    24.6450    23.0100    18.9970    25.2120 
  155.2500     2.6500    -0.6830    41.3850    24.6220    22.8220    18.9440    25.3540 
  155.3750     2.6440    -0.5480    42.5830    24.7080    22.7380    19.6350    25.6040 
  155.5000     2.6320    -0.4620    43.7900    24.9410    22.8370    19.3390    25.6850 
  155.6250     2.6290    -0.3100    42.8840    25.3230    23.2020    19.3940    25.5120 
  155.7500     2.6430    -0.2130    40.2780    25.7170    23.7090    21.2160    25.2550 
  155.8750     2.6720    -0.0930    39.9810    26.0030    24.1810    22.5370    25.0770 
  156.0000     2.6990     0.0170    43.0910    26.1140    24.4630    22.5060    24.8740 
  156.1250     2.7030     0.1120    47.0150    26.0730    24.4970    22.4330    24.6030 
  156.2500     2.6810     0.1730    48.7190    26.0150    24.4130    22.9120    24.3650 
  156.3750     2.6450     0.1730    47.7170    26.0130    24.3210    22.6650    24.1810 
  156.5000     2.6150     0.2230    46.0240    26.0620    24.2850    22.4570    24.0710 
  156.6250     2.6070     0.2490    44.7860    26.0110    24.2570    23.1710    23.8870 
  156.7500     2.6170     0.3160    43.2570    25.6660    24.0650    22.8710    23.7030 
  156.8750     2.6360     0.3920    41.0330    24.8660    23.5220    21.4730    23.8290 
  157.0000     2.6520     0.3850    40.3340    23.5630    22.5190    20.1970    24.4200 
  157.1250     2.6580     0.3530    43.5410    21.8350    21.0700    20.1160    25.0400 
  157.2500     2.6510     0.2720    46.8740    20.0280    19.4810    19.1630    25.3720 
  157.3750     2.6340     0.1730    47.5290    18.4150    18.0050    16.7680    25.4900 
  157.5000     2.6080     0.0550    45.4030    17.1950    16.8380    14.4030    25.5690 
  157.6250     2.5810    -0.1400    41.9710    16.5160    16.1570    13.7370    25.6220 
  157.7500     2.5600    -0.3530    40.0070    16.2070    15.8590    14.2540    25.6530 
  157.8750     2.5510    -0.6360    39.9670    16.0780    15.7970    15.0430    25.6070 
  158.0000     2.5520    -0.8980    40.6310    15.9110    15.7580    15.1940    25.5290 
  158.1250     2.5610    -1.1440    42.0910    15.4780    15.4580    16.4430    25.4240 
  158.2500     2.5670    -1.3680    44.5910    14.7770    14.8260    15.1410    25.3260 
  158.3750     2.5650    -1.5130    47.3610    13.9110    13.9520    13.0580    25.1460 
  158.5000     2.5570    -1.6570    48.6740    13.0550    13.0250    11.1930    24.7070 
  158.6250     2.5450    -1.6900    49.2240    12.4210    12.2640    10.3110    24.1050 
  158.7500     2.5340    -1.7070    49.1090    12.0750    11.7560    10.2080    23.7810 
  158.8750     2.5280    -1.6780    47.0210    12.0230    11.5270    10.2010    23.9280 
  159.0000     2.5260    -1.6010    44.8380    12.2160    11.5530    10.3520    24.4260 
  159.1250     2.5310    -1.5190    46.4450    12.6000    11.7930    10.2820    24.9050 
  159.2500     2.5410    -1.3620    50.7130    13.0730    12.1470    10.6850    25.1040 
  159.3750     2.5540    -1.2370    53.1120    13.5960    12.5750    11.4960    25.2470 
  159.5000     2.5660    -1.0720    50.6060    14.1480    13.0580    12.2860    25.3660 
  159.6250     2.5710    -0.9370    45.3940    14.7040    13.5860    12.8660    25.3600 
  159.7500     2.5690    -0.8450    42.6820    15.2130    14.1080    13.0940    25.2960 
  159.8750     2.5630    -0.7770    43.8800    15.6030    14.5520    13.4290    25.2460 
  160.0000     2.5560    -0.7920    46.8750    15.7980    14.8310    13.8800    25.2230 
  160.1250     2.5520    -0.8430    48.1850    15.7150    14.8360    14.4230    25.2030 
  160.2500     2.5480    -0.9700    49.6450    15.4280    14.6160    14.2740    25.1780 
  160.3750     2.5430    -1.1240    52.3010    15.0250    14.2530    13.6510    25.1790 
  160.5000     2.5370    -1.3030    55.1650    14.6000    13.8430    12.9610    25.2230 
  160.6250     2.5290    -1.5590    56.0750    14.2170    13.4530    12.3820    25.3220 
  160.7500     2.5120    -1.7980    54.8400    13.8700    13.0760    12.2720    25.4090 
  160.8750     2.4810    -1.9980    52.1870    13.5420    12.6900    12.2400    25.5140 
  161.0000     2.4320    -2.1430    48.9170    13.2340    12.2940    12.0660    25.7300 
  161.1250     2.3860    -2.2180    46.8490    12.9940    11.9330    10.6480    26.1440 
