~V
VERS. 2.00: Ver 2.00
~W
STRT.M 55.0000:
STOP.M 262.0000:
STEP.M 0.1250:
NULL. -999.2500:
UWI. F10759:
~C
DEPT.M :
DEN.GM/CC :
GR.API :
RML.OHMM :
RI. :
RXO.OHMM :
CALI.CM :
SP.MV :
~A
# ...
  246.2500     2.3770    77.2500    19.3020    17.5090    19.2540    23.3210   -20.2100 
  246.3750     2.3690    74.2680    18.5160    16.9080    19.7760    23.3240   -20.4010 
  246.5000     2.3770    73.5130    18.2230    16.6030    18.9130    23.3250   -20.5430 
  246.6250     2.4040    75.7850    18.4970    16.8000    16.9540    23.3230   -20.6410 
  246.7500     2.4400    77.2350    18.9120    17.2370    17.9190    23.3150   -20.7080 
  246.8750     2.4700    76.0740    19.0010    17.5320    20.9240    23.3120   -20.7570 
  247.0000     2.4790    73.3090    18.3810    17.2860    24.8970    23.3160   -20.7750 
  247.1250     2.4540    74.0040    16.9290    16.2510    25.5420    23.2820   -20.7360 
  247.2500     2.4140    78.3660    15.1980    14.8340    20.2060    23.2260   -20.6560 
  247.3750     2.3770    81.9480    13.6270    13.4200    14.5340    23.2090   -20.4940 
  247.5000     2.3530    80.8220    12.4080    12.2340    12.4450    23.2880   -20.2200 
  247.6250     2.3460    77.7690    11.4840    11.3000    12.3820    23.2380   -19.7790 
  247.7500     2.3430    76.1780    10.5960    10.4300    12.5650    23.2460   -19.2100 
  247.8750     2.3370    74.5860     9.6210     9.5030    11.3270    23.1400   -18.5720 
  248.0000     2.3250    71.1580     8.5850     8.5020     8.6550    23.0730   -17.9310 
  248.1250     2.3090    68.9350     7.6660     7.5480     6.6790    23.1250   -17.3880 
  248.2500     2.2910    68.3680     6.9830     6.7680     5.8090    23.0690   -16.9700 
  248.3750     2.2720    68.2490     6.5630     6.2200     5.4280    23.0210   -16.7390 
  248.5000     2.2530    67.9570     6.3750     5.9020     5.3670    23.0030   -16.7290 
  248.6250     2.2380    67.2990     6.4050     5.8230     5.5430    22.9780   -17.0370 
  248.7500     2.2270    66.5550     6.5890     5.9200     5.6920    23.0020   -17.7120 
  248.8750     2.2200    68.0390     6.9290     6.1800     5.7610    22.9930   -18.7290 
  249.0000     2.2170    73.5930     7.4540     6.6090     6.1000    22.9450   -20.0190 
  249.1250     2.2180    80.6600     8.2340     7.2540     7.0610    22.7550   -21.4190 
  249.2500     2.2270    84.2720     9.2280     8.0820     8.4950    22.7800   -22.7620 
  249.3750     2.2440    84.1290    10.3710     9.0570     9.8280    22.8060   -23.9770 
  249.5000     2.2690    81.4110    11.5430    10.0950    10.9850    22.8650   -25.0480 
  249.6250     2.2940    80.1780    12.5060    11.0040    12.7850    22.9160   -25.8780 
  249.7500     2.3090    82.4190    13.0500    11.5740    15.3700    22.9060   -26.4000 
  249.8750     2.3110    85.1260    13.0110    11.6330    17.3370    22.8480   -26.6060 
  250.0000     2.3010    84.5590    12.3640    11.1370    14.8810    22.9010   -26.4830 
  250.1250     2.2880    82.8170    11.2440    10.1750    12.0430    22.8490   -25.9880 
  250.2500     2.2770    85.4550    10.0640     9.0980    10.1720    22.8420   -25.3320 
  250.3750     2.2670    89.3140     9.0880     8.1260     8.7860    22.8450   -24.6300 
  250.5000     2.2580    89.6090     7.8130     7.3880     7.3090    22.8570   -24.0050 
  250.6250     2.2450    87.5490     7.5370     6.9640     6.8730    22.8340   -23.5100 
  250.7500     2.2310    88.2840     7.4420     6.7710     6.9960    22.7260   -23.1010 
  250.8750     2.2180    89.1660     7.4440     6.7450     7.1320    22.7610   -22.7890 
  251.0000     2.2070    87.1880     7.4940     6.8230     7.3060    22.7170   -22.6070 
  251.1250     2.1980    83.8120     7.5840     6.9640     7.5300    22.7710   -22.6770 
  251.2500     2.1920    81.1950     7.7050     7.1310     7.6750    22.8110   -22.8970 
  251.3750     2.1910    78.3610     7.8260     7.3000     7.8180    22.8310   -23.1490 
  251.5000     2.1970    75.4520     7.8930     7.4290     8.0260    22.7880   -23.2660 
  251.6250     2.2120    76.5200     7.8230     7.4390     8.2240    22.7040   -23.0910 
  251.7500     2.2300    79.3740     7.6130     7.3070     8.1120    22.6840   -22.5770 
  251.8750     2.2430    79.3740     7.2980     7.0500     7.5340    22.7810   -21.7830 
  252.0000     2.2450    79.3740     6.9420     6.7200     6.5630    22.8300   -20.8430 
  252.1250     2.2390    79.3740     6.6160     6.3830     6.1990    22.8160   -19.7770 
  252.2500     2.2320    79.3740     6.3370     6.0780     6.1650    22.8060   -18.5550 
  252.3750     2.2300    79.3740     6.0940     5.8090     6.1620    22.7450   -17.2090 
  252.5000     2.2350    79.3740     5.8680     5.5650     5.7760    22.7530   -15.8810 
  252.6250     2.2460    79.3740     5.6640     5.3540     5.4190    22.7560   -14.7960 
  252.7500     2.2580    79.3740     5.5120     5.1960     5.1650    22.7440   -14.1050 
  252.8750     2.2650    79.3740     5.4510     5.1190     5.0560    22.6990   -13.7660 
  253.0000     2.2670    79.3740     5.4950     5.1400     5.1440    22.6830   -13.6110 
  253.1250     2.2640    79.3740     5.6290     5.2530     5.6230    22.6490   -13.4830 
  253.2500     2.2650    79.3740     5.7740     5.3960     6.1790    22.6180   -13.3580 
  253.3750     2.2750    79.3740     5.8690     5.5130     6.2470    22.6800   -13.2420 
  253.5000     2.2940    79.3740     5.8840     5.5640     5.9000    22.7060   -13.1040 
  253.6250     2.3170    79.3740     5.8190     5.5280     5.5100    22.7020   -12.9360 
  253.7500     2.3320    79.3740     5.7280     5.4440     5.3770    22.7230   -12.6770 
  253.8750     2.3320    79.3740     5.6440     5.3430     5.3340    22.6910   -12.2710 
  254.0000     2.3180    79.3740     5.5800     5.2470     5.3140    22.6970   -11.8100 
  254.1250     2.2960    79.3740     5.5230     5.1570     5.3040    22.6850   -11.4580 
  254.2500     2.2820    79.3740     5.4510     5.0570     5.2740    22.6620   -11.2490 
  254.3750     2.2830    79.3740     5.3590     4.9400     5.1550    22.6290   -11.1450 
  254.5000     2.2950    79.3740     5.2680     4.8200     4.9820    22.6860   -11.1030 
  254.6250     2.3090    79.3740     5.2220     4.7350     4.8470    22.6590   -11.1190 
  254.7500     2.3150    79.3740     5.2520     4.7150     4.7920    22.7080   -11.2280 
  254.8750     2.3090    79.3740     5.3730     4.7810     4.9710    22.7540   -11.4370 
  255.0000     2.2960    79.3740     5.5840     4.9360     5.3900    22.7730   -11.6700 
  255.1250     2.2810    79.3740     5.8740     5.1750     5.8390    22.7770   -11.9360 
  255.2500     2.2640    79.3740     6.1980     5.4570     6.1140    22.8110   -12.3480 
  255.3750     2.2440    79.3740     6.5260     5.7540     6.2600    22.8470   -13.0120 
  255.5000     2.2230    79.3740     6.8280     6.0450     6.4230    22.8610   -13.9470 
  255.6250     2.2040    79.3740     7.0670     6.3030     6.6680    22.8490   -15.0120 
  255.7500     2.1920    79.3740     7.2320     6.5130     6.8420    22.8030   -16.0280 
  255.8750     2.1900    79.3740     7.3250     6.6610     6.8610    22.7730   -16.9620 
  256.0000     2.2030    79.3740     7.3660     6.7450     6.9600    22.7680   -17.8230 
  256.1250     2.2330    79.3740     7.3860     6.7730     7.1870    22.7720   -18.5750 
  256.2500     2.2710    79.3740     7.4090     6.7760     7.0430    22.7640   -19.1780 
  256.3750     2.3080    79.3740     7.4330     6.7700     6.0170    22.7420   -19.5610 
  256.5000     2.3350    79.3740     7.4460     6.7640     5.0850    22.7490   -19.7210 
  256.6250     2.3440    79.3740     7.4370     6.7630     4.8020    22.7310   -19.7580 
  256.7500     2.3370    79.3740     7.4120     6.7640     4.8960    22.6850   -19.7730 
  256.8750     2.3190    79.3740     7.3840     6.7680     5.1580    22.6900   -19.8020 
  257.0000     2.2930    79.3740     7.3640     6.7710     5.5710    22.6990   -19.8490 
  257.1250     2.2620    79.3740     7.3600     6.7710     6.1680    22.7090   -19.8840 
  257.2500     2.2340    79.3740     7.3700     6.7700     6.6760    22.7420   -19.9320 
  257.3750     2.2150    79.3740     7.3880     6.7710     6.9050    22.7610   -19.9970 
