~V
VERS. 2.00: Ver 2.00
~W
STRT.M 50.0000:
STOP.M 261.0000:
STEP.M 0.1250:
NULL. -999.2500:
UWI. F10772:
~C
DEPT.M :
GR.API :
RML.OHMM :
RI. :
RXO.OHMM :
CALI.CM :
SP.MV :
DEN.GM/CC :
~A
# ...
  218.7500    54.3770    13.5280    10.2470    11.7310    24.9010    -4.3680     2.4900 
  218.8750    51.7080    18.7850    14.5140    23.4330    24.9220    -4.3600     2.5230 
  219.0000    49.1590    25.8030    21.4130    32.3190    24.9200    -4.4140     2.5360 
  219.1250    48.9240    33.4980    31.8630    35.5240    24.9580    -4.5050     2.5080 
  219.2500    51.7070    39.2220    43.2070    41.9540    24.9650    -4.5390     2.4540 
  219.3750    53.8310    40.5320    49.5520    57.3350    24.9700    -4.4670     2.3980 
  219.5000    52.3140    36.4430    45.3170    69.0810    24.9710    -4.2430     2.3650 
  219.6250    48.5860    28.0960    32.8300    65.6320    24.9640    -3.8500     2.3730 
  219.7500    48.0880    19.4070    21.2100    39.8620    24.9200    -3.3550     2.4040 
  219.8750    52.2210    12.6060    13.2790    16.8250    24.8180    -2.8200     2.4370 
  220.0000    57.7260     8.3960     8.7510     8.5300    24.7430    -2.2720     2.4590 
  220.1250    61.9600     6.5750     6.7340     7.8480    24.7770    -1.7700     2.4650 
  220.2500    65.2400     5.9380     5.8900     7.7110    24.8560    -1.3690     2.4680 
  220.3750    66.0690     5.9200     5.7480     7.2280    24.9270    -1.0780     2.4710 
  220.5000    65.4890     6.1480     6.0110     6.9000    24.9600    -0.9360     2.4730 
  220.6250    67.8670     6.3640     6.3900     6.8120    24.9480    -1.0170     2.4690 
  220.7500    74.0940     6.4560     6.6430     6.8620    24.9200    -1.2870     2.4600 
  220.8750    78.4060     6.4410     6.7240     6.8760    24.9180    -1.6630     2.4480 
  221.0000    77.7100     6.4050     6.7170     6.8930    24.9440    -2.1020     2.4380 
  221.1250    77.9910     6.4800     6.7580     6.7900    24.9620    -2.6060     2.4320 
  221.2500    82.2100     6.7210     6.9360     6.8270    24.9650    -3.1550     2.4300 
  221.3750    85.8880     7.1290     7.2890     7.2300    24.9640    -3.7410     2.4330 
  221.5000    85.1910     7.6610     7.8060     8.1510    24.9610    -4.3240     2.4350 
  221.6250    83.6490     8.2340     8.4150     9.0770    24.9530    -4.8230     2.4310 
  221.7500    84.4020     8.7520     8.9790     9.5310    24.9430    -5.2160     2.4220 
  221.8750    86.6610     9.1580     9.3950     9.7250    24.9350    -5.5480     2.4090 
  222.0000    87.7160     9.4260     9.6080     9.9150    24.9390    -5.8320     2.3970 
  222.1250    84.9850     9.5470     9.5910    10.1450    24.9270    -6.0290     2.3880 
  222.2500    81.1500     9.5770     9.4340    10.1610    24.9230    -6.1070     2.3800 
  222.3750    79.3640     9.5700     9.2040    10.0580    24.9390    -6.0300     2.3700 
  222.5000    81.1700     9.6030     8.9720     9.8530    24.9440    -5.8820     2.3570 
  222.6250    82.0010     9.8420     8.8710     9.9430    24.9280    -5.8020     2.3500 
  222.7500    80.4070    10.4310     9.0270    10.1240    24.9160    -5.7780     2.3560 
  222.8750    79.3390    11.5300     9.5750    10.4260    24.8700    -5.7720     2.3810 
  223.0000    80.5850    13.2610    10.6520    11.2120    24.7970    -5.8150     2.4250 
  223.1250    80.3000    15.7540    12.5190    14.0600    24.8170    -6.0170     2.4790 
  223.2500    75.1210    18.7500    15.1230    19.0710    24.8580    -6.4200     2.5270 
  223.3750    68.6180    21.9560    18.3100    23.3130    24.8200    -7.0010     2.5510 
  223.5000    65.4400    24.9900    21.6780    25.2650    24.7500    -7.6470     2.5420 
  223.6250    67.0000    27.3700    24.5270    27.0070    24.7450    -8.1930     2.4940 
  223.7500    69.5990    29.0020    26.4940    28.8320    24.7630    -8.6480     2.4270 
  223.8750    70.8960    29.9480    27.5690    29.7110    24.7830    -9.0480     2.3590 
  224.0000    71.0330    30.4130    28.0200    31.0130    24.7940    -9.4050     2.3030 
  224.1250    71.9220    30.6460    28.1720    31.4520    24.8200    -9.7410     2.2700 
  224.2500    72.7650    30.9070    28.3020    30.4320    24.8310   -10.0180     2.2550 
  224.3750    71.7670    31.3330    28.5240    29.2100    24.8270   -10.2090     2.2530 
  224.5000    70.4010    32.0200    28.9450    27.7240    24.8000   -10.3390     2.2560 
  224.6250    70.4930    33.1030    29.7490    29.0410    24.7450   -10.4630     2.2590 
  224.7500    69.0620    34.5460    30.9780    31.4300    24.7060   -10.6110     2.2610 
  224.8750    66.1900    36.2890    32.6520    30.9180    24.6750   -10.8320     2.2600 
  225.0000    66.1100    38.1740    34.6760    29.2340    24.6440   -11.0900     2.2560 
  225.1250    69.1450    39.9110    36.7060    32.6510    24.6510   -11.2260     2.2520 
  225.2500    69.8480    41.2920    38.2910    36.8600    24.7230   -11.2610     2.2500 
  225.3750    67.4590    42.2880    39.2680    36.7100    24.7960   -11.3200     2.2510 
  225.5000    64.6560    43.0870    39.8210    36.4180    24.8310   -11.4390     2.2540 
  225.6250    61.5950    44.1550    40.4100    34.8380    24.8540   -11.6520     2.2570 
  225.7500    56.9800    45.9010    41.5640    35.2770    24.8940   -11.9300     2.2560 
  225.8750    51.7890    48.5480    43.6870    38.6630    24.9400   -12.1940     2.2540 
  226.0000    48.2860    52.0670    46.9040    46.7580    24.9630   -12.4580     2.2530 
  226.1250    48.3690    56.2330    51.0290    50.4910    24.9620   -12.7680     2.2570 
  226.2500    50.5140    60.5260    55.4560    49.1560    24.9430   -13.1390     2.2650 
  226.3750    53.0090    64.6460    59.8560    51.4310    24.8980   -13.5330     2.2690 
  226.5000    54.2480    68.4280    64.0250    55.1670    24.8660   -13.9050     2.2660 
  226.6250    53.8180    71.7450    67.8570    58.4270    24.8440   -14.1860     2.2550 
  226.7500    52.6770    74.6100    71.3890    59.5620    24.8670   -14.3820     2.2390 
  226.8750    50.6770    76.9270    74.4350    61.3210    24.9000   -14.5590     2.2250 
  227.0000    49.2000    78.5440    76.7190    62.9540    24.9350   -14.7420     2.2140 
  227.1250    50.0500    79.1770    77.9940    63.8390    24.9560   -14.9280     2.2100 
  227.2500    51.6310    79.2380    78.4440    64.0020    24.9640   -15.1300     2.2100 
  227.3750    52.7890    79.4080    78.0590    62.4940    24.9650   -15.2720     2.2140 
  227.5000    53.9850    80.1390    76.8840    60.9910    24.9730   -15.2550     2.2210 
  227.6250    55.4430    80.8430    75.0090    60.1840    25.0030   -15.1730     2.2280 
  227.7500    55.0350    80.5030    72.8380    60.1450    25.0490   -15.0970     2.2320 
  227.8750    52.5740    79.1000    70.7480    58.6430    25.0740   -14.9890     2.2320 
  228.0000    50.8770    77.5540    69.1900    56.8940    25.0720   -14.8040     2.2320 
  228.1250    52.5900    77.0860    68.7890    55.6630    25.0750   -14.5420     2.2320 
  228.2500    53.8050    77.8740    69.6340    53.7970    25.0640   -14.2000     2.2350 
  228.3750    52.7190    79.6750    71.6830    55.9900    25.0600   -13.8130     2.2370 
  228.5000    52.6170    81.9990    74.5860    60.0790    25.0760   -13.5230     2.2360 
  228.6250    55.1790    84.0530    77.5420    66.7830    25.0890   -13.2790     2.2330 
  228.7500    55.2430    85.2070    79.5850    69.3210    25.0900   -13.0530     2.2320 
  228.8750    51.5400    85.2800    80.2090    67.7240    25.0790   -12.9140     2.2410 
  229.0000    49.3570    84.6030    79.5850    65.0730    25.0670   -12.8640     2.2570 
  229.1250    51.9950    84.0140    78.6210    65.0720    25.0840   -12.8310     2.2720 
  229.2500    55.4940    84.4550    78.5610    62.3520    25.1040   -12.7850     2.2740 
  229.3750    57.2430    86.7530    80.2010    61.3280    25.1000   -12.7620     2.2610 
  229.5000    57.1660    91.5160    83.8480    65.3000    25.0930   -12.7910     2.2380 
  229.6250    55.9100    98.7240    89.3280    72.0820    25.0930   -12.8940     2.2190 
  229.7500    54.0410   106.2530    95.2510    75.8070    25.0930   -12.9870     2.2090 
  229.8750    51.9120   112.2140   100.3870    78.7760    25.0930   -12.9980     2.2050 
