~V
VERS. 2.00: Ver 2.00
~W
STRT.M 50.0000:
STOP.M 240.0000:
STEP.M 0.1250:
NULL. -999.2500:
UWI. F10736:
~C
DEPT.M :
DEN.GM/CC :
GR.API :
RML.OHMM :
RI. :
RXO.OHMM :
CALI.CM :
SP.MV :
~A
# ...
  207.5000     2.2640    41.9960   150.5580   125.4010    77.9360    25.8390   -13.8850 
  207.6250     2.2710    45.0890   151.4820   125.9500    86.3770    25.7350   -13.8610 
  207.7500     2.2880    47.0630   153.4090   127.2490    93.1300    25.7490   -13.8340 
  207.8750     2.3080    48.3540   155.5900   128.7530    96.7270    25.8520   -13.8000 
  208.0000     2.3200    50.0550   157.0820   129.8060    96.8640    25.9320   -13.7620 
  208.1250     2.3240    50.5770   156.6650   129.5190    97.0690    25.9340   -13.7220 
  208.2500     2.3240    49.2750   153.8120   127.4000   101.4770    25.9040   -13.6780 
  208.3750     2.3190    47.5870   148.2730   123.1890   101.1890    25.8840   -13.6240 
  208.5000     2.3050    47.3800   140.8760   117.5600    96.6840    25.8810   -13.5530 
  208.6250     2.2810    48.0980   133.9340   112.5130    98.7090    25.8440   -13.4610 
  208.7500     2.2460    47.5630   129.9440   110.0760    98.6950    25.7600   -13.3550 
  208.8750     2.2050    45.5540   130.7380   111.5900    88.9880    25.6970   -13.2550 
  209.0000     2.1610    43.1440   137.3520   117.6440    76.3210    25.7640   -13.1710 
  209.1250     2.1220    41.0880   149.6140   127.8860    76.4760    26.0460   -13.1400 
  209.2500     2.1110    39.1840   162.7880   138.3480    78.1580    26.4400   -13.1520 
  209.3750     2.1440    37.3280   171.4370   144.1550    79.6020    26.9010   -13.1660 
  209.5000     2.2180    36.5620   170.6000   141.0530    78.4480    27.2650   -13.1620 
  209.6250     2.3080    39.8150   157.1400   127.4570    64.2910    27.3760   -13.1610 
  209.7500     2.3780    45.8360   136.3610   109.0800    46.7750    27.2020   -13.1680 
  209.8750     2.4180    51.0100   113.0050    90.0620    34.7740    26.7680   -13.1850 
  210.0000     2.4270    52.5750    91.0390    73.1010    33.5830    26.1170   -13.2310 
  210.1250     2.3990    52.5930    73.8470    60.2740    38.7840    25.7410   -13.2940 
  210.2500     2.3320    53.4940    61.8200    51.4540    33.9150    25.7650   -13.3610 
  210.3750     2.2700    54.1360    54.7840    46.4540    26.0570    26.0700   -13.3920 
  210.5000     2.2710    53.2250    52.0460    44.8450    26.5170    26.3550   -13.4250 
  210.6250     2.3420    52.3150    53.1710    46.5100    35.7690    26.1640   -13.4060 
  210.7500     2.4140    52.6860    56.5140    50.2510    41.0460    25.8380   -13.3130 
  210.8750     2.4340    53.5220    60.9380    55.0440    40.1040    25.6050   -13.2340 
  211.0000     2.4340    55.4610    65.1720    59.5500    41.5240    25.5610   -13.1670 
  211.1250     2.4560    58.6030    67.9670    62.4840    54.9180    25.5620   -13.1620 
  211.2500     2.4960    59.4730    69.5400    64.2240    76.3000    25.5350   -13.1480 
  211.3750     2.5150    56.4730    70.7360    65.6440    78.7740    25.4940   -13.1270 
  211.5000     2.4980    52.8350    72.4630    67.5240    71.4940    25.4490   -13.1030 
  211.6250     2.4630    52.2900    75.3000    70.2480    69.8210    25.4610   -13.0770 
  211.7500     2.4540    51.4690    78.8480    73.4260    76.2800    25.4880   -13.0440 
  211.8750     2.4810    50.2850    82.5470    76.5570    92.1260    25.5160   -13.0070 
  212.0000     2.5220    50.3320    85.5990    78.8540   110.2800    25.5270   -12.9340 
  212.1250     2.5450    50.3610    85.7960    77.9330   107.6520    25.5300   -12.8500 
  212.2500     2.5310    48.7240    80.4720    71.4060    89.4610    25.5370   -12.7250 
  212.3750     2.5070    47.5850    67.8400    58.6010    76.2980    25.5590   -12.5840 
  212.5000     2.4960    49.7400    50.2390    42.6840    72.0440    25.6010   -12.4350 
  212.6250     2.5040    54.0000    33.9090    28.9070    66.6170    25.6300   -12.2400 
  212.7500     2.5180    55.5160    22.1830    19.0880    40.8620    25.6460   -12.0910 
  212.8750     2.5140    54.1850    14.8710    12.8710    17.5120    25.7060   -11.9460 
  213.0000     2.4830    53.1750     9.3440    10.7260     8.7510    25.7870   -11.6930 
  213.1250     2.4410    56.1520     7.8350     8.7760     7.1660    25.8170   -11.4790 
  213.2500     2.4170    60.2500     7.3590     7.9190     7.4960    25.7440   -11.1970 
  213.3750     2.4130    63.1730     7.4880     7.7610     8.5370    25.6460   -10.9840 
  213.5000     2.4160    64.4610     7.8670     7.9860    10.3220    25.5820   -10.8770 
  213.6250     2.4130    64.2180     8.1560     8.2660    11.5280    25.5340   -10.7690 
  213.7500     2.3950    63.6900     8.1990     8.3750     9.9540    25.4960   -10.6490 
  213.8750     2.3670    62.3710     8.0390     8.3020     8.7930    25.4720   -10.4850 
  214.0000     2.3430    59.6570     7.8210     8.1510     8.8250    25.4640   -10.3670 
  214.1250     2.3370    57.7060     7.7290     8.0680     8.2100    25.4640   -10.2510 
  214.2500     2.3590    59.6610     7.8430     8.1340     7.4790    25.4590   -10.1470 
  214.3750     2.3960    64.2200     8.1740     8.3680     8.0250    25.4420   -10.1090 
  214.5000     2.4360    66.2490     8.6670     8.7270     9.4310    25.3930   -10.0590 
  214.6250     2.4680    63.9800     9.2030     9.1160     9.7060    25.3280   -10.0050 
  214.7500     2.4730    63.0170     9.6410     9.4200     9.3420    25.2590    -9.9990 
  214.8750     2.4450    66.7510     9.8950     9.5580     9.9590    25.2290    -9.9810 
  215.0000     2.3990    71.4000     9.9220     9.4820    10.9720    25.2300    -9.9360 
  215.1250     2.3630    71.5560     9.6820     9.1620    10.9000    25.2730    -9.8770 
  215.2500     2.3590    67.8290     9.2510     8.6870    11.0460    25.3030    -9.8180 
  215.3750     2.3700    63.1500     8.7080     8.1350    10.6540    25.3130    -9.7800 
  215.5000     2.3720    60.0500     8.1680     7.6020     9.5190    25.3140    -9.7280 
  215.6250     2.3530    59.9950     7.7980     7.2090     8.4080    25.3140    -9.6520 
  215.7500     2.3250    62.4130     7.6590     7.0010     7.2860    25.3130    -9.6180 
  215.8750     2.3060    64.9550     7.7680     6.9970     7.0250    25.3020    -9.5650 
  216.0000     2.2950    66.6040     8.0860     7.1740     7.7010    25.2810    -9.5000 
  216.1250     2.2970    66.3390     8.5080     7.4740     8.5350    25.2620    -9.5000 
  216.2500     2.3140    65.5110     8.8490     7.7600     9.0770    25.2570    -9.5000 
  216.3750     2.3330    64.8090     8.9870     7.9350     9.5150    25.2450    -9.5000 
  216.5000     2.3410    63.5990     8.9020     7.9520     9.6070    25.2370    -9.5000 
  216.6250     2.3370    62.9660     8.6690     7.8290     8.9900    25.2340    -9.5000 
  216.7500     2.3290    63.8370     8.4460     7.6760     8.1880    25.2250    -9.5010 
  216.8750     2.3220    65.0930     8.3180     7.5550     7.8650    25.2080    -9.5030 
  217.0000     2.3170    64.8150     8.2950     7.4860     7.9810    25.2000    -9.5010 
  217.1250     2.3160    64.4190     8.3140     7.4420     8.1840    25.1960    -9.4940 
  217.2500     2.3240    65.9290     8.2680     7.3660     8.0740    25.1660    -9.4760 
  217.3750     2.3380    69.1540     8.0920     7.2200     7.8350    25.1260    -9.4450 
  217.5000     2.3560    72.6700     7.7960     6.9970     7.4890    25.1020    -9.4110 
  217.6250     2.3720    72.2170     7.4930     6.7510     6.9860    25.0950    -9.3770 
  217.7500     2.3800    67.8150     7.3150     6.5710     6.4660    25.0930    -9.3420 
  217.8750     2.3800    62.9720     7.3200     6.5140     6.4160    25.0820    -9.3050 
  218.0000     2.3770    59.0240     7.5020     6.5900     6.5670    25.0570    -9.2690 
  218.1250     2.3720    54.9600     7.7960     6.7700     7.0600    25.0500    -9.2360 
  218.2500     2.3590    51.2290     8.0490     6.9450     7.7380    25.0780    -9.2030 
  218.3750     2.3400    49.4000     8.1410     7.0290     8.0740    25.1350    -9.1650 
  218.5000     2.3230    50.7800     8.0260     6.9740     7.6160    25.2000    -9.1400 
  218.6250     2.3120    55.4230     7.7220     6.7730     7.4320    25.2270    -9.0870 
