~V
VERS. 2.00: Ver 2.00
~W
STRT.M 10.0000:
STOP.M 237.0000:
STEP.M 0.1250:
NULL. -999.2500:
UWI. F10776:
~C
DEPT.M :
DEN.GM/CC :
GR.API :
RML.OHMM :
RI. :
RXO.OHMM :
CALI.CM :
SP.MV :
~A
# ...
  122.5000     2.1880    40.8100    23.5620    21.9750    11.5420    23.2200    -6.4310 
  122.6250     2.2080    41.9860    21.7360    20.1260    10.4550    23.0580    -5.8100 
  122.7500     2.2100    39.2710    21.2440    19.4460    10.0570    23.0480    -5.1820 
  122.8750     2.1800    36.8840    21.7470    19.7340    10.8600    23.1780    -4.5860 
  123.0000     2.1300    35.7070    22.7630    20.6460    12.7420    23.3160    -3.9880 
  123.1250     2.1050    33.9530    23.7130    21.7050    13.5860    23.3580    -3.4840 
  123.2500     2.1240    31.6290    24.2140    22.4510    13.1090    23.3300    -3.0440 
  123.3750     2.1630    31.7070    24.1690    22.7080    12.0570    23.2910    -2.6860 
  123.5000     2.1840    35.0710    23.5780    22.4350    11.2740    23.2610    -2.4290 
  123.6250     2.1740    38.6970    22.2210    21.4240    11.0940    23.3000    -2.2790 
  123.7500     2.1580    39.3920    20.0520    19.6240    11.3010    23.4340    -2.2660 
  123.8750     2.1480    38.8620    17.2190    17.1170    11.3620    23.6430    -2.3590 
  124.0000     2.1450    41.4480    14.2590    14.3470    10.3800    23.8440    -2.5370 
  124.1250     2.1490    47.3240    12.0170    12.0470     7.9640    23.9620    -2.7440 
  124.2500     2.1660    51.6030    10.8000    10.5610     6.3970    23.9580    -2.9200 
  124.3750     2.1930    51.9950    10.6250     9.9600     6.0760    23.8200    -3.0740 
  124.5000     2.2170    48.5400    11.3410    10.1780     6.7050    23.6370    -3.1090 
  124.6250     2.2170    44.0490    12.7450    11.1440     7.6650    23.5210    -3.0700 
  124.7500     2.1960    42.1180    14.3090    12.4330     8.1080    23.5240    -2.9490 
  124.8750     2.1680    43.1300    15.6020    13.6340     8.0900    23.6140    -2.7590 
  125.0000     2.1390    44.9930    16.3640    14.4040     7.9070    23.7380    -2.5630 
  125.1250     2.1110    45.1630    16.6930    14.6840     7.7460    23.7500    -2.3630 
  125.2500     2.0940    44.3230    17.1200    14.9080     7.8790    23.7500    -2.2300 
  125.3750     2.0940    43.5780    17.9890    15.4130     8.2260    23.7810    -2.1700 
  125.5000     2.0990    42.3630    19.4070    16.3640     8.8230    23.8380    -2.1770 
  125.6250     2.0940    41.0170    21.2020    17.7100     9.4980    23.8610    -2.1900 
  125.7500     2.0870    41.5250    22.7930    18.9990    10.7250    23.8220    -2.2280 
  125.8750     2.0970    43.9220    23.6280    19.7630    12.1760    23.7250    -2.2560 
  126.0000     2.1400    46.1140    23.3950    19.7020    12.7250    23.5880    -2.2180 
  126.1250     2.2200    45.6230    22.1920    18.8200    11.3130    23.4860    -2.1960 
  126.2500     2.2990    44.2070    20.7820    17.7030     9.8010    23.4330    -2.1830 
  126.3750     2.3380    43.4310    19.6280    16.7410     9.1210    23.4110    -2.1470 
  126.5000     2.3350    43.5030    18.8800    16.1060     8.9110    23.3750    -2.1910 
  126.6250     2.3190    44.5330    18.4150    15.7720     8.7880    23.2930    -2.3480 
  126.7500     2.3000    46.3830    17.9440    15.5010     8.8550    23.2460    -2.5810 
  126.8750     2.2710    48.1100    17.3850    15.1830     8.8350    23.3190    -2.9600 
  127.0000     2.2390    48.6540    16.8040    14.8250     8.4160    23.4590    -3.5010 
  127.1250     2.2230    47.9830    16.3300    14.5090     8.2160    23.5220    -4.1950 
  127.2500     2.2240    47.4090    15.9500    14.2450     8.8010    23.5150    -4.9990 
  127.3750     2.2280    46.9190    15.5600    13.9640    10.3880    23.4720    -5.8890 
  127.5000     2.2230    46.3060    15.0500    13.5580    12.1920    23.4050    -6.8440 
  127.6250     2.2070    46.9410    14.4240    12.9870    10.6310    23.3010    -7.8460 
  127.7500     2.1910    48.2340    13.9060    12.4290     8.2300    23.2020    -8.8660 
  127.8750     2.1860    48.9790    13.6980    12.0740     7.3330    23.1190    -9.8180 
  128.0000     2.2030    48.3700    13.8890    12.0360     7.5390    23.1180   -10.6690 
  128.1250     2.2470    45.8230    14.4610    12.3550     8.4600    23.2650   -11.3500 
  128.2500     2.3030    43.7420    15.1650    12.8540     9.9360    23.5120   -11.8550 
  128.3750     2.3520    45.4390    15.8200    13.3720    11.1480    23.7360   -12.2080 
  128.5000     2.3810    51.0140    16.3650    13.8020    10.8750    23.8230   -12.4180 
  128.6250     2.3830    52.8250    16.9530    14.1950     9.9340    23.8070   -12.4590 
  128.7500     2.3600    47.9270    17.8020    14.7320    10.3790    23.7870   -12.3780 
  128.8750     2.3200    43.0510    19.0180    15.5520    11.6370    23.8520   -12.2280 
  129.0000     2.2730    43.5880    20.5720    16.7040    12.9400    24.0020   -12.0500 
  129.1250     2.2220    45.4580    22.3350    18.1590    14.0700    24.1780   -11.9370 
  129.2500     2.1680    43.9930    24.0640    19.6890    15.4270    24.3690   -11.8970 
  129.3750     2.1120    42.1380    25.6150    21.1140    16.6980    24.5190   -11.8980 
  129.5000     2.0530    42.5220    26.9300    22.3270    17.7660    24.5780   -11.9380 
  129.6250     1.9990    42.8440    27.9250    23.2510    17.6530    24.5740   -12.0430 
  129.7500     1.9590    40.9020    28.5230    23.8680    16.9490    24.5320   -12.1600 
  129.8750     1.9410    39.2170    28.4790    24.0290    16.0920    24.4000   -12.3050 
  130.0000     1.9620    39.6340    27.4820    23.4850    15.4300    24.1830   -12.3370 
  130.1250     2.0390    39.6440    25.1430    21.8420    15.0420    24.0640   -12.5410 
  130.2500     2.1470    37.7640    21.9500    19.3870    14.1660    24.0210   -12.6630 
  130.3750     2.2460    36.6530    18.6300    16.6600    12.1300    23.9920   -12.7430 
  130.5000     2.3100    39.8900    15.9760    14.3120     9.4780    23.9250   -12.8170 
  130.6250     2.3260    45.7440    14.7400    12.9770     8.1670    23.8090   -12.8080 
  130.7500     2.3070    48.9050    14.9010    12.7040     8.0310    23.6800   -12.7700 
  130.8750     2.2570    48.2390    16.4540    13.5530     9.1560    23.6380   -12.7150 
  131.0000     2.1810    44.2320    19.3110    15.5520    12.4630    23.9140   -12.6380 
  131.1250     2.0930    38.7280    23.3230    18.7500    17.7410    24.6610   -12.5370 
  131.2500     2.0320    34.6110    27.6210    22.4780    22.8470    25.3760   -12.4940 
  131.3750     2.0320    34.3370    31.2700    25.9140    23.1280    25.7230   -12.4730 
  131.5000     2.0910    36.5700    33.4650    28.2340    21.3680    25.6910   -12.4900 
  131.6250     2.1520    37.7510    33.8840    28.9480    19.6550    25.5680   -12.5500 
  131.7500     2.1620    38.4760    33.4920    28.7510    19.0220    25.4890   -12.6170 
  131.8750     2.1380    40.9900    32.9730    28.2120    18.8370    25.3580   -12.7290 
  132.0000     2.1280    43.9150    32.6870    27.7120    18.4930    25.1510   -12.8480 
  132.1250     2.1520    42.3220    32.7490    27.4560    17.9460    24.9940   -12.9540 
  132.2500     2.1600    38.6350    32.9770    27.4060    17.1150    24.9700   -13.0630 
  132.3750     2.1220    38.3510    33.1940    27.4710    16.6030    24.8700   -13.1910 
  132.5000     2.0550    41.9450    33.2590    27.5430    16.5780    24.7630   -13.2790 
  132.6250     2.0040    43.2430    33.1050    27.5450    17.0260    24.5900   -13.3820 
  132.7500     1.9800    42.4570    32.8780    27.5180    17.4910    24.2470   -13.4700 
  132.8750     1.9770    43.5280    32.7560    27.5630    18.2500    23.8380   -13.5080 
  133.0000     2.0000    44.9910    32.9040    27.8010    18.1010    23.5770   -13.5150 
  133.1250     2.0610    41.2820    33.4150    28.3340    17.4340    23.5710   -13.4440 
  133.2500     2.1400    36.1170    33.9610    28.9760    17.1060    23.6720   -13.2940 
  133.3750     2.2200    36.0650    33.9710    29.3210    16.7560    23.7350   -13.0480 
  133.5000     2.2950    40.4170    32.7370    28.7550    16.4210    23.7090   -12.7260 
  133.6250     2.3440    43.3130    29.6690    26.5880    16.0350    23.6650   -12.3160 
