~V
VERS. 2.00: Ver 2.00
~W
STRT.M 55.0000:
STOP.M 262.0000:
STEP.M 0.1250:
NULL. -999.2500:
UWI. F10759:
~C
DEPT.M :
DEN.GM/CC :
GR.API :
RML.OHMM :
RI. :
RXO.OHMM :
CALI.CM :
SP.MV :
~A
# ...
  122.5000     2.2380    69.1360    10.4640     9.9390     7.6460    22.5970    -6.2250 
  122.6250     2.2390    73.9180    11.2070    10.0400     7.0060    22.0560    -6.1990 
  122.7500     2.2310    74.3720    13.0080    11.1490     8.3680    21.8760    -6.2010 
  122.8750     2.2200    70.2700    15.3180    13.0070    12.1330    21.7690    -6.2530 
  123.0000     2.2090    66.0310    17.1910    14.9510    15.2060    21.7350    -6.3410 
  123.1250     2.2020    67.5810    17.2840    15.7060    15.4840    21.7380    -6.4720 
  123.2500     2.2010    72.4910    15.8360    15.0190    13.7580    21.9860    -6.6460 
  123.3750     2.2050    76.5280    13.8950    13.5960    10.7860    22.2990    -6.8570 
  123.5000     2.2140    75.9810    12.4700    12.3290     8.2280    22.7120    -7.0680 
  123.6250     2.2260    70.9670    12.0040    11.7500     8.5630    22.7200    -7.2650 
  123.7500     2.2370    67.3350    12.0100    11.6220     9.6940    22.4090    -7.4250 
  123.8750     2.2440    69.2460    12.0240    11.6020    10.3250    22.2480    -7.5250 
  124.0000     2.2470    75.2370    11.7460    11.4020     9.8330    22.2200    -7.5800 
  124.1250     2.2550    77.6170    11.2310    10.9780     8.7180    22.2200    -7.5770 
  124.2500     2.2770    75.3160    10.8910    10.6260     7.9000    22.2190    -7.5230 
  124.3750     2.3160    73.3290    10.9960    10.5850     7.3460    22.2150    -7.4170 
  124.5000     2.3620    72.5560    11.5410    10.9250     7.4840    22.2030    -7.3000 
  124.6250     2.3920    70.7230    12.1580    11.4470     8.7170    22.1700    -7.1560 
  124.7500     2.3930    68.3280    12.2680    11.6470     9.6580    22.2210    -7.0070 
  124.8750     2.3680    68.2270    11.5660    11.1730     9.2170    22.3680    -6.8660 
  125.0000     2.3340    69.7250    10.2120    10.0650     7.9070    22.7530    -6.7320 
  125.1250     2.3100    73.0300     8.7980     8.7620     6.7500    22.9630    -6.6250 
  125.2500     2.3020    76.1980     7.8400     7.7430     5.8720    23.0330    -6.5610 
  125.3750     2.2860    77.2600     7.4960     7.1960     5.6380    23.0610    -6.5430 
  125.5000     2.2730    76.5730     7.7330     7.1530     5.9860    23.0180    -6.5430 
  125.6250     2.2570    76.3820     8.4700     7.6140     6.7600    22.9130    -6.5750 
  125.7500     2.2400    75.8500     9.4140     8.3580     7.2400    22.7220    -6.5980 
  125.8750     2.2230    73.1530    10.3210     9.1880     7.4450    22.6800    -6.6070 
  126.0000     2.2090    70.2810    10.9620     9.8770     7.6620    22.6720    -6.5920 
  126.1250     2.2060    70.8030    11.1230    10.1720     8.4870    22.6880    -6.5550 
  126.2500     2.2160    73.3220    10.8810    10.0760     8.9100    22.6890    -6.4640 
  126.3750     2.2330    74.7270    10.3470     9.6620     8.0930    22.6810    -6.3220 
  126.5000     2.2490    73.6180     9.6820     9.0680     7.1120    22.6420    -6.1400 
  126.6250     2.2570    72.4560     9.1140     8.4870     6.8000    22.5440    -5.9240 
  126.7500     2.2610    73.4130     8.8350     8.1040     6.7800    22.5290    -5.7130 
  126.8750     2.2690    75.6020     8.9460     8.0270     6.4810    22.5260    -5.5120 
  127.0000     2.2940    77.7350     9.4170     8.2700     6.2600    22.5250    -5.3410 
  127.1250     2.3390    78.5050    10.0710     8.7370     7.0210    22.5210    -5.1820 
  127.2500     2.3890    76.7850    10.5780     9.1630     8.8130    22.5320    -5.0940 
  127.3750     2.4290    72.8140    10.6910     9.3340    10.7770    22.5600    -5.0560 
  127.5000     2.4430    69.8620    10.3230     9.1360    10.2620    22.5030    -5.0790 
  127.6250     2.4220    71.1680     9.6160     8.6180     7.7530    22.2700    -5.1640 
  127.7500     2.3830    75.5830     8.9470     8.0620     6.4990    22.1460    -5.2890 
  127.8750     2.3370    79.9010     8.5140     7.6430     6.4550    22.1320    -5.4420 
  128.0000     2.2990    82.6950     8.3770     7.4450     6.5530    22.1480    -5.6040 
  128.1250     2.2760    83.4060     8.5300     7.5080     6.5510    22.2270    -5.7750 
  128.2500     2.2650    81.6130     8.8330     7.7350     6.7210    22.2730    -5.9060 
  128.3750     2.2600    76.7340     9.2010     8.0540     6.8650    22.2910    -5.9960 
  128.5000     2.2580    71.6520     9.5500     8.3900     7.0250    22.3270    -6.0250 
  128.6250     2.2580    72.1030     9.7350     8.6240     7.5920    22.4500    -5.9810 
  128.7500     2.2600    74.9340     9.6380     8.6480     8.1050    22.5790    -5.8820 
  128.8750     2.2660    76.1430     9.2150     8.3960     7.8220    22.7320    -5.7410 
  129.0000     2.2760    75.8740     8.5640     7.9130     7.0900    22.9020    -5.5670 
  129.1250     2.2870    76.9630     7.9270     7.3640     6.4730    23.1740    -5.3660 
  129.2500     2.2970    79.4570     7.5290     6.9490     5.8650    23.3720    -5.1740 
  129.3750     2.3080    82.1800     7.4620     6.7750     5.6530    23.5370    -5.0040 
  129.5000     2.3210    83.4830     7.7140     6.8730     5.9430    23.6730    -4.8900 
  129.6250     2.3390    79.4960     8.2210     7.2350     6.7510    23.6990    -4.8270 
  129.7500     2.3540    73.0200     8.7850     7.7180     7.7790    23.6910    -4.8290 
  129.8750     2.3580    70.0880     9.2430     8.1820     8.0930    23.6470    -4.8760 
  130.0000     2.3440    72.4010     9.4780     8.4920     7.4600    23.5860    -4.9510 
  130.1250     2.3140    75.1090     9.4290     8.5470     7.3520    23.4860    -5.0380 
  130.2500     2.2860    75.5770     9.1950     8.4110     7.5250    23.4740    -5.0850 
  130.3750     2.2700    75.3650     8.8370     8.1370     7.2790    23.4910    -5.1050 
  130.5000     2.2660    76.4340     8.4120     7.7810     6.6530    23.5430    -5.0910 
  130.6250     2.2700    78.1390     7.9970     7.4080     6.3700    23.5910    -5.0750 
  130.7500     2.2740    80.5160     7.6740     7.0860     6.4710    23.5850    -5.0460 
  130.8750     2.2770    82.1000     7.5210     6.8800     6.3810    23.5470    -5.0440 
  131.0000     2.2840    79.9710     7.5960     6.8470     5.9500    23.5340    -5.0920 
  131.1250     2.2940    76.2250     7.9600     7.0520     6.0540    23.5310    -5.2010 
  131.2500     2.3030    75.7740     8.5350     7.4570     6.5410    23.5160    -5.4000 
  131.3750     2.3050    78.2350     9.2450     8.0210     6.9440    23.4520    -5.6710 
  131.5000     2.2990    78.9820     9.9770     8.6670     7.2700    23.3350    -5.9830 
  131.6250     2.2860    76.4280    10.5670     9.2680     7.6970    23.2160    -6.3020 
  131.7500     2.2750    74.6110    10.9380     9.7140     8.2010    23.1350    -6.6080 
  131.8750     2.2690    74.7710    11.1120     9.9780     8.4560    23.0880    -6.8650 
  132.0000     2.2700    76.1460    11.1900    10.1120     8.1990    23.0680    -7.0810 
  132.1250     2.2720    75.2050    11.3140    10.2130     7.8190    23.0290    -7.2720 
  132.2500     2.2690    75.1480    11.5600    10.3670     7.5660    22.9460    -7.4420 
  132.3750     2.2590    77.8270    11.9400    10.6040     7.5090    22.9070    -7.5700 
  132.5000     2.2430    79.6080    12.3950    10.9050     8.0220    22.9090    -7.6430 
  132.6250     2.2270    75.4770    12.8010    11.1840     8.6930    22.9180    -7.6750 
  132.7500     2.2140    69.0930    13.0930    11.3770     8.8570    22.9200    -7.6680 
  132.8750     2.2090    65.7470    13.3310    11.5090     8.7970    22.9170    -7.6190 
  133.0000     2.2080    65.7670    13.6680    11.6860     8.7740    22.9020    -7.5030 
  133.1250     2.2050    65.7710    14.3580    12.0930     8.9240    22.8090    -7.3170 
  133.2500     2.1950    65.5680    15.5450    12.8510     9.5610    22.7020    -7.0510 
  133.3750     2.1790    64.5400    17.3720    14.0880    11.0970    22.5690    -6.7310 
  133.5000     2.1630    62.1290    19.9420    15.9220    13.6190    22.5060    -6.3980 
  133.6250     2.1600    58.2250    23.4370    18.5780    14.9050    22.4160    -6.0700 
