~V
VERS. 2.00: Ver 2.00
~W
STRT.M 20.0000:
STOP.M 266.0000:
STEP.M 0.1250:
NULL. -999.2500:
UWI. F10773:
~C
DEPT.M :
DEN.GM/CC :
GR.API :
RML.OHMM :
RI. :
RXO.OHMM :
CALI.CM :
SP.MV :
~A
# ...
  233.7500     2.2300    57.0580    57.6480    55.4970    47.7510    24.4230    -9.0470 
  233.8750     2.2160    56.8570    60.2760    58.0760    52.9170    24.5030    -8.8440 
  234.0000     2.2060    56.8670    64.4470    61.5960    60.6670    24.5860    -8.6810 
  234.1250     2.2010    58.2730    68.9340    65.1140    71.5140    24.7050    -8.6090 
  234.2500     2.1990    60.7850    72.6130    67.9760    82.8680    24.8030    -8.6020 
  234.3750     2.2070    61.8790    75.1280    70.1770    78.5560    24.8010    -8.5590 
  234.5000     2.2310    63.2880    77.6950    72.6500    71.4930    24.7550    -8.3600 
  234.6250     2.2830    67.2310    81.5310    76.1580    67.9180    24.6810    -8.0980 
  234.7500     2.3650    70.7400    87.0300    80.7360    72.2720    24.5710    -7.8390 
  234.8750     2.4700    68.9100    92.7500    85.0090    90.3530    24.5630    -7.6110 
  235.0000     2.5700    65.1840    95.8640    86.9590   105.6110    24.6110    -7.4360 
  235.1250     2.6440    63.2470    94.5940    85.4100   115.9280    24.6490    -7.2920 
  235.2500     2.6800    63.8360    89.2430    80.6430   122.9690    24.5900    -7.2040 
  235.3750     2.6780    63.8420    82.1500    74.3650    94.7200    24.3460    -7.1600 
  235.5000     2.6580    63.3160    76.3340    68.9970    62.9260    24.1060    -7.1370 
  235.6250     2.6390    64.5950    72.9860    65.6760    49.3820    24.0900    -7.1550 
  235.7500     2.6330    66.8150    72.1580    64.6570    54.1480    24.3090    -7.1980 
  235.8750     2.6480    65.6150    73.4900    65.8970    55.9130    24.5340    -7.2450 
  236.0000     2.6710    61.9770    75.4360    68.2720    64.9660    24.5850    -7.3010 
  236.1250     2.6860    60.9190    75.9330    70.3520    67.5670    24.5340    -7.3850 
  236.2500     2.6790    63.2790    72.2100    69.8930    69.7960    24.5580    -7.4720 
  236.3750     2.6480    65.3200    61.6110    63.7510    71.3260    24.5810    -7.5530 
  236.5000     2.6140    66.0120    47.0740    52.6940    82.0640    24.5520    -7.5850 
  236.6250     2.5950    66.0290    32.5050    39.2140    92.7930    24.5210    -7.5490 
  236.7500     2.5970    63.8910    21.0370    26.5850    84.2760    24.4100    -7.5150 
  236.8750     2.6080    57.3450    14.1560    17.5880    91.8800    24.3110    -7.4830 
  237.0000     2.6050    50.4450    10.2450    11.8460    68.0050    24.2350    -7.4360 
  237.1250     2.5730    46.5400     8.2270     8.5210    34.5210    24.3360    -7.3560 
  237.2500     2.5170    46.2290     7.3080     6.7710    14.9270    24.4960    -7.2340 
  237.3750     2.4570    46.6310     7.0350     6.0870     8.1400    24.5810    -7.0920 
  237.5000     2.4150    44.0890     7.0170     5.8730     6.1660    24.6570    -7.0300 
  237.6250     2.4000    39.8670     7.1210     5.8610     5.6540    24.7080    -7.0360 
  237.7500     2.4070    35.9850     7.2610     5.8900     5.6600    24.7170    -7.0510 
  237.8750     2.4250    34.9630     7.3490     5.8770     5.8110    24.7250    -7.0880 
  238.0000     2.4400    37.3930     7.3260     5.8200     5.7220    24.7320    -7.1580 
  238.1250     2.4450    41.2810     7.1720     5.7190     5.6450    24.7620    -7.2420 
  238.2500     2.4410    43.4560     6.9120     5.5690     5.6820    24.8060    -7.3870 
  238.3750     2.4330    41.3780     6.6310     5.3730     5.3430    24.8150    -7.6570 
  238.5000     2.4290    37.7410     6.4420     5.1930     5.1210    24.7720    -7.9180 
  238.6250     2.4280    36.0260     6.4220     5.1140     5.0410    24.7350    -8.1010 
  238.7500     2.4240    38.4310     6.6070     5.2130     4.9720    24.7930    -8.2410 
  238.8750     2.4080    47.1150     7.0380     5.5500     5.0370    24.8210    -8.3760 
  239.0000     2.3840    57.9370     7.5650     6.0470     5.6540    24.7890    -8.5220 
  239.1250     2.3600    67.5320     8.0040     6.6090     6.7530    24.7760    -8.7280 
  239.2500     2.3420    74.7730     8.2600     7.1080     7.5660    24.7860    -8.8880 
  239.3750     2.3310    77.4690     8.3270     7.3580     7.9310    24.7590    -8.9250 
  239.5000     2.3210    75.9980     8.2100     7.2950     8.0360    24.7320    -8.9280 
  239.6250     2.3100    71.8780     7.8340     6.9260     7.6380    24.7090    -8.9810 
  239.7500     2.3030    66.9930     7.2320     6.3520     6.9030    24.7350    -9.1200 
  239.8750     2.3120    59.5900     6.6160     5.7650     5.9810    24.8280    -9.2740 
  240.0000     2.3390    50.4660     6.1730     5.3430     5.4980    24.9030    -9.3400 
  240.1250     2.3760    44.7200     5.9880     5.1660     5.3590    24.8520    -9.3830 
  240.2500     2.4050    46.3510     6.0650     5.2400     5.5820    24.8300    -9.5480 
  240.3750     2.4120    53.1720     6.3610     5.5210     5.7050    24.6800    -9.8860 
  240.5000     2.4000    60.0090     6.7060     5.8510     6.2530    24.2590   -10.3680 
  240.6250     2.3830    67.5900     6.9740     6.1060     7.2350    23.7070   -10.9190 
  240.7500     2.3730    74.4710     7.1010     6.2260     7.9310    23.4270   -11.4520 
  240.8750     2.3760    75.0460     7.1500     6.2740     7.4890    23.6950   -11.9800 
  241.0000     2.3850    71.4630     7.3010     6.4260     7.3360    24.0210   -12.6150 
  241.1250     2.3950    70.4780     7.7280     6.8000     7.4340    24.2120   -13.3230 
  241.2500     2.4070    73.7220     8.5030     7.3930     7.6810    24.2350   -14.0210 
  241.3750     2.4280    75.0030     9.4380     8.0350     9.6880    24.2320   -14.6610 
  241.5000     2.4520    72.8580    10.1120     8.4760    14.5860    24.2510   -15.2600 
  241.6250     2.4690    71.2760    10.2830     8.5790    16.5210    24.4720   -15.8780 
  241.7500     2.4660    74.4920     9.9630     8.3440    12.5930    24.7070   -16.5360 
  241.8750     2.4360    80.6510     9.3440     7.8900     9.9750    24.8530   -17.1560 
  242.0000     2.3950    84.2940     8.7670     7.4580     9.5810    24.8780   -17.6190 
  242.1250     2.3580    84.9330     8.4420     7.2100     9.5750    24.8510   -17.8680 
  242.2500     2.3310    84.1110     8.4760     7.2640     8.7810    24.8650   -17.9520 
  242.3750     2.3210    82.9300     8.9810     7.7620     8.8270    24.8910   -17.9960 
  242.5000     2.3220    81.8680     9.9300     8.6770    11.3680    24.8750   -17.9950 
  242.6250     2.3330    81.0390    11.3420     9.9860    16.6850    24.7990   -17.8470 
  242.7500     2.3510    79.3590    13.1240    11.5780    22.1190    24.7380   -17.5370 
  242.8750     2.3680    76.2160    14.9260    13.1700    21.9220    24.6820   -17.1890 
  243.0000     2.3790    74.9710    16.2090    14.3550    20.7470    24.6390   -16.9300 
  243.1250     2.3870    75.1520    16.5820    14.8080    21.5050    24.6980   -16.8170 
  243.2500     2.3970    75.5800    15.9220    14.3820    22.3060    24.7450   -16.7370 
  243.3750     2.4100    76.9310    14.3280    13.0880    19.9350    24.6790   -16.4370 
  243.5000     2.4150    77.8390    12.3640    11.3970    15.8900    24.5990   -15.9200 
  243.6250     2.4020    76.0760    10.4160     9.6570    11.2740    24.5460   -15.2880 
  243.7500     2.3710    71.9320     8.7770     8.1460     7.8910    24.5660   -14.6320 
  243.8750     2.3320    70.2040     7.6820     7.0980     7.0100    24.6730   -14.0210 
  244.0000     2.3010    71.2300     7.0840     6.4680     6.7150    24.7660   -13.5030 
  244.1250     2.2860    71.0620     6.9320     6.1870     6.5520    24.8160   -13.0660 
  244.2500     2.2850    69.6380     7.0850     6.1640     6.5450    24.8550   -12.7640 
  244.3750     2.2940    69.9860     7.3530     6.3150     6.8120    24.8320   -12.7030 
  244.5000     2.3030    72.4320     7.5940     6.5180     7.2330    24.8170   -12.8130 
  244.6250     2.3060    74.5050     7.7840     6.7020     7.5800    24.7990   -13.0460 
  244.7500     2.3020    73.9840     7.9030     6.8150     7.6620    24.7380   -13.3130 
  244.8750     2.2920    71.5420     7.8970     6.8090     7.9460    24.7260   -13.4160 
