~V
VERS. 2.00: Ver 2.00
~W
STRT.M 60.0000:
STOP.M 239.0000:
STEP.M 0.1250:
NULL. -999.2500:
UWI. F10775:
~C
DEPT.M :
DEN.GM/CC :
SP.MV :
GR.API :
RML.OHMM :
RI. :
RXO.OHMM :
CALI.CM :
~A
# ...
  138.7500     2.1630    -3.0740    51.9070    24.2390    19.1640    20.4080    25.9660 
  138.8750     2.1310    -3.6530    48.4700    31.9170    26.5750    29.8190    25.5450 
  139.0000     2.1310    -4.2850    45.2190    39.6440    35.2800    35.1080    25.3930 
  139.1250     2.1500    -4.8180    43.2910    45.0730    42.2320    32.2480    25.4530 
  139.2500     2.1650    -5.3210    43.5560    47.4180    45.5750    27.9690    25.5660 
  139.3750     2.1620    -5.6840    45.5410    47.1750    45.7910    26.1280    25.6950 
  139.5000     2.1410    -5.9030    46.5850    45.6110    44.5150    25.4970    25.7870 
  139.6250     2.1190    -5.9900    44.7890    43.8150    42.9520    27.3550    25.8160 
  139.7500     2.1130    -5.9620    42.8440    42.1300    41.3160    27.9360    25.8230 
  139.8750     2.1240    -5.9620    42.9860    40.5100    39.4700    25.4720    25.8830 
  140.0000     2.1390    -5.9720    44.2710    39.0440    37.5550    22.1420    25.9290 
  140.1250     2.1350    -6.0920    43.3620    38.1040    36.1010    19.9560    25.7840 
  140.2500     2.1080    -6.2830    40.5670    37.8180    35.4360    18.3830    25.4760 
  140.3750     2.0640    -6.4740    38.9430    38.0460    35.5670    18.0160    25.2400 
  140.5000     2.0200    -6.7130    40.1970    38.3830    36.1270    18.8590    25.1660 
  140.6250     1.9900    -7.0330    40.5540    38.3720    36.4270    19.6060    25.2140 
  140.7500     1.9860    -7.3850    37.7470    38.2320    36.2390    19.0030    25.3090 
  140.8750     2.0260    -7.6900    34.4810    38.8170    36.1570    17.2060    25.4130 
  141.0000     2.1310    -7.8830    33.5140    41.3320    37.5090    15.4400    25.5060 
  141.1250     2.3210    -7.8490    34.3230    47.0290    42.4900    15.3210    25.5380 
  141.2500     2.5530    -7.5660    35.0630    54.0820    50.8160    18.6130    25.6050 
  141.3750     2.7700    -7.1090    36.6960    58.5760    59.3910    30.8630    25.7970 
  141.5000     2.9190    -6.5450    39.6540    56.1170    61.2910    69.7600    26.0180 
  141.6250     2.9570    -5.8110    43.2260    44.8020    49.9510   113.9330    26.0950 
  141.7500     2.9110    -5.1000    46.2710    30.7390    33.9760    79.8840    26.0580 
  141.8750     2.8100    -4.4400    49.9580    18.9660    20.9420    29.8640    25.9910 
  142.0000     2.6850    -3.8740    54.1570    11.5930    12.9690    10.5920    25.8760 
  142.1250     2.5670    -3.4920    56.5610     8.3250     9.2870     7.5090    25.7050 
  142.2500     2.4730    -3.1550    57.8340     7.0110     7.5880     7.1950    25.4770 
  142.3750     2.4100    -2.8820    59.8670     6.7920     7.0420     7.0730    25.2770 
  142.5000     2.3710    -2.7410    63.4260     7.2110     7.2620     6.4050    25.2070 
  142.6250     2.3430    -2.7870    63.6040     8.0360     8.0760     6.2930    25.3930 
  142.7500     2.3110    -2.9120    59.8700     8.9900     9.1640     7.1430    25.3690 
  142.8750     2.2780    -3.0830    55.7570     9.9120    10.3180     8.5090    25.1840 
  143.0000     2.2490    -3.2510    54.9660    10.6850    11.3560    10.5500    24.8670 
  143.1250     2.2290    -3.4550    58.2480    11.2370    12.0900    10.6030    24.7400 
  143.2500     2.2160    -3.8550    60.3010    11.6840    12.5580    10.0090    24.6570 
  143.3750     2.2080    -4.3720    59.2290    12.1840    12.9090    10.0260    24.5240 
  143.5000     2.2060    -4.8320    55.7550    12.8920    13.3400    11.3500    24.4980 
  143.6250     2.2110    -5.1190    52.6150    13.8910    14.0240    12.3700    24.6270 
  143.7500     2.2220    -5.2060    52.2150    14.9870    14.8730    12.6210    24.6000 
  143.8750     2.2390    -5.1390    53.5810    15.9120    15.6590    13.7270    24.4390 
  144.0000     2.2620    -4.9760    54.0180    16.4090    16.0860    15.4830    24.4710 
  144.1250     2.2860    -4.6020    52.4810    16.3250    15.9000    16.2800    24.7770 
  144.2500     2.3050    -4.0890    52.4640    15.9930    15.3640    15.5270    25.0030 
  144.3750     2.3070    -3.5330    53.9140    15.8480    14.8530    12.6390    25.0550 
  144.5000     2.2930    -2.9270    54.4890    16.3600    14.7870    10.6250    25.0120 
  144.6250     2.2810    -2.4230    52.6400    18.0410    15.7140    12.2020    25.3870 
  144.7500     2.3000    -2.0310    49.9000    20.6380    17.7110    15.7800    25.8080 
  144.8750     2.3650    -1.6900    47.3390    23.5030    20.5870    19.9230    26.0350 
  145.0000     2.4680    -1.4640    45.4290    25.5010    23.4370    27.7890    26.0610 
  145.1250     2.5750    -1.3590    44.8790    25.0630    24.0750    32.0870    26.0980 
  145.2500     2.6480    -1.2990    44.7540    22.3930    21.8750    31.3050    26.1200 
  145.3750     2.6650    -1.2170    45.3710    18.5570    18.0700    23.2670    26.0390 
  145.5000     2.6280    -1.1100    46.9850    15.0400    14.4560    14.9380    25.9570 
  145.6250     2.5490    -1.0080    49.1170    13.2680    12.2880    10.4420    25.7240 
  145.7500     2.4660    -0.9130    50.6000    13.3830    11.5730     9.9220    25.4490 
  145.8750     2.4070    -0.8330    49.4390    15.3040    12.3130    12.4590    25.4580 
  146.0000     2.3970    -0.7300    45.5890    18.7750    14.5390    20.3020    25.8320 
  146.1250     2.4570    -0.5630    42.5570    23.3780    18.4020    27.0340    26.3610 
  146.2500     2.5620    -0.3940    41.2870    28.0460    23.0960    31.1940    26.6040 
  146.3750     2.6800    -0.2660    40.6170    31.9190    27.6280    32.5280    26.4640 
  146.5000     2.7740    -0.2070    39.8070    34.4360    31.0860    34.5440    26.1060 
  146.6250     2.8130    -0.1420    39.7180    35.3380    32.9930    35.0670    25.4820 
  146.7500     2.8080    -0.0390    39.3410    35.2290    33.8570    35.8280    25.0120 
  146.8750     2.7790     0.0360    38.3830    34.4770    33.9180    34.0640    25.1630 
  147.0000     2.7460     0.0860    38.2900    33.3700    33.3350    31.2180    25.7090 
  147.1250     2.7240     0.0270    39.7310    32.1620    32.3040    29.7700    25.9570 
  147.2500     2.7140    -0.1260    40.6760    31.0880    31.2060    31.5810    25.9740 
  147.3750     2.7110    -0.3350    40.3050    30.2310    30.2340    31.8020    25.9320 
  147.5000     2.7130    -0.6550    40.1870    29.5100    29.4340    29.9100    25.8810 
  147.6250     2.7140    -1.0920    41.3210    28.5550    28.6070    26.3280    25.7920 
  147.7500     2.7120    -1.6390    41.5230    26.9230    27.2770    24.7020    25.6750 
  147.8750     2.7040    -2.2690    40.6700    24.3110    24.9350    23.6820    25.6380 
  148.0000     2.6930    -2.9210    41.0710    20.7780    21.4170    22.2320    25.6720 
  148.1250     2.6880    -3.5970    44.7110    16.8750    17.3100    20.5560    25.5250 
  148.2500     2.6910    -4.1510    47.0480    13.4920    13.7160    18.7770    25.3600 
  148.3750     2.6900    -4.5790    47.6300    11.1930    11.1710    15.9900    25.3000 
  148.5000     2.6680    -4.8010    48.6130    10.2320     9.8110    11.5570    25.2760 
  148.6250     2.6170    -4.6910    52.2250    10.8390     9.7910    10.6000    25.2070 
  148.7500     2.5640    -4.4150    54.3200    12.6440    10.9080    14.0510    25.1600 
  148.8750     2.5350    -3.9110    51.6370    15.3830    13.1710    21.3620    25.2510 
  149.0000     2.5480    -3.2510    46.1250    18.6040    16.4300    23.2740    25.2880 
  149.1250     2.5940    -2.4420    41.8610    21.5480    20.0730    23.2960    25.1670 
  149.2500     2.6430    -1.6010    39.3550    23.6050    22.9890    21.6090    25.0970 
  149.3750     2.6780    -0.8220    37.9550    24.5590    24.5710    23.2230    25.0890 
  149.5000     2.6910    -0.0820    37.6480    24.5870    24.8980    24.9880    25.0500 
  149.6250     2.6810     0.4640    38.6690    24.0650    24.4050    23.9260    25.0140 
  149.7500     2.6590     0.9540    38.9050    23.4880    23.6740    20.6860    24.9810 
  149.8750     2.6340     1.3880    37.2380    23.0670    22.9330    19.1500    24.9900 
