~V
VERS. 2.00: Ver 2.00
~W
STRT.M 60.0000:
STOP.M 239.0000:
STEP.M 0.1250:
NULL. -999.2500:
UWI. F10775:
~C
DEPT.M :
DEN.GM/CC :
SP.MV :
GR.API :
RML.OHMM :
RI. :
RXO.OHMM :
CALI.CM :
~A
# ...
  172.5000     2.5060     1.2750    49.0130    12.1040    10.7960     9.9260    26.2540 
  172.6250     2.5060     1.2610    47.2880    12.4460    11.0620    10.5230    26.1990 
  172.7500     2.5020     1.2310    45.6450    12.8130    11.3210    10.9070    26.1480 
  172.8750     2.4930     1.1550    46.2730    13.2380    11.6230    10.7400    26.0400 
  173.0000     2.4810     1.0130    48.7030    13.7530    12.0080    10.6530    25.8490 
  173.1250     2.4730     0.9040    49.7890    14.3760    12.5040    11.5760    25.7260 
  173.2500     2.4680     0.7490    50.0160    15.0520    13.0660    13.0170    25.7300 
  173.3750     2.4600     0.5790    51.1000    15.7130    13.6470    14.1890    25.8530 
  173.5000     2.4400     0.3910    52.1760    16.2850    14.1810    14.2010    26.0710 
  173.6250     2.4070     0.1680    51.4620    16.6890    14.5870    14.0140    26.3840 
  173.7500     2.3740    -0.0510    49.4250    16.9470    14.8550    14.5880    26.7070 
  173.8750     2.3540    -0.2990    47.7410    17.1010    15.0100    15.3360    27.0050 
  174.0000     2.3590    -0.5370    48.0290    17.2060    15.1070    15.2930    27.1850 
  174.1250     2.3890    -0.8310    52.1420    17.3160    15.2020    14.4500    27.2370 
  174.2500     2.4310    -1.1660    56.0800    17.4550    15.3290    13.6290    27.1510 
  174.3750     2.4740    -1.4770    56.4710    17.6090    15.4950    14.0140    26.9860 
  174.5000     2.5110    -1.8570    54.2630    17.7320    15.6830    14.7580    26.8250 
  174.6250     2.5340    -2.2350    54.4250    17.7270    15.8180    15.0440    26.5800 
  174.7500     2.5380    -2.6130    57.8560    17.5460    15.8110    15.1540    26.3110 
  174.8750     2.5210    -2.9730    61.1720    17.1960    15.6130    15.2930    26.2450 
  175.0000     2.4880    -3.3200    60.4820    16.7570    15.2600    15.5360    26.3730 
  175.1250     2.4570    -3.6870    56.4710    16.3780    14.8810    15.3450    26.5800 
  175.2500     2.4400    -3.9550    53.0480    16.1570    14.6180    14.0290    26.7350 
  175.3750     2.4420    -4.2270    51.5900    16.0960    14.5210    13.0370    26.7670 
  175.5000     2.4550    -4.4220    52.1120    16.1050    14.5440    12.9260    26.5820 
  175.6250     2.4690    -4.4920    52.7580    16.0030    14.5370    14.1280    26.1860 
  175.7500     2.4750    -4.5310    53.8550    15.6880    14.3470    15.0070    25.8140 
  175.8750     2.4740    -4.5090    55.9150    15.1870    13.9310    15.3000    25.6520 
  176.0000     2.4730    -4.4900    58.0760    14.6690    13.3920    14.5670    25.4980 
  176.1250     2.4740    -4.4260    59.0290    14.4760    13.0160    13.2970    25.3060 
  176.2500     2.4770    -4.4280    58.1110    14.8270    13.0630    12.9400    25.2440 
  176.3750     2.4780    -4.5040    56.7750    15.8010    13.7020    13.6220    25.3350 
  176.5000     2.4740    -4.5960    55.5490    17.2700    14.9570    16.1590    25.5460 
  176.6250     2.4730    -4.7620    54.2650    18.8140    16.6360    21.7350    26.0250 
  176.7500     2.4840    -4.9350    54.0820    19.8350    18.0930    29.4350    26.7230 
  176.8750     2.5070    -5.0940    54.3460    19.9360    18.7000    29.7090    26.9980 
  177.0000     2.5350    -5.1940    53.0160    19.0630    18.1550    23.0520    26.7710 
  177.1250     2.5510    -5.2310    50.6410    17.5270    16.6910    16.6930    26.5290 
  177.2500     2.5460    -5.2810    51.7930    16.0140    15.1260    13.4830    26.3910 
  177.3750     2.5250    -5.2600    56.4860    14.8940    13.8810    12.1070    26.2600 
  177.5000     2.5020    -5.2370    59.3240    14.2960    13.1100    12.0750    26.0670 
  177.6250     2.4920    -5.2670    57.7670    14.2170    12.8470    12.8040    25.9220 
  177.7500     2.4990    -5.3270    57.3690    14.4410    12.9020    13.5910    25.8290 
  177.8750     2.5180    -5.4720    58.8330    14.8740    13.1850    14.7870    25.7360 
  178.0000     2.5400    -5.6170    58.5210    15.4590    13.6600    14.6720    25.6160 
  178.1250     2.5510    -5.8290    54.3900    16.1380    14.3430    15.1450    25.4260 
  178.2500     2.5470    -5.9690    49.9860    16.7550    15.1280    15.7740    25.3800 
  178.3750     2.5280    -6.0850    47.7050    17.1240    15.8260    16.2640    25.5220 
  178.5000     2.5000    -6.2830    48.1570    17.0690    16.1750    17.9640    25.6920 
  178.6250     2.4720    -6.4230    50.9370    16.4440    15.8720    17.7590    25.5550 
  178.7500     2.4490    -6.5260    54.6220    15.4530    15.0520    15.7480    25.4920 
  178.8750     2.4330    -6.5030    56.9860    14.3090    13.9460    12.6780    25.5030 
  179.0000     2.4250    -6.4760    55.9760    13.2220    12.8240    10.0430    25.6770 
  179.1250     2.4290    -6.4450    52.4960    12.3530    11.8900     9.8270    26.0300 
  179.2500     2.4410    -6.4510    50.6940    11.6830    11.1410    10.0060    26.2130 
  179.3750     2.4570    -6.4670    51.1110    11.1660    10.5310     9.5620    26.2430 
  179.5000     2.4720    -6.3520    52.3430    10.7610    10.0140     8.3540    26.2650 
  179.6250     2.4780    -6.2410    53.4480    10.4870     9.5890     7.8030    26.2740 
  179.7500     2.4770    -6.1370    53.5700    10.3760     9.2880     7.7170    26.2020 
  179.8750     2.4700    -6.1400    52.3750    10.4910     9.1870     7.5950    26.0340 
  180.0000     2.4600    -6.2150    51.4390    10.8860     9.3470     7.6780    25.7260 
  180.1250     2.4510    -6.2810    51.2000    11.6370     9.8410     8.1550    25.5480 
  180.2500     2.4470    -6.4080    49.6980    12.6960    10.6190     8.5650    25.6150 
  180.3750     2.4510    -6.5520    46.3080    14.0530    11.6810     9.4310    25.7510 
  180.5000     2.4590    -6.7440    44.0020    15.6990    13.0290    11.5220    25.7470 
  180.6250     2.4580    -6.9160    46.4280    17.6480    14.7090    14.9090    25.6140 
  180.7500     2.4360    -7.0860    49.1610    19.7730    16.6480    18.5490    25.4240 
  180.8750     2.3930    -7.2650    49.5090    21.9040    18.7340    22.4560    25.2980 
  181.0000     2.3400    -7.3660    48.0370    23.7870    20.7310    25.5440    25.2360 
  181.1250     2.2970    -7.4190    46.3220    25.0470    22.2240    26.9880    25.1770 
  181.2500     2.2750    -7.3160    45.1750    25.6520    23.0850    26.9180    25.1380 
  181.3750     2.2720    -7.1160    44.4370    25.7120    23.3800    25.5260    25.1340 
  181.5000     2.2770    -6.8120    45.1310    25.4520    23.3270    23.6700    25.1430 
  181.6250     2.2890    -6.3690    44.9050    25.0510    23.1460    23.2160    25.1250 
  181.7500     2.3200    -5.8410    42.2500    24.5090    22.8990    23.7550    25.0260 
  181.8750     2.3800    -5.2010    39.6420    23.6200    22.3940    25.2380    24.8300 
  182.0000     2.4640    -4.5960    40.3820    22.1520    21.3200    24.9090    24.6700 
  182.1250     2.5380    -4.0280    45.0070    19.9410    19.3830    21.2990    24.7170 
  182.2500     2.5690    -3.5620    49.3620    17.3480    16.9370    18.7490    24.9070 
  182.3750     2.5460    -3.1480    52.3960    14.7690    14.4070    17.4260    25.0610 
  182.5000     2.4820    -2.8030    55.3320    12.5750    12.1880    14.9410    25.1100 
  182.6250     2.4040    -2.6320    56.1650    11.0980    10.6150    11.4200    25.1220 
  182.7500     2.3400    -2.5850    53.6930    10.2590     9.6270     9.4150    25.2480 
  182.8750     2.3030    -2.6740    49.5870     9.9650     9.1550     8.6360    25.4800 
  183.0000     2.3000    -2.7100    47.2160    10.0930     9.1150     8.7260    25.7830 
  183.1250     2.3370    -2.7030    49.1820    10.5530     9.4670     9.2780    25.9450 
  183.2500     2.3940    -2.6880    52.7540    11.1720    10.0410     9.9590    25.9110 
  183.3750     2.4480    -2.6860    54.3660    11.8650    10.7440    10.3300    25.7300 
  183.5000     2.4800    -2.7780    51.7380    12.5650    11.5050    10.8440    25.4900 
  183.6250     2.4740    -2.8610    48.3540    13.1980    12.2520    11.7740    25.2990 
