~V
VERS. 2.00: Ver 2.00
~W
STRT.M 60.0000:
STOP.M 239.0000:
STEP.M 0.1250:
NULL. -999.2500:
UWI. F10775:
~C
DEPT.M :
DEN.GM/CC :
SP.MV :
GR.API :
RML.OHMM :
RI. :
RXO.OHMM :
CALI.CM :
~A
   60.0000     2.0670   112.7870    32.7270   380.9490     0.2910     1.3540    25.9420 
   60.1250     2.0560   110.5020    33.0690   260.2160     0.2660     1.3640    25.9460 
   60.2500     2.0330   107.8910    35.2620    57.8240     0.2290     1.3740    25.9460 
   60.3750     2.0100   104.7190    36.4660    11.0060     0.1850     1.3850    25.9520 
   60.5000     2.0150   100.5420    35.3690     5.0580     0.1410     1.4030    25.9690 
   60.6250     2.0870    94.3490    34.4310     2.7110     0.1080     1.4280    25.9980 
   60.7500     2.2170    85.8900    36.1120     1.7750     0.0870     1.4600    26.0100 
   60.8750     2.3640    75.0490    38.1250     1.6410     0.0870     1.5090    26.0210 
   61.0000     2.4670    62.2540    39.1410     2.0380     0.1240     1.8510    26.0840 
   61.1250     2.4600    48.4860    39.7270     3.1590     0.2610     3.0850    26.2930 
   61.2500     2.3660    34.7710    39.5710     5.1690     0.5720     5.6920    26.6170 
   61.3750     2.2290    21.6680    39.0070     7.9360     1.1700     8.1550    26.9260 
   61.5000     2.0930     9.9030    39.1900    10.6600     2.1810     8.7690    27.2010 
   61.6250     1.9910     0.7080    39.0770    12.2260     3.7820     8.2810    27.6120 
   61.7500     1.9270    -5.6820    36.6370    12.8780     5.8740     8.3780    28.5040 
   61.8750     1.9070    -9.1640    33.0870    13.4100     8.3460     9.8930    30.2070 
   62.0000     1.9400   -10.1740    31.8120    14.3520    11.0030    11.7960    32.6640 
   62.1250     2.0230    -9.6340    34.5580    15.5820    13.4360    11.7280    34.2940 
   62.2500     2.1160    -8.5620    37.9510    16.5800    15.2150    10.5170    33.2380 
   62.3750     2.1810    -7.2600    38.7140    17.0900    16.1350     9.9880    30.2710 
   62.5000     2.1990    -6.0220    37.4630    17.1620    16.3720    10.6020    27.9230 
   62.6250     2.1700    -5.1590    37.0280    17.1140    16.3490    11.0830    27.1790 
   62.7500     2.1310    -4.6800    37.8040    17.2680    16.4420    11.4040    27.0770 
   62.8750     2.1040    -4.5600    38.2630    17.6850    16.7180    11.6110    27.0390 
   63.0000     2.0980    -4.6640    37.9520    18.2650    17.1020    11.7900    26.9910 
   63.1250     2.1090    -4.8760    36.5610    18.8200    17.4530    11.8850    26.9440 
   63.2500     2.1230    -5.1470    35.2110    19.2240    17.6790    11.9880    26.9080 
   63.3750     2.1320    -5.4740    35.5070    19.4490    17.7740    11.9730    26.8560 
   63.5000     2.1410    -5.8100    37.7250    19.4920    17.7810    11.7990    26.8080 
   63.6250     2.1730    -6.0730    40.4160    19.2200    17.6650    11.6120    26.7860 
   63.7500     2.2450    -6.1550    41.2220    18.4930    17.2600    11.4870    26.7560 
   63.8750     2.3520    -5.9810    41.3580    17.2040    16.3540    11.4410    26.6760 
   64.0000     2.4580    -5.6290    43.4300    15.4530    14.9200    11.3900    26.5640 
   64.1250     2.4990    -5.1700    47.8090    13.5760    13.2250    10.8940    26.5630 
   64.2500     2.4610    -4.6860    52.4710    11.9540    11.6870     9.5740    26.7910 
   64.3750     2.3770    -4.1690    56.8830    10.7360    10.4890     7.8800    27.0880 
   64.5000     2.3060    -3.5440    59.4600     9.8910     9.6420     7.4170    27.0540 
   64.6250     2.2990    -2.8710    57.9250     9.2990     9.0480     8.3290    26.6440 
   64.7500     2.3330    -2.3270    56.4450     8.7840     8.5140     8.9300    26.5540 
   64.8750     2.3650    -1.9170    58.4380     8.3150     7.9940     7.5020    26.9710 
   65.0000     2.3570    -1.6760    61.6260     7.9380     7.5370     6.2210    27.5050 
   65.1250     2.2980    -1.6640    62.0850     7.7640     7.2610     6.0150    27.7340 
   65.2500     2.2240    -1.7070    61.9680     7.8080     7.1920     6.3990    27.7170 
   65.3750     2.1670    -1.7460    61.6230     8.0650     7.3410     6.7020    27.5470 
   65.5000     2.1510    -1.9250    60.4130     8.5280     7.7140     7.1620    27.1880 
   65.6250     2.1890    -2.2070    60.1980     9.2410     8.3590     7.4900    26.6500 
   65.7500     2.2600    -2.4820    60.4560    10.1740     9.2490     8.0380    26.2070 
   65.8750     2.3360    -2.8700    58.1230    11.2470    10.3520     8.1500    26.1770 
   66.0000     2.3860    -3.3760    54.4240    12.2230    11.5010     8.0950    26.5090 
   66.1250     2.3880    -3.8800    54.6950    12.6220    12.2130     9.5740    26.8270 
   66.2500     2.3570    -4.3970    57.7420    12.2670    12.1420    12.8680    26.8450 
   66.3750     2.3150    -4.9270    59.5250    11.2720    11.3010    14.2030    26.5710 
   66.5000     2.2800    -5.3490    61.0590    10.0090    10.0590    11.2150    26.2240 
   66.6250     2.2580    -5.7430    64.1570     8.9520     8.9120     9.2780    26.0640 
   66.7500     2.2400    -6.2180    65.9990     8.2790     8.1140     8.0190    26.2810 
   66.8750     2.2270    -6.5990    65.8460     7.9520     7.6730     7.1670    26.5690 
   67.0000     2.2270    -6.7870    65.0990     7.8220     7.4660     7.0040    26.6110 
   67.1250     2.2480    -6.8090    64.7660     7.7130     7.3230     7.1590    26.4160 
   67.2500     2.2780    -6.6810    64.1190     7.5150     7.1150     7.5240    26.3120 
   67.3750     2.2990    -6.4790    63.7790     7.2310     6.8210     7.2490    26.5210 
   67.5000     2.2990    -6.3830    65.7800     6.9410     6.4810     6.8680    26.8300 
   67.6250     2.2850    -6.3530    68.2070     6.8170     6.2220     6.2860    26.9720 
   67.7500     2.2800    -6.3360    68.2100     6.9720     6.1650     5.9740    26.9820 
   67.8750     2.2870    -6.4540    65.5280     7.4680     6.3820     5.5800    26.8760 
   68.0000     2.2960    -6.7060    61.0090     8.2930     6.8940     5.4260    26.6380 
   68.1250     2.2850    -7.1420    56.9950     9.3880     7.7050     5.9040    26.2300 
   68.2500     2.2530    -7.6870    52.5280    10.5610     8.6680     7.2460    25.8990 
   68.3750     2.2120    -8.2640    48.6530    11.6820     9.6430     9.4830    25.6800 
   68.5000     2.1780    -8.8730    47.1270    12.6760    10.5130    10.9670    25.6360 
   68.6250     2.1560    -9.5450    47.5050    13.5420    11.2310    10.3360    25.7300 
   68.7500     2.1350   -10.1620    47.5450    14.3620    11.8810     9.6340    25.7810 
   68.8750     2.1110   -10.7130    46.0780    15.1640    12.5220    10.1210    25.7200 
   69.0000     2.0860   -11.2070    45.3840    15.9020    13.1630    10.9120    25.6640 
   69.1250     2.0730   -11.5590    46.7580    16.4240    13.7030    11.3190    25.6980 
   69.2500     2.0730   -11.8800    46.0740    16.6600    14.0230    11.3640    25.7910 
   69.3750     2.0810   -12.1350    42.9070    16.6380    14.0680    11.3080    25.9010 
   69.5000     2.0890   -12.2720    40.6800    16.5270    13.9220    11.2460    26.0040 
   69.6250     2.0960   -12.2360    43.5710    16.6500    13.8720    11.1990    26.0930 
   69.7500     2.1230   -12.0390    45.9710    17.1530    14.1900    11.1500    26.1740 
   69.8750     2.1980   -11.6400    43.8360    17.9160    14.9300    11.1150    26.2630 
   70.0000     2.3350   -10.9770    39.6940    18.5180    15.8400    11.3300    26.4110 
   70.1250     2.5110   -10.0590    40.4560    18.1930    16.1490    13.8600    26.6730 
   70.2500     2.6590    -8.9910    45.1010    16.7360    15.2880    19.1470    26.9520 
   70.3750     2.7250    -7.8770    50.1200    14.3930    13.3230    19.6360    27.1160 
   70.5000     2.6950    -6.7130    54.8420    11.7780    10.9220    11.0920    27.1390 
   70.6250     2.5960    -5.5970    57.5280     9.6270     8.8720     8.0380    27.0610 
   70.7500     2.4990    -4.5740    57.7200     8.1530     7.3930     7.0560    26.9670 
   70.8750     2.4370    -3.6360    58.5010     7.2710     6.4300     6.9940    26.9120 
   71.0000     2.4130    -2.8530    62.9040     6.7750     5.8450     7.0930    26.9360 
   71.1250     2.4080    -2.2070    69.7130     6.4880     5.5040     6.5080    27.1560 
