~V
VERS. 2.00: Ver 2.00
~W
STRT.M 59.0000:
STOP.M 248.0000:
STEP.M 0.1250:
NULL. -999.2500:
UWI. F10727:
~C
DEPT.M :
GR.API :
RML.OHMM :
RI. :
RXO.OHMM :
CALI.CM :
SP.MV :
DEN.GM/CC :
~A
# ...
  216.5000    77.4130     8.1450     7.4320     7.1720    24.0410   -21.8120     2.3240 
  216.6250    77.0930     8.4180     7.6220     8.1100    24.0250   -21.8740     2.3070 
  216.7500    78.0890     8.7110     7.8370     8.7630    23.9920   -21.8360     2.2920 
  216.8750    76.9260     8.9380     8.0060     8.5540    23.9680   -21.6420     2.2830 
  217.0000    72.8650     9.0090     8.0440     7.4560    23.9950   -21.3100     2.2790 
  217.1250    67.7160     8.8170     7.8520     7.0990    24.2130   -20.8930     2.2800 
  217.2500    63.4660     8.3830     7.4490     7.1380    24.4680   -20.3940     2.2870 
  217.3750    59.8890     7.7630     6.8810     6.7060    24.8150   -19.9810     2.3000 
  217.5000    57.0390     7.0710     6.2410     5.5680    25.0320   -19.6970     2.3160 
  217.6250    54.8210     5.6870     5.6660     4.8630    25.0360   -19.5980     2.3310 
  217.7500    51.4560     5.3570     5.2450     4.7330    24.9190   -19.7150     2.3390 
  217.8750    48.1230     5.2600     5.0220     4.9770    24.9080   -20.0650     2.3390 
  218.0000    46.2380     5.4020     5.0080     5.3240    24.9130   -20.6660     2.3300 
  218.1250    48.6010     5.7690     5.2150     5.5680    24.9600   -21.4270     2.3170 
  218.2500    57.0810     6.2460     5.5620     6.0110    24.9790   -22.2430     2.3030 
  218.3750    68.8240     6.7450     5.9870     6.6460    24.8850   -23.0180     2.2920 
  218.5000    77.1550     7.1900     6.4240     7.2660    24.6990   -23.6550     2.2840 
  218.6250    76.5820     7.5160     6.7970     7.8180    24.2110   -24.1140     2.2830 
  218.7500    70.9480     7.7390     7.0750     7.9140    24.0090   -24.4240     2.2880 
  218.8750    65.6590     7.8750     7.2480     7.5140    24.0480   -24.5500     2.2970 
  219.0000    65.7740     7.9520     7.3290     7.5070    24.1260   -24.5020     2.3090 
  219.1250    71.4460     7.9800     7.3190     8.4140    24.2590   -24.2850     2.3210 
  219.2500    76.9500     7.9480     7.2360     8.7990    24.4740   -24.0070     2.3310 
  219.3750    79.5690     7.8260     7.0750     7.9010    24.7810   -23.6880     2.3370 
  219.5000    79.5420     7.6050     6.8460     7.1090    24.8960   -23.3840     2.3360 
  219.6250    76.9390     7.3080     6.5820     6.7910    24.9600   -23.1560     2.3290 
  219.7500    72.6920     7.0190     6.3350     6.5850    24.9890   -22.9460     2.3200 
  219.8750    68.4050     6.8000     6.1440     6.3390    25.0250   -22.8150     2.3120 
  220.0000    64.8980     6.6790     6.0250     6.1170    24.9900   -22.7230     2.3090 
  220.1250    60.8800     6.6480     5.9750     6.0810    24.9620   -22.7000     2.3110 
  220.2500    57.8100     6.6530     5.9570     6.0790    24.9230   -22.7340     2.3130 
  220.3750    58.1040     6.6640     5.9520     6.1070    24.9690   -22.7970     2.3150 
  220.5000    61.6070     6.6600     5.9460     6.0660    24.9280   -22.9290     2.3150 
  220.6250    62.9290     6.6280     5.9310     6.0450    24.9400   -23.0730     2.3120 
  220.7500    59.4510     6.5840     5.9120     6.0720    24.9820   -23.2120     2.3090 
  220.8750    56.8220     6.5500     5.8990     6.1020    24.9900   -23.3270     2.3060 
  221.0000    59.9570     6.5360     5.9040     6.0550    24.9410   -23.4280     2.3050 
  221.1250    65.6220     6.5480     5.9380     5.9520    24.8340   -23.5160     2.3060 
  221.2500    66.8990     6.5760     5.9930     5.9040    24.8160   -23.5520     2.3080 
  221.3750    64.5690     6.6030     6.0510     5.9160    24.8080   -23.5980     2.3090 
  221.5000    63.6810     6.6140     6.0860     5.9830    24.7900   -23.5970     2.3080 
  221.6250    65.9070     6.5810     6.0570     6.0020    24.7790   -23.6120     2.3070 
  221.7500    66.7230     6.4990     5.9610     5.9670    24.8510   -23.6880     2.3060 
  221.8750    62.4050     6.3760     5.8190     5.9100    24.8760   -23.8100     2.3050 
  222.0000    56.3620     6.2500     5.6780     5.8090    24.8260   -23.9860     2.3020 
  222.1250    54.1730     6.1890     5.6090     5.6800    24.8030   -24.1460     2.2970 
  222.2500    54.5480     6.1840     5.6030     5.6280    24.7650   -24.3790     2.2920 
  222.3750    54.2960     6.2530     5.6890     5.7020    24.5200   -24.6640     2.2900 
  222.5000    53.6260     6.3620     5.8370     6.1170    24.2820   -24.8910     2.2930 
  222.6250    54.0670     6.4520     5.9830     6.7030    23.9530   -25.0580     2.2990 
  222.7500    55.1240     6.4680     6.0550     7.0050    23.7320   -25.1220     2.3070 
  222.8750    56.8870     6.3610     5.9870     6.7210    23.5960   -25.1260     2.3100 
  223.0000    60.6050     6.1680     5.8100     6.2250    23.6120   -25.0660     2.3050 
  223.1250    63.3510     5.9390     5.5820     5.6740    23.8740   -24.9600     2.2900 
  223.2500    62.0510     5.7440     5.3730     5.3580    24.2030   -24.8090     2.2690 
  223.3750    60.0600     5.6580     5.2560     5.3030    24.4720   -24.6500     2.2470 
  223.5000    59.9350     5.6760     5.2360     5.3420    24.7650   -24.5370     2.2300 
  223.6250    60.3320     5.7710     5.3000     5.3510    24.7410   -24.4780     2.2210 
  223.7500    62.5550     5.9020     5.4160     5.3680    24.5950   -24.4780     2.2220 
  223.8750    65.3360     6.0240     5.5420     5.4460    24.5670   -24.4990     2.2290 
  224.0000    64.5130     6.1160     5.6420     5.5640    24.5340   -24.5410     2.2420 
  224.1250    60.1550     6.1790     5.6990     5.6630    24.4910   -24.6060     2.2580 
  224.2500    55.5720     6.2140     5.7180     5.6310    24.3710   -24.6900     2.2740 
  224.3750    55.7680     6.2190     5.7120     5.4340    24.2530   -24.8190     2.2870 
  224.5000    59.4440     6.2080     5.7100     5.3470    24.2180   -24.9670     2.2950 
  224.6250    65.1470     6.2100     5.7320     5.4340    24.2190   -25.1050     2.2950 
  224.7500    71.0890     6.2610     5.7950     5.6560    24.2400   -25.2070     2.2890 
  224.8750    73.7610     6.4150     5.9280     5.7670    24.3890   -25.2770     2.2810 
  225.0000    72.7170     6.6720     6.1290     5.7330    24.4160   -25.3190     2.2740 
  225.1250    70.0180     7.0070     6.3880     5.7250    24.4300   -25.3710     2.2740 
  225.2500    68.6730     7.3690     6.6790     6.1900    24.5340   -25.3950     2.2810 
  225.3750    68.9410     7.6810     6.9540     7.2950    24.7970   -25.3930     2.2850 
  225.5000    68.3410     7.8960     7.1690     8.5430    24.9170   -25.3790     2.3110 
  225.6250    67.0720     7.9960     7.2980     9.3420    24.9680   -25.3970     2.3290 
  225.7500    66.0330     7.9990     7.3370     8.9550    24.9150   -25.4910     2.3460 
  225.8750    65.7430     7.9400     7.2980     7.4850    24.9050   -25.6570     2.3610 
  226.0000    66.1930     7.8670     7.2270     6.4300    24.8760   -25.8750     2.3700 
  226.1250    68.0070     7.7970     7.1480     5.9400    24.5950   -26.1060     2.3670 
  226.2500    71.7950     7.7340     7.0760     5.7420    24.3320   -26.3930     2.3510 
  226.3750    78.2500     7.6950     7.0270     6.0430    24.3850   -26.7170     2.3280 
  226.5000    81.2640     7.7090     7.0200     6.6720    24.6470   -27.0630     2.3050 
  226.6250    78.3860     7.8140     7.0860     7.3410    24.7400   -27.3910     2.2890 
  226.7500    73.7160     8.0320     7.2520     7.9110    24.7730   -27.6790     2.2810 
  226.8750    73.3980     8.3600     7.5350     8.7270    24.8720   -27.9170     2.2800 
  227.0000    77.3590     8.7230     7.8840     9.6720    24.8480   -28.0810     2.2820 
  227.1250    80.9190     9.0480     8.2350    10.2580    24.7870   -28.1910     2.2880 
  227.2500    81.3480     9.2550     8.5140     9.9950    24.6180   -28.2210     2.2950 
  227.3750    78.3670     9.2590     8.6220     9.4420    24.5400   -28.1550     2.3000 
  227.5000    75.9570     9.0890     8.5570     9.1450    24.7020   -27.9670     2.3000 
  227.6250    75.6340     8.7770     8.3370     8.6290    24.8430   -27.7010     2.2920 
