~V
VERS. 2.00: Ver 2.00
~W
STRT.M 50.0000:
STOP.M 261.0000:
STEP.M 0.1250:
NULL. -999.2500:
UWI. F10772:
~C
DEPT.M :
GR.API :
RML.OHMM :
RI. :
RXO.OHMM :
CALI.CM :
SP.MV :
DEN.GM/CC :
~A
# ...
   72.5000    57.3420    10.5840     9.5820     8.9720    24.8410   -18.6120     2.1200 
   72.6250    54.7620    10.3460     9.4360     8.9300    24.8700   -18.9400     2.1210 
   72.7500    54.3380     9.9650     9.1290     8.9940    24.8890   -19.2410     2.1340 
   72.8750    58.1430     9.5550     8.7720     8.9890    24.9130   -19.4550     2.1520 
   73.0000    65.0780     9.1990     8.4330     8.7850    24.9150   -19.5950     2.1660 
   73.1250    67.8890     8.9610     8.1610     8.5820    24.8650   -19.6280     2.1710 
   73.2500    63.9200     8.8370     7.9690     8.4630    24.7910   -19.5650     2.1680 
   73.3750    58.2080     8.8150     7.8630     8.5300    24.7440   -19.4020     2.1620 
   73.5000    57.0840     8.8600     7.8330     8.6060    24.7280   -19.1690     2.1570 
   73.6250    61.5550     8.9220     7.8580     8.5750    24.7290   -18.8670     2.1560 
   73.7500    63.9740     8.9430     7.8900     8.5090    24.7530   -18.4880     2.1530 
   73.8750    62.9620     8.8790     7.8910     8.4240    24.8300   -18.0050     2.1510 
   74.0000    61.2490     8.6960     7.8130     8.3690    24.9760   -17.3930     2.1520 
   74.1250    60.6180     8.3590     7.5740     8.3510    25.0490   -16.6520     2.1640 
   74.2500    61.9450     7.9220     7.1800     8.2390    25.0790   -15.8120     2.1900 
   74.3750    64.6710     7.4610     6.6950     8.1170    25.0980   -15.0050     2.2260 
   74.5000    68.5850     7.0720     6.2260     7.7470    25.1090   -14.2930     2.2660 
   74.6250    72.7320     6.8820     5.9190     6.7230    25.0930   -13.7880     2.2950 
   74.7500    74.5120     6.8940     5.8260     5.9220    25.0350   -13.2680     2.3040 
   74.8750    73.4460     7.0580     5.9450     6.2730    24.9350   -12.7110     2.2890 
   75.0000    69.8950     7.2630     6.2020     7.6220    24.8250   -12.2120     2.2590 
   75.1250    66.1660     7.3510     6.4380     8.0910    24.7540   -11.8140     2.2330 
   75.2500    65.4290     7.2570     6.5020     8.1510    24.7350   -11.5070     2.2250 
   75.3750    68.2420     7.0050     6.3410     8.4350    24.7460   -11.2100     2.2390 
   75.5000    73.0450     6.6950     6.0240     7.3760    24.7760   -10.8700     2.2700 
   75.6250    74.2450     6.4860     5.7170     6.5890    24.7720   -10.4660     2.3050 
   75.7500    71.9630     6.4620     5.5560     5.9260    24.7240   -10.1990     2.3320 
   75.8750    68.4390     6.6350     5.5920     5.9910    24.6330   -10.1290     2.3410 
   76.0000    66.7270     6.9500     5.8160     6.3860    24.5040   -10.1930     2.3310 
   76.1250    68.4500     7.2980     6.1680     6.7580    24.3910   -10.4100     2.3030 
   76.2500    70.9090     7.5470     6.4940     7.1120    24.2840   -10.7030     2.2690 
   76.3750    72.2210     7.6180     6.6700     7.3560    24.1980   -10.9500     2.2390 
   76.5000    72.2740     7.4890     6.6220     7.3660    24.1560   -11.0840     2.2200 
   76.6250    72.5590     7.1980     6.3370     7.0100    24.1510   -11.1450     2.2170 
   76.7500    74.1270     6.8950     5.9660     6.5240    24.1670   -11.2220     2.2280 
   76.8750    77.1080     6.7060     5.6510     6.1430    24.2120   -11.3850     2.2480 
   77.0000    80.4340     6.7260     5.5060     5.9540    24.2880   -11.7200     2.2740 
   77.1250    79.5340     7.0330     5.6400     5.9000    24.3960   -12.2670     2.2980 
   77.2500    74.5000     7.5410     6.0130     6.4430    24.5380   -12.9920     2.3190 
   77.3750    67.1980     8.1500     6.5660     7.6290    24.6950   -13.8770     2.3320 
   77.5000    59.3520     8.7390     7.1900     8.8260    24.8160   -14.8390     2.3300 
   77.6250    53.1850     9.1730     7.7290     8.8920    24.8900   -15.7500     2.3100 
   77.7500    50.6630     9.4240     8.0990     8.9560    24.8810   -16.5390     2.2790 
   77.8750    51.8740     9.5140     8.2930     9.1320    24.8290   -17.1860     2.2490 
   78.0000    55.0070     9.4880     8.3590     9.3480    24.7850   -17.6230     2.2280 
   78.1250    56.2120     9.3740     8.3430     9.3170    24.7730   -17.6590     2.2190 
   78.2500    56.0910     9.1770     8.2560     9.1420    24.7900   -17.2900     2.2130 
   78.3750    56.3440     8.8620     8.0470     8.8740    24.8020   -16.6050     2.2070 
   78.5000    57.4620     8.4000     7.6600     8.6230    24.8210   -15.7550     2.2060 
   78.6250    58.6030     7.7830     7.0670     8.2730    24.8610   -14.8840     2.2200 
   78.7500    61.5570     7.1100     6.3840     7.6900    24.8910   -14.1050     2.2490 
   78.8750    67.6440     6.4790     5.7220     6.6170    24.8710   -13.4440     2.2850 
   79.0000    74.1280     5.9860     5.1800     5.8200    24.8610   -12.9420     2.3170 
   79.1250    76.1310     5.7370     4.8510     5.2610    24.8620   -12.7320     2.3290 
   79.2500    74.7660     5.7200     4.7260     5.2610    24.8630   -12.9300     2.3250 
   79.3750    72.7670     5.9120     4.8000     5.4840    24.8510   -13.5910     2.3080 
   79.5000    70.7080     6.2670     5.0460     5.6840    24.8230   -14.6940     2.2840 
   79.6250    67.3270     6.7350     5.4400     5.7360    24.7960   -16.1360     2.2600 
   79.7500    64.0470     7.2250     5.9060     6.1960    24.7530   -17.6120     2.2430 
   79.8750    62.1570     7.6740     6.3800     7.2570    24.6980   -18.9460     2.2370 
   80.0000    62.3140     8.0290     6.7940     8.1050    24.6590   -20.0410     2.2410 
   80.1250    62.7410     8.2380     7.0630     8.4090    24.6360   -20.8880     2.2480 
   80.2500    61.6290     8.3350     7.1870     8.4900    24.6270   -21.5520     2.2480 
   80.3750    60.2240     8.3620     7.1910     8.5190    24.6250   -22.0330     2.2340 
   80.5000    59.6230     8.3730     7.1340     8.5490    24.6530   -22.3120     2.2110 
   80.6250    59.8000     8.4150     7.0850     8.5140    24.6860   -22.3580     2.1870 
   80.7500    60.1950     8.4910     7.0780     8.5640    24.7130   -22.2910     2.1700 
   80.8750    61.1740     8.5770     7.1030     8.6360    24.7200   -22.1880     2.1640 
   81.0000    61.8580     8.6390     7.1330     8.7150    24.7240   -22.1110     2.1680 
   81.1250    60.3760     8.6420     7.1350     8.8160    24.7260   -22.0950     2.1760 
   81.2500    58.4030     8.6000     7.1060     8.8780    24.7160   -22.1210     2.1820 
   81.3750    56.3910     8.5390     7.0620     8.8540    24.6580   -22.2060     2.1820 
   81.5000    54.7680     8.4890     7.0210     8.6710    24.5350   -22.3320     2.1730 
   81.6250    54.8940     8.4700     7.0010     8.5160    24.5110   -22.4340     2.1610 
   81.7500    55.2250     8.4660     6.9950     8.5020    24.6590   -22.5180     2.1510 
   81.8750    53.4840     8.4490     6.9820     8.5350    24.8190   -22.6020     2.1470 
   82.0000    50.4880     8.3910     6.9350     8.4980    24.9020   -22.6800     2.1480 
   82.1250    49.8740     8.2750     6.8310     8.4180    24.9170   -22.7430     2.1530 
   82.2500    51.2990     8.1280     6.6920     8.4460    24.9120   -22.7570     2.1600 
   82.3750    53.6180     7.9860     6.5490     8.3700    24.8900   -22.7250     2.1670 
   82.5000    57.3960     7.8850     6.4390     8.0730    24.8730   -22.7170     2.1730 
   82.6250    59.6820     7.8680     6.4050     7.7320    24.8750   -22.7830     2.1730 
   82.7500    58.4040     7.9230     6.4430     8.2310    24.8960   -22.9370     2.1660 
   82.8750    54.9600     8.0280     6.5400     8.5090    24.9020   -23.2380     2.1510 
   83.0000    50.9160     8.1500     6.6670     8.5240    24.8670   -23.6940     2.1290 
   83.1250    48.8000     8.2490     6.7870     8.5950    24.8390   -24.2790     2.1090 
   83.2500    49.6480     8.3110     6.8740     8.7550    24.9280   -24.9090     2.0960 
   83.3750    52.0620     8.3350     6.9220     8.9360    25.0640   -25.4610     2.0960 
   83.5000    52.2660     8.3250     6.9380     9.0450    25.1660   -25.8250     2.1080 
   83.6250    49.6060     8.2860     6.9240     9.6480    25.2110   -26.0260     2.1250 
