~V
VERS. 2.00: Ver 2.00
~W
STRT.M 50.0000:
STOP.M 230.0000:
STEP.M 0.1250:
NULL. -999.2500:
UWI. F10780:
~C
DEPT.M :
DEN.GM/CC :
GR.API :
RML.OHMM :
RI. :
RXO.OHMM :
CALI.CM :
SP.MV :
~A
# ...
  185.0000     2.3910    73.7830    19.6470    18.2000    18.1630    24.4870   -14.3050 
  185.1250     2.3950    73.0050    19.1700    17.6950    16.3890    24.4500   -14.2790 
  185.2500     2.3990    70.5370    18.9250    17.3790    15.6800    24.3710   -14.2380 
  185.3750     2.4050    69.9180    18.8940    17.2580    16.4540    24.3010   -14.2100 
  185.5000     2.4120    73.2330    19.0000    17.2840    16.3050    24.2950   -14.2130 
  185.6250     2.4180    77.9340    19.1290    17.3700    16.7130    24.2700   -14.2300 
  185.7500     2.4190    79.3780    19.1770    17.4110    17.0770    24.2300   -14.2620 
  185.8750     2.4150    77.5940    19.1040    17.3610    16.2820    24.2320   -14.3170 
  186.0000     2.4090    74.4360    18.9270    17.2210    15.7030    24.2560   -14.3840 
  186.1250     2.4090    71.5490    18.7100    17.0430    15.8610    24.2930   -14.4340 
  186.2500     2.4190    69.2700    18.5420    16.9150    16.0980    24.2570   -14.4730 
  186.3750     2.4400    67.3630    18.4750    16.8960    15.9460    24.1220   -14.4970 
  186.5000     2.4640    66.4760    18.5290    17.0150    15.2150    24.0110   -14.5120 
  186.6250     2.4820    67.5130    18.7170    17.2920    15.3770    23.9280   -14.5760 
  186.7500     2.4910    68.1990    18.9840    17.6800    16.6370    23.8270   -14.6890 
  186.8750     2.4910    67.1310    19.2500    18.1250    17.9550    23.6820   -14.8020 
  187.0000     2.4880    66.8310    19.3480    18.4900    18.2190    23.5820   -14.8780 
  187.1250     2.4900    69.5940    18.9150    18.4250    17.2860    23.4870   -14.8890 
  187.2500     2.4960    73.3170    17.7830    17.6750    16.9850    23.3690   -14.8810 
  187.3750     2.4990    76.4060    15.9380    16.1430    17.1100    23.2790   -14.8740 
  187.5000     2.4910    78.6690    13.6220    14.0150    15.5030    23.2700   -14.8480 
  187.6250     2.4680    79.9080    11.2940    11.7240    12.0830    23.2910   -14.7880 
  187.7500     2.4410    78.8430     9.3630     9.7300     8.7790    23.3150   -14.6950 
  187.8750     2.4170    77.6560     7.9910     8.2280     7.4470    23.3850   -14.5880 
  188.0000     2.4020    79.5120     7.1690     7.2490     6.8720    23.5520   -14.5060 
  188.1250     2.3950    83.3800     6.8420     6.7820     6.5280    23.7840   -14.4510 
  188.2500     2.3890    84.2340     6.7950     6.6390     6.3630    24.0250   -14.3780 
  188.3750     2.3860    81.8680     6.9280     6.7290     6.4340    24.2250   -14.2730 
  188.5000     2.3900    80.2160     7.1720     6.9750     6.6080    24.3090   -14.1760 
  188.6250     2.4010    81.7210     7.4790     7.3210     6.8750    24.2720   -14.1170 
  188.7500     2.4120    81.6430     7.7880     7.6850     7.4070    24.2110   -14.1120 
  188.8750     2.4150    78.3190     8.0610     8.0070     8.1510    24.2080   -14.1440 
  189.0000     2.4050    76.0280     8.2880     8.2520     8.5970    24.2880   -14.1700 
  189.1250     2.3870    78.2050     8.4960     8.4170     8.8070    24.3390   -14.1630 
  189.2500     2.3770    80.0630     8.7550     8.5720     8.7490    24.3500   -14.1670 
  189.3750     2.3800    78.5580     9.1160     8.7740     8.7440    24.3200   -14.2090 
  189.5000     2.3920    76.9590     9.5960     9.0610     9.2050    24.2270   -14.2740 
  189.6250     2.3970    79.8670    10.1780     9.4390    10.3910    24.1300   -14.3640 
  189.7500     2.3890    81.3370    10.8090     9.8630    11.3910    24.1400   -14.4300 
  189.8750     2.3710    77.7650    11.5150    10.3310    11.6010    24.2550   -14.4500 
  190.0000     2.3530    71.7710    12.4100    10.9070    12.0810    24.3390   -14.4570 
  190.1250     2.3430    69.0980    13.7990    11.8010    12.5340    24.3590   -14.5240 
  190.2500     2.3380    68.3820    15.8690    13.2030    13.0230    24.3570   -14.6620 
  190.3750     2.3280    66.9830    18.7570    15.3160    14.5680    24.3300   -14.8400 
  190.5000     2.3080    64.6240    22.3830    18.2210    19.3360    24.2730   -15.0490 
  190.6250     2.2790    63.4010    26.2770    21.7410    27.3920    24.2220   -15.2380 
  190.7500     2.2520    65.9880    29.5360    25.0770    33.0440    24.2840   -15.4340 
  190.8750     2.2340    69.3040    31.4110    27.4370    34.9710    24.2610   -15.6610 
  191.0000     2.2270    70.1040    31.5640    28.2870    35.1080    24.1110   -15.9100 
  191.1250     2.2290    67.5310    30.1090    27.4750    32.1190    24.0160   -16.1400 
  191.2500     2.2310    64.6740    28.0660    25.8720    27.5550    24.0090   -16.2880 
  191.3750     2.2310    64.9460    26.0740    24.1030    24.0000    24.0620   -16.3680 
  191.5000     2.2260    68.3810    24.4970    22.5820    22.3650    24.1370   -16.3920 
  191.6250     2.2180    71.1090    23.5390    21.5770    21.7840    24.2270   -16.3800 
  191.7500     2.2120    69.5990    23.0680    21.0410    21.1370    24.2090   -16.3490 
  191.8750     2.2190    65.3090    22.9780    20.9160    20.4410    24.1330   -16.3140 
  192.0000     2.2480    62.6550    23.1250    21.0880    19.9530    24.0130   -16.2520 
  192.1250     2.3000    61.0750    23.3020    21.3870    20.3070    24.0210   -16.1600 
  192.2500     2.3580    58.8420    23.2870    21.5730    21.5040    24.0540   -16.0780 
  192.3750     2.4030    57.9080    22.9370    21.4770    22.3890    24.0300   -16.0140 
  192.5000     2.4210    59.9730    22.2070    21.0130    21.6530    24.0590   -15.9590 
  192.6250     2.4080    64.4590    21.1430    20.1690    19.5630    24.1900   -15.9480 
  192.7500     2.3820    66.6830    19.9850    19.1520    17.8550    24.3170   -15.9460 
  192.8750     2.3550    65.8920    18.9170    18.1290    16.6270    24.3880   -15.9180 
  193.0000     2.3340    65.6220    18.0870    17.2490    16.4310    24.4640   -15.8670 
  193.1250     2.3230    68.2740    17.6550    16.6730    15.6840    24.5370   -15.8290 
  193.2500     2.3160    71.3200    17.6160    16.4350    14.9090    24.5890   -15.8340 
  193.3750     2.3070    70.8340    17.9910    16.5760    14.6090    24.5860   -15.8660 
  193.5000     2.2930    67.1450    18.7740    17.1140    15.1880    24.5590   -15.9040 
  193.6250     2.2750    65.0620    19.9610    18.0780    17.3020    24.5690   -15.8980 
  193.7500     2.2570    65.3400    21.3790    19.3150    18.1590    24.5460   -15.8610 
  193.8750     2.2450    67.5380    22.8890    20.6890    19.6580    24.5680   -15.8240 
  194.0000     2.2400    69.4220    24.3610    22.0510    21.1730    24.6360   -15.8370 
  194.1250     2.2380    68.1640    25.6930    23.2560    21.9840    24.6490   -15.9010 
  194.2500     2.2380    64.2050    26.9180    24.3020    22.8060    24.6610   -15.9710 
  194.3750     2.2360    60.3710    28.1040    25.2480    23.9430    24.6400   -16.0140 
  194.5000     2.2330    60.5570    29.3220    26.1790    24.5290    24.5680   -16.0260 
  194.6250     2.2280    62.7610    30.6080    27.1690    25.6720    24.5600   -16.0140 
  194.7500     2.2230    63.2100    31.8940    28.1960    27.3520    24.5890   -15.9860 
  194.8750     2.2180    61.3500    33.0640    29.1840    28.4570    24.5630   -15.9770 
  195.0000     2.2170    60.3100    33.9850    30.0210    28.4960    24.4230   -15.9770 
  195.1250     2.2270    62.2090    34.4880    30.5610    28.0520    24.2900   -15.9650 
  195.2500     2.2470    63.5810    34.6230    30.8100    27.3200    24.1560   -15.9310 
  195.3750     2.2730    62.3780    34.4830    30.8160    26.8400    24.0050   -15.8890 
  195.5000     2.2990    59.4760    34.2160    30.6830    27.3770    23.8850   -15.8120 
  195.6250     2.3140    58.6940    34.0020    30.5460    28.6460    23.8460   -15.7220 
  195.7500     2.3180    61.2410    33.9400    30.5110    29.5680    23.8520   -15.6290 
  195.8750     2.3150    65.4700    34.0430    30.6110    29.5510    23.8660   -15.4990 
  196.0000     2.3150    68.4690    34.2500    30.8270    28.8450    23.8260   -15.3360 
  196.1250     2.3230    66.0170    34.4430    31.0890    28.7960    23.7430   -15.1700 
