~V
VERS. 2.00: Ver 2.00
~W
STRT.M 50.0000:
STOP.M 239.0000:
STEP.M 0.1250:
NULL. -999.2500:
UWI. F10783:
~C
DEPT.M :
GR.API :
RML.OHMM :
RI. :
RXO.OHMM :
CALI.CM :
SP.MV :
DEN.GM/CC :
~A
# ...
  230.0000    69.2150     8.4840     8.9370    15.4760    24.5490   -10.2200     2.5250 
  230.1250    69.2150     8.9210     9.4270    14.3760    24.5170   -10.5720     2.5310 
  230.2500    69.2150     9.0410     9.5870    11.2210    24.5130   -11.0640     2.4680 
  230.3750    69.2150     8.8350     9.3630    11.1730    24.5820   -11.6070     2.4180 
  230.5000    69.2150     8.4700     8.9240    11.5510    24.6040   -12.1090     2.3860 
  230.6250    69.2150     8.0580     8.3960    11.1020    24.5870   -12.5070     2.3700 
  230.7500    69.2150     7.6830     7.8830     9.3030    24.5890   -12.9300     2.3610 
  230.8750    69.2150     7.4360     7.4870     8.6200    24.6430   -13.4410     2.3530 
  231.0000    69.2150     7.3650     7.2600     8.5070    24.6480   -13.9390     2.3510 
  231.1250    69.2150     7.5050     7.2400     9.4360    24.6140   -14.3570     2.3620 
  231.2500    69.2150     7.8370     7.4260    11.1330    24.5760   -14.7090     2.3830 
  231.3750    69.2150     8.2740     7.7650    12.2520    24.5170   -15.0430     2.4040 
  231.5000    69.2150     8.6580     8.1130    14.7720    24.4960   -15.4420     2.4120 
  231.6250    69.2150     8.8850     8.3600    13.7700    24.4930   -15.9920     2.4050 
  231.7500    69.2150     8.9310     8.4540    10.8010    24.5040   -16.6700     2.3890 
  231.8750    69.2150     8.8490     8.4040    10.2680    24.4910   -17.2680     2.3740 
  232.0000    69.2150     8.7690     8.3210    11.1640    24.4820   -17.7560     2.3670 
  232.1250    69.2150     8.7470     8.2690    11.5550    24.4870   -18.1290     2.3700 
  232.2500    69.2150     8.7750     8.2650    10.2870    24.4840   -18.3710     2.3800 
  232.3750    69.2150     8.7740     8.2590    10.4140    24.4690   -18.5470     2.3910 
  232.5000    69.2150     8.6660     8.1720    10.8700    24.4320   -18.6120     2.3940 
  232.6250    69.2150     8.4180     7.9540    11.4240    24.4210   -18.5500     2.3850 
  232.7500    69.2150     8.0320     7.6100     9.8820    24.4200   -18.3240     2.3620 
  232.8750    69.2150     7.5230     7.1830     8.0680    24.4400   -18.0580     2.3330 
  233.0000    69.2150     6.9740     6.7550     7.2870    24.4430   -17.8430     2.3070 
  233.1250    69.2150     6.4790     6.3720     7.1730    24.4380   -17.7380     2.2890 
  233.2500    69.2150     6.1350     6.0650     7.3220    24.4480   -17.8330     2.2790 
  233.3750    69.2150     6.0390     5.8690     7.5760    24.4440   -18.0680     2.2750 
  233.5000    69.2150     6.1320     5.7670     7.8710    24.4220   -18.4030     2.2730 
  233.6250    69.2150     6.3150     5.7400     8.2370    24.3970   -18.7880     2.2700 
  233.7500    69.2150     6.4680     5.7590     8.4400    24.3870   -19.1340     2.2670 
  233.8750    69.2150     6.5110     5.7900     8.1270    24.3950   -19.4560     2.2670 
  234.0000    69.2150     6.4940     5.8120     8.1930    24.3910   -19.7960     2.2770 
  234.1250    69.2150     6.4720     5.8220     8.7810    24.3420   -20.2220     2.2980 
  234.2500    69.2150     6.4670     5.8240    10.3240    24.2790   -20.6390     2.3260 
  234.3750    69.2150     6.4720     5.8220    12.0390    24.2110   -20.9880     2.3500 
  234.5000    69.2150     6.4740     5.8190    12.1470    24.1350   -21.2730     2.3610 
  234.6250    69.2150     6.4740     5.8160    11.6060    24.0710   -21.5280     2.3560 
  234.7500    69.2150     6.4730     5.8140    10.2210    24.0340   -21.8180     2.3410 
  234.8750    69.2150     6.4730     5.8140     9.0000    23.9710   -22.1360     2.3250 
  235.0000    69.2150     6.4730     5.8140     8.6320    24.0530   -22.4120     2.3130 
  235.1250    69.2150     6.4730     5.8140     8.9540    24.0940   -22.5660     2.3060 
  235.2500    69.2150     6.4730     5.8140     8.6420    24.0870   -22.6220     2.2990 
  235.3750    69.2150     6.4730     5.8140     7.8830    24.0470   -22.6330     2.2900 
  235.5000    69.2150     6.4730     5.8140     7.6720    23.9990   -22.6620     2.2810 
  235.6250    69.2150     6.4730     5.8140     7.7970    23.9290   -22.6640     2.2740 
  235.7500    69.2150     6.4730     5.8140     8.0270    23.8890   -22.6890     2.2730 
  235.8750    69.2150     6.4730     5.8140     8.3580    23.8830   -22.7280     2.2740 
  236.0000    69.2150     6.4730     5.8140     8.8090    23.8840   -22.7840     2.2730 
  236.1250    69.2150     6.4730     5.8140     9.4190    23.8960   -22.8710     2.2720 
  236.2500    69.2150     6.4730     5.8140     9.4040    23.9540   -22.9640     2.2760 
  236.3750    69.2150     6.4730     5.8140     7.6560    24.0920   -23.0630     2.2870 
  236.5000    69.2150     6.4730     5.8140     6.7400    24.2020   -23.1620     2.3000 
  236.6250    69.2150     6.4730     5.8140     6.5080    24.2380   -23.2620     2.3090 
  236.7500    69.2150     6.4730     5.8140     6.7310    24.2260   -23.3230     2.3080 
  236.8750    69.2150     6.4730     5.8140     6.7950    24.1950   -23.3620     2.2970 
  237.0000    69.2150     6.4730     5.8140     6.5750    24.2020   -23.3840     2.2820 
  237.1250    69.2150     6.4730     5.8140     6.2180    24.2710   -23.3840     2.2720 
  237.2500    69.2150     6.4730     5.8140     5.8520    24.4110  -999.2500     2.2720 
  237.3750    69.2150     6.4730     5.8140     5.4660    24.4850  -999.2500     2.2870 
  237.5000    69.2150     6.4730     5.8140     5.3790    24.3180  -999.2500     2.3050 
  237.6250    69.2150     6.4730     5.8140     5.8130    23.8520  -999.2500     2.3070 
  237.7500    69.2150     6.4730     5.8140     6.3540    23.3120  -999.2500     2.2720 
  237.8750    69.2150     6.4730     5.8140     6.6340    22.7470  -999.2500     2.1870 
  238.0000    69.2150     6.4730     5.8140     6.0560    21.7270  -999.2500     2.0760 
  238.1250    69.2150     6.4730     5.8140     5.5420    20.3040  -999.2500     1.9700 
  238.2500    69.2150     6.4730     5.8140     5.3240    19.4140  -999.2500     1.8450 
  238.3750    69.2150     6.4730     5.8140     5.2820    19.1840  -999.2500     1.5870 
  238.5000    69.2150     6.4730     5.8140     5.2810    19.1840  -999.2500     1.3400 
  238.6250    69.2150     6.4730     5.8140     5.2810    19.1840  -999.2500     1.3330 
  238.7500    69.2150     6.4730     5.8140     5.2820    19.1840  -999.2500     1.6920 
  238.8750    69.2150     6.4730     5.8140     5.2810    19.1840  -999.2500     2.9480 
  239.0000    69.2150     6.4730     5.8140     5.2810    19.1840  -999.2500     4.2440 
