~V
VERS. 2.00: Ver 2.00
~W
STRT.M 20.0000:
STOP.M 266.0000:
STEP.M 0.1250:
NULL. -999.2500:
UWI. F10773:
~C
DEPT.M :
DEN.GM/CC :
GR.API :
RML.OHMM :
RI. :
RXO.OHMM :
CALI.CM :
SP.MV :
~A
# ...
  110.0000     2.3410    90.4010     7.3390     5.8280     6.4540    24.7980   -11.4340 
  110.1250     2.3520    86.9050     7.6930     6.0300     6.8090    24.7480   -11.6520 
  110.2500     2.3600    84.7890     7.8820     6.1650     6.9000    24.6450   -11.8460 
  110.3750     2.3520    86.1500     7.9240     6.2430     6.6560    24.4240   -12.0120 
  110.5000     2.3260    89.0640     7.8880     6.2970     6.5450    24.1290   -12.2090 
  110.6250     2.2900    87.8340     7.8560     6.3920     6.9020    24.0270   -12.4240 
  110.7500     2.2700    81.9980     7.8770     6.5800     6.8290    24.1680   -12.5840 
  110.8750     2.2910    76.5090     7.9640     6.8810     6.3900    24.4820   -12.6440 
  111.0000     2.3550    74.4230     8.1120     7.2600     6.6770    24.6740   -12.6050 
  111.1250     2.4360    73.5960     8.3000     7.6080     7.9250    24.5850   -12.5080 
  111.2500     2.4870    73.4490     8.4690     7.8070     9.4470    24.3630   -12.4530 
  111.3750     2.4820    75.7860     8.5450     7.7990     9.8270    24.1050   -12.5260 
  111.5000     2.4240    81.0400     8.4670     7.5940     7.9700    23.8200   -12.6660 
  111.6250     2.3440    84.5400     8.1980     7.2560     7.2670    23.6440   -12.7490 
  111.7500     2.2790    84.1840     7.8330     6.9020     6.9250    23.6250   -12.7310 
  111.8750     2.2460    81.8700     7.4670     6.5930     6.6750    23.8650   -12.6710 
  112.0000     2.2410    81.0730     7.1870     6.3630     6.5980    24.3530   -12.6600 
  112.1250     2.2530    83.0930     7.0830     6.2360     6.3910    24.6400   -12.6530 
  112.2500     2.2640    84.3060     7.1460     6.1890     6.2400    24.7000   -12.5260 
  112.3750     2.2680    82.5560     7.3400     6.2080     6.0740    24.5800   -12.2480 
  112.5000     2.2640    79.8500     7.5890     6.2640     6.2920    24.2670   -11.9280 
  112.6250     2.2550    80.1140     7.7590     6.2910     6.6890    23.7940   -11.7490 
  112.7500     2.2470    82.2710     7.7520     6.2300     6.5510    23.6020   -11.8120 
  112.8750     2.2440    83.2170     7.5370     6.0560     5.7570    23.8770   -11.9570 
  113.0000     2.2500    82.0810     7.1680     5.7870     5.4300    24.3970   -11.9890 
  113.1250     2.2640    80.6780     6.7680     5.4940     5.5070    24.6920   -11.9450 
  113.2500     2.2800    81.3100     6.4570     5.2720     5.6190    24.8200   -11.9310 
  113.3750     2.2930    82.9230     6.2700     5.1710     5.7370    24.8710   -11.9900 
  113.5000     2.3000    82.8660     6.1760     5.1880     5.5150    24.8840   -12.0620 
  113.6250     2.3050    81.9020     6.0900     5.2660     5.4090    24.8870   -12.0300 
  113.7500     2.3130    83.0040     5.9590     5.3110     5.4320    24.9060   -11.8120 
  113.8750     2.3250    84.6400     5.7960     5.2770     5.4170    24.9240   -11.5160 
  114.0000     2.3390    84.2290     5.6500     5.1640     5.2410    24.9250   -11.3300 
  114.1250     2.3500    82.8970     5.5620     5.0050     5.0380    24.9170   -11.2630 
  114.2500     2.3550    84.9710     5.5150     4.8460     4.9120    24.8920   -11.2470 
  114.3750     2.3550    88.0340     5.4850     4.6910     4.9160    24.8830   -11.2410 
  114.5000     2.3540    89.1800     5.4420     4.5180     4.9430    24.9180   -11.1830 
  114.6250     2.3550    89.4610     5.3530     4.3120     4.7320    24.9870   -11.0660 
  114.7500     2.3610    89.3630     5.2210     4.1060     4.5880    25.0520   -11.0000 
  114.8750     2.3700    88.7370     5.0820     3.9550     4.4640    25.0900   -11.0030 
  115.0000     2.3800    87.6030     5.0050     3.9130     4.4970    25.0750   -10.9940 
  115.1250     2.3830    86.9360     5.1030     4.0550     4.5610    24.9750   -10.9610 
  115.2500     2.3740    85.8840     5.3940     4.3850     4.8960    24.8360   -10.9120 
  115.3750     2.3550    83.8620     5.8580     4.9010     5.5110    24.7610   -10.8860 
  115.5000     2.3360    80.8590     6.4280     5.5640     5.9340    24.7620   -10.9570 
  115.6250     2.3330    77.2340     7.0040     6.2780     6.4850    24.8070   -11.1270 
  115.7500     2.3460    75.0840     7.5000     6.8980     7.2750    24.8030   -11.2870 
  115.8750     2.3620    75.3270     7.8810     7.3320     8.1530    24.7760   -11.3790 
  116.0000     2.3650    76.1760     8.1570     7.5580     8.8330    24.7730   -11.3790 
  116.1250     2.3470    77.2890     8.3580     7.6150     7.9720    24.8080   -11.3480 
  116.2500     2.3190    77.1780     8.5200     7.6260     7.6230    24.8110   -11.3760 
  116.3750     2.2950    75.1370     8.6160     7.6530     8.0860    24.7890   -11.4440 
  116.5000     2.2820    73.8800     8.5970     7.7000     9.0940    24.7610   -11.4460 
  116.6250     2.2830    77.9530     8.4160     7.6980     8.6380    24.7640   -11.4000 
  116.7500     2.2910    82.7460     8.1460     7.5810     7.7410    24.7830   -11.4120 
  116.8750     2.3020    82.7570     7.8760     7.3410     7.0340    24.7850   -11.4980 
  117.0000     2.3130    79.1830     7.6860     7.0350     6.8190    24.7640   -11.6040 
  117.1250     2.3130    79.3290     7.6400     6.7670     6.8060    24.7740   -11.6760 
  117.2500     2.3030    82.9540     7.7270     6.6210     6.6090    24.7900   -11.6560 
  117.3750     2.2880    84.0650     7.9450     6.6400     6.6270    24.7460   -11.5720 
  117.5000     2.2830    80.8550     8.2780     6.8290     7.2040    24.6230   -11.5740 
  117.6250     2.3020    78.3940     8.6750     7.1570     7.9520    24.4690   -11.6010 
  117.7500     2.3390    80.9330     9.0110     7.5090     8.0890    24.4480   -11.5100 
  117.8750     2.3730    85.9580     9.1900     7.7860     8.3880    24.5040   -11.3360 
  118.0000     2.3870    88.2440     9.1990     7.9260     8.6960    24.5730   -11.2140 
  118.1250     2.3690    86.2770     9.1540     7.9600     8.1180    24.6400   -11.1850 
  118.2500     2.3360    83.0590     9.2570     8.0480     7.7620    24.6620   -11.1800 
  118.3750     2.3040    80.9260     9.6360     8.3120     7.6760    24.6420   -11.0980 
  118.5000     2.2800    78.6030    10.3100     8.7840     7.6880    24.5530   -10.8720 
  118.6250     2.2650    73.9600    11.1620     9.3750     8.3710    24.3390   -10.5590 
  118.7500     2.2520    71.6250    11.9110     9.8910     9.0690    24.1030   -10.3440 
  118.8750     2.2380    74.4990    12.3710    10.2420     9.2160    23.9850   -10.1930 
  119.0000     2.2220    77.9600    12.5310    10.4710     8.9020    23.9840   -10.0180 
  119.1250     2.2050    76.5340    12.6520    10.7980     8.3760    24.0460    -9.8210 
  119.2500     2.1880    72.6120    13.1620    11.4490     8.3270    24.0840    -9.7060 
  119.3750     2.1740    70.1170    14.3560    12.5590     9.2380    24.0900    -9.6970 
  119.5000     2.1650    67.7400    16.2570    14.1020    12.3390    24.1000    -9.7180 
  119.6250     2.1650    65.1390    18.3870    15.8140    17.8420    24.1340    -9.7460 
  119.7500     2.1700    65.1840    19.8690    17.1940    20.8770    24.1630    -9.7060 
  119.8750     2.1790    66.7600    20.1960    17.9010    17.3470    24.2180    -9.6250 
  120.0000     2.1940    65.5750    19.4700    17.8750    12.4280    24.3710    -9.5290 
  120.1250     2.2150    60.9000    18.3480    17.3630    10.4640    24.5450    -9.3280 
  120.2500     2.2350    57.1780    17.5840    16.8760     9.7900    24.5460    -8.9620 
  120.3750     2.2470    58.5820    17.3880    16.6530     9.6420    24.4060    -8.4400 
  120.5000     2.2420    64.9750    17.6060    16.6830     9.8040    24.2160    -7.8630 
  120.6250     2.2200    70.8270    17.8480    16.7250    10.0410    24.1120    -7.3150 
  120.7500     2.1950    70.6870    17.7890    16.5370     9.9640    24.0440    -6.7640 
  120.8750     2.1780    67.6500    17.3960    16.1180     9.7600    24.0120    -6.1810 
  121.0000     2.1750    67.2960    16.8750    15.6980     9.3100    24.0070    -5.5990 
  121.1250     2.1840    68.1960    16.6640    15.7270     8.7310    24.0000    -5.0940 
