~V
VERS. 2.00: Ver 2.00
~W
STRT.M 55.0000:
STOP.M 262.0000:
STEP.M 0.1250:
NULL. -999.2500:
UWI. F10759:
~C
DEPT.M :
DEN.GM/CC :
GR.API :
RML.OHMM :
RI. :
RXO.OHMM :
CALI.CM :
SP.MV :
~A
# ...
   88.7500     2.3160    82.6680     6.3180     5.6770     6.5420    23.3160    -9.0630 
   88.8750     2.3240    81.5130     5.9760     5.3680     5.6680    23.3240    -9.2800 
   89.0000     2.3200    78.5540     5.8400     5.1630     5.0380    23.2610    -9.5020 
   89.1250     2.2970    76.2790     6.0550     5.2040     5.0700    23.2230    -9.7250 
   89.2500     2.2620    75.3270     6.5580     5.4880     5.5630    23.0760    -9.9390 
   89.3750     2.2270    73.8350     7.2380     5.9620     6.2220    22.9510   -10.1340 
   89.5000     2.2010    70.2720     7.9020     6.5070     6.9660    22.8720   -10.3270 
   89.6250     2.1890    69.5950     8.2580     6.9090     7.5090    22.7970   -10.4330 
   89.7500     2.1920    74.6730     8.2120     7.0380     7.6590    22.5550   -10.4550 
   89.8750     2.2060    79.6900     7.8210     6.8740     7.2210    22.3170   -10.3210 
   90.0000     2.2300    78.9760     7.2620     6.5110     6.4990    22.1370   -10.0150 
   90.1250     2.2520    74.6590     6.7670     6.1090     5.8340    21.9160    -9.5880 
   90.2500     2.2620    73.3900     6.4580     5.8070     5.5280    21.7650    -9.1060 
   90.3750     2.2850    74.1780     6.3600     5.6550     5.2730    21.7380    -8.6190 
   90.5000     2.2990    73.3910     6.4350     5.6530     5.1280    21.7130    -8.1840 
   90.6250     2.3030    71.7260     6.6080     5.7610     5.3480    21.7210    -7.8780 
   90.7500     2.3000    71.4840     6.7620     5.8830     5.6440    21.7380    -7.6900 
   90.8750     2.2920    72.1250     6.8460     5.9660     5.7560    21.9810    -7.6350 
   91.0000     2.2840    71.2290     6.8540     5.9920     5.6990    22.2920    -7.6900 
   91.1250     2.2750    69.9350     6.8240     5.9750     5.5100    22.4800    -7.7880 
   91.2500     2.2690    71.3430     6.8100     5.9610     5.4440    22.4630    -7.8980 
   91.3750     2.2660    74.8330     6.8360     5.9780     5.5990    22.4090    -7.9940 
   91.5000     2.2680    78.0590     6.8830     6.0200     5.9540    22.3120    -8.0690 
   91.6250     2.2720    78.0890     6.9080     6.0550     5.9430    22.2440    -8.1100 
   91.7500     2.2740    75.4970     6.9110     6.0670     5.9940    22.2290    -8.1110 
   91.8750     2.2720    72.9940     6.9510     6.0910     6.1680    22.3480    -8.0720 
   92.0000     2.2690    72.8190     7.1080     6.1910     6.0980    22.5030    -7.9770 
   92.1250     2.2750    73.1450     7.4560     6.4390     5.8650    22.8530    -7.8280 
   92.2500     2.2950    71.4470     7.9290     6.8060     6.4290    22.9770    -7.6080 
   92.3750     2.3350    68.0980     8.4190     7.2300     8.1850    23.0480    -7.3790 
   92.5000     2.3840    65.1250     8.7650     7.6040    10.4370    23.1570    -7.1660 
   92.6250     2.4190    63.7670     8.7740     7.7660    10.5080    23.2750    -6.9890 
   92.7500     2.4260    65.0040     8.5030     7.6970     7.9540    23.5160    -6.8300 
   92.8750     2.4020    68.6810     8.0850     7.4600     7.0300    23.6760    -6.7030 
   93.0000     2.3640    72.1730     7.6600     7.1560     7.0690    23.7780    -6.5920 
   93.1250     2.3330    71.5960     7.3320     6.8920     6.7000    23.7430    -6.5080 
   93.2500     2.3170    69.5830     7.1010     6.7130     6.0400    23.6310    -6.4520 
   93.3750     2.3120    70.4110     6.9440     6.6120     5.9010    23.5510    -6.4090 
   93.5000     2.3090    70.8970     6.9170     6.5960     5.8880    23.5370    -6.3230 
   93.6250     2.3050    77.4870     6.8390     6.5700     5.8300    23.4620    -6.1940 
   93.7500     2.3010    82.1010     6.8180     6.5890     6.0050    23.5240    -6.0520 
   93.8750     2.3000    81.2280     6.8300     6.6350     6.1310    23.5690    -5.9100 
   94.0000     2.3010    76.0930     6.8450     6.6750     6.1470    23.6220    -5.7800 
   94.1250     2.3010    69.6120     6.8590     6.6910     6.1640    23.6310    -5.6340 
   94.2500     2.2990    66.6080     6.9020     6.6990     6.0710    23.5820    -5.4900 
   94.3750     2.2950    68.8780     6.9880     6.7180     5.8280    23.6030    -5.3240 
   94.5000     2.2900    72.9700     7.1040     6.7520     5.7120    23.6880    -5.1820 
   94.6250     2.2850    73.7010     7.1790     6.7650     5.8570    23.7030    -5.0690 
   94.7500     2.2810    72.8070     7.1130     6.6890     6.1660    23.7070    -4.9810 
   94.8750     2.2800    74.0310     6.8260     6.4590     6.1750    23.7050    -4.8830 
   95.0000     2.2820    76.5020     6.3190     6.0610     5.9420    23.6990    -4.7860 
   95.1250     2.2880    79.3550     5.7600     5.5870     5.6050    23.6620    -4.7250 
   95.2500     2.2990    82.8930     5.4550     5.2580     5.1440    23.6660    -4.7060 
   95.3750     2.3190    85.4450     5.6420     5.2700     4.8070    23.5610    -4.7480 
   95.5000     2.3550    84.2500     6.4700     5.7840     4.8970    23.4090    -4.8410 
   95.6250     2.4090    76.5370     8.2530     6.9850     6.1360    23.4560    -4.9610 
   95.7500     2.4620    66.5370    10.8270     8.6320     9.3750    23.4470    -5.1000 
   95.8750     2.4880    59.9670    12.3090    10.1820    13.0830    23.3320    -5.2390 
   96.0000     2.4740    59.5670    12.3190    10.7500    12.9020    23.1440    -5.3410 
   96.1250     2.4290    63.9270    10.4650     9.6620    10.1010    22.9860    -5.4010 
   96.2500     2.3880    68.4180     8.1230     7.8660     7.3770    22.9870    -5.4270 
   96.3750     2.3710    71.3700     6.2640     6.2000     5.0910    23.0130    -5.4210 
   96.5000     2.3770    72.9910     5.2220     5.0540     3.9930    23.1330    -5.3780 
   96.6250     2.3910    74.3920     4.9710     4.5380     3.8380    23.1610    -5.3310 
   96.7500     2.3920    74.8700     5.1420     4.4340     3.9780    23.1990    -5.2680 
   96.8750     2.3770    74.7430     5.5440     4.6090     4.2260    23.2300    -5.2380 
   97.0000     2.3550    75.7110     6.0320     4.9390     4.6500    23.2040    -5.2680 
   97.1250     2.3390    76.7690     6.5440     5.3530     5.2960    23.0740    -5.3350 
   97.2500     2.3340    76.0570     7.1610     5.8490     5.7290    22.9480    -5.4240 
   97.3750     2.3400    73.4610     8.0630     6.5220     5.7000    22.7980    -5.5310 
   97.5000     2.3490    69.6900     9.4270     7.4970     6.0820    22.7500    -5.6410 
   97.6250     2.3440    65.3170    11.4040     8.9390     7.5040    22.6940    -5.7440 
   97.7500     2.3180    60.4850    13.7210    10.7420     9.8630    22.6370    -5.8450 
   97.8750     2.2700    56.9740    15.9650    12.6630    11.8870    22.5630    -5.9370 
   98.0000     2.2140    57.3540    17.6120    14.2910    12.8890    22.5300    -6.0310 
   98.1250     2.1680    61.4020    18.1610    15.1140    12.9260    22.5080    -6.1170 
   98.2500     2.1420    65.0250    17.9910    15.2740    12.3920    22.4100    -6.1810 
   98.3750     2.1340    67.0820    17.6280    15.1290    11.8990    22.1740    -6.2130 
   98.5000     2.1380    68.1680    17.5330    15.0580    11.7760    21.8610    -6.2390 
   98.6250     2.1420    66.1390    18.0480    15.3880    12.1600    21.3140    -6.2270 
   98.7500     2.1390    62.4430    19.0840    16.1610    12.9770    20.9710    -6.2150 
   98.8750     2.1320    59.4500    20.3940    17.3000    14.0700    21.0990    -6.1930 
   99.0000     2.1230    55.1820    21.4310    18.4570    15.0850    21.5870    -6.1470 
   99.1250     2.1200    49.5850    21.1270    18.7550    15.5060    21.8520    -6.0730 
   99.2500     2.1250    48.7510    19.1600    17.6600    15.9340    22.0530    -5.9950 
   99.3750     2.1410    54.8010    15.9260    15.2900    15.6620    22.2710    -5.9310 
   99.5000     2.1660    62.8830    12.4060    12.3910    12.8990    22.4210    -5.8730 
   99.6250     2.1950    68.1450     9.6630     9.8820     8.8210    22.4310    -5.8680 
   99.7500     2.2190    71.8880     7.9140     8.1030     6.1330    22.3620    -5.8610 
   99.8750     2.2340    75.8330     7.0340     7.0490     5.3320    22.1730    -5.8390 
