~V
VERS. 2.00: Ver 2.00
~W
STRT.M 51.0000:
STOP.M 263.0000:
STEP.M 0.1250:
NULL. -999.2500:
UWI. F10758:
~C
DEPT.M :
DEN.GM/CC :
GR.API :
RML.OHMM :
RI. :
RXO.OHMM :
CALI.CM :
SP.MV :
~A
# ...
   62.2500     2.1940    91.3880     3.3770     4.2260     3.6950    22.4400   -15.8120 
   62.3750     2.2130    89.9510     3.2580     4.1060     3.6580    22.5770   -15.7860 
   62.5000     2.2360    89.7330     3.4870     4.0850     3.6680    22.4470   -15.8700 
   62.6250     2.2610    92.5090     3.9600     4.1790     3.8630    22.9830   -15.9960 
   62.7500     2.2810    93.2640     4.4340     4.3460     4.1880    23.5650   -16.2510 
   62.8750     2.2930    88.2220     4.8270     4.5680     4.6870    23.8110   -16.5930 
   63.0000     2.2970    80.7550     5.1910     4.8710     5.1190    23.8760   -16.9560 
   63.1250     2.2990    76.4780     5.6870     5.3430     5.2310    23.8870   -17.3770 
   63.2500     2.3130    74.6220     6.3830     6.0000     5.8200    23.8270   -17.8350 
   63.3750     2.3430    72.5250     7.2640     6.8180     7.7880    23.8040   -18.2380 
   63.5000     2.3790    69.0380     8.2000     7.6850    12.1210    23.8340   -18.5610 
   63.6250     2.3900    65.5280     8.9000     8.3490    14.3910    23.8170   -18.9470 
   63.7500     2.3620    66.1400     9.2070     8.6580    10.4700    23.7620   -19.3850 
   63.8750     2.3010    70.3630     9.1930     8.6500     7.4810    23.6290   -19.8410 
   64.0000     2.2290    73.0190     9.0970     8.5240     6.9950    23.2980   -20.3310 
   64.1250     2.1720    69.2460     9.2430     8.5610     7.2740    23.2110   -20.7720 
   64.2500     2.1370    63.2510     9.7940     8.9070     7.4250    23.1880   -21.1400 
   64.3750     2.1200    60.6320    10.7960     9.5970     7.7380    23.1710   -21.5120 
   64.5000     2.1130    61.7430    12.1680    10.5700     8.2200    23.1040   -21.8690 
   64.6250     2.1160    65.2300    13.7590    11.7040     8.6490    23.0890   -22.1380 
   64.7500     2.1260    68.2170    15.3370    12.8260     9.0020    23.1230   -22.3300 
   64.8750     2.1420    68.1190    16.7970    13.8350     9.2650    23.2100   -22.4490 
   65.0000     2.1600    64.1270    18.0850    14.7050     9.5850    23.4050   -22.5040 
   65.1250     2.1770    59.6380    19.1760    15.5000     9.9850    23.7650   -22.5440 
   65.2500     2.1950    58.8470    20.1070    16.2930    10.4680    24.0020   -22.5380 
   65.3750     2.2200    59.3930    20.7710    17.0190    11.2300    24.1690   -22.4810 
   65.5000     2.2510    58.2690    20.9540    17.4820    13.0100    23.9680   -22.4060 
   65.6250     2.2720    55.8030    20.2880    17.3250    15.4760    23.3140   -22.3620 
   65.7500     2.2660    55.3130    18.9180    16.5540    15.1550    22.5720   -22.3730 
   65.8750     2.2280    58.8100    17.2630    15.3910    12.4580    22.3020   -22.4390 
   66.0000     2.1700    63.1450    15.8520    14.2040    10.7820    22.2840   -22.5220 
   66.1250     2.1120    62.5840    15.2100    13.3740    10.5170    22.5060   -22.6000 
   66.2500     2.0750    57.2630    15.3010    12.9810    10.1880    22.7450   -22.6720 
   66.3750     2.0620    53.0440    15.9220    12.9700    10.1630    22.9840   -22.7070 
   66.5000     2.0680    53.3300    16.7480    13.1700    10.6860    23.1830   -22.7480 
   66.6250     2.0800    54.8700    17.3710    13.3380    11.2310    23.3390   -22.7510 
   66.7500     2.0880    54.7540    17.5930    13.3370    11.2150    23.4680   -22.6570 
   66.8750     2.0870    53.5860    17.3710    13.1810    10.9800    23.4880   -22.5390 
   67.0000     2.0820    53.2540    16.7730    12.9590    10.7690    23.3820   -22.4060 
   67.1250     2.0810    54.2870    15.9910    12.7810    10.5640    23.2460   -22.2290 
   67.2500     2.0890    55.9440    15.3030    12.6910    10.2890    23.1880   -22.0950 
   67.3750     2.1020    56.5970    14.8440    12.6830    10.1220    23.2250   -21.9840 
   67.5000     2.1130    54.1090    14.6350    12.7350    10.1190    23.3420   -21.8510 
   67.6250     2.1170    51.1810    14.6600    12.8490    10.2160    23.5030   -21.7520 
   67.7500     2.1150    52.5020    14.8270    13.0240    10.3560    23.5860   -21.6710 
   67.8750     2.1110    55.9000    15.0890    13.2350    10.4770    23.6550   -21.5630 
   68.0000     2.1080    56.3950    15.3630    13.4060    10.5790    23.6720   -21.4730 
   68.1250     2.1070    54.0880    15.3510    13.3080    10.6600    23.6790   -21.3830 
   68.2500     2.1120    53.9340    14.7090    12.7180    10.5240    23.6500   -21.2710 
   68.3750     2.1260    55.3370    13.2460    11.5060     9.9400    23.5650   -21.1740 
   68.5000     2.1510    55.8320    11.1510     9.8000     8.9170    23.3290   -21.0700 
   68.6250     2.1830    59.6530     9.0520     8.0330     7.3840    22.9240   -20.9250 
   68.7500     2.2140    69.8410     7.5470     6.6470     5.8480    22.7870   -20.7830 
   68.8750     2.2340    80.4750     6.9050     5.8410     4.9130    22.7260   -20.6140 
   69.0000     2.2380    83.4310     7.2080     5.6830     5.1470    22.1940   -20.4050 
   69.1250     2.2240    76.2790     8.5300     6.2760     7.1250    21.6730   -20.2580 
   69.2500     2.2020    67.7790    10.4560     7.4370     9.7780    21.4550   -20.1270 
   69.3750     2.1830    62.2690    12.4740     8.9350    10.5460    21.7290   -20.0050 
   69.5000     2.1750    59.3320    13.8170    10.2740     9.8360    22.3560   -19.9530 
   69.6250     2.1820    56.9000    13.5880    10.6700     9.1830    23.1490   -19.9090 
   69.7500     2.1980    55.9960    12.1930    10.0970     8.5580    23.4670   -19.8580 
   69.8750     2.2140    58.3950    10.3500     8.9420     7.6040    23.6340   -19.8950 
   70.0000     2.2250    61.9470     8.6770     7.6680     6.3140    23.7400   -19.9830 
   70.1250     2.2270    62.7090     7.5390     6.6080     5.7100    23.7530   -20.0660 
   70.2500     2.2260    62.9800     6.8900     5.8350     5.6450    23.7440   -20.1790 
   70.3750     2.2270    64.7930     6.6900     5.3780     5.6320    23.7100   -20.2820 
   70.5000     2.2310    66.9950     6.9040     5.2650     5.3400    23.7220   -20.3500 
   70.6250     2.2340    67.0660     7.5900     5.5970     5.5240    23.5390   -20.4460 
   70.7500     2.2250    66.2980     8.6820     6.3370     6.2330    23.0340   -20.5450 
   70.8750     2.2020    64.9410    10.1610     7.4780     7.5320    22.3690   -20.5940 
   71.0000     2.1660    61.4100    11.9370     8.9500     9.3820    22.0420   -20.6300 
   71.1250     2.1310    56.9010    13.6670    10.5240    10.6180    22.1640   -20.6300 
   71.2500     2.1090    54.3320    14.7940    11.7710    10.4230    22.5580   -20.6060 
   71.3750     2.1060    53.6110    14.8960    12.3200     9.6460    22.9140   -20.5680 
   71.5000     2.1180    52.5570    13.8880    11.9990     9.2350    23.1800   -20.4720 
   71.6250     2.1390    52.9940    12.0420    10.8460     8.9930    23.2070   -20.3300 
   71.7500     2.1640    57.9210    10.0640     9.3440     8.1700    23.2650   -20.1510 
   71.8750     2.1890    65.9340     8.3340     7.8210     6.7510    23.3120   -19.9180 
   72.0000     2.2130    72.8350     7.0250     6.5060     5.4100    23.4450   -19.6660 
   72.1250     2.2330    75.3320     6.2110     5.5710     4.8760    23.6800   -19.4400 
   72.2500     2.2470    75.6950     5.7590     4.9720     4.4670    23.8380   -19.1900 
   72.3750     2.2570    76.1470     5.5910     4.6630     4.2360    23.9110   -18.9850 
   72.5000     2.2660    78.1140     5.6100     4.5690     4.0710    23.9000   -18.8850 
   72.6250     2.2760    78.8490     5.7110     4.6280     4.2220    23.7610   -18.8240 
   72.7500     2.2890    75.1460     5.8120     4.7610     4.4770    23.2820   -18.8330 
   72.8750     2.3020    70.0240     5.8990     4.9420     4.7270    22.5530   -18.9200 
   73.0000     2.3150    69.0630     5.9720     5.1440     4.7940    22.1060   -19.0010 
   73.1250     2.3260    73.0550     5.9940     5.3070     4.8970    21.9860   -19.0770 
   73.2500     2.3330    75.7550     5.9390     5.3660     5.4580    21.9430   -19.1440 
   73.3750     2.3340    75.7180     5.8110     5.2730     6.1400    22.0410   -19.1980 
