~V
VERS. 2.00: Ver 2.00
~W
STRT.M 45.0000:
STOP.M 272.0000:
STEP.M 0.1250:
NULL. -999.2500:
UWI. F10774:
~C
DEPT.M :
DEN.GM/CC :
SP.MV :
GR.API :
RML.OHMM :
RI. :
RXO.OHMM :
CALI.CM :
~A
# ...
  146.2500     2.1350   -17.6890    51.6420    28.0780    23.9290    10.5040    24.6560 
  146.3750     2.1330   -17.9610    52.9960    29.9400    25.9920    12.7120    24.7050 
  146.5000     2.1300   -18.2630    53.2400    30.7850    27.5210    16.1070    24.7450 
  146.6250     2.1360   -18.6180    52.9660    29.4780    27.3040    18.6680    24.7470 
  146.7500     2.1600   -19.0410    54.8570    25.6560    24.6220    17.8650    24.6920 
  146.8750     2.1910   -19.5350    60.7730    20.8630    20.6900    14.5970    24.6240 
  147.0000     2.2160   -20.0780    68.7810    16.4640    16.7840    10.6380    24.5860 
  147.1250     2.2270   -20.6480    74.2460    13.2100    13.6810     7.5200    24.5680 
  147.2500     2.2250   -21.2320    74.7010    11.1780    11.5680     6.6960    24.5560 
  147.3750     2.2240   -21.8190    74.4090     9.7990    10.0540     7.1820    24.5830 
  147.5000     2.2350   -22.3820    77.6470     8.7060     8.8630     7.3950    24.6930 
  147.6250     2.2590   -22.8610    83.0360     7.7040     7.8330     6.1380    24.8570 
  147.7500     2.2810   -23.2210    85.8740     6.8080     6.9520     4.6760    25.0100 
  147.8750     2.2910   -23.4540    85.0450     6.1550     6.2900     4.0680    25.1120 
  148.0000     2.2930   -23.5620    82.5050     5.9170     5.9640     3.9840    25.1500 
  148.1250     2.2920   -23.5470    80.2180     6.2960     6.1270     4.3240    25.1560 
  148.2500     2.2920   -23.4040    77.1690     7.5690     7.0040     5.2880    25.1560 
  148.3750     2.2990   -23.1740    71.3600     9.8050     8.6810     7.1210    25.1530 
  148.5000     2.3260   -22.8850    63.5420    13.0430    11.2670    10.4380    25.1320 
  148.6250     2.3690   -22.5570    57.7490    17.0080    14.6550    16.0740    25.0720 
  148.7500     2.3940   -22.1670    57.1300    20.8530    18.1930    21.9060    24.9630 
  148.8750     2.3600   -21.7140    58.8600    23.4220    20.7080    20.7370    24.8510 
  149.0000     2.2740   -21.2060    60.7080    24.2230    21.5860    13.5860    24.7480 
  149.1250     2.1830   -20.6660    60.0280    23.8030    21.2150     9.3400    24.6770 
  149.2500     2.1230   -20.1100    54.8250    23.3360    20.5780     8.4780    24.6540 
  149.3750     2.0960   -19.5380    49.6160    23.6610    20.4350     8.6060    24.6460 
  149.5000     2.0910   -18.9660    48.6770    24.9100    20.9700     9.0520    24.6370 
  149.6250     2.0990   -18.4180    51.1930    26.8000    22.0520     9.7090    24.6250 
  149.7500     2.1110   -17.9340    53.6040    28.7890    23.3310    10.0420    24.6240 
  149.8750     2.1210   -17.5230    54.0220    30.3340    24.3810     9.8550    24.6380 
  150.0000     2.1270   -17.1830    52.7420    31.1730    24.9740     9.5420    24.6360 
  150.1250     2.1290   -16.9060    50.5450    31.2600    25.0470     9.4120    24.6090 
  150.2500     2.1260   -16.7030    49.8150    30.7690    24.6950     9.3180    24.5630 
  150.3750     2.1220   -16.5620    51.8200    30.1640    24.2340     8.9710    24.5270 
  150.5000     2.1220   -16.4660    54.1160    29.7890    23.9030     8.4800    24.5230 
  150.6250     2.1320   -16.4040    54.4000    29.8670    23.8710     8.3230    24.5570 
  150.7500     2.1470   -16.3700    51.9020    30.4040    24.1710     8.9740    24.6170 
  150.8750     2.1590   -16.3780    48.9510    31.0210    24.5770    10.3910    24.6660 
  151.0000     2.1650   -16.4470    48.0740    31.3190    24.8300    11.7090    24.7120 
  151.1250     2.1650   -16.6040    48.9460    31.0160    24.7110    11.4710    24.7270 
  151.2500     2.1590   -16.8830    50.4240    30.0910    24.1520     9.8440    24.6450 
  151.3750     2.1590   -17.2740    51.9420    28.9150    23.3530     8.7900    24.5070 
  151.5000     2.1690   -17.7480    52.3110    27.7840    22.4940     8.3950    24.3950 
  151.6250     2.1890   -18.2640    50.5230    26.8400    21.6800     9.0490    24.3000 
  151.7500     2.2070   -18.7920    48.1020    26.0380    20.9180     9.8270    24.1650 
  151.8750     2.2010   -19.2940    48.1100    25.2640    20.1660     9.6710    23.9880 
  152.0000     2.1690   -19.7430    50.7420    24.5700    19.4770     8.8400    23.9010 
  152.1250     2.1300   -20.1290    53.7400    24.1810    19.0170     8.4180    24.0360 
  152.2500     2.1100   -20.4200    54.8780    24.4520    19.0450     7.9860    24.2760 
  152.3750     2.1010   -20.6410    54.3260    25.5270    19.6900     8.1180    24.4080 
  152.5000     2.0930   -20.8300    53.5730    27.4030    21.0040     9.2540    24.4790 
  152.6250     2.0840   -21.0120    53.2890    29.8350    22.8730    11.3520    24.5500 
  152.7500     2.0800   -21.2220    51.5510    32.3160    24.9690    13.4770    24.6020 
  152.8750     2.0900   -21.5000    48.3280    34.2200    26.7650    13.7420    24.5940 
  153.0000     2.1140   -21.8750    46.8620    35.0740    27.8270    13.4590    24.5580 
  153.1250     2.1390   -22.3490    48.5120    34.5520    27.7990    12.8170    24.5400 
  153.2500     2.1490   -22.9360    51.8230    32.5420    26.4920    12.0970    24.5840 
  153.3750     2.1490   -23.6150    55.2670    29.5630    24.2950    11.5130    24.6420 
  153.5000     2.1500   -24.3620    58.4150    26.0940    21.6130    10.4580    24.6280 
  153.6250     2.1530   -25.1690    59.6880    22.6900    18.9170     8.7140    24.5240 
  153.7500     2.1500   -26.0090    57.2900    19.9400    16.6770     7.2950    24.4160 
  153.8750     2.1380   -26.8110    54.4420    18.1130    15.1100     6.5240    24.3660 
  154.0000     2.1210   -27.5290    54.5250    17.2860    14.2920     6.2830    24.3480 
  154.1250     2.0990   -28.1250    56.2600    17.3720    14.1920     6.2870    24.3280 
  154.2500     2.0730   -28.5450    55.8880    18.1430    14.6930     6.3730    24.3040 
  154.3750     2.0560   -28.7770    53.6990    19.0970    15.4410     6.4560    24.3260 
  154.5000     2.0610   -28.8020    52.2720    19.8280    16.1190     6.5440    24.4010 
  154.6250     2.0840   -28.5980    52.0990    20.0280    16.4370     6.6100    24.4690 
  154.7500     2.1060   -28.1560    52.5520    19.6070    16.2440     6.6190    24.4920 
  154.8750     2.1160   -27.5640    53.4060    18.8990    15.7440     6.5460    24.4790 
  155.0000     2.1200   -26.8650    55.1330    18.2550    15.1920     6.3960    24.4460 
  155.1250     2.1260   -26.0960    57.8530    18.0280    14.8610     6.2710    24.3930 
  155.2500     2.1310   -25.2860    60.4290    18.5220    15.0030     6.3260    24.2940 
  155.3750     2.1300   -24.4610    60.6690    19.7460    15.6760     6.5200    24.1920 
  155.5000     2.1270   -23.6510    58.4590    21.6510    16.8960     6.7740    24.1720 
  155.6250     2.1200   -22.8850    56.2360    24.0690    18.6030     7.1430    24.2270 
  155.7500     2.1130   -22.1850    55.5880    26.6600    20.6170     7.6900    24.2990 
  155.8750     2.1080   -21.5600    54.4470    28.9260    22.5430     8.1670    24.3230 
  156.0000     2.1110   -21.0280    51.2000    30.4800    24.0310     8.4010    24.2810 
  156.1250     2.1200   -20.6000    48.2620    31.1120    24.8310     8.4000    24.1830 
  156.2500     2.1330   -20.2890    48.6640    30.8640    24.8870     8.4110    24.1030 
  156.3750     2.1420   -20.0810    51.0550    30.1990    24.5320     8.4540    24.0710 
  156.5000     2.1420   -19.9640    52.3460    29.4580    24.0470     8.3790    24.0640 
  156.6250     2.1320   -19.9300    51.8020    28.8820    23.6570     8.2400    24.0550 
  156.7500     2.1190   -19.9810    52.0300    28.5910    23.4960     8.1750    24.0350 
  156.8750     2.1110   -20.0750    52.7030    28.5330    23.5460     8.1990    24.0040 
  157.0000     2.1090   -20.1860    52.7880    28.6560    23.7670     8.2290    23.9700 
  157.1250     2.1150   -20.3140    52.9220    28.9330    24.1300     8.1750    23.9430 
  157.2500     2.1320   -20.4470    53.4210    29.3300    24.6110     8.0910    23.9730 
  157.3750     2.1500   -20.5910    53.6000    29.6780    25.0900     8.1320    24.0790 
