~V
VERS. 2.00: Ver 2.00
~W
STRT.M 40.0000:
STOP.M 236.0000:
STEP.M 0.1250:
NULL. -999.2500:
UWI. F10781:
~C
DEPT.M :
GR.API :
RML.OHMM :
RI. :
RXO.OHMM :
CALI.CM :
SP.MV :
DEN.GM/CC :
~A
# ...
  208.7500    85.1510    17.4540    14.6470    18.7970    25.2580   -10.5100     2.5450 
  208.8750    86.0030    16.9060    14.2670    19.1910    25.2770   -10.3650     2.5290 
  209.0000    89.1630    16.3360    13.7740    17.1560    25.2970   -10.3000     2.4920 
  209.1250    91.0590    16.3800    13.6200    14.4720    25.3200   -10.3180     2.4390 
  209.2500    88.4270    17.2260    13.9920    16.3580    25.3370   -10.3780     2.3890 
  209.3750    83.3300    18.8280    14.9140    19.7040    25.3500   -10.4560     2.3500 
  209.5000    79.2030    20.9790    16.2900    22.2090    25.3570   -10.5200     2.3280 
  209.6250    76.9360    23.4810    18.0200    23.1830    25.3660   -10.5440     2.3210 
  209.7500    74.0250    26.2880    20.0120    24.0320    25.3770   -10.5520     2.3190 
  209.8750    71.1100    29.8700    22.5090    25.1820    25.4010   -10.5770     2.3130 
  210.0000    68.2140    35.2180    26.1560    28.3340    25.4390   -10.6480     2.3000 
  210.1250    64.2930    44.5330    32.6640    36.7440    25.4570   -10.7950     2.2870 
  210.2500    60.0770    59.0810    43.3350    54.4110    25.4510   -11.0120     2.2780 
  210.3750    55.4260    80.1750    59.4670    93.8950    25.4140   -11.2790     2.2710 
  210.5000    50.8290   107.9000    81.1290   152.6810    25.3570   -11.5600     2.2640 
  210.6250    49.5850   139.5620   105.7500   163.1160    25.2630   -11.7990     2.2550 
  210.7500    51.2820   168.0890   127.4930   153.0290    25.1620   -11.9460     2.2430 
  210.8750    53.5360   188.2910   142.5590   166.3210    25.0580   -11.9910     2.2310 
  211.0000    53.3410   198.6680   150.2090   195.0310    24.9730   -11.9520     2.2230 
  211.1250    51.7350   199.6070   151.3060   208.7960    24.9260   -11.8470     2.2200 
  211.2500    51.9040   194.7520   148.8240   204.5550    24.9120   -11.7060     2.2250 
  211.3750    53.3880   186.3330   144.1250   185.7390    24.8960   -11.5470     2.2340 
  211.5000    54.0160   177.3130   138.7600   166.7780    24.8900   -11.3910     2.2450 
  211.6250    54.2340   171.3040   134.9880   151.1100    24.8920   -11.2710     2.2510 
  211.7500    55.8510   169.3800   133.9940   150.2360    24.9290   -11.1820     2.2480 
  211.8750    57.5510   171.2090   135.9510   154.2480    24.9720   -11.1170     2.2370 
  212.0000    57.4400   175.5380   140.1660   158.1940    25.0180   -11.0650     2.2220 
  212.1250    55.3160   180.2750   145.1560   161.5820    25.0460   -11.0360     2.2090 
  212.2500    53.4400   182.9990   148.8570   165.8030    25.0860   -11.0120     2.2040 
  212.3750    52.9680   182.2730   149.8990   170.1680    25.1170   -10.9830     2.2070 
  212.5000    53.4690   177.7520   147.7170   176.1970    25.1540   -10.9280     2.2160 
  212.6250    53.8280   169.9360   142.3880   171.6320    25.1670   -10.8440     2.2260 
  212.7500    53.6420   161.0900   135.7450   157.8570    25.1810   -10.7370     2.2320 
  212.8750    53.1540   152.8610   129.2350   144.4610    25.1890   -10.6150     2.2380 
  213.0000    52.4730   146.5150   124.0830   134.2300    25.2130   -10.4780     2.2440 
  213.1250    52.6060   143.2410   121.4750   130.5640    25.2170   -10.3300     2.2450 
  213.2500    54.0340   142.5270   121.1700   136.4050    25.2060   -10.1920     2.2410 
  213.3750    53.9290   143.4410   122.5180   143.2700    25.1810   -10.0730     2.2330 
  213.5000    50.8560   144.4220   124.2730   145.5360    25.1760    -9.9720     2.2260 
  213.6250    49.5350   143.5950   124.8170   147.7180    25.1630    -9.8850     2.2210 
  213.7500    51.6580   140.7750   123.7250   151.1830    25.1670    -9.8200     2.2190 
  213.8750    53.5670   136.7570   121.4710   141.0770    25.1760    -9.7930     2.2180 
  214.0000    53.5690   132.6350   118.9220   122.6430    25.2050    -9.8170     2.2170 
  214.1250    54.5580   128.7670   116.4810   109.7140    25.2170    -9.8980     2.2160 
  214.2500    56.7900   124.1760   113.4540   117.7480    25.2370   -10.0060     2.2160 
  214.3750    58.4680   117.7390   108.8480   131.0830    25.2460   -10.1300     2.2190 
  214.5000    58.2960   109.1500   102.2290   132.2970    25.2580   -10.2740     2.2260 
  214.6250    55.8070    99.3180    94.0990   107.5400    25.2530   -10.4230     2.2350 
  214.7500    52.8630    90.2100    86.1670    80.0450    25.2650   -10.5520     2.2450 
  214.8750    51.0540    83.1490    79.7250    70.7890    25.2660   -10.6400     2.2520 
  215.0000    50.5200    78.8260    75.6090    77.3280    25.2780   -10.6900     2.2560 
  215.1250    50.5370    77.6860    74.4760    85.0570    25.2750   -10.7090     2.2590 
  215.2500    51.8840    78.6360    75.4690    87.9590    25.2830   -10.7060     2.2630 
  215.3750    54.1940    80.7610    77.7600    83.7810    25.2780   -10.6880     2.2650 
  215.5000    55.8360    83.0290    80.3460    84.4170    25.2830   -10.6630     2.2640 
  215.6250    54.9200    84.3150    82.0980    97.0370    25.2710   -10.6450     2.2610 
  215.7500    52.8950    84.3420    82.6400    98.3430    25.2600   -10.6400     2.2590 
  215.8750    53.1540    83.3630    82.1320    85.9200    25.2430   -10.6480     2.2620 
  216.0000    56.3750    82.0170    81.1310    77.2820    25.2420   -10.6860     2.2670 
  216.1250    58.4500    81.1020    80.4050    75.0600    25.2320   -10.7710     2.2700 
  216.2500    57.7660    80.8650    80.3020    79.8440    25.2270   -10.9090     2.2680 
  216.3750    56.9860    81.1100    80.7220    84.3190    25.2210   -11.0860     2.2620 
  216.5000    57.8710    81.3740    81.2660    88.8880    25.2340   -11.2850     2.2530 
  216.6250    59.7320    81.1830    81.4380    89.7960    25.2400   -11.4900     2.2470 
  216.7500    61.3980    80.7120    81.2960    81.8910    25.2590   -11.6770     2.2440 
  216.8750    61.2920    80.4150    81.2390    76.9900    25.2670   -11.8310     2.2470 
  217.0000    58.5420    80.6580    81.6510    78.0940    25.2820   -11.9440     2.2520 
  217.1250    56.2720    81.3550    82.5200    82.7500    25.2850   -12.0110     2.2580 
  217.2500    55.8020    81.6970    83.0830    88.7610    25.2940   -12.0650     2.2590 
  217.3750    54.9150    80.9280    82.5470    91.1860    25.2900   -12.1430     2.2580 
  217.5000    52.9710    78.7640    80.5150    88.7790    25.2950   -12.2590     2.2570 
  217.6250    52.8070    75.8310    77.4280    81.8280    25.2840   -12.3920     2.2580 
  217.7500    54.9320    73.7470    74.8800    74.0750    25.2660   -12.5230     2.2600 
  217.8750    57.9480    73.8550    74.2460    69.4950    25.2300   -12.6300     2.2600 
  218.0000    59.5130    77.1790    76.6170    69.0980    25.1990   -12.6970     2.2550 
  218.1250    58.4010    85.0620    83.4290    80.9550    25.1540   -12.6970     2.2440 
  218.2500    55.5860    96.8970    94.2360   106.2750    25.1330   -12.6570     2.2350 
  218.3750    52.7650   111.8680   108.3050   127.7170    25.1340   -12.5870     2.2300 
  218.5000    51.2170   128.2120   123.9180   137.1780    25.1700   -12.4820     2.2300 
  218.6250    50.5100   142.9620   138.1770   146.9920    25.2150   -12.3620     2.2310 
  218.7500    51.2810   154.2090   149.1160   168.2380    25.2800   -12.2450     2.2310 
  218.8750    53.3740   161.6560   156.3360   184.8630    25.3410   -12.1360     2.2280 
  219.0000    54.2160   166.3370   160.7150   188.3730    25.4030   -12.0290     2.2250 
  219.1250    52.4140   169.6770   163.5300   174.4090    25.4480   -11.9330     2.2230 
  219.2500    50.3550   172.9260   166.1010   165.3230    25.4760   -11.8820     2.2230 
  219.3750    50.1110   176.2720   168.7410   172.0580    25.4840   -11.8860     2.2230 
  219.5000    50.9300   179.3170   171.2260   189.6910    25.5020   -11.9420     2.2230 
  219.6250    51.1150   181.2000   172.8700   204.1000    25.5200   -12.0660     2.2200 
  219.7500    50.6260   181.8010   173.4790   203.2650    25.5350   -12.2120     2.2170 
  219.8750    49.2580   181.4530   173.2630   190.0670    25.5280   -12.3320     2.2150 
