~V
VERS. 2.00: Ver 2.00
~W
STRT.M 51.0000:
STOP.M 263.0000:
STEP.M 0.1250:
NULL. -999.2500:
UWI. F10758:
~C
DEPT.M :
DEN.GM/CC :
GR.API :
RML.OHMM :
RI. :
RXO.OHMM :
CALI.CM :
SP.MV :
~A
# ...
  107.2500     2.0640    60.2970    16.0700    13.4220     9.6570    23.0750   -15.2380 
  107.3750     2.0850    61.4260    15.4820    13.0180     9.0640    23.1160   -15.3080 
  107.5000     2.1100    60.1340    15.0290    12.6070     8.8780    23.1310   -15.3390 
  107.6250     2.1320    59.3300    14.6720    12.2360     8.8460    23.1410   -15.3370 
  107.7500     2.1510    61.8000    14.2190    11.8220     8.9940    23.2670   -15.3260 
  107.8750     2.1690    64.3640    13.5490    11.2820     9.0630    23.5400   -15.2790 
  108.0000     2.1930    65.2520    12.6450    10.5870     8.7650    23.6570   -15.1800 
  108.1250     2.2270    68.4940    11.6090     9.7840     8.1100    23.6940   -15.0780 
  108.2500     2.2630    74.1590    10.6160     8.9970     7.5850    23.7070   -14.9480 
  108.3750     2.2920    75.7840     9.7730     8.3220     7.3560    23.5490   -14.8140 
  108.5000     2.3060    70.9950     9.1790     7.8310     7.2250    22.9950   -14.7470 
  108.6250     2.2980    65.6630     9.0150     7.6160     6.7570    22.3640   -14.6640 
  108.7500     2.2800    64.5930     9.2490     7.6280     6.4550    22.1990   -14.5790 
  108.8750     2.2590    66.2430     9.7330     7.7980     6.2620    22.0600   -14.5340 
  109.0000     2.2430    68.5600    10.1910     8.0140     6.4730    21.7410   -14.4600 
  109.1250     2.2390    72.6960    10.2210     8.0940     6.9090    21.1200   -14.3740 
  109.2500     2.2450    77.6600     9.7430     7.9300     6.8100    20.9020   -14.3070 
  109.3750     2.2600    79.3920     8.9340     7.5120     6.0890    21.3930   -14.2080 
  109.5000     2.2760    77.2710     8.1230     6.9380     5.4220    22.0900   -14.0690 
  109.6250     2.2850    74.9290     7.5970     6.3720     5.3320    22.9260   -13.9100 
  109.7500     2.2850    75.0240     7.3150     5.9390     5.4100    23.7600   -13.7580 
  109.8750     2.2770    77.3850     7.1660     5.6940     5.3000    24.0980   -13.6140 
  110.0000     2.2660    78.2870     7.0670     5.6400     5.0530    24.1560   -13.4950 
  110.1250     2.2550    75.2360     7.0190     5.7510     5.1540    24.0420   -13.4240 
  110.2500     2.2450    72.1980     7.0470     5.9150     5.6530    23.8930   -13.3700 
  110.3750     2.2350    72.5130     7.1490     6.0570     6.1790    23.8360   -13.3310 
  110.5000     2.2260    75.2570     7.2820     6.1400     6.4930    23.7920   -13.3180 
  110.6250     2.2220    77.0860     7.4270     6.1870     6.4150    23.8780   -13.3530 
  110.7500     2.2230    77.5530     7.6370     6.2760     6.0070    23.9440   -13.3950 
  110.8750     2.2320    74.8720     7.9690     6.4480     5.9800    23.8570   -13.4220 
  111.0000     2.2470    68.2030     8.4200     6.6830     6.4430    23.7600   -13.4890 
  111.1250     2.2650    62.9860     8.8730     6.8810     7.0840    23.6350   -13.5170 
  111.2500     2.2780    62.4460     9.1300     6.9450     7.1940    23.5930   -13.5620 
  111.3750     2.2830    64.1900     9.0500     6.8370     6.4350    23.7150   -13.6540 
  111.5000     2.2800    67.4340     8.5950     6.5860     5.6470    23.8150   -13.7090 
  111.6250     2.2730    73.3360     7.8670     6.2640     5.3780    23.8290   -13.7410 
  111.7500     2.2660    77.0840     7.1420     5.9550     5.5130    23.8290   -13.7700 
  111.8750     2.2630    77.2240     6.5980     5.7030     5.5850    23.8450   -13.7580 
  112.0000     2.2630    77.3350     6.3150     5.5340     5.2540    23.9510   -13.7150 
  112.1250     2.2620    80.0140     6.2810     5.4970     5.0450    23.9900   -13.6830 
  112.2500     2.2550    81.0250     6.3570     5.5970     5.1910    23.9590   -13.6420 
  112.3750     2.2400    78.6990     6.4980     5.8170     5.6410    23.9160   -13.6010 
  112.5000     2.2210    75.1300     6.7020     6.1010     6.2120    23.8390   -13.5560 
  112.6250     2.2080    74.4100     6.9540     6.3490     6.9340    23.7810   -13.5090 
  112.7500     2.2080    78.3160     7.1700     6.4950     7.3220    23.7520   -13.4500 
  112.8750     2.2210    82.6800     7.2980     6.5290     6.6220    23.8080   -13.3760 
  113.0000     2.2390    82.1860     7.3270     6.4830     5.6350    23.9720   -13.3000 
  113.1250     2.2510    78.6350     7.2580     6.3770     5.4580    23.9750   -13.2180 
  113.2500     2.2560    76.4190     7.1180     6.2080     5.7110    23.8940   -13.0930 
  113.3750     2.2610    76.5270     6.9000     5.9460     5.9050    23.9430   -12.9450 
  113.5000     2.2710    79.7070     6.5820     5.5810     5.7320    24.0930   -12.8060 
  113.6250     2.2880    83.4870     6.1740     5.1470     4.9490    24.2250   -12.6380 
  113.7500     2.3040    84.7990     5.8120     4.7580     4.4480    24.4140   -12.4970 
  113.8750     2.3110    83.4430     5.6650     4.5370     4.4270    24.6120   -12.4260 
  114.0000     2.3120    80.5700     5.9100     4.5970     4.6890    24.3260   -12.3600 
  114.1250     2.3130    76.7100     6.8470     5.1290     4.9920    24.2560   -12.3110 
  114.2500     2.3190    73.5360     8.5230     6.1890     5.8370    24.0540   -12.3200 
  114.3750     2.3200    71.3720    10.9020     7.8470     7.3830    23.6060   -12.3250 
  114.5000     2.3030    68.7710    13.6630    10.0230     9.1110    23.1220   -12.3360 
  114.6250     2.2540    65.5690    15.9010    12.2010    10.5610    22.9950   -12.4060 
  114.7500     2.1910    65.3250    16.6940    13.4750    11.6570    22.9670   -12.4760 
  114.8750     2.1380    67.5540    15.6890    13.3070    11.7760    22.9430   -12.5600 
  115.0000     2.1140    70.8080    13.3940    11.9230    10.4890    23.0400   -12.6900 
  115.1250     2.1270    71.9320    10.8660    10.0870     8.5340    23.3800   -12.8270 
  115.2500     2.1580    72.8380     8.8870     8.5060     7.1780    23.6810   -12.9610 
  115.3750     2.1900    75.3190     7.6670     7.4130     6.6020    23.7540   -13.0910 
  115.5000     2.2170    78.1380     7.2400     6.8830     6.3190    23.8040   -13.2330 
  115.6250     2.2430    77.4620     7.7090     7.0320     6.5950    23.8040   -13.3380 
  115.7500     2.2740    75.9230     8.8520     7.7360     7.5240    24.0300   -13.4070 
  115.8750     2.3030    75.7100    10.4000     8.8780    10.2230    24.1470   -13.4570 
  116.0000     2.3170    73.9540    11.8390    10.1610    12.9480    23.9140   -13.4470 
  116.1250     2.3020    69.3880    12.2970    10.9560    11.5230    23.7980   -13.3790 
  116.2500     2.2750    68.2610    11.5520    10.8510    10.0930    23.8730   -13.2910 
  116.3750     2.2530    75.2350     9.9510     9.8870     8.0970    24.0510   -13.2120 
  116.5000     2.2470    86.1820     8.1840     8.5070     6.7820    24.1700   -13.0930 
  116.6250     2.2570    89.5190     6.9380     7.2600     6.0640    24.2090   -12.9840 
  116.7500     2.2690    85.9330     6.3820     6.4190     5.5420    24.2400   -12.9280 
  116.8750     2.2730    82.6370     6.5360     6.0610     5.1720    24.1410   -12.8530 
  117.0000     2.2640    82.2310     7.3980     6.2120     5.1460    23.9440   -12.8120 
  117.1250     2.2430    78.3520     9.1020     7.0140     5.6400    23.4930   -12.8240 
  117.2500     2.2160    71.2530    11.4990     8.4580     6.6370    22.6990   -12.8210 
  117.3750     2.1900    67.1910    14.4560    10.5970     8.2230    22.1860   -12.8220 
  117.5000     2.1750    67.9730    17.6850    13.3380    10.0380    21.9360   -12.8300 
  117.6250     2.1780    68.4040    20.5930    16.2460    12.6370    21.8300   -12.8010 
  117.7500     2.1860    65.2160    22.6460    18.5690    17.7760    21.9160   -12.7390 
  117.8750     2.1870    60.3080    23.6780    19.8620    24.6400    22.1770   -12.6390 
  118.0000     2.1700    57.0730    23.9750    20.2150    24.8460    22.4570   -12.5000 
  118.1250     2.1360    57.2880    24.1340    20.1310    19.6900    22.6040   -12.3190 
  118.2500     2.1050    57.3490    24.6250    20.1720    18.4370    22.7450   -12.1070 
  118.3750     2.0890    54.5970    25.5240    20.5070    18.7350    22.8180   -11.8860 
