~V
VERS. 2.00: Ver 2.00
~W
STRT.M 50.0000:
STOP.M 230.0000:
STEP.M 0.1250:
NULL. -999.2500:
UWI. F10780:
~C
DEPT.M :
DEN.GM/CC :
GR.API :
RML.OHMM :
RI. :
RXO.OHMM :
CALI.CM :
SP.MV :
~A
# ...
  151.2500     2.1570    65.4450    20.5920    18.4430     8.5470    23.6850    -2.3720 
  151.3750     2.1710    69.7850    21.4630    19.2880     8.6620    23.6060    -2.1790 
  151.5000     2.1870    71.8020    22.1100    19.9390     8.9590    23.4790    -2.0370 
  151.6250     2.1950    68.6560    22.4810    20.3060     9.5160    23.3130    -2.0430 
  151.7500     2.1960    64.8410    22.6390    20.4490     9.8400    23.1590    -2.1160 
  151.8750     2.1920    65.1200    22.6030    20.3960     9.7480    23.0540    -2.2210 
  152.0000     2.1930    68.5520    22.3930    20.1810     9.6810    23.0700    -2.3420 
  152.1250     2.2020    68.9600    22.0760    19.8720     9.2320    23.1610    -2.4750 
  152.2500     2.2170    67.1300    21.8390    19.6310     8.7970    23.2070    -2.6770 
  152.3750     2.2300    66.3310    21.8930    19.6350     8.6290    23.1840    -2.9400 
  152.5000     2.2350    65.7600    22.4730    20.0730     8.6690    23.1630    -3.2390 
  152.6250     2.2280    62.6700    23.9600    21.2710     8.6500    23.3400    -3.5590 
  152.7500     2.2100    61.6900    26.3630    23.3070     8.8630    23.6260    -3.9440 
  152.8750     2.1870    63.6950    29.5200    26.1880    10.0880    23.7900    -4.4110 
  153.0000     2.1700    64.1700    32.8000    29.5330    12.9340    23.8840    -4.9300 
  153.1250     2.1730    60.3220    34.6420    32.0310    15.1120    24.0240    -5.5200 
  153.2500     2.1940    57.0170    33.8780    32.2600    17.1210    24.1090    -6.1780 
  153.3750     2.2250    57.5080    30.2090    29.5620    18.6570    24.0590    -6.9220 
  153.5000     2.2520    61.5800    24.5500    24.5610    15.6080    23.9950    -7.7430 
  153.6250     2.2680    69.1550    18.7430    18.9610    10.1100    24.0240    -8.5730 
  153.7500     2.2740    77.0930    14.2870    14.3990     6.5900    24.0930    -9.3240 
  153.8750     2.2760    80.9230    11.6610    11.3990     5.7820    24.1050    -9.9470 
  154.0000     2.2770    80.5250    10.9000     9.9640     5.8400    24.0670   -10.4720 
  154.1250     2.2870    79.5790    12.3970    10.2990     6.1350    24.1150   -10.9290 
  154.2500     2.3190    78.8880    16.2340    12.4740     7.1300    24.2510   -11.2900 
  154.3750     2.3780    75.4690    22.9990    17.2270    11.2200    24.3910   -11.5580 
  154.5000     2.4550    68.3870    33.1410    25.4550    24.8550    24.4560   -11.7230 
  154.6250     2.5300    60.1300    46.4820    37.8020    44.1390    24.3700   -11.7700 
  154.7500     2.5880    55.1500    59.8390    51.3420    58.4890    24.2910   -11.8080 
  154.8750     2.6230    54.8760    69.5050    62.1690    65.5560    24.2800   -11.9200 
  155.0000     2.6410    57.1020    72.7740    66.9770    69.8970    24.2760   -12.0950 
  155.1250     2.6510    56.6450    69.2580    64.5690    67.9930    24.2830   -12.2550 
  155.2500     2.6580    54.4260    63.2710    58.9490    52.6400    24.3080   -12.3700 
  155.3750     2.6610    53.3810    57.4690    52.9100    36.0750    24.3010   -12.4610 
  155.5000     2.6490    53.7660    52.8290    47.8040    29.5900    24.2910   -12.6020 
  155.6250     2.6080    54.0530    49.1300    43.8400    30.0540    24.2100   -12.8090 
  155.7500     2.5480    54.3650    45.6590    40.4650    33.5680    24.1150   -13.0110 
  155.8750     2.4890    55.4980    42.2930    37.5180    30.5050    24.0420   -13.1530 
  156.0000     2.4520    56.8560    39.3050    35.1060    23.8720    24.0120   -13.2180 
  156.1250     2.4540    57.4190    37.3870    33.7110    21.5930    24.1130   -13.2530 
  156.2500     2.4760    58.0340    36.7720    33.5070    22.1520    24.1860   -13.3100 
  156.3750     2.5010    58.4370    37.4290    34.5580    26.5630    24.2200   -13.3570 
  156.5000     2.5200    57.3430    38.9370    36.6280    32.3200    24.2560   -13.3770 
  156.6250     2.5310    54.3460    40.3830    39.0250    35.0170    24.2740   -13.3600 
  156.7500     2.5320    52.3550    40.6280    40.5110    34.2400    24.2130   -13.2820 
  156.8750     2.5150    53.8700    38.8070    39.9530    33.1820    24.1130   -13.1540 
  157.0000     2.4810    58.0240    34.6150    36.6990    30.4140    24.0410   -13.0350 
  157.1250     2.4400    61.3850    28.4230    30.8250    27.2290    24.0850   -12.9620 
  157.2500     2.4120    63.3890    21.8660    24.1490    24.5050    23.9600   -12.9040 
  157.3750     2.4010    66.0330    16.1060    18.0340    16.8430    23.7240   -12.8370 
  157.5000     2.3960    71.3230    11.8230    13.3070    10.0930    23.5220   -12.7300 
  157.6250     2.3750    76.7670     9.3750    10.3910     7.0070    23.4040   -12.6190 
  157.7500     2.3340    79.0460     8.2240     8.7770     5.9360    23.3760   -12.5870 
  157.8750     2.2890    78.4440     8.1100     8.2230     5.6160    23.4400   -12.6550 
  158.0000     2.2580    75.6980     8.8830     8.5870     6.1230    23.5220   -12.7910 
  158.1250     2.2530    71.8170    10.5750     9.9440     8.4530    23.7600   -12.9100 
  158.2500     2.2570    68.0820    12.9190    12.0760    12.1250    24.2130   -12.9800 
  158.3750     2.2500    66.8080    15.7030    14.8270    13.9070    24.6500   -13.0500 
  158.5000     2.2290    66.1980    18.6710    17.9310    14.4930    24.9040   -13.1450 
  158.6250     2.2090    64.3020    21.5520    21.0280    16.5030    25.0640   -13.2640 
  158.7500     2.2200    61.5500    24.2170    23.8440    19.8170    25.1960   -13.3560 
  158.8750     2.2700    58.2240    26.6370    26.2770    22.3970    25.2440   -13.3780 
  159.0000     2.3460    54.3430    28.7960    28.2940    24.3340    25.1950   -13.3220 
  159.1250     2.4200    51.5770    30.5600    29.7620    26.1240    25.0910   -13.2900 
  159.2500     2.4680    52.2280    31.8660    30.6800    26.0410    25.0600   -13.3250 
  159.3750     2.4880    54.4660    32.6410    31.0320    26.1390    25.0830   -13.3780 
  159.5000     2.4890    55.5980    32.8930    30.8850    27.9790    25.0950   -13.4200 
  159.6250     2.4820    55.7000    32.6800    30.3570    28.2280    25.0600   -13.4440 
  159.7500     2.4770    55.8610    32.2750    29.7170    23.8840    24.9940   -13.4750 
  159.8750     2.4720    56.8100    31.8830    29.1540    22.8620    24.9800   -13.5230 
  160.0000     2.4620    57.2080    31.6640    28.8130    22.4050    24.8850   -13.6090 
  160.1250     2.4470    55.7780    31.7210    28.8140    22.8690    24.6030   -13.6910 
  160.2500     2.4360    54.3300    31.9420    29.0570    22.0550    24.3050   -13.7680 
  160.3750     2.4400    54.2420    32.1740    29.4020    20.1920    24.1580   -13.8390 
  160.5000     2.4630    55.1430    32.2630    29.6760    20.6960    24.0510   -13.8840 
  160.6250     2.4940    56.1990    32.1140    29.7280    24.0920    23.7960   -13.8900 
  160.7500     2.5120    57.7960    31.8750    29.6300    24.5430    23.5530   -13.9020 
  160.8750     2.5130    59.3110    31.7670    29.5520    22.1690    23.4920   -13.9510 
  161.0000     2.5070    58.5730    32.0260    29.7140    20.3900    23.7450   -14.0060 
  161.1250     2.5180    55.8680    32.8710    30.3680    20.6880    24.1730   -14.0160 
  161.2500     2.5510    53.8750    34.0790    31.4180    23.6330    24.5170   -13.9540 
  161.3750     2.6000    52.2530    35.2700    32.5880    28.5650    24.8990   -13.8450 
  161.5000     2.6480    49.4890    35.9790    33.4630    32.7240    25.2610   -13.7680 
  161.6250     2.6780    46.8880    35.7240    33.5490    34.1700    25.4820   -13.7710 
  161.7500     2.6860    47.5160    34.6830    32.8910    33.9410    25.5130   -13.8220 
  161.8750     2.6770    51.4110    33.1820    31.7160    29.5070    25.4150   -13.8790 
  162.0000     2.6550    54.5690    31.6160    30.3650    24.4950    25.2560   -13.9260 
  162.1250     2.6240    54.4230    30.3370    29.1750    24.6970    25.2650   -13.9520 
  162.2500     2.5930    54.3800    29.4060    28.2720    25.8500    25.2410   -14.0060 
  162.3750     2.5680    54.3720    28.7670    27.6510    22.8630    25.0440   -14.1000 
