~V
VERS. 2.00: Ver 2.00
~W
STRT.M 50.0000:
STOP.M 228.0000:
STEP.M 0.1250:
NULL. -999.2500:
UWI. F10779:
~C
DEPT.M :
GR.API :
RML.OHMM :
RI. :
RXO.OHMM :
CALI.CM :
SP.MV :
DEN.GM/CC :
~A
# ...
   72.5000    83.3260     7.3600     6.5630     7.3100    25.2490   -16.8250     2.2570 
   72.6250    75.4400     8.5730     7.4250     7.5840    25.2000   -16.3400     2.2940 
   72.7500    67.2120    10.3910     8.8110     8.6070    25.2310   -15.8240     2.3080 
   72.8750    63.0630    12.6390    10.6560     9.7420    25.2530   -15.3250     2.2790 
   73.0000    61.8710    14.9120    12.7080    10.6700    25.2550   -14.9180     2.2130 
   73.1250    59.2950    16.4360    14.3720    11.7050    25.2630   -14.7330     2.1450 
   73.2500    56.4320    16.7770    15.1360    12.7840    25.2670   -14.7880     2.1070 
   73.3750    55.5500    15.9180    14.8320    13.4960    25.2670   -15.0950     2.1120 
   73.5000    58.4550    14.2440    13.6850    13.1540    25.2670   -15.6360     2.1520 
   73.6250    64.7850    12.3060    12.1180    12.1260    25.2670   -16.3650     2.2050 
   73.7500    71.6370    10.5770    10.6040    10.8010    25.2670   -17.1550     2.2460 
   73.8750    77.5710     9.2520     9.3640     9.5680    25.2680   -17.9170     2.2640 
   74.0000    82.5460     8.3790     8.4950     8.6030    25.2650   -18.5810     2.2570 
   74.1250    86.9620     7.9440     8.0340     8.2840    25.2650   -19.0800     2.2360 
   74.2500    89.5200     7.7340     7.8070     8.1510    25.2680   -19.4230     2.2160 
   74.3750    89.8120     7.5890     7.6650     8.1860    25.2100   -19.6300     2.2030 
   74.5000    90.0150     7.3760     7.4730     8.0190    25.1780   -19.7390     2.2010 
   74.6250    90.7600     7.0130     7.1340     7.8390    25.1620   -19.7470     2.2100 
   74.7500    92.1970     6.5540     6.6910     7.3430    25.1270   -19.7120     2.2270 
   74.8750    93.8480     6.0710     6.2160     6.5360    25.1310   -19.6090     2.2480 
   75.0000    94.9990     5.6380     5.7810     6.0500    25.1820   -19.4490     2.2710 
   75.1250    94.2060     5.3230     5.4540     6.0920    25.2520   -19.2000     2.2880 
   75.2500    94.1030     5.1450     5.2480     6.2610    25.1310   -18.8970     2.2990 
   75.3750    97.5820     5.1490     5.1960     6.1660    25.0960   -18.5210     2.3040 
   75.5000   100.3650     5.4050     5.3590     6.1080    25.1080   -18.0890     2.2950 
   75.6250    96.7060     6.0710     5.8810     6.4900    25.0560   -17.6040     2.2580 
   75.7500    88.8210     7.1830     6.8030     6.8670    24.9910   -17.0930     2.1980 
   75.8750    79.3700     8.7500     8.1640     7.4190    25.0080   -16.5930     2.1290 
   76.0000    69.4740    10.6110     9.8750     8.7420    25.3950   -16.1530     2.0720 
   76.1250    59.9090    12.2910    11.5760     9.9580    25.6170   -15.8470     2.0530 
   76.2500    54.3110    13.2880    12.7580    10.1240    25.6380   -15.6990     2.0760 
   76.3750    54.0440    13.4500    13.1840     9.5780    25.6140   -15.7310     2.1320 
   76.5000    56.0460    13.0810    13.0230     9.0390    25.5520   -15.9470     2.1960 
   76.6250    56.8920    12.7990    12.7660     8.9120    25.4470   -16.3470     2.2270 
   76.7500    56.4540    12.9290    12.7870     9.0130    25.2560   -16.8340     2.2250 
   76.8750    56.5360    13.3170    13.0620     9.1150    25.2330   -17.3640     2.2180 
   77.0000    58.2470    13.5150    13.2720     9.4510    25.3630   -17.8880     2.2380 
   77.1250    61.6230    12.8560    12.8230    12.2840    25.4370   -18.3510     2.2990 
   77.2500    66.4580    11.3200    11.5750    15.9470    25.2910   -18.7600     2.3680 
   77.3750    73.4170     9.2970     9.7890    13.6650    25.1030   -19.1020     2.4050 
   77.5000    83.8110     7.3660     7.9480     8.9370    25.0170   -19.3940     2.3940 
   77.6250    94.6730     6.0090     6.5150     6.5930    25.0500   -19.6060     2.3560 
   77.7500    98.8970     5.2000     5.5570     5.9050    25.0630   -19.7570     2.3280 
   77.8750    95.6920     4.8400     5.0340     5.6120    25.0680   -19.8090     2.3220 
   78.0000    91.1290     4.8030     4.8590     5.4840    25.2640   -19.7800     2.3290 
   78.1250    90.3750     5.0160     4.9800     5.7530    25.3100   -19.6630     2.3330 
   78.2500    89.3880     5.4080     5.3040     6.1770    25.1730   -19.4970     2.3270 
   78.3750    86.4010     5.9990     5.8310     6.5940    24.9570   -19.2910     2.3130 
   78.5000    83.5350     6.8060     6.5720     7.2220    24.8470   -19.0490     2.2930 
   78.6250    80.3760     7.8320     7.5370     8.4600    24.6620   -18.7970     2.2710 
   78.7500    75.3370     8.9480     8.6140     9.8750    24.4350   -18.5560     2.2470 
   78.8750    70.4270    10.0220     9.6810    10.4430    24.2540   -18.3350     2.2210 
   79.0000    67.9520    10.9220    10.6010    10.3370    24.1950   -18.1350     2.1930 
   79.1250    65.6840    11.4640    11.1840    10.0760    24.1860   -18.0230     2.1650 
   79.2500    62.4710    11.6030    11.3760     9.7740    24.1860   -18.0010     2.1440 
   79.3750    60.7550    11.3050    11.1430     9.6130    24.1930   -18.1130     2.1380 
   79.5000    61.7930    10.6060    10.5210     9.3820    24.1980   -18.3620     2.1540 
   79.6250    64.2460     9.5920     9.5930     9.0180    24.2430   -18.7490     2.1920 
   79.7500    68.0960     8.5110     8.5850     8.4340    24.4200   -19.1970     2.2350 
   79.8750    73.9850     7.5420     7.6490     7.8130    24.7110   -19.6620     2.2670 
   80.0000    80.8720     6.8050     6.8870     7.4200    24.9390   -20.1050     2.2780 
   80.1250    85.9320     6.3750     6.3580     7.2740    25.1340   -20.4430     2.2740 
   80.2500    89.1870     6.1490     5.9950     7.2790    25.1810   -20.6640     2.2690 
   80.3750    90.2770     6.0370     5.7500     7.2670    25.1870   -20.7600     2.2740 
   80.5000    87.6340     5.9590     5.5790     7.1590    25.1800   -20.7590     2.2830 
   80.6250    82.8270     5.9350     5.5090     7.0230    25.1670   -20.6970     2.2830 
   80.7500    80.1470     6.1140     5.6250     7.1750    25.1470   -20.6240     2.2710 
   80.8750    78.5550     6.7270     6.0790     7.7920    25.1500   -20.5310     2.2580 
   81.0000    73.5660     8.0410     7.0630     8.6850    25.1180   -20.4420     2.2650 
   81.1250    65.1350    10.4030     8.9010    10.8950    25.1190   -20.3540     2.3190 
   81.2500    59.1610    13.4760    11.4640    16.5110    25.1180   -20.2870     2.4170 
   81.3750    56.0910    16.4470    14.2280    26.9480    25.1270   -20.2250     2.5370 
   81.5000    54.1410    17.9660    16.0390    38.5880    25.1560   -20.1450     2.6260 
   81.6250    55.0710    16.6340    15.4020    38.8170    25.1630   -20.0570     2.6270 
   81.7500    59.5860    13.6370    13.0990    25.7020    25.1580   -19.9600     2.5620 
   81.8750    64.8360    10.5030    10.4250    13.7660    25.1520   -19.8620     2.4700 
   82.0000    66.8340     8.2130     8.2790     9.1420    25.1590   -19.7390     2.3920 
   82.1250    66.7170     7.0660     7.0210     7.7860    25.1810   -19.5840     2.3520 
   82.2500    67.6240     6.5900     6.3670     7.1560    25.1940   -19.4240     2.3420 
   82.3750    69.6210     6.4630     6.0940     7.2260    25.1180   -19.2560     2.3450 
   82.5000    71.1500     6.4380     5.9980     7.6530    25.0750   -19.1040     2.3440 
   82.6250    71.8710     6.3770     5.9440     7.6670    25.0070   -18.9710     2.3340 
   82.7500    74.0640     6.3160     5.9070     6.9460    24.7800   -18.8540     2.3250 
   82.8750    78.0920     6.3490     5.9410     6.5110    24.5900   -18.7760     2.3180 
   83.0000    81.5340     6.5500     6.1000     6.9860    24.6390   -18.7230     2.3110 
   83.1250    80.1970     6.9430     6.4210     7.9050    24.6770   -18.6820     2.3000 
   83.2500    74.6060     7.4060     6.8180     8.7110    24.6920   -18.6470     2.2870 
   83.3750    69.2950     7.8090     7.1870     9.3780    24.7110   -18.6300     2.2740 
   83.5000    67.7390     8.0630     7.4430     9.3380    24.6970   -18.6140     2.2610 
   83.6250    71.3300     8.1970     7.5850     9.1650    24.6680   -18.5900     2.2440 
