~V
VERS. 2.00: Ver 2.00
~W
STRT.M 50.0000:
STOP.M 240.0000:
STEP.M 0.1250:
NULL. -999.2500:
UWI. F10736:
~C
DEPT.M :
DEN.GM/CC :
GR.API :
RML.OHMM :
RI. :
RXO.OHMM :
CALI.CM :
SP.MV :
~A
# ...
  230.0000     2.3680    68.7130     6.5440     6.2820     6.4780    25.1460    -8.3620 
  230.1250     2.3740    68.7130     6.8100     6.4780     6.6080    25.1210    -8.4110 
  230.2500     2.3850    68.7130     7.1240     6.7140     7.1240    25.0990    -8.4670 
  230.3750     2.3900    68.7130     7.3940     6.9280     7.4680    25.0910    -8.4930 
  230.5000     2.3830    68.7130     7.5360     7.0610     7.2520    25.0900    -8.5100 
  230.6250     2.3640    68.7130     7.4930     7.0630     7.1360    25.0900    -8.5380 
  230.7500     2.3430    68.7130     7.3490     6.9770     7.1860    25.0900    -8.5920 
  230.8750     2.3300    68.7130     7.1890     6.8530     7.0630    25.0950    -8.6520 
  231.0000     2.3240    68.7130     7.0750     6.7410     6.9020    25.1120    -8.6620 
  231.1250     2.3190    68.7130     7.0340     6.6760     6.9220    25.1560    -8.6610 
  231.2500     2.3070    68.7130     7.0350     6.6500     7.1830    25.1950    -8.6680 
  231.3750     2.2930    68.7130     7.0500     6.6470     7.3840    25.2200    -8.6880 
  231.5000     2.2870    68.7130     7.0600     6.6500     7.3820    25.2280    -8.7380 
  231.6250     2.2910    68.7130     7.0670     6.6510     7.3920    25.2280    -8.7970 
  231.7500     2.3010    68.7130     7.0770     6.6550     7.2900    25.2280    -8.8400 
  231.8750     2.3090    68.7130     7.0940     6.6660     7.2750    25.2280    -8.8290 
  232.0000     2.3170    68.7130     7.1220     6.6910     7.3380    25.2370    -8.8080 
  232.1250     2.3250    68.7130     7.1670     6.7380     7.4210    25.2600    -8.7530 
  232.2500     2.3310    68.7130     7.2250     6.7980     7.5190    25.2890    -8.6870 
  232.3750     2.3280    68.7130     7.2880     6.8590     7.6520    25.3010    -8.6450 
  232.5000     2.3200    68.7130     7.3500     6.9130     7.8060    25.3030    -8.6210 
  232.6250     2.3110    68.7130     7.4080     6.9590     7.8730    25.3070    -8.5940 
  232.7500     2.3020    68.7130     7.4710     7.0100     7.8450    25.3220    -8.5660 
  232.8750     2.3000    68.7130     7.5480     7.0770     7.7230    25.3430    -8.5380 
  233.0000     2.3120    68.7130     7.6410     7.1600     7.7210    25.3460    -8.5110 
  233.1250     2.3340    68.7130     7.7360     7.2400     7.8780    25.3200    -8.4860 
  233.2500     2.3530    68.7130     7.8060     7.2940     8.0080    25.3060    -8.4650 
  233.3750     2.3600    68.7130     7.8350     7.3080     7.9960    25.3030    -8.4380 
  233.5000     2.3560    68.7130     7.8150     7.2850     7.9610    25.3030    -8.4090 
  233.6250     2.3430    68.7130     7.7450     7.2280     7.8950    25.3030    -8.3820 
  233.7500     2.3210    68.7130     7.6400     7.1520     7.9430    25.3030    -8.3560 
  233.8750     2.2990    68.7130     7.5130     7.0600     8.0890    25.3080    -8.3370 
  234.0000     2.2830    68.7130     7.3840     6.9560     7.9870    25.3210    -8.3330 
  234.1250     2.2760    68.7130     7.2740     6.8500     7.6860    25.3490    -8.3330 
  234.2500     2.2720    68.7130     7.1970     6.7570     7.9280    25.3620    -8.3330 
  234.3750     2.2700    68.7130     7.1650     6.6880     9.0750    25.3690    -8.3330 
  234.5000     2.2680    68.7130     7.1780     6.6470    10.2320    25.3720    -8.3330 
  234.6250     2.2690    68.7130     7.2090     6.6320    11.1180    25.3710    -8.3350 
  234.7500     2.2750    68.7130     7.2200     6.6290    11.1220    25.3620    -8.3310 
  234.8750     2.2840    68.7130     7.2170     6.6290    11.0780    25.3390    -8.3280 
  235.0000     2.2960    68.7130     7.2210     6.6280    10.8320    25.3140    -8.3270 
  235.1250     2.3060    68.7130     7.2340     6.6260     9.7750    25.3050    -8.3430 
  235.2500     2.3110    68.7130     7.2420     6.6240     8.3920    25.3030    -8.3710 
  235.3750     2.3120    68.7130     7.2360     6.6230     7.2800    25.3030    -8.4240 
  235.5000     2.3110    68.7130     7.2240     6.6220     6.8200    25.2960    -8.4860 
  235.6250     2.3090    68.7130     7.2240     6.6220     6.9770    25.2740    -8.5000 
  235.7500     2.3080    68.7130     7.2240     6.6220     7.2340    25.2450    -8.5000 
  235.8750     2.3110    68.7130     7.2240     6.6220     7.3470    25.2310    -8.5000 
  236.0000     2.3170    68.7130     7.2240     6.6220     7.3060    25.2280    -8.5000 
  236.1250     2.3190    68.7130     7.2240     6.6220     7.2180    25.2280    -8.5000 
  236.2500     2.3160    68.7130     7.2240     6.6220     7.1470    25.2280    -8.5000 
  236.3750     2.3140    68.7130     7.2240     6.6220     7.1090    25.2280    -8.5000 
  236.5000     2.3110    68.7130     7.2240     6.6220     7.1040    25.2380    -8.5000 
  236.6250     2.3070    68.7130     7.2240     6.6220     7.0590    25.3030    -8.5000 
  236.7500     2.3090    68.7130     7.2240     6.6220     6.9000    25.4230    -8.5350 
  236.8750     2.3250    68.7130     7.2240     6.6220     6.7820    25.4960    -8.4890 
  237.0000     2.3510    68.7130     7.2240     6.6220     6.8670    25.4320  -999.2500 
  237.1250     2.3710    68.7130     7.2240     6.6220     7.0960    25.2750  -999.2500 
  237.2500     2.3720    68.7130     7.2240     6.6220     7.1530    25.1860  -999.2500 
  237.3750     2.3630    68.7130     7.2240     6.6220     7.0780    25.1590  -999.2500 
  237.5000     2.3540    68.7130     7.2240     6.6220     6.9540    25.1650  -999.2500 
  237.6250     2.3440    68.7130     7.2240     6.6220     6.8120    25.2050  -999.2500 
  237.7500     2.3310    68.7130     7.2240     6.6220     6.5510    25.2980  -999.2500 
  237.8750     2.3230    68.7130     7.2240     6.6220     6.1800    25.4060  -999.2500 
  238.0000     2.3210    68.7130     7.2240     6.6220     6.0740    25.3920  -999.2500 
  238.1250     2.3170    68.7130     7.2240     6.6220     6.5460    25.1870  -999.2500 
  238.2500     2.2940    68.7130     7.2240     6.6220     7.1970    24.9330  -999.2500 
  238.3750     2.2540    68.7130     7.2240     6.6220     7.5820    24.7680  -999.2500 
  238.5000     2.2140    68.7130     7.2240     6.6220     7.5480    24.5910  -999.2500 
  238.6250     2.1800    68.7130     7.2240     6.6220     7.2820    24.2360  -999.2500 
  238.7500     2.1550    68.7130     7.2240     6.6220     6.8650    23.5830  -999.2500 
  238.8750     2.1430    68.7130     7.2240     6.6220     6.2650    22.4210  -999.2500 
  239.0000     2.1530    68.7130     7.2240     6.6220     5.7350    20.8870  -999.2500 
  239.1250     2.1840    68.7130     7.2240     6.6220     5.5400    20.0450  -999.2500 
  239.2500     2.2120    68.7130     7.2240     6.6220     5.4980    19.7790  -999.2500 
  239.3750     2.2240    68.7130     7.2240     6.6220     5.4970    19.7540  -999.2500 
  239.5000     2.2240    68.7130     7.2240     6.6220     5.4960    19.7540  -999.2500 
  239.6250     2.2160    68.7130     7.2240     6.6220     5.4960    19.7530  -999.2500 
  239.7500     2.2020    68.7130     7.2240     6.6220     5.4960    19.7530  -999.2500 
  239.8750     2.1830    68.7130     7.2240     6.6220     5.4960    19.7530  -999.2500 
  240.0000     2.1650    68.7130     7.2240     6.6220     5.4960    19.7520  -999.2500 
