~V
VERS. 2.00: Ver 2.00
~W
STRT.M 59.0000:
STOP.M 239.0000:
STEP.M 0.1250:
NULL. -999.2500:
UWI. F10784:
~C
DEPT.M :
DEN.GM/CC :
GR.API :
RML.OHMM :
RI. :
RXO.OHMM :
CALI.CM :
SP.MV :
~A
# ...
   81.5000     2.1390    75.7810    11.8860    10.9980     6.4120    23.7330   -20.7700 
   81.6250     2.1280    76.6490    11.4810    10.5110     6.4180    23.7320   -21.0270 
   81.7500     2.1240    76.7560    11.2940    10.2090     6.4200    23.7330   -21.2590 
   81.8750     2.1180    74.8380    11.2980    10.0950     6.3660    24.0490   -21.4730 
   82.0000     2.1160    72.5360    11.4210    10.1180     6.3530    24.1520   -21.7050 
   82.1250     2.1270    71.6280    11.5650    10.2030     6.4110    24.1520   -21.8980 
   82.2500     2.1470    70.4620    11.6410    10.2670     6.4860    24.1520   -22.0540 
   82.3750     2.1660    69.2200    11.6170    10.2800     6.4680    24.1520   -22.1130 
   82.5000     2.1760    68.2780    11.5030    10.2400     6.3800    24.1520   -22.0600 
   82.6250     2.1720    67.0650    11.3340    10.1580     6.3320    24.1520   -21.9020 
   82.7500     2.1630    66.9240    11.1580    10.0570     6.3520    24.1510   -21.6730 
   82.8750     2.1530    67.7710    10.9820     9.9390     6.4160    24.1490   -21.4860 
   83.0000     2.1470    69.0190    10.7910     9.7960     6.5130    24.1440   -21.2860 
   83.1250     2.1460    69.7540    10.5540     9.6020     6.5010    24.1490   -21.1430 
   83.2500     2.1510    69.5980    10.2810     9.3610     6.4290    24.1510   -21.0450 
   83.3750     2.1620    68.4090    10.0220     9.1020     6.2890    24.1520   -21.0030 
   83.5000     2.1770    65.6830     9.8790     8.8930     6.1230    24.1520   -21.0120 
   83.6250     2.1910    63.8920    10.0210     8.8810     6.0440    24.1530   -20.9930 
   83.7500     2.2040    64.5570    10.4380     9.1250     6.0070    24.1550   -20.9820 
   83.8750     2.2210    66.1670    10.9790     9.5720     6.0490    24.1640   -20.9490 
   84.0000     2.2500    69.2520    11.3280    10.0010     6.6900    24.1970   -20.8970 
   84.1250     2.2920    73.1880    10.9940     9.9750     9.6630    24.2770   -20.7340 
   84.2500     2.3330    78.4570     9.9400     9.3280    14.2660    24.3370   -20.5070 
   84.3750     2.3590    86.6570     8.4000     8.1660    12.6690    24.3600   -20.1880 
   84.5000     2.3660    96.6270     6.8060     6.8120     6.7210    24.3550   -19.8660 
   84.6250     2.3580   103.5050     5.6390     5.6790     4.7760    24.3630   -19.6090 
   84.7500     2.3480   104.6950     4.9920     4.9290     4.4290    24.3740   -19.4180 
   84.8750     2.3390   101.7890     4.8010     4.5700     4.6800    24.3840   -19.2780 
   85.0000     2.3280    98.4250     4.9210     4.5250     4.7890    24.4440   -19.2020 
   85.1250     2.3160    97.1110     5.1900     4.6930     5.0450    24.6740   -19.2560 
   85.2500     2.3080    96.7720     5.4370     4.9080     5.4640    25.0070   -19.4070 
   85.3750     2.3040    95.6380     5.5880     5.0790     5.8800    25.2240   -19.6450 
   85.5000     2.3030    95.4440     5.6280     5.1660     5.5500    25.2930   -19.9230 
   85.6250     2.2970    98.1620     5.5790     5.1620     5.3270    25.2920   -20.1860 
   85.7500     2.2840   100.6130     5.5020     5.1140     5.4240    25.2940   -20.4210 
   85.8750     2.2670   100.0570     5.4340     5.0520     5.6720    25.2970   -20.6110 
   86.0000     2.2520    97.2770     5.4160     5.0100     5.7820    25.2980   -20.7790 
   86.1250     2.2440    96.5330     5.5110     5.0350     5.4960    25.2790   -20.9070 
   86.2500     2.2390    98.4250     5.7340     5.1520     5.2490    25.2060   -21.0110 
   86.3750     2.2350   100.4970     6.0750     5.3670     5.2150    25.0600   -21.1010 
   86.5000     2.2340   100.6820     6.4760     5.6550     5.6290    24.8770   -21.1640 
   86.6250     2.2410    98.9940     6.8070     5.9340     6.1930    24.7250   -21.2270 
   86.7500     2.2550    94.8690     6.9660     6.1090     6.5460    24.6120   -21.2440 
   86.8750     2.2710    89.3570     6.9200     6.1240     6.3590    24.5700   -21.2610 
   87.0000     2.2800    87.7950     6.7280     5.9900     5.8550    24.5560   -21.2500 
   87.1250     2.2750    92.0680     6.5250     5.7890     5.6900    24.5220   -21.2600 
   87.2500     2.2550    96.8490     6.4320     5.6340     5.6020    24.4660   -21.2510 
   87.3750     2.2300    99.5480     6.4690     5.5750     5.6260    24.4300   -21.2510 
   87.5000     2.2120   100.0010     6.5770     5.5950     5.6350    24.4180   -21.2330 
   87.6250     2.2140    97.1110     6.6390     5.6270     5.9150    24.4180   -21.2230 
   87.7500     2.2330    93.3200     6.5960     5.6040     6.1050    24.4180   -21.1970 
   87.8750     2.2560    91.5590     6.4820     5.5280     5.9830    24.4180   -21.1670 
   88.0000     2.2710    92.0050     6.3990     5.4560     5.4320    24.4180   -21.1000 
   88.1250     2.2650    93.6310     6.5060     5.4980     5.1840    24.4180   -20.9820 
   88.2500     2.2490    93.2510     6.8370     5.7040     5.2750    24.4180   -20.8530 
   88.3750     2.2330    87.2130     7.3420     6.0690     5.8000    24.4170   -20.7280 
   88.5000     2.2280    77.9380     7.8850     6.5190     6.4900    24.4160   -20.6120 
   88.6250     2.2390    72.4660     8.2420     6.8970     6.6700    24.4150   -20.5000 
   88.7500     2.2560    71.4390     8.2990     7.0720     6.6250    24.4170   -20.3870 
   88.8750     2.2710    72.9300     8.0490     6.9930     6.4950    24.4350   -20.2470 
   89.0000     2.2750    76.7680     7.5980     6.6980     6.2400    24.4970   -20.1000 
   89.1250     2.2640    82.0910     7.1300     6.3040     5.8860    24.6250   -19.9630 
   89.2500     2.2450    84.6630     6.8200     5.9700     5.7070    24.7150   -19.8630 
   89.3750     2.2240    83.2000     6.7670     5.7950     5.8510    24.7500   -19.7760 
   89.5000     2.2070    79.9680     7.0140     5.8410     5.8010    24.7610   -19.7230 
   89.6250     2.2000    76.3650     7.5930     6.1720     5.8350    24.7650   -19.6440 
   89.7500     2.2120    72.6660     8.3540     6.7120     6.4590    24.7630   -19.5920 
   89.8750     2.2500    70.4270     9.1310     7.3610     7.0140    24.7550   -19.5410 
   90.0000     2.3120    70.1220     9.7190     7.9600     7.3680    24.7520   -19.5100 
   90.1250     2.3780    72.2090     9.8770     8.2940     7.4500    24.7550   -19.4240 
   90.2500     2.4170    76.8670     9.6410     8.3120     7.1250    24.7590   -19.2790 
   90.3750     2.4150    81.9270     9.1350     8.0610     6.5690    24.7560   -19.0610 
   90.5000     2.3790    82.7560     8.5440     7.6630     6.4560    24.7550   -18.8280 
   90.6250     2.3330    78.6730     8.0540     7.2650     6.7060    24.7610   -18.5810 
   90.7500     2.2970    76.5120     7.7180     6.9540     6.8490    24.7620   -18.3460 
   90.8750     2.2750    78.1350     7.5250     6.7470     6.7340    24.7570   -18.1480 
   91.0000     2.2590    81.3030     7.4420     6.6350     6.5680    24.7560   -17.9800 
   91.1250     2.2440    85.4780     7.4530     6.6140     6.5260    24.7660   -17.8520 
   91.2500     2.2310    88.4420     7.5390     6.6640     6.7070    24.7730   -17.7610 
   91.3750     2.2270    86.8650     7.6920     6.7800     6.8240    24.7750   -17.7430 
   91.5000     2.2350    81.4510     7.8890     6.9480     6.9360    24.7760   -17.7550 
   91.6250     2.2550    78.7650     8.0610     7.1280     7.2050    24.7560   -17.7980 
   91.7500     2.2760    80.5080     8.1310     7.2530     7.3000    24.6690   -17.8620 
   91.8750     2.2910    81.9570     8.0450     7.2660     7.0540    24.4970   -17.9080 
   92.0000     2.2950    80.7400     7.7910     7.1400     6.6930    24.3390   -17.9270 
   92.1250     2.2910    80.4490     7.4190     6.8790     6.5140    24.2800   -17.9260 
   92.2500     2.2850    82.9880     7.0800     6.5890     6.3940    24.2700   -17.9300 
   92.3750     2.2820    85.6720     6.9240     6.3830     6.3680    24.2670   -17.8990 
   92.5000     2.2780    86.8220     7.0940     6.3840     6.2110    24.2660   -17.7810 
   92.6250     2.2710    86.1490     7.7550     6.7600     6.2840    24.2630   -17.6200 
