~V
VERS. 2.00: Ver 2.00
~W
STRT.M 50.0000:
STOP.M 228.0000:
STEP.M 0.1250:
NULL. -999.2500:
UWI. F10779:
~C
DEPT.M :
GR.API :
RML.OHMM :
RI. :
RXO.OHMM :
CALI.CM :
SP.MV :
DEN.GM/CC :
~A
# ...
   95.0000    83.4520     7.0340     6.5940     7.0550    25.2350   -15.6560     2.3110 
   95.1250    83.2140     7.3180     6.9280     7.6720    25.2490   -15.5070     2.3170 
   95.2500    82.8880     7.6370     7.2770     8.6280    25.2710   -15.2680     2.3140 
   95.3750    83.2920     7.9960     7.6680     9.4780    25.2790   -14.9990     2.2980 
   95.5000    82.8280     8.4930     8.2350     9.7900    25.3180   -14.7020     2.2750 
   95.6250    81.1850     9.4080     9.3470    10.2760    25.3800   -14.3590     2.2580 
   95.7500    78.5120    11.2460    11.0520    11.0600    25.3840   -13.9530     2.2620 
   95.8750    73.5070    14.3990    13.5150    14.4930    25.3130   -13.4550     2.3000 
   96.0000    65.6500    18.5850    17.0920    25.4730    25.2020   -12.8400     2.3680 
   96.1250    59.4930    23.0710    21.2490    42.4660    25.1450   -12.1150     2.4320 
   96.2500    58.8790    26.1730    24.4530    51.7890    24.9630   -11.3220     2.4470 
   96.3750    60.8600    26.6990    25.4190    42.3730    24.5610   -10.5160     2.4020 
   96.5000    60.8850    24.8160    24.0850    24.9220    24.4040    -9.7500     2.3200 
   96.6250    58.9150    21.9850    21.6480    17.6260    24.3740    -9.0790     2.2410 
   96.7500    58.2010    19.7730    19.5730    14.9210    24.3720    -8.5260     2.1930 
   96.8750    58.2690    18.6160    18.3200    14.5620    24.3680    -8.1000     2.1810 
   97.0000    58.4590    18.4380    17.9060    14.8890    24.3470    -7.7950     2.1920 
   97.1250    60.0160    19.0480    18.2430    14.9580    24.2620    -7.6190     2.1990 
   97.2500    61.1270    19.9810    18.9650    15.3880    24.1750    -7.5620     2.1860 
   97.3750    58.6850    20.8580    19.7680    16.6980    24.2650    -7.6340     2.1580 
   97.5000    54.3790    21.2130    20.2400    18.5630    24.3420    -7.8450     2.1290 
   97.6250    53.8330    20.4690    19.8110    18.4990    24.2750    -8.2300     2.1200 
   97.7500    56.2790    18.8180    18.5380    17.0970    24.1750    -8.7370     2.1350 
   97.8750    58.5350    16.7450    16.7930    15.5930    24.1350    -9.3360     2.1680 
   98.0000    60.1960    14.8610    15.1030    13.7800    24.1360    -9.9590     2.2030 
   98.1250    62.9130    13.7180    13.9790    11.5570    24.1660   -10.5690     2.2200 
   98.2500    66.1660    13.2210    13.4200    10.9560    24.1550   -11.1300     2.2160 
   98.3750    69.2990    13.0710    13.2220    11.8780    24.1610   -11.6640     2.2020 
   98.5000    71.1860    12.8660    13.0440    13.2800    24.2310   -12.2030     2.1990 
   98.6250    70.8170    12.2770    12.3820    14.4560    24.2420   -12.7750     2.2190 
   98.7500    70.3340    11.4640    11.0540    13.3220    24.2170   -13.3690     2.2490 
   98.8750    71.5560    10.2180     9.7290    10.3520    24.1800   -13.9860     2.2710 
   99.0000    73.9090     9.0420     8.5440     8.8410    24.2610   -14.5980     2.2770 
   99.1250    76.9810     8.2070     7.7610     8.9930    24.4200   -15.1620     2.2730 
   99.2500    80.1320     7.6870     7.3040     8.5470    24.3740   -15.6370     2.2760 
   99.3750    82.6860     7.4030     7.0650     7.8650    24.3680   -16.0200     2.2890 
   99.5000    85.8850     7.2620     6.9500     7.6960    24.4230   -16.3080     2.3060 
   99.6250    89.9870     7.2230     6.9340     8.0510    24.4510   -16.4990     2.3180 
   99.7500    92.1160     7.2800     7.0320     8.1090    24.4900   -16.6290     2.3200 
   99.8750    89.5790     7.4600     7.2770     7.9660    24.5300   -16.7000     2.3090 
  100.0000    84.9810     7.7570     7.6610     7.9990    24.4930   -16.7210     2.2880 
  100.1250    82.6140     8.1120     8.1050     8.9490    24.4440   -16.6780     2.2670 
  100.2500    81.6080     8.4310     8.4110     9.7030    24.3920   -16.5890     2.2560 
  100.3750    80.4660     8.5740     8.4840     9.7220    24.3390   -16.4570     2.2580 
  100.5000    79.9140     8.4270     8.3350     9.2670    24.4320   -16.3160     2.2690 
  100.6250    81.7210     8.0760     7.9750     8.9790    24.5120   -16.1880     2.2850 
  100.7500    84.4820     7.7340     7.5910     8.7660    24.5780   -16.0660     2.2960 
  100.8750    84.4620     7.5630     7.3380     8.7370    24.5810   -15.9280     2.3010 
  101.0000    80.2800     7.6740     7.3340     8.9240    24.5760   -15.7740     2.2960 
  101.1250    75.1470     8.1810     7.7020     9.0000    24.6540   -15.5710     2.2770 
  101.2500    72.8940     9.0140     8.3950     9.4260    24.6210   -15.3510     2.2460 
  101.3750    72.2800    10.0340     9.3190     9.9050    24.5030   -15.1240     2.2120 
  101.5000    72.1260    10.9480    10.2420    10.2680    24.2880   -14.9140     2.1870 
  101.6250    74.1740    11.2720    10.7500    10.3790    24.2670   -14.7970     2.1840 
  101.7500    77.1940    10.9140    10.6830    10.7370    24.4350   -14.7950     2.2040 
  101.8750    78.6180    10.0770    10.1260    10.6060    24.5810   -14.9210     2.2360 
  102.0000    78.3590     9.1470     9.3470     9.2120    24.6140   -15.1590     2.2670 
  102.1250    78.3800     8.4960     8.6520     8.9600    24.5700   -15.4820     2.2810 
  102.2500    77.3330     8.1210     8.1350     9.9020    24.5760   -15.8440     2.2780 
  102.3750    76.5340     7.8590     7.7350    10.0470    24.5560   -16.1930     2.2640 
  102.5000    78.3690     7.5590     7.3620     9.1870    24.4670   -16.4820     2.2470 
  102.6250    82.9500     7.2510     7.0350     8.8290    24.5450   -16.6750     2.2380 
  102.7500    89.1230     7.1870     6.9100     8.5140    24.6960   -16.7960     2.2410 
  102.8750    93.3660     7.6300     7.1850     7.7240    24.7790   -16.8630     2.2680 
  103.0000    90.8270     8.7320     8.0090     8.4520    24.8070   -16.8790     2.3340 
  103.1250    81.0340    10.4710     9.4620    15.1150    24.8760   -16.8500     2.4350 
  103.2500    71.9830    12.2270    11.1090    31.8710    24.8850   -16.7760     2.5150 
  103.3750    68.0580    13.2710    12.3240    40.3350    24.7210   -16.6480     2.5250 
  103.5000    68.4570    13.1030    12.5330    24.4620    24.6410   -16.4790     2.4620 
  103.6250    71.0730    11.8890    11.6800    12.7500    24.6110   -16.2230     2.3620 
  103.7500    72.7490    10.6310    10.6090     9.6570    24.5000   -15.8970     2.2760 
  103.8750    71.9820     9.8630     9.8380     9.3740    24.5300   -15.5170     2.2270 
  104.0000    71.1830     9.7090     9.5620     9.7910    24.5590   -15.1100     2.2130 
  104.1250    71.8200    10.0450     9.7720     9.9500    24.5410   -14.7230     2.2190 
  104.2500    72.2900    10.6250    10.2530    10.0640    24.5060   -14.3790     2.2220 
  104.3750    71.8230    11.5590    11.0360    10.1680    24.5040   -14.1180     2.2170 
  104.5000    70.0210    13.1670    12.3450    10.4470    24.5490   -13.9700     2.2140 
  104.6250    66.6350    15.8440    14.5800    11.7630    24.5790   -13.9430     2.2410 
  104.7500    63.4450    19.0750    17.4780    15.7050    24.5220   -14.0300     2.3130 
  104.8750    61.5590    21.7600    20.1930    28.3610    24.4680   -14.1830     2.4280 
  105.0000    61.9490    22.4050    21.2900    49.4070    24.4550   -14.3810     2.5490 
  105.1250    65.3450    19.9000    19.4550    40.5340    24.5350   -14.6000     2.6010 
  105.2500    70.8580    15.9670    16.1150    19.7560    24.6160   -14.8050     2.5720 
  105.3750    75.7830    12.2550    12.7590    10.9130    24.6480   -14.9850     2.4930 
  105.5000    78.1250     9.6350    10.2140     9.5860    24.7930   -15.1320     2.4010 
  105.6250    78.6750     8.3140     8.7660     9.9460    24.8670   -15.2300     2.3300 
  105.7500    79.1680     7.7720     8.0650     9.9900    24.9140   -15.2940     2.2880 
  105.8750    78.9410     7.7240     7.9020     9.3130    24.8800   -15.3310     2.2710 
  106.0000    77.8770     7.9790     8.1040     8.6560    24.8860   -15.3370     2.2650 
  106.1250    77.5770     8.4880     8.5880     8.4580    24.9430   -15.3140     2.2510 
