~V
VERS. 2.00: Ver 2.00
~W
STRT.M 10.0000:
STOP.M 237.0000:
STEP.M 0.1250:
NULL. -999.2500:
UWI. F10776:
~C
DEPT.M :
DEN.GM/CC :
GR.API :
RML.OHMM :
RI. :
RXO.OHMM :
CALI.CM :
SP.MV :
~A
# ...
  145.0000     2.6270    40.1660    55.4130    50.0060    40.4380    25.2630    -9.1630 
  145.1250     2.6300    38.6080    53.4220    48.7060    36.5770    25.4230    -8.9320 
  145.2500     2.6280    36.8600    52.0860    47.7220    35.4810    25.4750    -8.7160 
  145.3750     2.6140    35.4340    50.7540    46.6400    35.2040    25.4950    -8.5240 
  145.5000     2.5930    34.7810    48.6500    44.8510    34.7990    25.5030    -8.3860 
  145.6250     2.5800    35.5350    46.7170    43.1420    35.5440    25.5070    -8.2920 
  145.7500     2.5770    35.4950    44.8450    41.4760    35.5190    25.5070    -8.2200 
  145.8750     2.5720    34.7170    43.0740    39.8840    34.5810    25.4940    -8.1750 
  146.0000     2.5600    35.0120    41.5700    38.5050    32.4650    25.4680    -8.1580 
  146.1250     2.5390    36.7680    40.6640    37.6150    31.7260    25.4690    -8.1830 
  146.2500     2.5160    37.4950    40.5040    37.3440    31.6460    25.4910    -8.2610 
  146.3750     2.4940    36.1870    41.2380    37.8420    32.4320    25.5080    -8.3930 
  146.5000     2.4790    34.3650    42.8990    39.1870    34.2640    25.5100    -8.5280 
  146.6250     2.4880    34.9030    45.3950    41.3940    37.0960    25.4820    -8.6630 
  146.7500     2.5200    36.3610    48.0220    43.8940    38.0670    25.4370    -8.8110 
  146.8750     2.5640    35.3930    49.9220    45.9470    39.1940    25.4050    -8.9580 
  147.0000     2.6020    31.4250    50.2010    46.7020    41.5590    25.3800    -9.0880 
  147.1250     2.6220    29.7610    48.1210    45.3080    43.3770    25.2960    -9.1510 
  147.2500     2.6230    32.9730    44.5520    42.3420    43.1760    25.0700    -9.1630 
  147.3750     2.6010    37.5860    40.4270    38.5690    37.2310    24.7950    -9.1110 
  147.5000     2.5590    39.0680    36.6290    34.8400    29.9020    24.8190    -9.0310 
  147.6250     2.5170    38.0610    33.9530    31.9990    27.5260    25.0420    -8.9490 
  147.7500     2.4930    36.7420    32.4720    30.2560    27.6650    25.3030    -8.8710 
  147.8750     2.4900    35.1130    32.1410    29.6330    27.8230    25.4630    -8.8060 
  148.0000     2.5010    32.8170    32.7870    30.0100    26.8100    25.5180    -8.7660 
  148.1250     2.5230    30.9750    34.2010    31.2450    27.4460    25.5140    -8.7530 
  148.2500     2.5480    31.5380    35.8450    32.8370    29.0340    25.5140    -8.7410 
  148.3750     2.5720    33.3050    37.2760    34.3540    31.0670    25.5160    -8.7420 
  148.5000     2.5920    35.7790    38.0490    35.3300    32.6890    25.5160    -8.7520 
  148.6250     2.6110    38.3660    37.6830    35.2270    32.0140    25.5190    -8.7530 
  148.7500     2.6270    40.0620    36.3810    34.1760    30.1060    25.5200    -8.7480 
  148.8750     2.6340    39.2210    34.4370    32.4450    28.7310    25.5100    -8.7430 
  149.0000     2.6280    36.3710    32.1870    30.3800    27.1690    25.4800    -8.7190 
  149.1250     2.6170    36.7470    29.9300    28.2750    26.2500    25.4260    -8.7110 
  149.2500     2.6030    39.5980    27.8800    26.3220    25.3880    25.4020    -8.7210 
  149.3750     2.5890    41.7070    26.1840    24.6370    24.8980    25.3980    -8.7320 
  149.5000     2.5760    42.6260    24.9880    23.3410    23.0710    25.3980    -8.7600 
  149.6250     2.5720    42.5420    24.5140    22.6410    22.7700    25.3940    -8.8280 
  149.7500     2.5740    40.4660    24.6450    22.4720    22.5200    25.3890    -8.9090 
  149.8750     2.5810    37.5320    25.2050    22.7130    22.5860    25.3890    -8.9750 
  150.0000     2.5950    37.0850    25.9040    23.1450    23.3290    25.3890    -9.0630 
  150.1250     2.6130    38.7880    26.3290    23.4440    24.3580    25.3930    -9.1100 
  150.2500     2.6200    37.8430    26.2490    23.3970    24.3040    25.3890    -9.1200 
  150.3750     2.6110    35.5000    25.6330    22.9470    22.9650    25.3610    -9.1170 
  150.5000     2.5970    33.7230    24.6380    22.1840    21.1120    25.2920    -9.0860 
  150.6250     2.5860    34.0920    23.5160    21.2720    20.8160    25.2120    -9.0240 
  150.7500     2.5750    36.3430    22.5320    20.4080    21.4640    25.2000    -8.9530 
  150.8750     2.5620    39.6210    21.8350    19.7120    21.0430    25.2930    -8.8870 
  151.0000     2.5490    41.7940    21.4970    19.2610    19.6320    25.4360    -8.8210 
  151.1250     2.5430    40.8750    21.5670    19.1160    18.8460    25.5020    -8.7820 
  151.2500     2.5490    39.1410    21.8890    19.1840    19.1170    25.5160    -8.7680 
  151.3750     2.5700    40.0840    22.3060    19.3710    19.6830    25.5150    -8.7720 
  151.5000     2.5980    43.4260    22.5850    19.5190    20.2320    25.5200    -8.7760 
  151.6250     2.6120    43.8990    22.3710    19.3430    19.8120    25.5360    -8.7770 
  151.7500     2.6060    41.8650    21.6020    18.7500    19.0710    25.5690    -8.7690 
  151.8750     2.5920    41.0120    20.4030    17.8140    18.5100    25.6080    -8.7560 
  152.0000     2.5860    42.2800    19.0470    16.7520    17.3040    25.6290    -8.7380 
  152.1250     2.5900    42.6340    17.8770    15.8530    16.1120    25.6320    -8.7190 
  152.2500     2.5850    40.1920    17.0560    15.2600    14.6520    25.6220    -8.7090 
  152.3750     2.5640    36.6470    16.6110    15.0020    14.5950    25.5990    -8.7130 
  152.5000     2.5350    34.3350    16.4570    15.0100    15.7100    25.5790    -8.7300 
  152.6250     2.5090    35.4310    16.4270    15.1250    15.7600    25.5730    -8.7500 
  152.7500     2.4840    37.7270    16.2990    15.1340    15.6980    25.5690    -8.7930 
  152.8750     2.4620    38.4920    15.9590    14.9150    16.0550    25.5670    -8.8580 
  153.0000     2.4510    38.7270    15.3950    14.4460    16.8800    25.5740    -8.9230 
  153.1250     2.4500    41.0500    14.6750    13.7910    16.3350    25.5980    -8.9680 
  153.2500     2.4480    43.0390    13.9470    13.1040    13.9790    25.6220    -8.9890 
  153.3750     2.4470    41.9060    13.3210    12.4860    11.6970    25.6300    -8.9690 
  153.5000     2.4530    39.3670    12.9050    12.0300    11.0870    25.6230    -8.9150 
  153.6250     2.4640    39.5010    12.8380    11.8640    11.5120    25.5890    -8.8410 
  153.7500     2.4690    41.8380    13.0870    11.9820    11.8150    25.5290    -8.7700 
  153.8750     2.4670    42.1310    13.5950    12.3590    12.8580    25.4570    -8.6990 
  154.0000     2.4640    39.8090    14.2620    12.9250    15.1960    25.4070    -8.6200 
  154.1250     2.4670    38.7860    14.9530    13.5770    17.4790    25.3780    -8.5470 
  154.2500     2.4750    40.7200    15.5410    14.1850    17.8260    25.3300    -8.4810 
  154.3750     2.4800    43.8160    15.9320    14.6500    16.6530    25.2440    -8.4150 
  154.5000     2.4790    45.3350    16.0440    14.8790    15.2060    25.1530    -8.3550 
  154.6250     2.4690    45.4060    15.7600    14.7380    16.2420    25.0420    -8.3030 
  154.7500     2.4540    44.4470    15.1420    14.2670    16.4110    25.0520    -8.2380 
  154.8750     2.4330    42.9270    14.2770    13.5280    15.4920    25.1980    -8.1690 
  155.0000     2.4130    42.2020    13.3220    12.6510    12.8080    25.3430    -8.1210 
  155.1250     2.4020    41.5930    12.5170    11.8380    10.6950    25.4310    -8.0870 
  155.2500     2.4000    39.2650    11.9870    11.2330    10.2450    25.4250    -8.0710 
  155.3750     2.4050    37.2770    11.7440    10.8800    10.4000    25.2950    -8.0970 
  155.5000     2.4150    38.3980    11.7170    10.7440    10.2590    25.0260    -8.1560 
  155.6250     2.4210    40.2180    11.7960    10.7510    10.1240    24.7520    -8.2390 
  155.7500     2.4150    39.9390    11.8790    10.7960    10.4550    24.8560    -8.3470 
  155.8750     2.4130    39.2500    11.9690    10.8580    11.1540    25.2020    -8.4640 
  156.0000     2.4330    40.8920    12.1450    10.9830    11.5960    25.4720    -8.5810 
  156.1250     2.4740    43.5340    12.5820    11.2950    11.7630    25.5570    -8.7040 
