~V
VERS. 2.00: Ver 2.00
~W
STRT.M 59.0000:
STOP.M 239.0000:
STEP.M 0.1250:
NULL. -999.2500:
UWI. F10784:
~C
DEPT.M :
DEN.GM/CC :
GR.API :
RML.OHMM :
RI. :
RXO.OHMM :
CALI.CM :
SP.MV :
~A
# ...
  182.7500     2.3520    75.5380    30.8830    25.1430    36.5160    24.4520   -18.0060 
  182.8750     2.3430    73.8000    30.4220    25.8350    44.7990    24.1420   -18.7070 
  183.0000     2.3660    74.6790    25.9770    23.0060    46.0340    23.9060   -19.3310 
  183.1250     2.4140    81.2480    19.3980    17.7920    30.4120    23.9360   -19.8040 
  183.2500     2.4610    89.5020    13.7470    12.9080    15.9900    24.1550   -20.0640 
  183.3750     2.4870    96.2120    10.1320     9.4990     9.0230    24.3390   -20.0400 
  183.5000     2.4870    98.4480     8.3750     7.6090     7.3210    24.4090   -19.7650 
  183.6250     2.4690    94.5940     7.8920     6.8990     6.9240    24.4080   -19.2420 
  183.7500     2.4500    90.2840     7.8420     6.7130     7.5560    24.4000   -18.5820 
  183.8750     2.4370    87.0610     7.8480     6.7220     8.1510    24.3690   -17.8160 
  184.0000     2.4260    81.8850     7.6910     6.6880     7.7890    24.3040   -16.9100 
  184.1250     2.4140    71.0690     7.3010     6.4670     6.5180    24.2720   -15.9210 
  184.2500     2.4000    60.6520     6.8400     6.1360     5.6010    24.2620   -15.0520 
  184.3750     2.3900    55.3140     6.4530     5.8140     5.1730    24.2620   -14.4200 
  184.5000     2.3850    52.9440     6.2320     5.6010     5.0440    24.2620   -13.9930 
  184.6250     2.3900    50.5830     6.2050     5.5560     5.1040    24.2620   -13.6350 
  184.7500     2.3990    48.2520     6.2730     5.6140     5.2300    24.2620   -13.2980 
  184.8750     2.4080    48.1740     6.3490     5.6960     5.3700    24.2560   -13.0430 
  185.0000     2.4150    51.7880     6.3600     5.7240     5.4810    24.2400   -12.9500 
  185.1250     2.4170    57.9180     6.2650     5.6380     5.4550    24.2060   -12.9980 
  185.2500     2.4140    62.6070     6.1270     5.4780     5.2470    24.1790   -13.0420 
  185.3750     2.4080    66.1250     5.9570     5.3050     4.9220    24.1330   -13.0460 
  185.5000     2.4030    72.5060     5.7520     5.1760     4.6670    24.0330   -13.0550 
  185.6250     2.4020    81.0250     5.5980     5.1390     4.7280    23.9070   -13.1210 
  185.7500     2.4010    87.5040     5.5940     5.1720     5.2920    23.7810   -13.2170 
  185.8750     2.3970    91.6800     5.7320     5.2470     5.9960    23.6630   -13.3360 
  186.0000     2.3870    94.0830     5.9210     5.3380     6.3040    23.4840   -13.4890 
  186.1250     2.3730    93.7000     6.1110     5.4320     5.5670    23.3950   -13.6700 
  186.2500     2.3640    90.3880     6.2960     5.5180     5.4180    23.3830   -13.8440 
  186.3750     2.3640    87.8590     6.4350     5.5710     5.7870    23.4470   -14.0180 
  186.5000     2.3720    86.9220     6.4860     5.5580     5.9170    23.5430   -14.1800 
  186.6250     2.3790    86.7110     6.4450     5.4620     6.6650    23.5910   -14.3480 
  186.7500     2.3770    86.7380     6.4350     5.3550     6.8710    23.6110   -14.5160 
  186.8750     2.3630    87.8360     6.6420     5.3490     5.9940    23.6360   -14.6520 
  187.0000     2.3400    88.9620     7.2870     5.5950     5.6320    23.7170   -14.7360 
  187.1250     2.3110    87.1200     8.7080     6.3490     7.1690    23.8780   -14.8250 
  187.2500     2.2830    83.4990    10.9280     7.7130    11.3990    24.0540   -14.9960 
  187.3750     2.2590    82.1270    13.9310     9.7930    15.7800    24.1690   -15.2220 
  187.5000     2.2420    83.9820    17.5340    12.5860    19.2330    24.2070   -15.4390 
  187.6250     2.2330    85.0900    21.3220    15.9070    21.3330    24.2070   -15.6130 
  187.7500     2.2270    82.1010    24.7230    19.1930    22.9910    24.2070   -15.8120 
  187.8750     2.2230    76.4210    27.3550    21.9990    24.6110    24.2070   -16.0880 
  188.0000     2.2270    71.2940    29.0420    24.0360    27.0160    24.2070   -16.3920 
  188.1250     2.2500    70.7710    29.6420    25.0750    29.8020    24.2070   -16.6400 
  188.2500     2.2900    72.8990    29.3730    25.2800    30.1800    24.2070   -16.8260 
  188.3750     2.3330    77.0060    28.2290    24.6530    28.4780    24.2070   -16.9710 
  188.5000     2.3600    81.6110    26.1860    23.1800    27.3780    24.2070   -17.0950 
  188.6250     2.3550    83.2170    23.2160    20.8140    24.9640    24.2160   -17.1470 
  188.7500     2.3300    81.1640    19.7930    17.9630    20.7570    24.2640   -17.1080 
  188.8750     2.3050    78.2680    16.3570    15.0060    16.8770    24.3720   -16.9860 
  189.0000     2.2940    78.3700    13.3190    12.3090    12.9960    24.4890   -16.8270 
  189.1250     2.3050    81.4240    11.0520    10.2050     9.7340    24.5360   -16.6150 
  189.2500     2.3260    84.5680     9.4750     8.6670     8.2070    24.5440   -16.3360 
  189.3750     2.3450    87.6070     8.4790     7.6310     7.4910    24.5440   -16.0250 
  189.5000     2.3560    90.3610     7.9040     6.9920     7.1100    24.5450   -15.7300 
  189.6250     2.3590    92.5630     7.6190     6.6690     6.8050    24.5460   -15.4780 
  189.7500     2.3580    92.0540     7.4550     6.5060     6.6220    24.5460   -15.2750 
  189.8750     2.3570    89.6390     7.3400     6.4250     6.5280    24.5460   -15.0950 
  190.0000     2.3590    87.8280     7.2390     6.3710     6.5100    24.5460   -14.9370 
  190.1250     2.3610    87.4350     7.1390     6.3120     6.4870    24.5460   -14.8790 
  190.2500     2.3610    87.6470     7.0480     6.2420     6.4380    24.5460   -14.9190 
  190.3750     2.3580    86.4870     6.9790     6.1740     6.3570    24.5460   -14.9640 
  190.5000     2.3520    86.6060     6.9440     6.1260     6.3110    24.5460   -14.9620 
  190.6250     2.3510    90.7190     6.9550     6.1170     6.3250    24.5460   -14.9820 
  190.7500     2.3560    94.2470     7.0010     6.1430     6.3870    24.5460   -15.0330 
  190.8750     2.3680    93.3680     7.0700     6.1920     6.5370    24.5460   -15.0840 
  191.0000     2.3800    89.1770     7.1480     6.2480     6.7600    24.5460   -15.0910 
  191.1250     2.3860    87.4100     7.2220     6.3010     6.9120    24.5460   -15.0490 
  191.2500     2.3850    88.1870     7.2890     6.3500     6.9030    24.5460   -15.0030 
  191.3750     2.3780    89.5130     7.3530     6.4020     6.8520    24.5460   -14.9940 
  191.5000     2.3690    91.3450     7.4130     6.4610     6.9440    24.5440   -14.9890 
  191.6250     2.3620    92.0620     7.4550     6.5180     7.3230    24.5200   -14.9320 
  191.7500     2.3560    90.5280     7.4600     6.5470     7.7190    24.4670   -14.8790 
  191.8750     2.3510    89.2950     7.4090     6.5290     7.5620    24.4190   -14.8630 
  192.0000     2.3440    92.2250     7.2940     6.4500     7.0800    24.4000   -14.8860 
  192.1250     2.3370    95.5560     7.1290     6.3120     6.7930    24.4000   -14.9030 
  192.2500     2.3310    93.3130     6.9540     6.1500     6.6320    24.4000   -14.8980 
  192.3750     2.3260    88.0810     6.8000     5.9930     6.4330    24.4000   -14.8890 
  192.5000     2.3240    86.2570     6.6920     5.8650     6.2810    24.4000   -14.8870 
  192.6250     2.3290    88.3280     6.6600     5.7950     6.1820    24.4000   -14.9010 
  192.7500     2.3390    90.2720     6.7140     5.7920     6.1860    24.4000   -14.9080 
  192.8750     2.3520    93.0750     6.8710     5.8690     6.2400    24.4000   -14.9070 
  193.0000     2.3630    96.1570     7.1440     6.0420     6.3350    24.4000   -14.9240 
  193.1250     2.3660    95.4350     7.5410     6.3310     6.5470    24.4000   -14.9550 
  193.2500     2.3600    92.2660     8.0030     6.7010     6.9440    24.4000   -14.9340 
  193.3750     2.3500    88.4100     8.4780     7.1110     7.4740    24.4000   -14.8480 
  193.5000     2.3410    84.3300     8.9250     7.5180     8.2820    24.4000   -14.7850 
  193.6250     2.3370    81.8870     9.3410     7.8930     8.9440    24.4000   -14.8140 
  193.7500     2.3380    82.0420     9.7970     8.2680     9.3300    24.4000   -14.8710 
  193.8750     2.3410    83.1840    10.3870     8.7100     9.2280    24.4000   -14.8950 
