~V
VERS. 2.00: Ver 2.00
~W
STRT.M 40.0000:
STOP.M 236.0000:
STEP.M 0.1250:
NULL. -999.2500:
UWI. F10781:
~C
DEPT.M :
GR.API :
RML.OHMM :
RI. :
RXO.OHMM :
CALI.CM :
SP.MV :
DEN.GM/CC :
~A
# ...
  107.5000    94.3510     6.3280     5.3600     4.9080    25.1670    -7.6570     2.3120 
  107.6250    86.5460     6.9730     5.7640     6.5410    25.1780    -7.5920     2.3160 
  107.7500    80.9040     7.9100     6.4190     9.1830    25.1580    -7.5080     2.3380 
  107.8750    79.3350     8.9390     7.1990    11.2690    25.1250    -7.4250     2.3690 
  108.0000    80.3970     9.8090     7.9230    11.0310    25.0960    -7.3590     2.3940 
  108.1250    79.8260    10.2550     8.3760    10.6740    25.0750    -7.3210     2.3920 
  108.2500    76.8250    10.3410     8.5600    10.2640    25.0700    -7.2880     2.3720 
  108.3750    75.0640    10.2500     8.5740    10.4860    25.0780    -7.2470     2.3460 
  108.5000    77.9060    10.2240     8.5780    10.6070    25.1000    -7.1960     2.3240 
  108.6250    82.2380    10.5100     8.7520    10.1330    25.1010    -7.1260     2.3030 
  108.7500    81.4290    11.1250     9.1470     9.8620    25.0930    -7.0380     2.2790 
  108.8750    76.1650    11.9810     9.7340     9.9470    25.0700    -6.9350     2.2540 
  109.0000    71.8790    12.8650    10.3940    10.4560    25.0450    -6.8230     2.2350 
  109.1250    71.7230    13.3850    10.8580    11.2290    25.0150    -6.7180     2.2320 
  109.2500    71.5150    13.3360    10.9310    11.6200    25.0080    -6.6280     2.2440 
  109.3750    71.4280    12.7230    10.5730    11.3720    25.0090    -6.5560     2.2640 
  109.5000    74.7220    11.7520     9.8990    10.8170    25.0380    -6.4910     2.2860 
  109.6250    80.3890    10.7080     9.0800    10.1310    25.0590    -6.4210     2.3010 
  109.7500    81.9540     9.8060     8.2990     9.5080    25.0870    -6.3540     2.3060 
  109.8750    80.1930     9.1730     7.6820     9.2770    25.0850    -6.2830     2.3020 
  110.0000    79.4360     8.9300     7.3500     9.1870    25.0730    -6.1980     2.2890 
  110.1250    79.4460     9.3220     7.5060     8.3240    25.0420    -6.0850     2.2750 
  110.2500    76.3400    10.4350     8.1970     9.3030    25.0180    -5.9330     2.2890 
  110.3750    69.8880    12.3670     9.4960    15.2290    24.9850    -5.7390     2.3390 
  110.5000    64.9230    14.9970    11.3600    29.7990    24.9710    -5.5040     2.3900 
  110.6250    64.4130    17.7280    13.4800    34.0730    24.9700    -5.2270     2.4080 
  110.7500    64.6760    19.6660    15.2160    22.8350    24.9970    -4.9350     2.3840 
  110.8750    63.7740    20.3970    16.1860    15.1910    25.0320    -4.6570     2.3280 
  111.0000    62.2660    20.2080    16.4620    13.1340    25.0740    -4.4180     2.2650 
  111.1250    60.3720    19.9040    16.4960    13.3100    25.0920    -4.2410     2.2200 
  111.2500    57.3900    20.0670    16.7230    13.3030    25.1090    -4.1150     2.2030 
  111.3750    55.1070    20.6810    17.1930    14.0290    25.1060    -4.0370     2.2110 
  111.5000    54.4590    21.4220    17.7370    16.5430    25.0880    -4.0100     2.2320 
  111.6250    53.3520    21.8490    18.0820    19.3840    25.0520    -4.0410     2.2460 
  111.7500    51.8650    21.8070    18.1170    18.0950    25.0320    -4.1020     2.2450 
  111.8750    52.5830    21.3140    17.8330    14.6400    25.0260    -4.1740     2.2330 
  112.0000    56.3720    20.5220    17.3110    12.7560    25.0430    -4.2500     2.2160 
  112.1250    60.4810    19.6540    16.6970    12.5100    25.0670    -4.3410     2.2040 
  112.2500    62.4610    18.9240    16.1500    12.2830    25.1000    -4.4460     2.1960 
  112.3750    62.2460    18.4270    15.7380    12.1990    25.1240    -4.5450     2.1880 
  112.5000    60.7160    18.1540    15.4600    12.4280    25.1410    -4.6080     2.1800 
  112.6250    57.4580    18.0140    15.2750    12.2910    25.1360    -4.5850     2.1770 
  112.7500    54.5780    17.8700    15.1080    11.9770    25.1260    -4.4610     2.1800 
  112.8750    55.4220    17.6920    14.9440    11.5980    25.1090    -4.2000     2.1890 
  113.0000    60.2350    17.5490    14.8230    11.3520    25.0880    -3.7630     2.2050 
  113.1250    63.5500    17.6270    14.8610    11.3090    25.0590    -3.1150     2.2260 
  113.2500    61.6210    18.0470    15.1420    11.3220    25.0420    -2.2980     2.2450 
  113.3750    57.6780    18.8700    15.7300    11.3810    25.0340    -1.3670     2.2520 
  113.5000    55.6630    20.0630    16.6310    12.0100    25.0450    -0.3940     2.2450 
  113.6250    54.9620    21.5200    17.7960    12.8060    25.0550     0.5390     2.2300 
  113.7500    52.6740    22.9930    19.0240    13.0150    25.0600     1.3710     2.2190 
  113.8750    48.8230    24.3040    20.1500    12.8000    25.0530     2.0640     2.2170 
  114.0000    46.4220    25.3450    21.0490    12.7640    25.0360     2.5970     2.2210 
  114.1250    47.3430    26.0730    21.6470    12.8580    25.0040     2.9740     2.2180 
  114.2500    48.4150    26.6190    22.0500    12.6080    24.9580     3.2490     2.2040 
  114.3750    49.2050    27.0440    22.3300    12.1280    24.9000     3.4380     2.1880 
  114.5000    51.1770    27.3640    22.5320    11.7790    24.8500     3.5540     2.1790 
  114.6250    52.5620    27.5580    22.6540    12.0120    24.8220     3.5860     2.1820 
  114.7500    51.2500    27.6640    22.7050    12.4080    24.8350     3.5450     2.1880 
  114.8750    49.3580    27.7320    22.6990    12.1670    24.8700     3.4350     2.1890 
  115.0000    49.3540    27.8380    22.6830    11.8330    24.9090     3.2580     2.1870 
  115.1250    49.7650    28.0690    22.7480    11.6020    24.9420     3.0070     2.1910 
  115.2500    50.1400    28.4270    22.9560    11.4630    24.9510     2.7150     2.2040 
  115.3750    51.2210    28.9030    23.3350    12.0060    24.9320     2.4170     2.2230 
  115.5000    52.2670    29.4820    23.8710    14.0710    24.8830     2.1270     2.2380 
  115.6250    52.4020    30.1530    24.5160    17.1810    24.8090     1.8560     2.2400 
  115.7500    53.1280    30.8380    25.1740    20.3260    24.7270     1.5860     2.2340 
  115.8750    53.5870    31.4440    25.7750    22.1120    24.6540     1.3010     2.2310 
  116.0000    52.5470    31.8580    26.2640    23.9220    24.6000     0.9770     2.2380 
  116.1250    50.9430    31.9720    26.6030    24.9110    24.5850     0.5730     2.2540 
  116.2500    50.3550    32.0340    26.9370    23.4040    24.5890     0.0700     2.2670 
  116.3750    50.2640    32.3580    27.4460    21.0380    24.6050    -0.5650     2.2680 
  116.5000    50.1060    32.9470    28.1180    19.3280    24.6160    -1.3400     2.2510 
  116.6250    50.8080    32.9740    28.3190    18.2480    24.6310    -2.2580     2.2300 
  116.7500    51.8230    31.3650    27.2060    18.6240    24.6390    -3.2810     2.2300 
  116.8750    53.2820    27.6150    24.3630    24.1570    24.6390    -4.3620     2.2660 
  117.0000    57.4160    22.3310    20.2340    35.6820    24.6220    -5.4470     2.3310 
  117.1250    65.2740    17.1090    16.0080    29.7600    24.6060    -6.4580     2.3930 
  117.2500    72.2670    13.1160    12.6190    16.6380    24.5880    -7.3380     2.4190 
  117.3750    75.4660    10.5160    10.2750    11.5000    24.5800    -8.0400     2.4080 
  117.5000    76.8260     9.0270     8.8420     9.7250    24.5690    -8.5330     2.3790 
  117.6250    79.7840     8.3700     8.1700     9.5820    24.5700    -8.7900     2.3600 
  117.7500    82.6720     8.1210     7.9020     9.3970    24.5870    -8.8710     2.3540 
  117.8750    82.8150     8.1110     7.8650     8.8250    24.6290    -8.8220     2.3580 
  118.0000    78.3000     8.2420     7.9440     7.8630    24.6830    -8.6880     2.3660 
  118.1250    72.4980     8.5040     8.1330     7.6900    24.7710    -8.4960     2.3730 
  118.2500    69.9920     8.9020     8.4580     8.8840    24.8590    -8.2690     2.3750 
  118.3750    70.5580     9.4650     8.9600    11.0980    24.9490    -8.0290     2.3710 
  118.5000    71.0120    10.1980     9.6440    11.0190    25.0210    -7.8010     2.3590 
  118.6250    68.6260    11.0620    10.4670     9.5570    25.0860    -7.6190     2.3350 
