~V
VERS. 2.00: Ver 2.00
~W
STRT.M 50.0000:
STOP.M 230.0000:
STEP.M 0.1250:
NULL. -999.2500:
UWI. F10780:
~C
DEPT.M :
DEN.GM/CC :
GR.API :
RML.OHMM :
RI. :
RXO.OHMM :
CALI.CM :
SP.MV :
~A
# ...
   83.7500     2.2690   100.9080     6.2570     5.6900     5.5690    23.9880   -17.5520 
   83.8750     2.2670   108.5030     6.4070     5.7560     5.4790    23.9740   -17.5000 
   84.0000     2.2610   109.0880     6.6360     5.8940     5.5680    23.9580   -17.4050 
   84.1250     2.2500   103.0440     6.9280     6.1050     5.8340    23.9520   -17.3820 
   84.2500     2.2400    99.1160     7.2150     6.3370     6.0590    23.9520   -17.4360 
   84.3750     2.2340    97.8550     7.4290     6.5350     6.2700    23.9520   -17.5070 
   84.5000     2.2340    96.0080     7.5250     6.6500     6.3960    23.9520   -17.5460 
   84.6250     2.2490    94.3530     7.4840     6.6530     6.3450    23.9410   -17.5290 
   84.7500     2.2830    94.9310     7.3710     6.5850     6.2840    23.9150   -17.4660 
   84.8750     2.3330    97.1700     7.2340     6.4810     6.0030    23.8900   -17.3990 
   85.0000     2.3840    99.2740     7.0980     6.3660     6.2520    23.8880   -17.3630 
   85.1250     2.4140    97.7810     6.9780     6.2550     7.0260    23.9340   -17.3560 
   85.2500     2.4120    92.5230     6.8890     6.1650     7.2110    24.0220   -17.3560 
   85.3750     2.3860    88.6320     6.8660     6.1260     6.1950    24.1040   -17.3560 
   85.5000     2.3490    90.5130     6.9450     6.1720     5.6330    24.1450   -17.3440 
   85.6250     2.3230    94.2890     7.1340     6.3290     5.7810    24.1490   -17.3350 
   85.7500     2.3110    91.3970     7.3360     6.5370     6.0220    24.1470   -17.3590 
   85.8750     2.3110    83.2170     7.4360     6.7050     6.3520    24.1450   -17.3880 
   86.0000     2.3140    77.3550     7.3300     6.7280     6.4720    24.1490   -17.3930 
   86.1250     2.3130    80.8240     6.9580     6.5070     6.0450    24.1640   -17.3700 
   86.2500     2.3090    89.3710     6.4600     6.1240     5.6090    24.2020   -17.3010 
   86.3750     2.3050    95.8050     5.9850     5.6940     5.2010    24.2600   -17.2010 
   86.5000     2.3050    96.4340     5.6630     5.3430     4.8300    24.2940   -17.1060 
   86.6250     2.3100    94.0900     5.5950     5.1860     4.9640    24.2790   -17.0590 
   86.7500     2.3120    93.8410     5.7280     5.2080     5.2790    24.2430   -17.0330 
   86.8750     2.3100    93.0740     6.0040     5.3780     5.6030    24.2200   -16.9980 
   87.0000     2.3010    90.1110     6.3690     5.6550     5.8090    24.2010   -16.9540 
   87.1250     2.2920    85.9480     6.7870     6.0150     5.9550    24.1690   -16.8890 
   87.2500     2.2930    82.8990     7.2200     6.4180     5.9940    24.1420   -16.8680 
   87.3750     2.3050    81.9920     7.6340     6.8300     5.8530    24.0880   -16.9110 
   87.5000     2.3240    82.6240     7.9700     7.1990     6.3110    24.0050   -16.9600 
   87.6250     2.3350    83.3290     8.1330     7.4350     7.1530    23.9430   -16.9350 
   87.7500     2.3320    83.0110     8.1170     7.5080     7.4190    23.9680   -16.8740 
   87.8750     2.3160    82.5260     7.9630     7.4280     6.6500    24.0500   -16.8320 
   88.0000     2.2940    81.4360     7.7630     7.2600     6.2260    24.1240   -16.8130 
   88.1250     2.2770    80.6770     7.6410     7.1030     6.2090    24.1500   -16.8100 
   88.2500     2.2700    81.3960     7.6520     7.0330     6.2800    24.1480   -16.8250 
   88.3750     2.2720    82.4610     7.7850     7.0690     6.4980    24.1240   -16.8090 
   88.5000     2.2770    83.2600     7.9800     7.1790     6.6040    24.0710   -16.7580 
   88.6250     2.2810    85.5060     8.1370     7.2940     6.5120    24.0270   -16.7090 
   88.7500     2.2810    89.1090     8.1990     7.3470     6.5170    24.0340   -16.6510 
   88.8750     2.2790    89.8680     8.1680     7.3200     6.6930    24.1010   -16.6030 
   89.0000     2.2740    88.3420     8.1040     7.2410     6.6660    24.1660   -16.5570 
   89.1250     2.2640    87.6960     8.1570     7.2080     6.4870    24.1800   -16.4970 
   89.2500     2.2490    87.0010     8.4620     7.3340     6.3980    24.1710   -16.4010 
   89.3750     2.2300    84.7900     9.1210     7.7170     6.3100    24.1260   -16.3140 
   89.5000     2.2160    81.7430    10.1640     8.4180     6.3460    24.0530   -16.2940 
   89.6250     2.2130    82.0410    11.5300     9.4660     7.1830    23.9790   -16.3220 
   89.7500     2.2140    81.7520    12.9290    10.6680     8.1090    23.8800   -16.3580 
   89.8750     2.2080    78.0870    14.0970    11.8040     9.0020    23.7830   -16.3680 
   90.0000     2.1910    72.2170    14.8260    12.6520     9.4400    23.7370   -16.3860 
   90.1250     2.1700    68.9200    14.9990    13.0170     9.0250    23.7350   -16.4590 
   90.2500     2.1610    69.0100    14.8620    13.0360     8.4910    23.7330   -16.5450 
   90.3750     2.1740    69.5680    14.6560    12.8900     8.2230    23.7320   -16.5570 
   90.5000     2.2080    69.6420    14.5900    12.7760     8.1650    23.7320   -16.4160 
   90.6250     2.2490    69.7640    14.8470    12.8740     8.2260    23.7300   -16.1310 
   90.7500     2.2770    71.2320    15.4080    13.2180     8.1750    23.7190   -15.7420 
   90.8750     2.2840    72.9400    16.2210    13.7980     8.4940    23.6880   -15.2660 
   91.0000     2.2710    72.1560    17.1810    14.5540     9.0770    23.6520   -14.6830 
   91.1250     2.2460    70.1540    18.1180    15.3760     9.3160    23.6230   -13.9860 
   91.2500     2.2220    69.6510    18.8700    16.1100     9.1790    23.6340   -13.3010 
   91.3750     2.2050    69.1660    19.3410    16.6480     9.1800    23.6570   -12.7350 
   91.5000     2.1980    67.0540    19.5210    16.9390     9.3070    23.6680   -12.3270 
   91.6250     2.1990    64.8680    19.4560    16.9770     9.5380    23.6660   -12.0740 
   91.7500     2.2020    64.2180    19.2980    16.8890     9.4040    23.6550   -11.9430 
   91.8750     2.2030    65.0790    19.1300    16.7570     9.2040    23.6280   -11.9080 
   92.0000     2.1980    66.8860    18.9920    16.6370     9.1060    23.6090   -11.9670 
   92.1250     2.1850    69.5650    18.8950    16.5610     9.2170    23.6330   -12.1030 
   92.2500     2.1680    70.8670    18.8180    16.5250     9.1670    23.6900   -12.2200 
   92.3750     2.1520    70.5240    18.7570    16.5220     8.9670    23.7490   -12.2920 
   92.5000     2.1430    69.1380    18.7300    16.5590     8.7360    23.8120   -12.3210 
   92.6250     2.1440    67.3940    18.7970    16.6840     8.6650    23.8390   -12.3350 
   92.7500     2.1550    65.3020    18.9860    16.9350     8.7250    23.8340   -12.3970 
   92.8750     2.1700    63.2590    19.2690    17.3180     8.8800    23.8170   -12.4920 
   93.0000     2.1840    63.3950    19.4810    17.7440     9.0640    23.7750   -12.5590 
   93.1250     2.1910    67.8890    19.2610    17.8990     9.1510    23.7350   -12.6370 
   93.2500     2.1940    72.6380    18.4260    17.4650     9.1050    23.7000   -12.7850 
   93.3750     2.2010    72.2520    16.8710    16.2610     8.8380    23.6660   -13.0340 
   93.5000     2.2180    69.4620    14.6700    14.3730     8.3460    23.6530   -13.3460 
   93.6250     2.2480    71.1920    12.1770    12.1530     7.5320    23.7190   -13.6650 
   93.7500     2.2810    76.8450     9.9660    10.1040     6.5950    23.8160   -13.9260 
   93.8750     2.3050    82.7050     8.3320     8.4790     5.8850    23.9440   -14.1960 
   94.0000     2.3160    86.9210     7.2940     7.3570     5.5950    24.0240   -14.5370 
   94.1250     2.3150    88.8760     6.7840     6.7360     5.5740    24.0850   -14.8710 
   94.2500     2.3100    89.5580     6.5190     6.3930     5.4380    24.0540   -15.1260 
   94.3750     2.3070    90.7000     6.3270     6.1730     5.3640    23.9730   -15.2570 
   94.5000     2.3090    93.0740     6.0810     5.9450     5.4310    23.8690   -15.3180 
   94.6250     2.3150    94.7820     5.7340     5.6300     5.2510    23.8460   -15.3770 
   94.7500     2.3240    96.2530     5.3740     5.2720     4.9080    23.8860   -15.4700 
   94.8750     2.3310    97.5950     5.1040     4.9570     4.4630    23.9420   -15.5360 
