~V
VERS. 2.00: Ver 2.00
~W
STRT.M 40.0000:
STOP.M 236.0000:
STEP.M 0.1250:
NULL. -999.2500:
UWI. F10781:
~C
DEPT.M :
GR.API :
RML.OHMM :
RI. :
RXO.OHMM :
CALI.CM :
SP.MV :
DEN.GM/CC :
~A
# ...
  152.5000    50.9200    17.9990    15.8840    15.4600    25.0240     1.9970     2.2450 
  152.6250    49.6410    17.9860    15.6840    14.9450    25.1340     1.9340     2.2510 
  152.7500    49.6840    18.4330    15.7840    15.0370    25.2390     1.8400     2.2500 
  152.8750    48.8900    19.6940    16.4070    16.1010    25.3430     1.7170     2.2390 
  153.0000    47.3890    22.1990    17.8330    18.6640    25.4200     1.5610     2.2220 
  153.1250    48.2330    26.7300    20.6410    25.0960    25.4430     1.3660     2.2120 
  153.2500    50.9330    33.4190    25.0630    33.6880    25.4120     1.1490     2.2250 
  153.3750    53.1310    42.3640    31.3900    41.6950    25.3510     0.9270     2.2740 
  153.5000    53.0530    52.9130    39.4080    53.8230    25.2620     0.7210     2.3640 
  153.6250    50.6120    62.3630    47.3380    70.9530    25.1770     0.5510     2.4790 
  153.7500    48.5790    67.1100    52.1280    80.5750    25.1000     0.4020     2.5790 
  153.8750    48.0340    65.4960    52.0750    76.5780    25.0500     0.2620     2.6350 
  154.0000    48.5430    59.2440    48.0860    69.0310    25.0200     0.1300     2.6500 
  154.1250    49.1830    52.4010    43.0120    32.5850    25.0240     0.0090     2.6520 
  154.2500    49.4510    48.0650    39.4390    25.9310    25.0410    -0.1100     2.6630 
  154.3750    48.9830    46.9660    38.1690    31.0490    25.0610    -0.2270     2.6810 
  154.5000    47.7040    48.5120    39.0220    45.3500    25.0800    -0.3470     2.6960 
  154.6250    47.5170    51.1210    41.1170    55.3190    25.1060    -0.4690     2.6980 
  154.7500    48.7090    52.5140    42.7180    47.0350    25.1290    -0.5830     2.6900 
  154.8750    49.4000    51.3540    42.5830    40.3220    25.1470    -0.6850     2.6760 
  155.0000    49.0920    47.5130    40.2430    42.6390    25.1480    -0.7860     2.6620 
  155.1250    49.8050    41.9820    36.1200    39.0630    25.1330    -0.8940     2.6480 
  155.2500    51.4910    36.4990    31.7080    30.9860    25.1130    -1.0060     2.6390 
  155.3750    53.4590    31.8560    27.8430    24.7420    25.0980    -1.1240     2.6300 
  155.5000    55.1580    28.4320    24.9530    21.3070    25.0890    -1.2550     2.6170 
  155.6250    55.4750    26.7680    23.4750    20.1230    25.0860    -1.4100     2.5950 
  155.7500    53.5160    26.8230    23.3440    20.8850    25.0880    -1.5910     2.5680 
  155.8750    50.5000    28.5740    24.5820    23.4160    25.0960    -1.7900     2.5410 
  156.0000    48.4530    31.8020    27.1080    24.9040    25.1020    -1.9950     2.5230 
  156.1250    47.1810    36.1990    30.8320    27.1060    25.0980    -2.2010     2.5240 
  156.2500    46.3000    40.8190    35.0130    31.1000    25.0860    -2.4010     2.5430 
  156.3750    46.2150    44.6860    38.7660    34.6010    25.0700    -2.5860     2.5760 
  156.5000    46.8260    46.7710    41.0730    38.8030    25.0550    -2.7450     2.6180 
  156.6250    47.7620    45.9950    40.8610    45.9360    25.0430    -2.8860     2.6510 
  156.7500    48.1010    43.0800    38.6940    46.6610    25.0310    -3.0140     2.6560 
  156.8750    48.0560    39.0970    35.4680    36.6440    25.0150    -3.1370     2.6270 
  157.0000    47.8570    35.2310    32.1840    25.8710    24.9910    -3.2410     2.5780 
  157.1250    48.5970    32.3090    29.5310    20.7860    24.9640    -3.3140     2.5320 
  157.2500    51.1770    30.1910    27.4750    20.5930    24.9480    -3.3560     2.4990 
  157.3750    54.4840    28.6070    25.8740    24.9360    24.9530    -3.3700     2.4770 
  157.5000    56.4720    27.3460    24.6210    28.9160    24.9830    -3.3670     2.4570 
  157.6250    57.8290    26.5640    23.8410    25.2350    25.0310    -3.3510     2.4370 
  157.7500    61.4240    26.6440    23.7490    20.9350    25.0880    -3.3180     2.4290 
  157.8750    64.5870    28.0520    24.6840    22.0070    25.1430    -3.2610     2.4460 
  158.0000    62.0490    31.0150    26.8920    28.5180    25.1890    -3.1790     2.4920 
  158.1250    54.0640    35.4480    30.5160    34.8010    25.2130    -3.0760     2.5540 
  158.2500    47.8420    40.1740    34.7080    39.1380    25.2140    -2.9580     2.6050 
  158.3750    44.8520    43.9250    38.3540    44.5610    25.1990    -2.8370     2.6280 
  158.5000    44.0680    45.7110    40.3690    47.5960    25.1760    -2.7210     2.6260 
  158.6250    45.3730    45.2440    40.2240    44.7800    25.1460    -2.6340     2.6060 
  158.7500    47.7370    43.8120    39.0110    40.7060    25.1170    -2.5730     2.5840 
  158.8750    49.6650    42.3110    37.5760    36.9700    25.0850    -2.5330     2.5670 
  159.0000    50.2590    41.2610    36.4530    34.9330    25.0580    -2.5020     2.5590 
  159.1250    49.6360    40.8670    35.9030    35.2690    25.0340    -2.4650     2.5550 
  159.2500    49.0710    40.8790    35.7500    35.4420    25.0120    -2.4220     2.5480 
  159.3750    49.9200    41.1560    35.8820    36.5900    24.9830    -2.3800     2.5350 
  159.5000    51.7910    41.6380    36.2470    37.0480    24.9520    -2.3450     2.5200 
  159.6250    52.6210    42.3210    36.8480    36.6240    24.9250    -2.3270     2.5130 
  159.7500    52.4330    43.1360    37.6070    33.5810    24.8990    -2.3320     2.5180 
  159.8750    51.6670    44.0420    38.4750    35.1070    24.8680    -2.3660     2.5330 
  160.0000    50.4700    44.9380    39.3640    41.3530    24.8360    -2.4270     2.5470 
  160.1250    50.1380    45.6040    40.0880    45.1710    24.8100    -2.5120     2.5510 
  160.2500    50.2480    45.8850    40.4960    41.9040    24.8070    -2.6190     2.5520 
  160.3750    49.6920    45.6370    40.4530    40.6620    24.8230    -2.7320     2.5560 
  160.5000    48.9030    44.7620    39.8580    43.2500    24.8530    -2.8420     2.5640 
  160.6250    50.1380    43.2210    38.6470    41.0700    24.8930    -2.9340     2.5630 
  160.7500    50.4470    41.3420    37.1000    36.4160    24.9490    -3.0040     2.5480 
  160.8750    47.2510    39.3950    35.4530    31.4580    25.0070    -3.0600     2.5220 
  161.0000    43.0250    37.6490    33.9450    30.0240    25.0520    -3.1120     2.5030 
  161.1250    42.3930    36.4480    32.8730    29.9050    25.0760    -3.1640     2.5090 
  161.2500    45.7230    35.8560    32.3090    30.8410    25.0860    -3.2140     2.5320 
  161.3750    49.3960    35.8720    32.2650    32.1980    25.0860    -3.2510     2.5580 
  161.5000    49.8770    36.4590    32.7160    32.0220    25.0770    -3.2680     2.5770 
  161.6250    48.1080    37.6910    33.7160    31.5320    25.0820    -3.2280     2.5870 
  161.7500    47.7170    39.4380    35.1420    32.4390    25.0890    -3.1380     2.5980 
  161.8750    49.5980    41.5610    36.8670    36.4930    25.1130    -3.0070     2.6140 
  162.0000    51.2290    43.6860    38.5850    42.9220    25.1390    -2.8640     2.6320 
  162.1250    50.4950    44.9720    39.6180    47.6470    25.1900    -2.7430     2.6450 
  162.2500    49.5400    44.9020    39.5530    45.9920    25.2370    -2.6640     2.6480 
  162.3750    49.2020    43.4200    38.3470    46.3760    25.2900    -2.6310     2.6290 
  162.5000    50.0890    41.0080    36.3790    48.8260    25.3140    -2.6470     2.5840 
  162.6250    50.6320    38.4830    34.2740    40.9650    25.3350    -2.6830     2.5290 
  162.7500    50.5650    36.5000    32.5410    35.4440    25.3170    -2.7200     2.4920 
  162.8750    51.4230    35.2900    31.3740    32.3040    25.2880    -2.7320     2.4910 
  163.0000    52.8240    34.8910    30.8320    32.1320    25.2300    -2.7190     2.5260 
  163.1250    52.5620    35.3770    31.0390    33.3340    25.1840    -2.7000     2.5690 
  163.2500    51.0370    36.4560    31.8100    30.7160    25.1290    -2.6970     2.5920 
  163.3750    49.5600    37.8150    32.9090    28.2850    25.0970    -2.7240     2.5930 
  163.5000    48.6110    39.0020    33.9460    31.8630    25.0710    -2.7760     2.5920 
  163.6250    46.8980    39.3050    34.2770    39.4450    25.0770    -2.8400     2.6070 
