~V
VERS. 2.00: Ver 2.00
~W
STRT.M 50.0000:
STOP.M 239.0000:
STEP.M 0.1250:
NULL. -999.2500:
UWI. F10783:
~C
DEPT.M :
GR.API :
RML.OHMM :
RI. :
RXO.OHMM :
CALI.CM :
SP.MV :
DEN.GM/CC :
~A
# ...
  218.7500    70.7940    83.1570    81.3650    71.4800    25.1010   -16.1690     2.2000 
  218.8750    69.7330    85.7410    83.6230    75.9110    25.0770   -16.5680     2.2030 
  219.0000    70.9620    90.1540    88.3420    83.5160    25.0300   -16.9380     2.2050 
  219.1250    74.4390    96.7500    94.9440    96.3110    25.0980   -17.2860     2.2060 
  219.2500    73.8340   107.2510   101.8260   113.9090    25.2470   -17.6070     2.2040 
  219.3750    69.9220   120.1650   107.7720   122.3370    25.2950   -17.8490     2.2020 
  219.5000    67.4190   130.2280   112.0110   107.8620    25.1610   -17.9820     2.2020 
  219.6250    67.6610   132.7900   114.2220    97.9130    24.9690   -17.9990     2.2080 
  219.7500    66.3900   131.3300   115.1120   104.9030    24.8870   -17.9420     2.2160 
  219.8750    62.8260   128.6750   114.8070   115.1090    24.8710   -17.8810     2.2240 
  220.0000    59.5280   124.4260   112.9790   112.6150    24.8830   -17.8780     2.2300 
  220.1250    60.1960   117.5870   108.7410   115.5170    24.9100   -17.8920     2.2350 
  220.2500    62.7850   108.8280   102.4070   111.6060    24.9310   -17.8970     2.2380 
  220.3750    64.2740    99.2120    94.7000    94.8290    24.9230   -17.9100     2.2400 
  220.5000    64.9510    90.1300    86.8150    75.4310    24.8880   -17.9460     2.2410 
  220.6250    67.2900    83.1860    80.2830    69.4040    24.8720   -17.9760     2.2410 
  220.7500    69.8240    78.7520    75.7660    70.6190    24.8680   -18.0190     2.2420 
  220.8750    71.1460    77.0230    73.6000    70.1520    24.8670   -18.0570     2.2440 
  221.0000    70.0260    78.1160    73.9810    68.5100    24.8740   -18.0430     2.2440 
  221.1250    67.1410    82.7600    77.6500    72.4400    24.8990   -18.0490     2.2370 
  221.2500    65.4680    90.7330    84.4590    80.6890    24.9300   -18.0830     2.2250 
  221.3750    65.4140   102.1780    94.5820    90.2640    24.9430   -18.0980     2.2110 
  221.5000    64.7320   116.9070   107.8670   100.1840    24.9450   -18.0680     2.2010 
  221.6250    62.9020   134.3990   123.8350   123.7130    24.9390   -18.0000     2.1990 
  221.7500    60.5950   152.6400   140.5900   151.2320    24.9240   -17.8910     2.2010 
  221.8750    57.9400   169.9490   156.6040   167.1440    24.9240   -17.7350     2.2010 
  222.0000    55.5970   184.8360   170.5770   171.3390    24.9690   -17.5550     2.1950 
  222.1250    56.2640   195.4770   180.9650   176.9040    25.0340   -17.3150     2.1830 
  222.2500    59.4470   201.5770   187.5070   189.6360    25.0800   -17.0790     2.1700 
  222.3750    62.7010   202.3730   189.5030   210.1210    25.1290   -16.9110     2.1600 
  222.5000    64.6280   197.2120   186.2430   214.6450    25.1350   -16.8410     2.1550 
  222.6250    63.7470   185.4070   176.7040   197.7650    25.1550   -16.8350     2.1560 
  222.7500    61.5290   170.0480   163.2260   169.9870    25.1670   -16.8220     2.1610 
  222.8750    60.7590   154.4340   148.5440   146.3750    25.1730   -16.7740     2.1700 
  223.0000    61.8590   141.9700   135.8720   129.9920    25.1810   -16.7000     2.1800 
  223.1250    63.7040   136.2150   128.9360   117.3970    25.2070   -16.6150     2.1870 
  223.2500    64.2640   137.1300   128.3640   108.1320    25.2200   -16.4650     2.1900 
  223.3750    62.1960   144.2480   134.0530   118.7280    25.2270   -16.2470     2.1900 
  223.5000    58.4690   156.0510   144.6650   162.0610    25.2300   -15.9860     2.1870 
  223.6250    56.6600   169.6350   157.4360   194.9560    25.2290   -15.7390     2.1840 
  223.7500    58.0570   180.6070   168.0810   194.1550    25.2260   -15.5290     2.1840 
  223.8750    60.2950   185.7660   173.5820   181.3680    25.2190   -15.3730     2.1870 
  224.0000    60.6490   183.6860   172.5450   173.2560    25.2110   -15.2360     2.1900 
  224.1250    59.2450   174.4600   164.8780   172.5850    25.2030   -15.1350     2.1930 
  224.2500    58.0310   161.7540   153.7760   162.3450    25.1860   -15.1230     2.1930 
  224.3750    59.5200   147.8170   141.2010   143.4900    25.1540   -15.1790     2.1920 
  224.5000    62.1900   134.2810   128.6130   122.3230    25.1180   -15.2230     2.1920 
  224.6250    63.1540   122.6100   117.3440   113.0250    25.1160   -15.1680     2.1970 
  224.7500    63.0730   113.2270   107.9790   104.7150    25.1330   -15.0310     2.2050 
  224.8750    64.2530   106.2950   100.8290    97.3460    25.1560   -14.8890     2.2130 
  225.0000    66.1550   101.6250    95.8560    92.3520    25.1860   -14.8020     2.2190 
  225.1250    65.3140    99.0280    92.9850    90.3630    25.2160   -14.6920     2.2210 
  225.2500    64.0400    97.6670    91.4030    91.2990    25.2270   -14.4700     2.2220 
  225.3750    65.3370    97.1640    90.6980    95.6960    25.2300   -14.1460     2.2240 
  225.5000    67.9670    97.2980    90.6050    94.4310    25.2300   -13.7890     2.2270 
  225.6250    68.6140    97.9910    91.0640    92.8350    25.2300   -13.5280     2.2300 
  225.7500    68.5220    98.7140    91.6750    94.6180    25.2300   -13.3650     2.2310 
  225.8750    70.5450    98.4840    91.6250    96.5950    25.2300   -13.1790     2.2290 
  226.0000    73.4300    95.9580    89.6770    96.2500    25.2300   -12.9040     2.2250 
  226.1250    70.2950    89.6520    84.2940   102.6130    25.2200   -12.6400     2.2210 
  226.2500    64.5790    80.6960    76.2300   104.0300    25.1670   -12.4680     2.2190 
  226.3750    62.5700    70.8150    66.9140    75.5580    25.0760   -12.3000     2.2180 
  226.5000    66.6310    61.9110    58.1170    42.7180    25.0690   -12.0980     2.2180 
  226.6250    72.3790    55.7270    51.6030    31.8640    25.2060   -11.8970     2.2230 
  226.7500    74.9060    52.1950    47.5290    34.5780    25.2030   -11.6380     2.2460 
  226.8750    75.2000    51.0380    45.7200    40.8630    24.9200   -11.3830     2.2990 
  227.0000    73.9520    51.8260    45.8090    50.7350    24.6470   -11.1890     2.3830 
  227.1250    72.2860    54.3130    47.6250    55.3160    24.5340   -10.9860     2.4810 
  227.2500    71.2310    57.6950    50.4830    59.9690    24.5060   -10.7680     2.5620 
  227.3750    70.8450    61.1260    53.7420    71.2570    24.5040   -10.5860     2.6130 
  227.5000    70.1170    63.1410    56.1880    84.1690    24.5390   -10.4870     2.6350 
  227.6250    66.8390    61.0430    55.3320    92.1910    24.5480   -10.3530     2.6380 
  227.7500    64.1230    54.3190    50.2000    98.8080    24.5240   -10.2700     2.6350 
  227.8750    65.3630    44.0080    41.3480    92.2230    24.4780   -10.2470     2.6250 
  228.0000    69.5790    32.2290    30.9870    56.9190    24.4330   -10.2180     2.6050 
  228.1250    71.8970    21.7800    22.1020    26.3200    24.3910   -10.2060     2.5710 
  228.2500    70.7910    14.3380    15.8240    12.9760    24.4130   -10.1420     2.5300 
  228.3750    68.8560    10.2670    11.9900     8.0680    24.5080   -10.1240     2.4910 
  228.5000    67.8780     8.7050     9.9640     7.2730    24.7060   -10.1390     2.4610 
  228.6250    68.3940     8.3860     9.2420     8.8060    24.7650   -10.2400     2.4430 
  228.7500    69.2150     8.3960     9.0960     9.9180    24.7170   -10.3440     2.4280 
  228.8750    69.2150     8.4430     9.1250    10.7270    24.6930   -10.3920     2.4100 
  229.0000    69.2150     8.2640     9.0140    10.0050    24.7480   -10.4140     2.3850 
  229.1250    69.2150     7.8830     8.6920     8.9390    24.7480   -10.3420     2.3560 
  229.2500    69.2150     7.3870     8.2160     7.4440    24.6800   -10.2890     2.3300 
  229.3750    69.2150     6.8370     7.6160     6.5390    24.6690   -10.2080     2.3130 
  229.5000    69.2150     6.5650     7.2400     6.5100    24.6390   -10.1510     2.3130 
  229.6250    69.2150     6.6720     7.2270     7.0930    24.5770   -10.1210     2.3440 
  229.7500    69.2150     7.1340     7.5940     8.5710    24.5290   -10.0670     2.4040 
  229.8750    69.2150     7.8260     8.2550    12.5720    24.5450   -10.0750     2.4740 
