~V
VERS. 2.00: Ver 2.00
~W
STRT.M 50.0000:
STOP.M 239.0000:
STEP.M 0.1250:
NULL. -999.2500:
UWI. F10783:
~C
DEPT.M :
GR.API :
RML.OHMM :
RI. :
RXO.OHMM :
CALI.CM :
SP.MV :
DEN.GM/CC :
~A
# ...
  128.7500    92.5990     7.1300     5.8980     6.2020    23.3330   -19.8440     2.2790 
  128.8750    93.3200     8.1260     6.4700     5.7790    23.4280   -19.3290     2.3100 
  129.0000    90.8260     9.8600     7.5830     7.0180    23.6250   -18.7390     2.3510 
  129.1250    85.8740    12.4420     9.4790    11.5820    23.8010   -18.0520     2.3820 
  129.2500    80.4200    15.3010    11.8960    20.1910    23.9070   -17.2830     2.3890 
  129.3750    74.9280    17.6850    14.3090    21.1810    23.7980   -16.4640     2.3650 
  129.5000    70.1090    18.8680    16.0040    14.4450    23.3930   -15.6320     2.3200 
  129.6250    69.4260    18.4510    16.3340     9.9290    22.9950   -14.8310     2.2730 
  129.7500    71.7970    17.2880    15.7680     8.1720    22.8190   -14.0670     2.2400 
  129.8750    73.2790    16.1880    14.9510     7.6350    22.8130   -13.2890     2.2230 
  130.0000    72.3110    15.6910    14.4280     7.4970    22.8380   -12.4580     2.2140 
  130.1250    71.1020    16.0120    14.5220     7.5280    22.8460   -11.6180     2.2100 
  130.2500    70.2290    16.8060    15.0730     7.6140    22.8470   -10.8170     2.2060 
  130.3750    70.1830    17.7770    15.8900     7.7390    22.8420   -10.0610     2.2010 
  130.5000    69.8900    18.6230    16.7320     7.8720    22.8200    -9.3640     2.1940 
  130.6250    70.0470    18.9390    17.2330     7.9060    22.7850    -8.7550     2.1810 
  130.7500    70.8470    18.5660    17.1560     7.9220    22.7880    -8.2590     2.1660 
  130.8750    72.4490    17.4870    16.4080     7.9880    22.8340    -7.9190     2.1550 
  131.0000    76.0480    15.9220    15.1170     8.1430    22.8810    -7.7710     2.1540 
  131.1250    80.4680    14.3440    13.6420     8.0710    22.8620    -7.7890     2.1670 
  131.2500    82.7570    13.2570    12.4530     7.5770    22.7930    -7.8440     2.1810 
  131.3750    81.2040    12.9710    11.8480     7.0440    22.7270    -7.8300     2.1840 
  131.5000    78.1940    13.6210    12.0000     7.2740    22.7060    -7.6920     2.1690 
  131.6250    77.5270    15.2790    13.0960     8.3360    22.7650    -7.4520     2.1410 
  131.7500    78.2960    17.4990    14.8850    11.5680    22.8710    -7.1480     2.1220 
  131.8750    76.0580    19.8270    17.0600    17.8900    22.8600    -6.7810     2.1220 
  132.0000    70.2330    21.7320    19.1390    17.7590    22.7300    -6.3490     2.1400 
  132.1250    65.9330    22.6200    20.4600    11.0440    22.6390    -5.9230     2.1640 
  132.2500    64.5590    22.5570    20.8670     8.6350    22.5720    -5.6320     2.1810 
  132.3750    63.2550    21.8040    20.4850     8.0990    22.4910    -5.5780     2.1880 
  132.5000    61.2230    20.7530    19.6450     7.9940    22.4440    -5.7630     2.1890 
  132.6250    62.5100    19.8290    18.7340     7.8390    22.4450    -6.0620     2.1930 
  132.7500    66.5160    19.2800    18.0520     7.7840    22.4590    -6.3030     2.2060 
  132.8750    68.5980    19.2090    17.7330     7.8150    22.4690    -6.4340     2.2280 
  133.0000    67.1050    19.6190    17.8300     7.9800    22.5020    -6.4400     2.2520 
  133.1250    65.1970    20.4530    18.3580     8.2500    22.5600    -6.2820     2.2620 
  133.2500    65.9020    21.4300    19.1140     8.3380    22.6260    -5.9430     2.2450 
  133.3750    68.1220    22.3260    19.9100     8.2490    22.7030    -5.4300     2.2060 
  133.5000    68.0140    22.9700    20.5690     8.3000    22.7360    -4.7990     2.1630 
  133.6250    63.9850    23.2640    20.9440     8.4770    22.7110    -4.1490     2.1480 
  133.7500    59.2130    23.3790    21.1170     8.4360    22.6730    -3.5960     2.1690 
  133.8750    57.3090    23.4950    21.2240     8.2680    22.6570    -3.1720     2.2170 
  134.0000    59.3260    23.7730    21.4140     8.1190    22.6740    -2.8580     2.2740 
  134.1250    62.1190    24.3140    21.8210     8.2220    22.6970    -2.6620     2.3190 
  134.2500    63.8970    25.0070    22.4020     8.6530    22.6440    -2.5740     2.3450 
  134.3750    64.7910    25.7120    23.0660     9.3360    22.5890    -2.5770     2.3540 
  134.5000    65.7190    26.2990    23.6970     9.7200    22.6190    -2.6500     2.3450 
  134.6250    66.1530    26.6800    24.1950     9.6770    22.7060    -2.7680     2.3110 
  134.7500    64.9920    26.9380    24.5950     9.5640    22.7850    -2.9030     2.2570 
  134.8750    63.0590    27.1660    24.9710     9.3440    22.8620    -3.0710     2.1940 
  135.0000    61.7240    27.4100    25.3760     9.2780    22.9510    -3.3150     2.1380 
  135.1250    62.4390    27.5630    25.7400     9.4490    22.9730    -3.6940     2.1110 
  135.2500    63.3370    27.4130    25.8640    10.0350    22.9060    -4.1910     2.1170 
  135.3750    62.6340    26.7530    25.5250    11.2860    22.7510    -4.8080     2.1490 
  135.5000    61.2200    25.4810    24.5840    12.8100    22.6100    -5.5550     2.1900 
  135.6250    61.6600    23.6260    23.0080    12.3250    22.6140    -6.4510     2.2170 
  135.7500    64.5390    21.5680    21.1490    10.3070    22.7510    -7.4440     2.2260 
  135.8750    66.8200    19.6200    19.3040     9.5090    22.8860    -8.4610     2.2220 
  136.0000    67.2360    18.0500    17.7320     9.3100    22.9180    -9.3880     2.2150 
  136.1250    66.2800    17.1670    16.7200     8.8010    22.8780   -10.0980     2.2150 
  136.2500    63.2700    16.9980    16.3200     8.5030    22.8620   -10.5660     2.2200 
  136.3750    59.0640    17.5900    16.6020     8.3560    22.8890   -10.7420     2.2240 
  136.5000    56.1020    18.9270    17.6020     8.6370    22.9090   -10.5850     2.2220 
  136.6250    56.6270    20.9620    19.3790     9.6050    22.8540   -10.1090     2.2090 
  136.7500    58.3420    23.2830    21.6130    11.8100    22.9080    -9.4560     2.1940 
  136.8750    58.9120    25.4850    23.9480    16.3770    23.1320    -8.7290     2.1860 
  137.0000    59.1510    27.1130    25.9130    24.3810    23.3040    -8.0460     2.1940 
  137.1250    62.8390    27.5880    26.8280    20.8510    23.1300    -7.5010     2.2230 
  137.2500    67.6070    26.9510    26.5610    15.6890    22.8320    -7.1300     2.2650 
  137.3750    67.8660    25.4310    25.2360    13.4130    22.6330    -6.9700     2.3110 
  137.5000    65.4600    23.5060    23.2910    13.2530    22.5480    -7.0200     2.3490 
  137.6250    66.9040    21.8660    21.3880    11.8480    22.4910    -7.1990     2.3620 
  137.7500    69.4080    21.0000    20.0840    10.2040    22.4380    -7.3680     2.3460 
  137.8750    67.3020    21.1480    19.6670     9.1000    22.4280    -7.4600     2.3080 
  138.0000    63.7220    22.3170    20.2340     9.8220    22.5100    -7.4540     2.2640 
  138.1250    63.5900    24.3310    21.8030    12.7160    22.6360    -7.3480     2.2340 
  138.2500    63.4700    26.5350    23.8550    14.9810    22.7090    -7.1760     2.2210 
  138.3750    62.2610    28.3890    25.8940    15.4820    22.7100    -6.9670     2.2180 
  138.5000    60.7300    29.4710    27.4290    16.5440    22.6910    -6.7640     2.2210 
  138.6250    58.7790    29.4760    28.0000    15.3760    22.6700    -6.7010     2.2320 
  138.7500    59.3090    28.6910    27.7350    13.8560    22.6070    -6.8400     2.2540 
  138.8750    62.8860    27.3190    26.7770    12.7530    22.5050    -7.2580     2.2840 
  139.0000    65.7290    25.5170    25.2750    12.7540    22.4280    -7.9780     2.3130 
  139.1250    62.7430    23.3800    23.3170    12.8740    22.4220    -9.0050     2.3260 
  139.2500    60.2700    21.1410    21.1700    11.6790    22.4520   -10.2120     2.3180 
  139.3750    63.4980    19.0160    19.0570    10.5000    22.4800   -11.5250     2.2880 
  139.5000    68.6980    17.2220    17.2020     9.5200    22.4400   -12.8920     2.2480 
  139.6250    70.7080    16.0050    15.8550     9.2660    22.2860   -14.2350     2.2190 
  139.7500    69.0740    15.3230    15.0110     8.8110    22.1740   -15.5010     2.2160 
  139.8750    65.3000    15.1080    14.6360     8.6410    22.3080   -16.5800     2.2410 
