~V
VERS. 2.00: Ver 2.00
~W
STRT.M 51.0000:
STOP.M 263.0000:
STEP.M 0.1250:
NULL. -999.2500:
UWI. F10758:
~C
DEPT.M :
DEN.GM/CC :
GR.API :
RML.OHMM :
RI. :
RXO.OHMM :
CALI.CM :
SP.MV :
~A
# ...
  242.2500     2.3380    37.7970     5.0550     4.5960     4.5910    23.5270   -21.0730 
  242.3750     2.3360    40.9780     5.1770     4.7060     4.7630    23.5680   -21.0360 
  242.5000     2.3360    43.7170     5.2040     4.7310     4.9550    23.5830   -21.0390 
  242.6250     2.3450    42.7290     5.1230     4.6570     4.9430    23.5880   -21.1000 
  242.7500     2.3640    38.8050     4.9890     4.5360     4.8010    23.5550   -21.1250 
  242.8750     2.3830    35.6070     4.8580     4.4170     4.6150    23.5680   -21.1630 
  243.0000     2.3890    34.9830     4.7860     4.3510     4.5610    23.5860   -21.1980 
  243.1250     2.3730    36.8700     4.8540     4.4130     4.7730    23.6090   -21.1570 
  243.2500     2.3480    40.2530     5.0900     4.6270     5.1930    23.6360   -21.1130 
  243.3750     2.3280    44.2380     5.5050     5.0050     5.5340    23.6490   -21.0730 
  243.5000     2.3260    46.0090     6.0770     5.5250     5.9380    23.6490   -20.9780 
  243.6250     2.3460    46.0580     6.7260     6.1140     6.7400    23.6400   -20.8650 
  243.7500     2.3710    48.6050     7.2740     6.6130     7.9490    23.6160   -20.7310 
  243.8750     2.3870    52.9720     7.5450     6.8590     8.4870    23.6090   -20.5240 
  244.0000     2.3860    53.9750     7.4250     6.7500     8.0850    23.6320   -20.3250 
  244.1250     2.3740    50.1530     6.8960     6.2690     7.1940    23.5590   -20.1950 
  244.2500     2.3670    45.5350     6.1940     5.6310     6.1710    23.3660   -20.0630 
  244.3750     2.3720    42.5450     5.4990     4.9990     5.1630    23.2000   -19.9710 
  244.5000     2.3910    40.4470     4.9400     4.4910     4.5170    23.1860   -19.9830 
  244.6250     2.4140    38.6030     4.6160     4.1960     4.2510    23.1860   -20.0720 
  244.7500     2.4310    37.4810     4.5020     4.0920     4.2020    23.1480   -20.2460 
  244.8750     2.4380    37.6720     4.5850     4.1680     4.2210    23.1430   -20.5250 
  245.0000     2.4330    40.3900     4.8350     4.3960     4.3540    23.2020   -20.8990 
  245.1250     2.4270    45.6350     5.2000     4.7280     4.7800    23.3080   -21.3900 
  245.2500     2.4270    50.9390     5.5610     5.0560     5.3330    23.3520   -22.0010 
  245.3750     2.4360    54.8880     5.8370     5.3070     5.6420    23.4320   -22.7440 
  245.5000     2.4460    57.5590     5.9990     5.4540     5.7670    23.5780   -23.6030 
  245.6250     2.4430    62.3900     6.0920     5.5380     6.0480    23.6230   -24.5660 
  245.7500     2.4220    69.2460     6.2370     5.6700     6.0740    23.6780   -25.5830 
  245.8750     2.3880    74.9460     6.5210     5.9280     6.1260    23.7320   -26.6380 
  246.0000     2.3500    77.2540     6.9710     6.3370     7.0140    23.7550   -27.6860 
  246.1250     2.3210    77.7410     7.5550     6.8680     8.4970    23.7550   -28.6850 
  246.2500     2.3030    79.3160     8.1370     7.3970     9.6480    23.7370   -29.6270 
  246.3750     2.2940    81.6790     8.6060     7.8240    10.5020    23.7160   -30.4720 
  246.5000     2.2890    82.5520     8.9020     8.0930    11.1710    23.7320   -31.2140 
  246.6250     2.2810    80.6810     9.0350     8.2130    11.0470    23.7300   -31.8420 
  246.7500     2.2690    78.7830     9.1310     8.3010    10.6560    23.6980   -32.3860 
  246.8750     2.2550    79.9530     9.2670     8.4240    10.5180    23.6550   -32.8190 
  247.0000     2.2440    83.3850     9.4620     8.6020    11.0820    23.6290   -33.1550 
  247.1250     2.2430    84.8060     9.6970     8.8150    11.4940    23.5070   -33.4030 
  247.2500     2.2480    83.9360     9.9250     9.0230    11.6480    23.3330   -33.5850 
  247.3750     2.2550    82.1340    10.1360     9.2150    11.7700    23.0580   -33.6800 
  247.5000     2.2610    80.9590    10.3380     9.3980    11.9280    22.8810   -33.6430 
  247.6250     2.2690    81.3940    10.5350     9.5770    12.0180    22.7990   -33.4390 
  247.7500     2.2800    82.2730    10.7050     9.7320    12.1500    22.7450   -33.1360 
  247.8750     2.2960    83.6940    10.8180     9.8340    12.3280    22.7100   -32.8110 
  248.0000     2.3120    85.2070    10.8700     9.8820    12.4510    22.6880   -32.4530 
  248.1250     2.3190    86.7930    10.9060     9.9140    12.2870    22.6320   -32.0130 
  248.2500     2.3150    87.3120    10.9840     9.9860    11.9030    22.5450   -31.5040 
  248.3750     2.3030    87.1340    11.1250    10.1130    11.8970    22.5310   -30.9250 
  248.5000     2.2880    88.1610    11.2810    10.2550    12.1610    22.5290   -30.2980 
  248.6250     2.2820    87.6330    11.2880    10.2620    12.2410    22.5090   -29.6540 
  248.7500     2.2860    85.8250    11.0010    10.0010    12.2810    22.5140   -29.0440 
  248.8750     2.3020    83.9330    10.3660     9.4240    11.5740    22.5270   -28.4890 
  249.0000     2.3230    82.2790     9.4730     8.6110    10.2570    22.5380   -28.0400 
  249.1250     2.3400    80.3730     8.5320     7.7560     8.8890    22.5240   -27.7880 
  249.2500     2.3480    77.2570     7.7540     7.0490     7.0100    22.5110   -27.7170 
  249.3750     2.3430    74.9310     7.2370     6.5790     6.2780    22.4440   -27.8230 
  249.5000     2.3290    75.1650     6.9960     6.3600     6.4350    22.3850   -28.1010 
  249.6250     2.3080    78.4460     7.0170     6.3790     6.7180    22.3900   -28.5330 
  249.7500     2.2860    81.0160     7.1630     6.5120     7.0400    22.4140   -29.0260 
  249.8750     2.2650    80.6520     7.3400     6.6730     7.5150    22.4400   -29.5550 
  250.0000     2.2460    78.7520     7.4760     6.7960     7.9490    22.5020   -30.0790 
  250.1250     2.2300    77.3030     7.5400     6.8550     7.6170    22.5280   -30.5670 
  250.2500     2.2170    77.5670     7.5930     6.9030     7.2040    22.5330   -31.0520 
  250.3750     2.2080    78.8980     7.7050     7.0040     7.0000    22.5320   -31.5190 
  250.5000     2.2060    78.9920     7.9300     7.2090     7.2590    22.5250   -31.9650 
  250.6250     2.2130    76.9050     8.2840     7.5310     7.8120    22.5220   -32.3520 
  250.7500     2.2260    74.6500     8.6640     7.8770     8.5310    22.5150   -32.6730 
  250.8750     2.2410    74.0150     8.9690     8.1530     9.3640    22.5240   -32.8740 
  251.0000     2.2520    74.6130     9.1400     8.3090    10.0870    22.5260   -32.9780 
  251.1250     2.2570    75.1010     9.1950     8.3590     9.5980    22.5420   -32.9640 
  251.2500     2.2600    75.4950     9.2300     8.3910     9.1260    22.5450   -32.8370 
  251.3750     2.2680    76.0290     9.2790     8.4360    10.3210    22.5470   -32.6370 
  251.5000     2.2800    76.5570     9.3020     8.4560    12.8840    22.5510   -32.3550 
  251.6250     2.2890    77.0540     9.1600     8.3270    12.1420    22.3630   -32.0100 
  251.7500     2.2870    77.4980     8.8100     8.0090     9.1650    22.1840   -31.6780 
  251.8750     2.2720    78.0430     8.3190     7.5630     7.3810    22.2490   -31.4410 
  252.0000     2.2510    78.1560     7.8410     7.1280     6.4920    22.3660   -31.3050 
  252.1250     2.2340    78.1560     7.5780     6.8890     6.1970    22.4110   -31.2090 
  252.2500     2.2260    78.1560     7.5750     6.8870     6.3250    22.3500   -31.0610 
  252.3750     2.2270    78.1560     7.7940     7.0860     6.6990    22.2500   -30.7990 
  252.5000     2.2310    78.1560     8.1120     7.3740     7.2770    22.2230   -30.4140 
  252.6250     2.2350    78.1560     8.3250     7.5680     7.7760    22.2890   -29.9290 
  252.7500     2.2380    78.1560     8.3040     7.5490     7.7650    22.4060   -29.3640 
  252.8750     2.2410    78.1560     8.0190     7.2900     7.3900    22.5180   -28.6760 
  253.0000     2.2500    78.1560     7.5240     6.8400     7.2350    22.6040   -27.8390 
  253.1250     2.2640    78.1560     6.9250     6.2950     6.9370    22.6990   -26.9600 
  253.2500     2.2810    78.1560     6.3680     5.7890     6.0890    22.7440   -26.2000 
  253.3750     2.2940    78.1560     5.9460     5.4050     5.4740    22.7790   -25.6690 
