~V
VERS. 2.00: Ver 2.00
~W
STRT.M 60.0000:
STOP.M 239.0000:
STEP.M 0.1250:
NULL. -999.2500:
UWI. F10775:
~C
DEPT.M :
DEN.GM/CC :
SP.MV :
GR.API :
RML.OHMM :
RI. :
RXO.OHMM :
CALI.CM :
~A
# ...
   82.5000     2.2300    -7.3480    41.6100    15.2350    13.5490     9.9520    26.8340 
   82.6250     2.2160    -7.4610    39.3760    15.6970    13.6550    10.0810    26.8180 
   82.7500     2.2040    -7.5690    38.1420    16.6480    14.2880    10.6930    26.7720 
   82.8750     2.1930    -7.7090    38.4910    17.8010    15.2510    11.7320    26.7320 
   83.0000     2.1870    -7.8080    39.6520    18.8670    16.2650    12.4990    26.7050 
   83.1250     2.1880    -7.8490    40.7090    19.6070    17.0030    12.4300    26.6720 
   83.2500     2.1930    -7.8300    40.9290    20.0810    17.4300    11.9070    26.6580 
   83.3750     2.2010    -7.7270    40.5820    20.4250    17.6720    11.6180    26.6560 
   83.5000     2.2100    -7.5530    40.5600    20.7670    17.8880    11.8850    26.6740 
   83.6250     2.2230    -7.3690    39.8630    21.1370    18.1650    12.4470    26.7550 
   83.7500     2.2450    -7.1670    37.5320    21.4470    18.4540    12.8690    26.8750 
   83.8750     2.2730    -6.8850    35.1780    21.6030    18.6660    12.9640    26.8970 
   84.0000     2.2940    -6.5380    34.9670    21.5690    18.7400    12.7390    26.7400 
   84.1250     2.2910    -6.1770    36.7640    21.3790    18.6830    12.5000    26.5950 
   84.2500     2.2680    -5.8220    37.0960    21.1700    18.6030    12.3160    26.4850 
   84.3750     2.2370    -5.4720    36.7780    21.0370    18.5820    12.2740    26.3960 
   84.5000     2.2100    -5.1440    38.6410    21.0320    18.6730    12.3040    26.3200 
   84.6250     2.1950    -4.7410    42.2170    21.1100    18.9000    12.2350    26.2600 
   84.7500     2.1900    -4.3250    43.4760    21.0500    19.1250    12.1770    26.2230 
   84.8750     2.1930    -3.8630    41.7180    20.5600    19.0780    12.1440    26.2110 
   85.0000     2.2130    -3.4130    40.5830    19.3730    18.4070    12.0400    26.2190 
   85.1250     2.2590    -2.8390    42.5980    17.3030    16.7410    11.9960    26.2770 
   85.2500     2.3220    -2.1870    45.9030    14.7730    14.4250    11.8270    26.4830 
   85.3750     2.3830    -1.4600    50.0110    12.2580    11.9600    10.8370    26.9570 
   85.5000     2.4160    -0.7980    53.9280    10.2210     9.8500     8.9740    27.6690 
   85.6250     2.3970    -0.3410    55.7170     9.1210     8.5170     7.3590    28.1280 
   85.7500     2.3400    -0.1760    55.5360     8.9210     7.9290     6.6520    28.1180 
   85.8750     2.2670    -0.3560    53.9680     9.5470     8.0690     6.6580    27.6370 
   86.0000     2.2090    -0.7980    52.0040    10.7870     8.8800     7.6150    26.8670 
   86.1250     2.1920    -1.4460    49.1530    12.2020    10.1940     8.9410    26.4380 
   86.2500     2.2130    -2.1960    46.1600    13.1780    11.3930     9.7660    26.2810 
   86.3750     2.2580    -2.9650    43.5000    13.3480    11.9010     9.9300    26.2560 
   86.5000     2.3050    -3.5870    42.7680    12.7320    11.5210     9.8970    26.2860 
   86.6250     2.3260    -4.0610    46.4640    11.7730    10.6170     9.2710    26.4590 
   86.7500     2.3150    -4.3530    52.0020    11.1380     9.8850     8.1090    26.6750 
   86.8750     2.2790    -4.5430    54.1650    11.1640     9.6540     7.4730    26.6380 
   87.0000     2.2360    -4.6270    52.1290    11.9100    10.0360     8.6780    26.2200 
   87.1250     2.2060    -4.6880    50.8750    13.2640    11.0640    10.7670    25.9390 
   87.2500     2.1940    -4.6740    51.3240    14.8200    12.4530    11.5940    25.8320 
   87.3750     2.1930    -4.6500    50.3040    16.3200    13.9530    11.3230    25.8180 
   87.5000     2.1930    -4.6520    47.2330    17.6150    15.3490    11.0110    25.8150 
   87.6250     2.1870    -4.5540    45.9290    18.6000    16.5440    11.1950    25.8170 
   87.7500     2.1760    -4.3250    45.1300    19.1910    17.5490    11.7730    25.8210 
   87.8750     2.1700    -3.8770    43.5800    19.1130    18.1280    12.1350    25.8370 
   88.0000     2.1790    -3.3130    42.3250    18.0500    17.7720    12.3110    25.8770 
   88.1250     2.2180    -2.5990    45.0090    15.7820    15.9020    12.2560    25.9280 
   88.2500     2.2780    -1.8690    51.3690    12.9320    13.1480    11.3640    26.0230 
   88.3750     2.3380    -1.1350    57.9080    10.1420    10.3140     9.3810    26.2170 
   88.5000     2.3750    -0.4870    60.9990     7.9330     8.0070     6.8190    26.5420 
   88.6250     2.3720    -0.0060    61.8020     6.6550     6.5550     5.4350    26.9100 
   88.7500     2.3460     0.3570    63.8640     6.0780     5.7560     5.0450    27.1360 
   88.8750     2.3210     0.6300    65.5340     6.0020     5.4650     5.2920    27.1020 
   89.0000     2.3120     0.8200    63.3350     6.2080     5.5280     5.9410    26.9400 
   89.1250     2.3260     0.8590    59.0060     6.5040     5.7850     6.5170    26.7620 
   89.2500     2.3450     0.8110    57.3810     6.7760     6.0530     6.6880    26.6670 
   89.3750     2.3540     0.5850    60.7480     7.0790     6.3160     6.4510    26.7930 
   89.5000     2.3460     0.2480    65.5600     7.5810     6.6890     6.5950    26.8940 
   89.6250     2.3240    -0.2430    64.5490     8.5800     7.4450     6.9470    26.6830 
   89.7500     2.3110    -0.7890    59.7450    10.1270     8.7420     7.7130    26.3010 
   89.8750     2.3250    -1.3350    56.3790    12.1140    10.6600     9.2410    26.0530 
   90.0000     2.3640    -1.8380    55.7800    14.1780    13.0510    11.5050    26.0070 
   90.1250     2.3990    -2.2580    54.0520    15.5880    15.2120    12.5950    25.9980 
   90.2500     2.4010    -2.6350    50.9500    15.8970    16.2300    11.9670    25.9070 
   90.3750     2.3640    -2.8150    48.3910    15.0210    15.7010    10.7250    25.8800 
   90.5000     2.3110    -2.7470    47.9070    13.2710    13.9470     9.8950    25.9380 
   90.6250     2.2810    -2.2600    49.8060    11.1720    11.6720     9.5190    26.0790 
   90.7500     2.2860    -1.4860    54.3960     9.2360     9.5390     8.8780    26.3790 
   90.8750     2.3160    -0.5910    61.3630     7.6620     7.7690     7.5460    26.8900 
   91.0000     2.3500     0.3040    66.9830     6.5360     6.4260     6.3030    27.4000 
   91.1250     2.3660     1.0440    67.7110     6.0220     5.6050     5.8380    27.5560 
   91.2500     2.3620     1.6860    66.3640     6.1760     5.2900     5.8070    27.5050 
   91.3750     2.3440     2.1070    65.0050     7.2240     5.5960     6.2000    27.3880 
   91.5000     2.3330     2.2770    62.0720     9.4720     6.7430     6.9220    27.2390 
   91.6250     2.3610     2.1620    56.5680    13.5050     9.3930     9.1920    27.2120 
   91.7500     2.4300     1.7570    51.0170    19.0220    13.8380    14.7520    27.5130 
   91.8750     2.5220     1.1430    46.9330    25.1890    20.0400    25.3430    27.9010 
   92.0000     2.6000     0.3660    45.4330    30.3470    26.6470    35.1500    28.0240 
   92.1250     2.6160    -0.4670    46.0810    32.1480    30.1970    32.4230    27.7770 
   92.2500     2.5640    -1.3060    47.0770    30.7620    29.7060    22.3660    27.4700 
   92.3750     2.4590    -2.1030    48.1240    27.5510    26.7750    16.3980    27.2630 
   92.5000     2.3340    -2.8220    49.5770    24.2820    23.5530    13.8620    27.1860 
   92.6250     2.2240    -3.5730    49.2950    22.2670    21.3840    13.1660    27.1920 
   92.7500     2.1470    -4.2380    47.8640    21.3930    20.2160    12.9750    27.2320 
   92.8750     2.1040    -4.8090    47.5280    21.2780    19.7740    12.8050    27.2850 
   93.0000     2.0900    -5.2370    47.0960    21.5190    19.7520    12.7310    27.3280 
   93.1250     2.0950    -5.4750    44.9750    21.7930    19.8760    12.6910    27.3590 
   93.2500     2.1040    -5.6850    44.2420    21.9330    19.9410    12.7050    27.3900 
   93.3750     2.1120    -5.8350    46.7280    21.9120    19.8940    12.7110    27.4220 
   93.5000     2.1160    -5.9530    50.0200    21.7660    19.7450    12.6560    27.4600 
   93.6250     2.1200    -6.0180    49.5470    21.5610    19.5240    12.3800    27.5230 
