~V
VERS. 2.00: Ver 2.00
~W
STRT.M 50.0000:
STOP.M 226.0000:
STEP.M 0.1250:
NULL. -999.2500:
UWI. F10778:
~C
DEPT.M :
DEN.GM/CC :
GR.API :
RML.OHMM :
RI. :
RXO.OHMM :
CALI.CM :
SP.MV :
~A
# ...
  173.7500     2.3730    57.4600     9.7300     9.0980     7.9250    22.7910    -7.6950 
  173.8750     2.3830    58.9870     9.8110     9.0290     7.7950    22.8180    -7.6390 
  174.0000     2.3960    58.2280    10.1430     9.2340     7.9300    22.7730    -7.5460 
  174.1250     2.4070    55.7220    10.6430     9.6800     8.7910    22.7980    -7.5110 
  174.2500     2.4120    53.8910    11.1380    10.2120    10.1300    22.8740    -7.4830 
  174.3750     2.4130    53.3870    11.5100    10.7040    10.9670    22.9170    -7.3540 
  174.5000     2.4160    53.5100    11.7140    11.0730    10.9290    22.9360    -7.2430 
  174.6250     2.4260    55.0690    11.8310    11.3120    11.2710    22.9750    -7.1970 
  174.7500     2.4400    58.4520    12.0760    11.5750    11.2200    22.9970    -7.1120 
  174.8750     2.4530    61.7000    12.6200    12.0250    11.1100    22.9190    -7.0640 
  175.0000     2.4600    63.5240    13.5060    12.7680    11.6100    22.8030    -7.1160 
  175.1250     2.4590    65.7480    14.5190    13.7260    12.6620    22.7020    -7.1660 
  175.2500     2.4550    69.1170    15.1370    14.4480    14.2670    22.6740    -7.2270 
  175.3750     2.4520    70.7080    14.8930    14.4400    15.4910    22.7290    -7.3800 
  175.5000     2.4470    69.7430    13.5890    13.4070    15.3390    22.8180    -7.5390 
  175.6250     2.4350    68.6540    11.4220    11.4310    13.1660    22.8390    -7.6440 
  175.7500     2.4100    69.1150     9.1880     9.2610    10.1870    22.9080    -7.7810 
  175.8750     2.3780    71.8720     7.4270     7.4190     7.7110    23.0100    -7.9330 
  176.0000     2.3470    75.9600     6.4340     6.2000     6.7630    23.0760    -8.0290 
  176.1250     2.3290    80.0910     6.4480     5.8280     6.3530    23.0450    -8.0920 
  176.2500     2.3260    82.7640     7.3660     6.2260     6.5280    22.9750    -8.2130 
  176.3750     2.3280    83.2600     9.2180     7.4690     7.5980    22.8930    -8.3570 
  176.5000     2.3260    81.5820    11.8900     9.5930    10.2630    22.8210    -8.5010 
  176.6250     2.3150    78.4650    14.8420    12.3810    15.1330    22.7760    -8.7350 
  176.7500     2.3050    78.3110    17.0050    14.8470    17.2480    22.8000    -8.9690 
  176.8750     2.3040    80.0480    17.5400    16.0070    17.0970    22.8060    -9.1620 
  177.0000     2.3200    80.7930    16.2600    15.3750    16.7090    22.7610    -9.3700 
  177.1250     2.3440    83.4520    13.8030    13.2850    13.9950    22.7480    -9.6270 
  177.2500     2.3640    89.1370    11.5670    11.0740    10.3190    22.7830    -9.8410 
  177.3750     2.3770    92.9670    10.3450     9.5140     7.8360    22.9350    -9.9950 
  177.5000     2.3840    90.7670    10.5060     8.9600     7.0070    23.1160   -10.1650 
  177.6250     2.3870    84.7280    12.3770     9.7520     7.7760    23.0590   -10.2940 
  177.7500     2.3790    78.9620    15.5540    11.7660     9.9100    22.7240   -10.3920 
  177.8750     2.3530    72.1950    19.5250    14.8390    12.8340    22.2150   -10.5220 
  178.0000     2.3080    65.7120    23.3250    18.3520    14.1280    21.8940   -10.6740 
  178.1250     2.2580    62.6500    25.4170    21.0010    14.4930    21.9220   -10.7490 
  178.2500     2.2200    62.4970    25.3700    21.9580    15.3950    22.3070   -10.8030 
  178.3750     2.2010    63.5110    23.5360    21.1750    16.0680    22.9170   -10.8750 
  178.5000     2.1970    64.4760    20.7830    19.2300    15.7440    23.3640   -10.8710 
  178.6250     2.2030    64.5170    17.9620    16.8420    14.5470    23.5970   -10.8320 
  178.7500     2.2150    65.3930    15.4620    14.5300    13.7060    23.8220   -10.8500 
  178.8750     2.2310    69.2810    13.3420    12.4510    12.3380    24.0360   -10.8230 
  179.0000     2.2530    75.6940    11.6170    10.6880    10.3420    24.1440   -10.7260 
  179.1250     2.2790    80.8930    10.3870     9.3770     8.7700    24.1500   -10.6720 
  179.2500     2.3010    82.5510     9.5810     8.4780     8.1060    24.1810   -10.6260 
  179.3750     2.3170    81.4610     9.1570     7.9600     7.8880    24.2340   -10.5350 
  179.5000     2.3250    79.8990     9.0320     7.7600     8.0680    24.2690   -10.4470 
  179.6250     2.3250    79.0910     9.1100     7.8110     8.2910    24.3470   -10.4040 
  179.7500     2.3190    76.9090     9.2180     7.9520     8.3310    24.4280   -10.3110 
  179.8750     2.3080    74.1080     9.2470     8.0710     8.2880    24.5730   -10.1720 
  180.0000     2.2940    73.6790     9.1210     8.0740     8.4110    24.7720   -10.0520 
  180.1250     2.2860    75.5760     8.7910     7.8810     8.7380    24.9510    -9.9450 
  180.2500     2.2880    75.2580     8.3340     7.5360     8.4170    25.2070    -9.7850 
  180.3750     2.3010    73.4100     7.8320     7.1060     7.6300    25.4930    -9.6340 
  180.5000     2.3240    74.2100     7.3730     6.6710     7.0020    25.7260    -9.5290 
  180.6250     2.3490    77.5470     7.0420     6.3210     6.6630    25.8440    -9.3330 
  180.7500     2.3690    78.8120     6.8460     6.0830     6.6100    25.8780    -9.1030 
  180.8750     2.3830    77.4670     6.7650     5.9570     6.6610    25.8500    -8.9650 
  181.0000     2.3890    75.6870     6.7580     5.9170     6.6570    25.7890    -8.8600 
  181.1250     2.3890    77.2580     6.7780     5.9280     6.6600    25.7560    -8.6960 
  181.2500     2.3840    79.6650     6.7880     5.9450     6.7420    25.7240    -8.6140 
  181.3750     2.3750    80.0660     6.7820     5.9510     6.7620    25.6600    -8.5870 
  181.5000     2.3670    78.7410     6.7650     5.9450     6.6800    25.5970    -8.5440 
  181.6250     2.3630    78.2800     6.7520     5.9330     6.5250    25.5420    -8.5980 
  181.7500     2.3660    79.4020     6.7520     5.9280     6.3960    25.4210    -8.7530 
  181.8750     2.3770    79.9660     6.7640     5.9350     6.3340    25.1890    -8.8750 
  182.0000     2.3930    79.9180     6.7820     5.9450     6.3340    24.8810    -8.9730 
  182.1250     2.4080    80.0000     6.7880     5.9430     6.3260    24.5920    -9.1540 
  182.2500     2.4150    79.6640     6.7860     5.9220     6.3440    24.3550    -9.2770 
  182.3750     2.4120    78.3290     6.8140     5.9080     6.5630    24.1730    -9.2940 
  182.5000     2.4040    77.7720     6.9390     5.9550     6.7660    24.0290    -9.2930 
  182.6250     2.3930    80.2280     7.2520     6.1580     6.9080    23.8730    -9.2820 
  182.7500     2.3830    81.9180     7.7220     6.5200     7.0150    23.7390    -9.2050 
  182.8750     2.3710    80.7260     8.2580     6.9850     7.6090    23.6130    -9.1000 
  183.0000     2.3530    77.4250     8.7220     7.4380     9.1630    23.3580    -9.0200 
  183.1250     2.3330    75.2290     8.9800     7.7270    10.5580    23.1460    -8.9260 
  183.2500     2.3210    75.3930     9.1050     7.8590     9.8310    23.2200    -8.8440 
  183.3750     2.3240    75.5980     9.2570     7.9370     8.4140    23.4880    -8.8580 
  183.5000     2.3410    74.0920     9.6040     8.1130     7.6930    23.7000    -8.9420 
  183.6250     2.3570    70.2660    10.2460     8.5280     8.4440    23.6830    -9.0050 
  183.7500     2.3600    67.7000    11.0050     9.1100    10.8460    23.5750    -9.0990 
  183.8750     2.3530    67.6920    11.6740     9.7130    13.6670    23.5110    -9.2290 
  184.0000     2.3490    68.9860    12.1270    10.1900    14.1600    23.4930    -9.3170 
  184.1250     2.3650    71.2850    12.4640    10.5090    12.1330    23.5180    -9.3950 
  184.2500     2.3980    72.4000    13.0540    10.9050    10.1450    23.5120    -9.5100 
  184.3750     2.4280    70.0960    14.3660    11.6830    10.1770    23.3300    -9.5970 
  184.5000     2.4350    64.3630    16.7400    13.1220    12.5680    23.0160    -9.6660 
  184.6250     2.4070    60.5060    20.1090    15.4490    17.3080    22.7560    -9.8090 
  184.7500     2.3660    61.4670    23.5490    18.2500    19.7140    22.6330    -9.9510 
  184.8750     2.3330    63.1320    26.2930    20.9440    20.5000    22.6350   -10.0570 
