~V
VERS. 2.00: Ver 2.00
~W
STRT.M 55.0000:
STOP.M 262.0000:
STEP.M 0.1250:
NULL. -999.2500:
UWI. F10759:
~C
DEPT.M :
DEN.GM/CC :
GR.API :
RML.OHMM :
RI. :
RXO.OHMM :
CALI.CM :
SP.MV :
~A
# ...
   77.5000     2.1800    59.3930     7.8940     6.9090     7.7220    22.2060   -26.9620 
   77.6250     2.1830    60.9920     7.7220     6.7780     7.7980    21.8460   -26.6280 
   77.7500     2.1900    64.6970     7.4000     6.5300     7.7990    21.7640   -26.2540 
   77.8750     2.1940    69.6400     7.0160     6.2190     7.6030    21.8490   -25.8940 
   78.0000     2.1910    72.4260     6.7020     5.9370     7.1210    21.8470   -25.5830 
   78.1250     2.1810    69.8290     6.6260     5.8060     6.3830    21.7070   -25.3830 
   78.2500     2.1720    65.4780     6.8050     5.8590     6.1770    21.6260   -25.3120 
   78.3750     2.1690    62.8870     7.1860     6.0830     6.6500    21.6570   -25.3040 
   78.5000     2.1700    62.6530     7.6560     6.4170     7.3430    21.6190   -25.3880 
   78.6250     2.1730    63.2820     8.0410     6.7530     7.6270    21.6660   -25.6140 
   78.7500     2.1750    62.8300     8.2350     6.9860     7.5280    21.6680   -25.9370 
   78.8750     2.1760    61.7450     8.2290     7.0740     7.2370    21.6780   -26.3160 
   79.0000     2.1780    61.2120     8.0970     7.0410     6.9650    21.7250   -26.6820 
   79.1250     2.1820    61.0710     7.9400     6.9410     6.8230    21.7820   -26.9570 
   79.2500     2.1860    59.2310     7.8160     6.8340     6.6880    21.9240   -27.1460 
   79.3750     2.1860    55.3240     7.7340     6.7430     6.5230    22.2410   -27.2980 
   79.5000     2.1820    52.5700     7.6840     6.6750     6.5430    22.5700   -27.3720 
   79.6250     2.1770    53.6780     7.6560     6.6310     6.6170    22.4140   -27.3240 
   79.7500     2.1750    56.7140     7.6440     6.6020     6.6880    22.3000   -27.1730 
   79.8750     2.1790    60.8960     7.6560     6.5910     6.8040    22.2820   -26.9450 
   80.0000     2.1860    65.0270     7.6930     6.6000     6.9900    22.2460   -26.6330 
   80.1250     2.1930    67.0320     7.7540     6.6330     7.1910    22.1900   -26.2630 
   80.2500     2.2000    68.1790     7.8200     6.6850     7.2470    22.1320   -25.8430 
   80.3750     2.2080    71.5310     7.8790     6.7470     7.3150    22.0590   -25.3870 
   80.5000     2.2160    75.8960     7.9200     6.8100     7.1770    21.9490   -24.9550 
   80.6250     2.2240    74.8450     7.9310     6.8580     6.9490    21.9450   -24.5890 
   80.7500     2.2290    70.7040     7.9050     6.8790     6.8330    21.7670   -24.2930 
   80.8750     2.2260    67.6820     7.8360     6.8580     6.8040    21.7330   -24.0700 
   81.0000     2.2100    66.4950     7.7270     6.7900     6.7620    21.7340   -23.9110 
   81.1250     2.1800    67.1820     7.5910     6.6770     6.8030    21.3850   -23.8050 
   81.2500     2.1440    70.1180     7.4590     6.5470     6.8660    21.1210   -23.7680 
   81.3750     2.1090    72.7870     7.3600     6.4260     6.8790    20.9980   -23.7950 
   81.5000     2.0860    70.9300     7.3130     6.3370     6.9580    21.0060   -23.8870 
   81.6250     2.0830    66.1370     7.3350     6.3050     7.1040    21.1190   -24.0350 
   81.7500     2.0970    65.0380     7.4040     6.3220     7.1720    21.3800   -24.1950 
   81.8750     2.1190    67.7800     7.4930     6.3700     7.1400    21.8580   -24.3140 
   82.0000     2.1390    69.4890     7.5730     6.4270     7.0850    22.1990   -24.4120 
   82.1250     2.1530    67.3240     7.6160     6.4610     7.0470    22.4930   -24.4330 
   82.2500     2.1640    63.9750     7.6190     6.4610     7.0330    22.5620   -24.3480 
   82.3750     2.1750    61.8260     7.5870     6.4290     6.9930    22.5420   -24.1890 
   82.5000     2.1850    61.1790     7.5370     6.3750     6.8920    22.2760   -23.9730 
   82.6250     2.1880    61.0370     7.4860     6.3120     6.7150    21.7920   -23.7350 
   82.7500     2.1790    62.4930     7.4500     6.2580     6.5450    21.2560   -23.5390 
   82.8750     2.1620    65.3580     7.4350     6.2280     6.3740    20.7930   -23.4130 
   83.0000     2.1390    67.2980     7.4420     6.2330     6.2560    20.7200   -23.3750 
   83.1250     2.1200    67.6260     7.4570     6.2730     6.2710    20.9160   -23.4660 
   83.2500     2.1080    67.5020     7.4630     6.3290     6.4900    21.0500   -23.6550 
   83.3750     2.1090    68.7100     7.4490     6.3800     6.8540    21.2540   -23.8900 
   83.5000     2.1240    69.2930     7.4170     6.4160     7.0630    21.8130   -24.1190 
   83.6250     2.1500    66.2850     7.3810     6.4360     6.8920    22.4890   -24.2290 
   83.7500     2.1770    63.8300     7.3680     6.4550     6.6420    22.9110   -24.1930 
   83.8750     2.1970    62.9420     7.4000     6.4850     6.4680    23.4570   -23.9960 
   84.0000     2.2030    62.1970     7.4810     6.5300     6.4570    23.5810   -23.6070 
   84.1250     2.1920    59.2590     7.5720     6.5630     6.4250    23.3980   -22.9720 
   84.2500     2.1690    57.1170     7.5730     6.5220     6.2480    23.5170   -22.1300 
   84.3750     2.1440    59.8560     7.3700     6.3330     6.0680    23.7130   -21.0590 
   84.5000     2.1300    66.1680     6.8810     5.9370     5.9700    23.7180   -19.7560 
   84.6250     2.1420    72.4750     6.1070     5.3280     5.8440    23.2000   -18.2950 
   84.7500     2.1770    78.7680     5.3350     4.6850     5.3980    22.6800   -16.7920 
   84.8750     2.2210    87.1010     4.8830     4.2090     4.6600    22.3380   -15.3900 
   85.0000     2.2620    97.2910     5.0210     4.0900     4.2310    21.9300   -14.1770 
   85.1250     2.2950   102.1070     6.0910     4.5910     4.5170    21.4270   -13.2830 
   85.2500     2.3330    95.8180     8.0500     5.7740     5.6690    21.0980   -12.6970 
   85.3750     2.3880    83.4070    10.7450     7.6850     8.5010    20.9950   -12.4860 
   85.5000     2.4600    73.8400    13.5390    10.0680    14.9990    21.0630   -12.6760 
   85.6250     2.5250    71.0530    14.7670    11.7810    21.9620    21.4070   -13.2910 
   85.7500     2.5500    69.7100    13.7180    11.7900    22.3610    21.8510   -14.1990 
   85.8750     2.5180    68.0120    11.2210    10.3230    16.3980    22.2170   -15.2570 
   86.0000     2.4380    68.2830     8.7520     8.4410    10.0990    22.4360   -16.3320 
   86.1250     2.3390    69.5910     7.2870     7.0370     7.9890    22.5910   -17.2820 
   86.2500     2.2560    68.6400     6.6570     6.2250     7.3150    22.8110   -18.0740 
   86.3750     2.2000    64.0460     6.5910     5.9050     7.1580    23.0110   -18.6240 
   86.5000     2.1730    58.0680     6.8180     5.9190     6.9600    23.2060   -18.8830 
   86.6250     2.1660    57.1260     7.0720     6.0860     6.5980    23.4340   -18.7310 
   86.7500     2.1670    60.9720     7.1450     6.1920     6.3390    23.5430   -18.1900 
   86.8750     2.1730    65.2510     6.9470     6.1170     6.2640    23.5490   -17.2610 
   87.0000     2.1850    68.8570     6.4860     5.8240     6.0570    23.5460   -16.0080 
   87.1250     2.2060    74.5080     5.8450     5.3430     5.3750    23.4750   -14.5090 
   87.2500     2.2350    81.5700     5.2160     4.8210     4.5180    23.4530   -12.9230 
   87.3750     2.2690    85.2430     4.7230     4.3630     4.0600    23.5390   -11.3790 
   87.5000     2.3050    85.2250     4.4350     4.0440     3.8960    23.6100    -9.9780 
   87.6250     2.3350    86.7060     4.4010     3.9290     3.8660    23.5960    -8.8450 
   87.7500     2.3580    90.7530     4.5620     3.9900     3.9440    23.6100    -7.9890 
   87.8750     2.3700    93.8590     4.8930     4.2090     4.2010    23.6450    -7.4480 
   88.0000     2.3710    92.2400     5.3610     4.5620     4.5180    23.6690    -7.2560 
   88.1250     2.3590    86.2290     5.9190     5.0170     4.7690    23.5390    -7.4060 
   88.2500     2.3390    78.8080     6.4480     5.4820     5.1700    23.4290    -7.7480 
   88.3750     2.3180    74.3010     6.8220     5.8590     5.8030    23.3410    -8.1630 
   88.5000     2.3050    75.8080     6.9270     6.0450     6.5310    23.2560    -8.5320 
   88.6250     2.3060    80.5650     6.6990     5.9480     6.9420    23.2200    -8.8280 
