~V
VERS. 2.00: Ver 2.00
~W
STRT.M 55.0000:
STOP.M 262.0000:
STEP.M 0.1250:
NULL. -999.2500:
UWI. F10759:
~C
DEPT.M :
DEN.GM/CC :
GR.API :
RML.OHMM :
RI. :
RXO.OHMM :
CALI.CM :
SP.MV :
~A
# ...
   66.2500     2.2040    55.7140    14.5900    15.3250    12.6160    22.7710   -16.1270 
   66.3750     2.2230    52.7170    14.7740    15.5530    12.8720    22.3930   -16.0550 
   66.5000     2.2390    50.0500    14.8820    15.7550    13.2780    22.1570   -15.9740 
   66.6250     2.2420    49.3830    14.9010    15.8660    13.4370    21.9100   -15.8900 
   66.7500     2.2320    51.1440    14.9190    15.9180    13.0220    21.9470   -15.7910 
   66.8750     2.2130    54.1010    15.0120    15.9760    12.2250    22.0050   -15.6830 
   67.0000     2.1920    57.7520    15.1570    16.0570    11.6240    22.0880   -15.5710 
   67.1250     2.1770    63.1250    15.0740    15.9700    11.5240    22.1610   -15.4190 
   67.2500     2.1680    65.3580    14.3870    15.3680    11.8150    22.2180   -15.2540 
   67.3750     2.1650    62.5350    12.8500    13.9500    11.9950    22.2160   -15.1070 
   67.5000     2.1690    60.5320    10.6130    11.7710    11.2610    22.1430   -14.9730 
   67.6250     2.1850    65.8190     8.3190     9.3720     9.1660    22.0690   -14.8310 
   67.7500     2.2100    72.4300     6.6020     7.4050     6.8340    22.0280   -14.7380 
   67.8750     2.2390    75.4840     5.6870     6.1320     5.2090    22.1890   -14.7090 
   68.0000     2.2620    76.1810     5.5930     5.6110     4.3600    22.3490   -14.7660 
   68.1250     2.2650    73.3710     6.4030     5.9550     4.8710    22.4580   -14.9490 
   68.2500     2.2470    67.1150     7.9040     7.0200     6.7530    22.5170   -15.1900 
   68.3750     2.2160    60.8280     9.9030     8.7280     9.2190    22.5210   -15.4360 
   68.5000     2.1870    56.6430    12.0010    10.8280    10.6190    22.1630   -15.6750 
   68.6250     2.1690    53.3080    13.4640    12.6910    10.6530    21.9870   -15.9470 
   68.7500     2.1600    51.1560    13.9620    13.7400    10.5110    21.8340   -16.2160 
   68.8750     2.1540    51.0280    13.6110    13.8550    10.5070    21.9880   -16.4430 
   69.0000     2.1460    52.0010    12.8030    13.3050    10.5070    22.2860   -16.6340 
   69.1250     2.1410    54.7760    11.9120    12.4470    10.2760    22.6730   -16.7510 
   69.2500     2.1470    59.5280    11.1550    11.5950     9.6230    23.0710   -16.8320 
   69.3750     2.1640    64.3150    10.6100    10.8800     9.0040    23.3160   -16.8950 
   69.5000     2.1840    65.8080    10.2980    10.3620     8.6730    23.2650   -16.9390 
   69.6250     2.1990    64.5890    10.2040    10.0730     8.5530    23.3160   -16.9510 
   69.7500     2.2080    62.9570    10.1980     9.9240     8.5490    23.3860   -16.9300 
   69.8750     2.2110    61.3850    10.1770     9.8370     8.5910    23.3480   -16.8860 
   70.0000     2.2130    60.3420    10.0700     9.7420     8.6370    23.1290   -16.8110 
   70.1250     2.2150    60.5820     9.8730     9.6100     8.5910    23.0390   -16.7220 
   70.2500     2.2150    62.2540     9.6840     9.4900     8.4090    23.0390   -16.6340 
   70.3750     2.2100    62.6850     9.5980     9.4490     8.3440    23.1390   -16.5500 
   70.5000     2.2010    62.1500     9.6900     9.5520     8.4210    23.2390   -16.4630 
   70.6250     2.1870    63.3650    10.0200     9.8650     8.6350    23.3010   -16.3470 
   70.7500     2.1750    66.0790    10.4870    10.3300     9.0220    23.3670   -16.2070 
   70.8750     2.1750    68.7500    10.9230    10.8270     9.2750    23.2670   -16.0440 
   71.0000     2.1890    69.7390    11.0700    11.1330     9.1920    22.9420   -15.8340 
   71.1250     2.2160    68.0440    10.5620    10.8690     9.0090    22.9210   -15.5570 
   71.2500     2.2430    64.3990     9.4510     9.9940     8.8250    23.0130   -15.2460 
   71.3750     2.2630    61.8140     7.9990     8.6950     8.2970    23.1940   -14.9160 
   71.5000     2.2750    62.8230     6.5990     7.3250     7.0930    23.2970   -14.6080 
   71.6250     2.2850    65.6550     5.6460     6.2700     5.4250    23.3170   -14.3640 
   71.7500     2.2940    67.9610     5.1720     5.6320     4.3580    23.3350   -14.1900 
   71.8750     2.3010    69.2070     5.1070     5.3960     4.1650    22.9360   -14.0800 
   72.0000     2.3010    70.0860     5.3210     5.4730     4.6430    22.1530   -14.0400 
   72.1250     2.2920    72.2330     5.6410     5.7270     5.3400    21.8100   -14.0800 
   72.2500     2.2830    76.9610     5.8620     5.9460     5.7910    21.8320   -14.1560 
   72.3750     2.2790    81.4990     5.8930     6.0100     5.7260    21.9780   -14.2650 
   72.5000     2.2860    83.6210     5.7600     5.9000     5.3390    22.0550   -14.3880 
   72.6250     2.3030    81.5910     5.5650     5.6760     5.2400    22.0650   -14.4840 
   72.7500     2.3240    79.0060     5.3940     5.4380     5.2380    21.9930   -14.5620 
   72.8750     2.3400    79.0100     5.2510     5.2160     4.9780    21.6600   -14.6680 
   73.0000     2.3430    81.5710     5.1120     5.0100     4.8820    21.4690   -14.8280 
   73.1250     2.3320    83.0250     5.0100     4.8410     5.0220    21.4620   -15.0570 
   73.2500     2.3160    83.3110     5.0870     4.8010     5.2720    21.5970   -15.3740 
   73.3750     2.3050    84.8280     5.5500     5.0350     5.4410    21.9860   -15.8110 
   73.5000     2.3100    85.7670     6.6340     5.7190     5.5150    22.5640   -16.3600 
   73.6250     2.3480    80.9170     8.6740     7.1650     6.1870    23.0550   -17.0830 
   73.7500     2.4130    75.0620    11.4510     9.3510     8.7410    23.2290   -17.9410 
   73.8750     2.4930    73.4230    14.3590    11.9780    15.1130    23.0200   -18.8900 
   74.0000     2.5610    73.9690    16.2120    14.1340    22.3020    22.6580   -19.9180 
   74.1250     2.5730    69.9880    15.5280    14.2960    21.7680    21.9460   -21.0630 
   74.2500     2.5210    63.4010    13.1520    12.7520    16.6580    21.4320   -22.2590 
   74.3750     2.4180    60.0250    10.4880    10.5900    11.6010    21.1630   -23.4650 
   74.5000     2.2980    61.6800     8.5130     8.7210     8.4250    21.0250   -24.6430 
   74.6250     2.1980    62.1040     7.5390     7.5620     7.3680    21.2700   -25.7060 
   74.7500     2.1390    58.2340     7.1690     6.9320     7.0700    21.6520   -26.6380 
   74.8750     2.1240    54.8920     7.1610     6.6870     6.8960    21.9470   -27.4330 
   75.0000     2.1430    56.4620     7.3220     6.6900     6.7920    22.0570   -28.0790 
   75.1250     2.1780    59.0990     7.4880     6.8070     6.7690    22.0940   -28.5410 
   75.2500     2.2040    58.4700     7.5790     6.9190     6.6990    22.2900   -28.8750 
   75.3750     2.2120    57.5440     7.6030     6.9950     6.6400    22.5570   -29.0720 
   75.5000     2.2020    58.4310     7.5900     7.0360     6.6370    22.6000   -29.1650 
   75.6250     2.1830    59.8440     7.5610     7.0460     6.7270    22.5360   -29.1910 
   75.7500     2.1660    60.4650     7.5280     7.0330     6.7970    22.3740   -29.1680 
   75.8750     2.1530    60.2500     7.4970     6.9990     6.8530    22.4600   -29.0950 
   76.0000     2.1440    58.2930     7.4730     6.9470     6.8960    22.7460   -28.9760 
   76.1250     2.1370    56.7820     7.4650     6.8890     6.8120    22.7060   -28.8240 
   76.2500     2.1330    58.6450     7.4700     6.8380     6.7200    22.3720   -28.6590 
   76.3750     2.1360    62.0440     7.4830     6.8000     6.7530    22.0760   -28.5030 
   76.5000     2.1450    64.2220     7.4980     6.7780     6.9770    22.0330   -28.3540 
   76.6250     2.1550    63.1080     7.5110     6.7710     7.1230    22.2200   -28.2120 
   76.7500     2.1660    62.0920     7.5300     6.7720     7.1010    22.4380   -28.0610 
   76.8750     2.1760    61.8360     7.5630     6.7810     7.1260    22.2340   -27.8920 
   77.0000     2.1860    61.3490     7.6170     6.7970     7.4050    22.0240   -27.7250 
   77.1250     2.1910    59.5290     7.7010     6.8290     7.5810    21.9560   -27.5770 
   77.2500     2.1900    58.1180     7.8030     6.8750     7.6120    22.0170   -27.4020 
   77.3750     2.1850    58.5910     7.8900     6.9170     7.6150    22.1320   -27.2080 
