~V
VERS. 2.00: Ver 2.00
~W
STRT.M 59.0000:
STOP.M 239.0000:
STEP.M 0.1250:
NULL. -999.2500:
UWI. F10784:
~C
DEPT.M :
DEN.GM/CC :
GR.API :
RML.OHMM :
RI. :
RXO.OHMM :
CALI.CM :
SP.MV :
~A
# ...
  149.0000     2.1510    63.4650    23.7040    21.0360     9.2420    23.9770    -3.2110 
  149.1250     2.1560    64.6710    24.0450    21.3620     9.1870    23.9740    -3.3780 
  149.2500     2.1670    62.6780    24.4260    21.7420     9.3330    23.9500    -3.4500 
  149.3750     2.1790    60.4620    24.8050    22.1410     9.3370    23.8930    -3.4120 
  149.5000     2.1940    59.0140    25.1030    22.5030     9.0270    23.8470    -3.3280 
  149.6250     2.2100    59.1330    25.1330    22.6850     8.7580    23.8310    -3.2520 
  149.7500     2.2250    59.8110    24.7850    22.5640     8.6980    23.8310    -3.2400 
  149.8750     2.2330    59.4400    24.0130    22.0540     8.9120    23.8310    -3.2870 
  150.0000     2.2290    58.9640    22.8920    21.1720     9.3040    23.8310    -3.4330 
  150.1250     2.2150    60.5070    21.6080    20.0340     9.3490    23.8290    -3.7180 
  150.2500     2.1980    63.9710    20.4510    18.9020     9.0630    23.8170    -4.0710 
  150.3750     2.1840    66.9490    19.6360    17.9780     8.6140    23.7910    -4.4100 
  150.5000     2.1750    68.3700    19.3340    17.4300     8.3420    23.7690    -4.5990 
  150.6250     2.1730    69.8330    19.7710    17.4720     8.3130    23.7650    -4.4420 
  150.7500     2.1720    69.6840    20.8780    18.0920     8.4200    23.7660    -3.9280 
  150.8750     2.1710    67.1250    22.6060    19.2960     8.5110    23.7660    -3.1120 
  151.0000     2.1680    62.5230    24.8280    21.0240     8.4140    23.7660    -2.0490 
  151.1250     2.1640    58.5260    27.3500    23.1610     8.1290    23.7660    -0.8030 
  151.2500     2.1620    56.5780    29.8440    25.3950     8.1350    23.7470     0.5390 
  151.3750     2.1620    54.9210    32.0650    27.4740     8.3510    23.6770     1.8570 
  151.5000     2.1640    53.1730    33.8140    29.1790     8.4560    23.5330     3.1020 
  151.6250     2.1670    53.1560    34.8470    30.2570     8.2780    23.4800     4.0260 
  151.7500     2.1710    55.0880    35.2340    30.7460     8.2620    23.5050     4.6910 
  151.8750     2.1760    57.4820    35.0650    30.7000     8.3410    23.5760     5.1040 
  152.0000     2.1840    60.1610    34.5360    30.2720     8.3200    23.6510     5.3160 
  152.1250     2.1950    63.4640    33.9510    29.7110     8.4010    23.7560     5.2810 
  152.2500     2.2070    65.7520    33.6150    29.3230     8.7040    23.9180     5.0870 
  152.3750     2.2190    66.5950    33.6710    29.2880     9.0940    24.1770     4.8200 
  152.5000     2.2260    66.4580    34.0950    29.6570     9.6220    24.3550     4.4490 
  152.6250     2.2260    64.5080    34.6750    30.3410     9.8080    24.4090     4.0500 
  152.7500     2.2220    61.8600    35.0180    30.9960     9.7710    24.4090     3.5480 
  152.8750     2.2170    60.4590    34.7740    31.2740     9.8300    24.4090     2.9450 
  153.0000     2.2160    62.1360    33.6720    30.8420     9.9250    24.4090     2.2020 
  153.1250     2.2240    64.4600    31.5060    29.3780     9.8150    24.4090     1.3990 
  153.2500     2.2370    65.1060    28.7020    27.1810     9.8830    24.4090     0.5200 
  153.3750     2.2510    65.0330    25.7130    24.6360    10.1330    24.4090    -0.4240 
  153.5000     2.2550    64.8240    23.0080    22.1860    10.1350    24.4090    -1.3820 
  153.6250     2.2420    65.6240    21.0460    20.2750     8.8720    24.4090    -2.3080 
  153.7500     2.2140    67.9420    19.8120    18.9690     8.2400    24.4090    -3.1680 
  153.8750     2.1790    70.2320    19.2080    18.2340     8.2210    24.4090    -3.9080 
  154.0000     2.1480    70.6150    19.0730    17.9590     8.3990    24.4090    -4.5080 
  154.1250     2.1350    67.9670    19.2880    18.0610     8.4390    24.4090    -4.9400 
  154.2500     2.1410    66.2880    19.6820    18.3650     8.4010    24.4090    -5.1550 
  154.3750     2.1620    67.8640    20.1910    18.7910     8.5010    24.4090    -5.1970 
  154.5000     2.1900    71.2150    20.7790    19.2820     8.7500    24.4090    -5.1010 
  154.6250     2.2120    71.8000    21.4390    19.8160     8.7300    24.4090    -4.9620 
  154.7500     2.2200    69.5250    22.1600    20.3790     8.7640    24.4090    -4.7500 
  154.8750     2.2130    67.5050    22.9630    20.9820     8.9360    24.4090    -4.5110 
  155.0000     2.1930    69.4770    23.8990    21.6610     8.7290    24.4090    -4.1920 
  155.1250     2.1710    72.9640    25.0580    22.5000     8.7010    24.4090    -3.8830 
  155.2500     2.1570    73.5380    26.3870    23.4970     8.6740    24.4090    -3.5820 
  155.3750     2.1580    71.1750    27.7570    24.5850     8.5100    24.4090    -3.3000 
  155.5000     2.1730    68.2190    28.9620    25.6110     8.1470    24.4090    -3.0400 
  155.6250     2.1940    65.5560    29.7320    26.3360     8.6430    24.4090    -2.7960 
  155.7500     2.2110    62.5090    30.0820    26.7030     9.3480    24.4090    -2.5950 
  155.8750     2.2180    59.4930    30.1680    26.7890     9.7840    24.4090    -2.4210 
  156.0000     2.2140    58.9820    30.2580    26.7920     9.9430    24.4090    -2.2410 
  156.1250     2.2050    61.9760    30.6780    26.9950    10.0470    24.4090    -1.9700 
  156.2500     2.1960    64.0720    31.4930    27.5220    10.0550    24.4090    -1.6560 
  156.3750     2.1930    62.4080    32.6120    28.3550     9.9960    24.4090    -1.3370 
  156.5000     2.1920    58.1310    33.8160    29.3500    10.1780    24.4090    -1.0400 
  156.6250     2.1920    57.5680    34.7970    30.2500    10.8090    24.4090    -0.7870 
  156.7500     2.1900    59.9710    35.4410    30.8910    11.3840    24.4090    -0.5460 
  156.8750     2.1900    62.3870    35.8070    31.2630    11.0800    24.4090    -0.3510 
  157.0000     2.1950    63.1590    36.0650    31.4730    10.2820    24.4090    -0.2710 
  157.1250     2.2060    62.0070    36.4040    31.6690     9.8690    24.4090    -0.3860 
  157.2500     2.2150    60.5230    36.9040    31.9360    10.1600    24.4090    -0.7080 
  157.3750     2.2190    60.6190    37.6370    32.3300    10.8880    24.4090    -1.2460 
  157.5000     2.2200    62.0230    38.7820    32.9790    11.7030    24.4090    -1.9630 
  157.6250     2.2290    62.4070    40.8290    34.2770    11.6150    24.4090    -2.8160 
  157.7500     2.2560    60.4830    44.0030    36.4880    10.9190    24.4090    -3.7670 
  157.8750     2.3040    59.0380    48.3230    39.7620    11.2630    24.4090    -4.8230 
  158.0000     2.3650    59.9110    53.2940    43.8590    13.8180    24.4090    -5.9740 
  158.1250     2.4230    61.1230    57.5180    47.8330    22.2390    24.4090    -7.1870 
  158.2500     2.4650    60.2750    59.5480    50.4000    35.0080    24.4090    -8.3940 
  158.3750     2.4850    58.2500    58.5610    50.6990    38.6680    24.4090    -9.5470 
  158.5000     2.4820    57.6530    54.7150    48.6080    34.0610    24.4090   -10.5950 
  158.6250     2.4590    57.8070    48.9210    44.6180    26.6900    24.4090   -11.5380 
  158.7500     2.4280    57.4460    42.8380    40.0780    23.9790    24.4090   -12.4210 
  158.8750     2.3980    57.6290    37.2930    35.7220    21.5030    24.4190   -13.2070 
  159.0000     2.3800    58.8490    32.7510    31.9920    18.4360    24.4630   -13.8680 
  159.1250     2.3820    60.0990    29.7590    29.3610    16.0860    24.5890   -14.3820 
  159.2500     2.4030    60.4670    28.3270    27.9600    15.4840    24.7290   -14.7930 
  159.3750     2.4390    60.0770    28.4320    27.9520    16.0290    24.8200   -15.1210 
  159.5000     2.4850    59.4920    29.6040    29.1700    17.7110    24.8490   -15.4190 
  159.6250     2.5350    59.6300    30.5240    30.5750    21.9720    24.8490   -15.6250 
  159.7500     2.5740    61.0250    29.6340    30.4010    26.9370    24.8490   -15.7520 
  159.8750     2.5910    63.1730    26.2300    27.6030    31.1890    24.8490   -15.8190 
  160.0000     2.5750    66.5340    20.9060    22.5380    31.9160    24.8490   -15.8770 
  160.1250     2.5210    72.5760    15.4700    16.9520    22.7590    24.8490   -15.9190 
