~V
VERS. 2.00: Ver 2.00
~W
STRT.M 55.0000:
STOP.M 262.0000:
STEP.M 0.1250:
NULL. -999.2500:
UWI. F10759:
~C
DEPT.M :
DEN.GM/CC :
GR.API :
RML.OHMM :
RI. :
RXO.OHMM :
CALI.CM :
SP.MV :
~A
# ...
  167.5000     2.4840    56.6330    22.3410    21.0690    15.3370    23.3010    -2.7970 
  167.6250     2.5060    56.5220    23.0670    21.5250    15.6960    23.2320    -2.8050 
  167.7500     2.5190    54.5270    23.9340    22.1380    17.3080    23.2470    -2.8280 
  167.8750     2.5150    52.0320    24.7260    22.7530    18.0420    23.2720    -2.8420 
  168.0000     2.4950    51.2600    25.2860    23.2370    18.9410    23.2730    -2.8160 
  168.1250     2.4650    53.9250    25.5630    23.4980    19.3930    23.2800    -2.7870 
  168.2500     2.4420    56.1890    25.7350    23.6180    19.4780    23.2810    -2.7490 
  168.3750     2.4370    56.5910    25.9220    23.6780    19.3820    23.2810    -2.6970 
  168.5000     2.4530    55.9460    26.1410    23.7130    19.6200    23.2810    -2.6390 
  168.6250     2.4860    54.7050    26.2640    23.6650    21.2180    23.2810    -2.5960 
  168.7500     2.5190    52.8640    26.2070    23.4910    20.6680    23.2810    -2.5660 
  168.8750     2.5410    51.0760    26.0250    23.2270    18.9310    23.2810    -2.5720 
  169.0000     2.5490    51.9080    25.9200    23.0080    16.8250    23.2790    -2.6090 
  169.1250     2.5510    55.0350    26.2210    23.0770    16.1580    23.2630    -2.6130 
  169.2500     2.5590    57.2290    26.9790    23.5180    17.8180    23.2180    -2.6240 
  169.3750     2.5760    56.2520    28.0370    24.2840    20.4720    23.1870    -2.6440 
  169.5000     2.5960    52.4640    29.0480    25.1600    23.2560    23.0910    -2.6940 
  169.6250     2.6010    50.5050    29.5330    25.7580    24.0780    23.0680    -2.7460 
  169.7500     2.5810    50.5440    29.4730    25.9210    23.9820    23.0580    -2.8040 
  169.8750     2.5390    50.0140    29.1410    25.7520    22.0410    23.0590    -2.8530 
  170.0000     2.4890    48.4130    28.9840    25.5420    19.8930    23.0610    -2.8960 
  170.1250     2.4580    48.1260    29.5240    25.7210    19.7890    23.0610    -2.9700 
  170.2500     2.4580    49.8070    30.7450    26.4240    21.4800    23.0420    -3.0630 
  170.3750     2.4920    51.2160    32.3270    27.5310    22.7000    22.9000    -3.1700 
  170.5000     2.5480    50.6090    33.6670    28.6530    21.7770    22.4040    -3.2560 
  170.6250     2.5980    47.9350    33.8510    29.0760    19.3990    21.4500    -3.3170 
  170.7500     2.6210    47.3240    32.6700    28.4560    19.3150    21.2150    -3.3630 
  170.8750     2.6080    51.6600    30.4580    26.9010    19.3250    21.1880    -3.3950 
  171.0000     2.5670    58.9510    28.0330    24.9780    17.6450    21.2470    -3.4330 
  171.1250     2.5170    62.4020    26.4540    23.5100    15.0370    21.3030    -3.4790 
  171.2500     2.4830    61.0420    26.1300    22.9170    14.2420    21.5420    -3.4940 
  171.3750     2.4750    57.1570    27.1190    23.3350    14.8430    21.9570    -3.4680 
  171.5000     2.4940    53.2140    29.1280    24.6570    16.7420    22.4980    -3.4020 
  171.6250     2.5300    50.3880    31.4130    26.4500    20.3220    22.8900    -3.3200 
  171.7500     2.5620    48.2480    32.9370    27.8560    24.4010    22.9620    -3.2320 
  171.8750     2.5810    46.6830    33.0950    28.2760    27.3020    22.9740    -3.1430 
  172.0000     2.5870    46.3530    31.9040    27.5680    27.4670    22.9740    -3.0420 
  172.1250     2.5900    48.4260    30.0250    26.1200    24.1820    22.9660    -2.9650 
  172.2500     2.6010    50.9450    28.4810    24.7720    20.5380    22.9140    -2.9230 
  172.3750     2.6200    51.4320    27.7400    23.9690    18.5900    22.7790    -2.9330 
  172.5000     2.6410    49.5700    27.8740    23.8600    18.5020    22.6380    -2.9880 
  172.6250     2.6510    48.8640    28.7540    24.4450    19.0300    22.3350    -3.0820 
  172.7500     2.6450    51.1350    29.9010    25.3880    21.4740    22.0920    -3.1770 
  172.8750     2.6240    54.4270    30.9700    26.4180    22.9680    21.9280    -3.2530 
  173.0000     2.5950    54.8320    31.6980    27.2690    22.3830    21.7640    -3.3050 
  173.1250     2.5660    50.4340    31.9230    27.6910    22.1130    21.6020    -3.3220 
  173.2500     2.5420    47.7200    31.8050    27.7270    23.0740    21.6710    -3.3200 
  173.3750     2.5290    50.6110    31.4420    27.4470    23.8960    22.0240    -3.2910 
  173.5000     2.5310    55.2810    30.8610    26.8980    22.8870    22.5600    -3.2440 
  173.6250     2.5560    55.2030    30.0070    26.0740    21.1500    22.8330    -3.1770 
  173.7500     2.5930    51.3610    28.9630    25.0890    20.8640    22.8810    -3.1040 
  173.8750     2.6270    48.4190    27.8810    24.0890    20.8380    22.8920    -3.0440 
  174.0000     2.6440    48.0300    27.0010    23.2710    18.8890    22.9150    -3.0000 
  174.1250     2.6350    49.1810    26.6430    22.8840    16.8220    22.9610    -2.9530 
  174.2500     2.6150    51.2710    26.8450    22.9390    17.2730    22.9620    -2.8960 
  174.3750     2.5990    54.4740    27.5690    23.4070    19.7930    22.9570    -2.8670 
  174.5000     2.5960    57.6560    28.6500    24.1830    22.3120    22.9550    -2.8660 
  174.6250     2.6080    56.9520    29.5550    24.8900    23.9980    22.9620    -2.8540 
  174.7500     2.6200    54.2960    29.8980    25.1840    24.3380    22.9620    -2.8420 
  174.8750     2.6220    47.1980    30.4700    25.7190    24.5900    22.9510    -2.8250 
  175.0000     2.6100    43.1780    30.4290    25.8000    24.9870    22.9020    -2.8290 
  175.1250     2.5900    44.5770    29.8130    25.4100    24.1340    22.7360    -2.8540 
  175.2500     2.5740    46.1560    28.9980    24.8090    21.0690    22.6360    -2.9000 
  175.3750     2.5710    47.4610    28.2680    24.1920    17.9460    22.5060    -2.9410 
  175.5000     2.5820    50.9350    27.8430    23.7210    16.8180    22.3560    -2.9580 
  175.6250     2.6050    54.8110    27.9320    23.5820    17.5580    22.1490    -2.9900 
  175.7500     2.6280    53.7330    28.4570    23.8090    17.2640    22.0380    -3.0460 
  175.8750     2.6410    50.0270    29.2370    24.3650    16.9330    22.0170    -3.0940 
  176.0000     2.6420    50.2640    29.9160    25.0580    17.1460    22.0280    -3.0920 
  176.1250     2.6310    56.0430    29.9310    25.4900    18.1530    22.0630    -3.0310 
  176.2500     2.6150    59.7340    29.0910    25.3730    19.2380    22.1020    -2.9120 
  176.3750     2.5990    57.7260    27.4440    24.5890    19.1760    22.1130    -2.7610 
  176.5000     2.5840    53.9350    25.2730    23.2180    16.8250    22.1650    -2.6280 
  176.6250     2.5690    52.8440    21.2970    21.4830    14.3150    22.4510    -2.5180 
  176.7500     2.5510    53.2880    19.4050    19.7300    13.8110    22.7530    -2.4120 
  176.8750     2.5280    53.2480    17.8160    18.1200    13.2810    22.9770    -2.3280 
  177.0000     2.5050    53.6370    16.5360    16.7390    12.3790    23.1180    -2.2870 
  177.1250     2.4890    56.0460    15.6090    15.6860    11.5300    23.2350    -2.2910 
  177.2500     2.4840    58.8600    15.0040    14.9480    11.1520    23.2520    -2.3380 
  177.3750     2.4880    60.9240    14.7540    14.5510    11.1060    23.2130    -2.3860 
  177.5000     2.4970    60.7640    14.8860    14.5170    11.5640    23.1950    -2.4030 
  177.6250     2.5060    57.1010    15.4370    14.9040    12.7760    23.1870    -2.3980 
  177.7500     2.5140    53.8600    16.2560    15.5980    14.9230    23.1880    -2.3690 
  177.8750     2.5200    53.9720    17.2140    16.4960    16.7450    23.1900    -2.3360 
  178.0000     2.5240    56.0270    18.1710    17.4650    16.3560    23.1930    -2.3050 
  178.1250     2.5260    56.1280    18.9660    18.3370    17.5080    23.1970    -2.2760 
  178.2500     2.5250    55.5040    19.5640    19.0280    18.4650    23.2010    -2.2500 
  178.3750     2.5240    56.8460    19.9840    19.5260    18.6800    23.1910    -2.2520 
  178.5000     2.5240    59.3440    20.2640    19.8560    17.4810    23.1910    -2.3050 
  178.6250     2.5250    59.6910    20.3650    19.9830    16.6570    23.1790    -2.3560 
