~V
VERS. 2.00: Ver 2.00
~W
STRT.M 10.0000:
STOP.M 237.0000:
STEP.M 0.1250:
NULL. -999.2500:
UWI. F10776:
~C
DEPT.M :
DEN.GM/CC :
GR.API :
RML.OHMM :
RI. :
RXO.OHMM :
CALI.CM :
SP.MV :
~A
# ...
  100.0000     2.0890    45.5670    19.4860    15.8730     9.0090    23.0800    -1.2560 
  100.1250     2.1140    44.7420    19.4560    15.8390     9.0190    23.1070    -1.1380 
  100.2500     2.1540    46.7360    19.4600    15.8510     8.9910    23.1080    -1.0840 
  100.3750     2.1850    47.1360    19.4820    15.8930     8.9380    23.1100    -1.1080 
  100.5000     2.1840    43.7650    19.4960    15.9390     8.9030    23.1130    -1.2050 
  100.6250     2.1400    40.7220    19.4510    15.9430     8.8510    23.1100    -1.3860 
  100.7500     2.0910    41.4720    19.3110    15.8720     8.7480    23.0930    -1.6620 
  100.8750     2.0670    44.0820    19.0570    15.7070     8.6310    23.0550    -2.0200 
  101.0000     2.0830    44.8890    18.7150    15.4570     8.5200    23.0120    -2.4780 
  101.1250     2.1220    43.4890    18.3590    15.1660     8.4670    22.9920    -2.9920 
  101.2500     2.1470    41.0050    18.0760    14.9080     8.4480    22.9880    -3.4810 
  101.3750     2.1410    40.3610    17.9110    14.7290     8.4590    22.9870    -3.8930 
  101.5000     2.1200    43.5860    17.8660    14.6510     8.4430    22.9860    -4.2160 
  101.6250     2.1080    49.2330    17.9110    14.6660     8.4440    22.9850    -4.4270 
  101.7500     2.1090    50.9660    17.9790    14.7150     8.4910    22.9850    -4.5720 
  101.8750     2.1230    47.7270    18.0320    14.7560     8.5790    22.9670    -4.6480 
  102.0000     2.1470    44.1210    18.0580    14.7670     8.7240    22.9190    -4.6290 
  102.1250     2.1660    44.4450    18.0870    14.7620     8.9540    22.8610    -4.5570 
  102.2500     2.1690    45.1940    18.1960    14.7970     9.0370    22.9090    -4.4600 
  102.3750     2.1560    44.3590    18.4710    14.9310     8.9380    22.9980    -4.3770 
  102.5000     2.1360    43.8330    18.9560    15.2050     8.9160    23.0390    -4.3220 
  102.6250     2.1170    45.7600    19.6090    15.6200     9.0350    23.0200    -4.3140 
  102.7500     2.1000    47.2870    20.2220    16.0560     9.1880    22.9930    -4.3360 
  102.8750     2.0890    46.6740    20.5860    16.3790     9.2850    22.9830    -4.4040 
  103.0000     2.0840    44.5870    20.5430    16.4630     9.3620    22.9840    -4.5580 
  103.1250     2.0820    42.3350    19.9990    16.2080     9.4070    22.9840    -4.7800 
  103.2500     2.0810    40.2390    19.1890    15.7370     9.3040    22.9730    -5.0780 
  103.3750     2.0820    40.3620    18.3240    15.1820     9.0590    22.9350    -5.4320 
  103.5000     2.0900    42.5830    17.5550    14.6630     8.8490    22.8670    -5.8370 
  103.6250     2.1040    47.5850    16.9290    14.2400     8.8360    22.8120    -6.3130 
  103.7500     2.1190    51.7340    16.3410    13.8580     8.9210    22.7900    -6.8250 
  103.8750     2.1330    51.2470    15.6950    13.4460     8.9620    22.7750    -7.3510 
  104.0000     2.1440    45.5030    14.9370    12.9500     8.9470    22.7500    -7.8740 
  104.1250     2.1560    41.3570    14.0940    12.3610     8.6250    22.7340    -8.4040 
  104.2500     2.1720    43.5260    13.2690    11.7560     8.2250    22.7180    -8.8950 
  104.3750     2.1790    48.4440    12.5180    11.1920     8.0210    22.6940    -9.3400 
  104.5000     2.1660    52.1330    11.8490    10.6860     7.9380    22.6780    -9.7460 
  104.6250     2.1430    53.8360    11.2370    10.2100     7.8290    22.6740   -10.0840 
  104.7500     2.1370    56.0810    10.6420     9.7210     7.6780    22.6740   -10.3400 
  104.8750     2.1550    58.4250    10.0790     9.2180     7.3980    22.6720   -10.5270 
  105.0000     2.1850    59.0830     9.6070     8.7460     6.9310    22.6630   -10.5980 
  105.1250     2.2030    58.3030     9.3270     8.4000     6.7700    22.6430   -10.5350 
  105.2500     2.2060    57.0840     9.2240     8.2090     6.8100    22.6240   -10.3650 
  105.3750     2.2030    55.4470     9.2430     8.1570     6.9090    22.6150   -10.1130 
  105.5000     2.2000    53.3780     9.3000     8.1830     6.9760    22.6130    -9.7660 
  105.6250     2.1930    53.8870     9.3000     8.1960     6.9870    22.6130    -9.3200 
  105.7500     2.1830    56.0870     9.2490     8.1480     7.1120    22.6130    -8.7880 
  105.8750     2.1780    55.9290     9.2560     8.0900     7.1010    22.6080    -8.1420 
  106.0000     2.1880    53.3760     9.5210     8.1700     7.0520    22.5780    -7.4020 
  106.1250     2.2030    53.5220    10.3590     8.6500     7.2090    22.4810    -6.5390 
  106.2500     2.2000    56.1150    11.8010     9.6250     7.5160    22.3620    -5.6280 
  106.3750     2.1710    55.4600    13.7030    11.0640     7.9920    22.2990    -4.7210 
  106.5000     2.1270    49.9720    15.5700    12.6590     8.8720    22.3150    -3.8960 
  106.6250     2.0970    45.9650    16.2730    13.5660     9.4410    22.4570    -3.2350 
  106.7500     2.0990    46.7340    15.4040    13.2680     9.3390    22.6460    -2.7540 
  106.8750     2.1340    49.8080    13.5180    11.9860     8.4440    22.8770    -2.4420 
  107.0000     2.1800    52.6710    11.6730    10.4610     7.1130    23.1750    -2.2590 
  107.1250     2.2050    53.0550    10.7740     9.4570     6.1080    23.4500    -2.1920 
  107.2500     2.1990    50.9770    10.8590     9.1600     5.9390    23.4270    -2.2090 
  107.3750     2.1680    47.9800    11.8490     9.5780     6.4800    23.1440    -2.2890 
  107.5000     2.1320    46.2120    13.6180    10.6710     7.3120    22.9270    -2.4150 
  107.6250     2.1160    44.9880    15.9820    12.4070     7.8010    22.8860    -2.5670 
  107.7500     2.1270    44.1030    18.3010    14.3500     8.0910    22.9330    -2.7530 
  107.8750     2.1650    43.8050    19.8140    15.9210     8.6310    23.0100    -3.0070 
  108.0000     2.2200    43.6010    19.7790    16.4390    10.2130    23.1330    -3.3590 
  108.1250     2.2800    43.6650    17.7430    15.3020    12.7410    23.3670    -3.8490 
  108.2500     2.3390    45.6200    14.7830    13.1700    13.2870    23.7850    -4.4110 
  108.3750     2.3970    49.2710    11.9080    10.8240    10.9930    24.3610    -4.9960 
  108.5000     2.4440    53.3250     9.7600     8.8720     8.1400    24.8910    -5.5540 
  108.6250     2.4330    56.3510     8.6350     7.6740     7.0050    25.0350    -6.0500 
  108.7500     2.3590    55.7690     8.2300     7.0890     6.7730    24.9030    -6.4810 
  108.8750     2.2580    50.8330     8.3330     6.9940     6.8970    24.6790    -6.8480 
  109.0000     2.1710    47.4970     8.7340     7.2320     6.8910    24.4610    -7.1760 
  109.1250     2.1270    49.9330     9.2390     7.6460     6.5980    24.1960    -7.4450 
  109.2500     2.1170    52.6570     9.6850     8.0590     6.4790    23.8950    -7.6540 
  109.3750     2.1320    52.9280     9.9720     8.3670     6.5660    23.5920    -7.7800 
  109.5000     2.1600    52.7130    10.0210     8.4950     6.6530    23.3750    -7.8090 
  109.6250     2.1890    53.8700     9.7590     8.3730     6.6920    23.3210    -7.7550 
  109.7500     2.2220    55.6310     9.2860     8.0620     6.6510    23.4130    -7.6310 
  109.8750     2.2640    57.0080     8.7100     7.6290     6.5290    23.6640    -7.4380 
  110.0000     2.3110    58.4160     8.1570     7.1630     6.3660    24.0090    -7.1840 
  110.1250     2.3390    59.7310     7.7440     6.7550     6.4910    24.1760    -6.9010 
  110.2500     2.3460    62.2790     7.4870     6.4500     6.6760    24.2490    -6.6120 
  110.3750     2.3410    64.5900     7.3660     6.2610     6.5650    24.4030    -6.3460 
  110.5000     2.3410    64.7290     7.3390     6.1770     6.2990    24.6000    -6.1260 
  110.6250     2.3450    62.9310     7.3430     6.1680     6.3270    24.7810    -5.9360 
  110.7500     2.3450    59.7380     7.3100     6.1690     6.4810    24.8840    -5.7500 
  110.8750     2.3390    56.8850     7.1990     6.1310     6.5690    24.9670    -5.5860 
  111.0000     2.3300    57.3740     6.9900     6.0180     6.4350    25.0140    -5.4340 
  111.1250     2.3250    62.2960     6.6770     5.8030     6.0850    25.0350    -5.2870 
