~V
VERS. 2.00: Ver 2.00
~W
STRT.M 50.0000:
STOP.M 228.0000:
STEP.M 0.1250:
NULL. -999.2500:
UWI. F10779:
~C
DEPT.M :
GR.API :
RML.OHMM :
RI. :
RXO.OHMM :
CALI.CM :
SP.MV :
DEN.GM/CC :
~A
# ...
   61.2500    51.3650     8.6320    10.0530    10.1100    24.7080   -10.0250     2.1760 
   61.3750    52.0910     8.7950    10.3760     9.8460    24.6800   -10.6230     2.1830 
   61.5000    53.4220     8.9080    10.6260     9.9220    24.6730   -11.1720     2.1840 
   61.6250    54.4440     9.0680    10.8600    10.1350    24.6180   -11.6970     2.1880 
   61.7500    54.7950     9.2910    11.0900    10.2930    24.4520   -12.2260     2.1950 
   61.8750    54.5600     9.5440    11.2920    10.4020    24.2950   -12.7560     2.2000 
   62.0000    54.9020     9.7850    11.4440    10.4150    24.2490   -13.2820     2.1980 
   62.1250    55.9240     9.9830    11.5370    10.4600    24.2860   -13.7870     2.1840 
   62.2500    55.9810    10.1540    11.6010    10.5980    24.4490   -14.2590     2.1640 
   62.3750    54.9800    10.3100    11.6560    10.6310    24.6880   -14.6840     2.1520 
   62.5000    54.6760    10.4570    11.7140    10.3300    24.8970   -15.0500     2.1570 
   62.6250    55.1390    10.5890    11.7800    10.2530    24.8170   -15.3580     2.1830 
   62.7500    54.9210    10.6950    11.8440    10.3270    24.6310   -15.6180     2.2130 
   62.8750    55.0600    10.7650    11.8960    10.5420    24.5010   -15.8580     2.2280 
   63.0000    56.5350    10.8000    11.9260    10.7510    24.4390   -16.0950     2.2230 
   63.1250    57.3490    10.8140    11.9300    10.7550    24.3650   -16.3380     2.2010 
   63.2500    56.5290    10.8440    11.9210    10.5600    24.3360   -16.5820     2.1760 
   63.3750    55.6810    10.9140    11.9090    10.2540    24.3000   -16.8130     2.1600 
   63.5000    55.6480    11.0150    11.9010    10.0230    24.2510   -17.0180     2.1580 
   63.6250    55.1300    11.0940    11.8890     9.7730    24.1880   -17.1920     2.1700 
   63.7500    53.7130    11.0890    11.8560     9.5940    24.0900   -17.3670     2.1840 
   63.8750    53.4670    10.9630    11.7780     9.4080    23.9560   -17.5450     2.1890 
   64.0000    56.8990    10.7070    11.6170     9.2190    23.8080   -17.7290     2.1830 
   64.1250    59.1750    10.3140    11.3120     9.3540    23.8410   -17.9070     2.1690 
   64.2500    58.0640     9.8430    10.8900     9.6270    23.8660   -18.0970     2.1640 
   64.3750    57.0380     9.3690    10.4240     9.8580    23.8580   -18.2870     2.1780 
   64.5000    58.1490     8.9980    10.0290    10.0790    23.9310   -18.4650     2.2080 
   64.6250    59.7450     8.9010     9.8730     9.6230    23.9470   -18.6140     2.2360 
   64.7500    59.5790     9.0900     9.9890     9.5400    23.9310   -18.7230     2.2420 
   64.8750    58.6060     9.4640    10.3060    10.0750    23.9330   -18.8190     2.2250 
   65.0000    57.8180     9.7920    10.6360    10.6690    23.9350   -18.9210     2.2040 
   65.1250    60.4130     9.7190    10.6620    11.5600    23.9330   -19.0780     2.2120 
   65.2500    66.5660     9.1820    10.2710    11.9090    23.9330   -19.2700     2.2490 
   65.3750    70.2880     8.3410     9.5370    10.5190    23.9330   -19.5080     2.2940 
   65.5000    69.4620     7.4870     8.6890     8.9270    23.9500   -19.7900     2.3180 
   65.6250    68.2240     6.9040     8.0130     8.8730    23.9980   -20.1190     2.3090 
   65.7500    68.4290     6.6040     7.5980     8.7010    24.0720   -20.4590     2.2870 
   65.8750    68.8560     6.5220     7.4200     8.2840    24.3480   -20.7850     2.2700 
   66.0000    70.2930     6.5600     7.4020     7.8710    24.4880   -21.0560     2.2650 
   66.1250    73.0580     6.6070     7.4350     7.7360    24.5200   -21.2560     2.2630 
   66.2500    73.9310     6.5820     7.4120     7.7150    24.5840   -21.3910     2.2570 
   66.3750    72.1360     6.4770     7.3030     7.5750    24.6170   -21.4790     2.2460 
   66.5000    70.2510     6.3390     7.1400     7.5750    24.6220   -21.5270     2.2320 
   66.6250    72.8610     6.2450     6.9920     7.4700    24.6170   -21.5400     2.2170 
   66.7500    78.4400     6.2320     6.8990     7.1880    24.5890   -21.5380     2.2180 
   66.8750    81.7450     6.3160     6.8800     7.1540    24.5700   -21.5220     2.2490 
   67.0000    79.6520     6.5000     6.9410     8.2080    24.6060   -21.5150     2.3090 
   67.1250    76.5880     6.7520     7.0660     9.8340    24.6240   -21.5200     2.3580 
   67.2500    76.6150     6.9920     7.1930     9.8860    24.5280   -21.5570     2.3580 
   67.3750    76.4590     7.1840     7.2910     8.1270    24.4210   -21.6320     2.3050 
   67.5000    73.3730     7.3270     7.3620     7.7920    24.3480   -21.7470     2.2310 
   67.6250    70.8330     7.4410     7.4260     8.2820    24.4060   -21.9240     2.1790 
   67.7500    70.0140     7.5670     7.5140     7.9030    24.4700   -22.1460     2.1610 
   67.8750    69.6630     7.7220     7.6440     7.3560    24.4480   -22.4040     2.1630 
   68.0000    68.8730     7.8850     7.7940     7.6710    24.4440   -22.6350     2.1710 
   68.1250    67.2940     7.9990     7.9090     8.0690    24.4560   -22.7900     2.1830 
   68.2500    65.7330     8.0390     7.9620     8.1320    24.4950   -22.8510     2.2030 
   68.3750    64.0600     8.0000     7.9490     8.0330    24.4950   -22.8340     2.2300 
   68.5000    63.5130     7.8810     7.8620     8.0420    24.4760   -22.7440     2.2490 
   68.6250    65.1610     7.7010     7.7010     8.0130    24.3670   -22.5750     2.2450 
   68.7500    67.7200     7.5180     7.5130     7.8990    24.3090   -22.3220     2.2240 
   68.8750    70.2510     7.3530     7.3280     7.7800    24.2980   -22.0000     2.2040 
   69.0000    71.9240     7.2050     7.1550     7.6160    24.3000   -21.6470     2.1990 
   69.1250    72.8990     7.0770     7.0020     7.4380    24.3050   -21.2860     2.2150 
   69.2500    73.5970     6.9790     6.8760     7.2680    24.2780   -20.9290     2.2410 
   69.3750    74.6830     6.9310     6.7900     7.2250    24.2470   -20.5910     2.2640 
   69.5000    77.7260     6.9500     6.7550     7.4460    24.2360   -20.2980     2.2710 
   69.6250    83.7700     7.0390     6.7840     7.7460    24.1920   -20.0920     2.2580 
   69.7500    89.5320     7.1650     6.8560     7.7030    24.1810   -19.9900     2.2390 
   69.8750    92.3120     7.2970     6.9530     7.6620    24.2830   -19.9830     2.2250 
   70.0000    94.1360     7.4030     7.0440     7.7900    24.4680   -20.0400     2.2190 
   70.1250    98.0100     7.4290     7.0750     7.9270    24.5150   -20.1180     2.2200 
   70.2500    99.1490     7.3580     7.0170     7.7600    24.5600   -20.1650     2.2220 
   70.3750    94.2410     7.2030     6.8770     7.6190    24.6030   -20.1630     2.2230 
   70.5000    90.5560     7.0090     6.6940     7.4140    24.6580   -20.1070     2.2230 
   70.6250    96.9140     6.8530     6.5420     7.0870    24.6210   -20.0080     2.2250 
   70.7500   103.0440     6.8000     6.4800     6.7950    24.6020   -19.8520     2.2280 
   70.8750    99.0070     6.8800     6.5380     7.0410    24.4780   -19.6650     2.2300 
   71.0000    87.9540     7.0760     6.7060     7.7550    24.5090   -19.4600     2.2270 
   71.1250    81.8730     7.3350     6.9380     7.9540    24.5160   -19.2570     2.2250 
   71.2500    82.4570     7.5650     7.1520     7.7830    24.5540   -19.0690     2.2310 
   71.3750    84.7310     7.7080     7.2920     7.8530    24.5600   -18.8930     2.2450 
   71.5000    85.0790     7.7450     7.3310     8.1330    24.5660   -18.7230     2.2600 
   71.6250    83.4700     7.6920     7.2720     8.3500    24.6800   -18.5420     2.2630 
   71.7500    82.6210     7.5910     7.1560     8.3730    24.8850   -18.3790     2.2530 
   71.8750    84.5470     7.4300     6.9830     8.0650    25.1340   -18.2210     2.2380 
   72.0000    87.5170     7.1890     6.7390     7.6460    25.2970   -18.0670     2.2260 
   72.1250    86.8170     6.9080     6.4550     7.5930    25.3760   -17.8600     2.2220 
   72.2500    85.1070     6.7330     6.2450     7.6560    25.3930   -17.5900     2.2210 
   72.3750    85.0830     6.8280     6.2380     7.6270    25.3290   -17.2420     2.2300 
