~V
VERS. 2.00: Ver 2.00
~W
STRT.M 50.0000:
STOP.M 239.0000:
STEP.M 0.1250:
NULL. -999.2500:
UWI. F10783:
~C
DEPT.M :
GR.API :
RML.OHMM :
RI. :
RXO.OHMM :
CALI.CM :
SP.MV :
DEN.GM/CC :
~A
# ...
  106.2500    90.2800     7.6260     6.3630     5.8480    23.1050   -19.5660     2.2560 
  106.3750    91.9740     7.7180     6.4440     5.7280    23.0480   -19.6070     2.2580 
  106.5000    94.8740     7.7030     6.4430     5.5300    22.9470   -19.6790     2.2620 
  106.6250    98.1900     7.6000     6.3580     5.0530    22.8660   -19.7630     2.2660 
  106.7500    98.1820     7.4770     6.2450     5.1200    22.8990   -19.8410     2.2700 
  106.8750    93.5320     7.3800     6.1420     5.3740    22.9600   -19.8960     2.2730 
  107.0000    88.0660     7.3360     6.0740     5.7590    23.0720   -19.9350     2.2700 
  107.1250    89.1350     7.3710     6.0630     6.0340    23.2780   -19.9840     2.2610 
  107.2500    95.3280     7.4780     6.1050     5.9870    23.5670   -20.0570     2.2550 
  107.3750    99.9680     7.6410     6.1960     5.6910    23.8880   -20.1630     2.2620 
  107.5000    99.4140     7.8230     6.3150     5.4090    24.1470   -20.2830     2.2830 
  107.6250    94.8190     7.9660     6.4260     5.6720    24.1580   -20.4080     2.3090 
  107.7500    89.6830     8.0430     6.5000     6.7920    24.0370   -20.5550     2.3210 
  107.8750    85.5170     8.0540     6.5290     6.9080    23.9160   -20.7330     2.3140 
  108.0000    84.4940     8.0130     6.5150     6.2720    23.9060   -20.9360     2.2920 
  108.1250    88.1340     7.9210     6.4570     6.1530    23.9900   -21.1280     2.2700 
  108.2500    91.0650     7.7720     6.3550     6.3300    24.0420   -21.2630     2.2590 
  108.3750    89.6420     7.5490     6.1980     6.6900    23.9520   -21.2870     2.2620 
  108.5000    86.9080     7.2560     5.9840     6.4000    23.7790   -21.2170     2.2740 
  108.6250    86.6810     6.9330     5.7340     5.8700    23.7600   -21.0900     2.2890 
  108.7500    88.1900     6.6530     5.5030     5.4200    23.9660   -20.9420     2.3010 
  108.8750    88.5720     6.4600     5.3270     5.2210    24.2370   -20.7900     2.3050 
  109.0000    87.3800     6.3620     5.2250     5.3080    24.4690   -20.6430     2.3020 
  109.1250    87.6440     6.3400     5.1970     5.6220    24.5890   -20.4890     2.2950 
  109.2500    89.5790     6.3400     5.2060     5.6570    24.6660   -20.3410     2.2920 
  109.3750    92.6020     6.3360     5.2280     5.4880    24.7180   -20.2300     2.2940 
  109.5000    95.1690     6.3210     5.2480     5.2260    24.6730   -20.1610     2.2990 
  109.6250    96.6590     6.3020     5.2640     5.0610    24.4950   -20.1170     2.3010 
  109.7500    97.7640     6.2910     5.2830     5.1190    24.2090   -20.0300     2.2980 
  109.8750    97.0100     6.2880     5.3100     5.3260    23.9920   -19.8930     2.2950 
  110.0000    95.4290     6.2850     5.3430     5.3070    24.0360   -19.7280     2.2960 
  110.1250    94.6630     6.2600     5.3640     5.4210    24.2020   -19.5800     2.3010 
  110.2500    96.6300     6.1960     5.3520     6.0290    24.2800   -19.4590     2.3040 
  110.3750    98.5280     6.0690     5.2810     6.0100    24.3310   -19.3710     2.3030 
  110.5000    97.3410     5.8620     5.1330     5.5280    24.3570   -19.2940     2.3000 
  110.6250    96.2630     5.5740     4.9040     5.1720    24.3890   -19.2120     2.3000 
  110.7500    99.9360     5.2680     4.6450     4.9250    24.5210   -19.1450     2.3070 
  110.8750   104.9510     5.0120     4.4090     4.5040    24.7000   -19.1050     2.3220 
  111.0000   105.4190     4.8660     4.2480     4.0750    24.7940   -19.0690     2.3430 
  111.1250   102.2770     4.8890     4.2150     4.0400    24.8000   -19.0120     2.3600 
  111.2500   101.9830     5.0530     4.3010     4.2680    24.7560   -18.9460     2.3700 
  111.3750   103.0760     5.3380     4.4990     4.6240    24.7020   -18.8990     2.3720 
  111.5000   103.0630     5.7180     4.7920     5.0490    24.6790   -18.8850     2.3740 
  111.6250   101.4970     6.1570     5.1610     5.8240    24.7800   -18.9020     2.3810 
  111.7500    99.6830     6.5750     5.5460     6.7350    24.8430   -18.9310     2.3910 
  111.8750    98.5850     6.8870     5.8770     7.5120    24.8590   -18.9790     2.3970 
  112.0000    98.0640     7.0210     6.0870     7.0420    24.8360   -19.0260     2.3900 
  112.1250    97.4690     6.9530     6.1230     6.7450    24.7950   -19.0290     2.3700 
  112.2500    97.9450     6.8360     6.0730     6.5550    24.7810   -18.9980     2.3470 
  112.3750   100.4130     6.8480     6.0580     6.2600    24.8520   -18.9220     2.3300 
  112.5000    99.9480     7.1520     6.2130     5.8790    24.9170   -18.8120     2.3250 
  112.6250    92.9250     7.8790     6.6850     6.6040    24.8970   -18.6920     2.3280 
  112.7500    85.5450     8.8660     7.4210     9.0550    24.7790   -18.5650     2.3300 
  112.8750    82.0650     9.8650     8.2830    11.5790    24.4260   -18.3930     2.3240 
  113.0000    81.5470    10.5560     9.0280     9.7100    23.8720   -18.1960     2.3140 
  113.1250    81.1040    10.5670     9.2940     7.8500    23.4800   -18.0600     2.3130 
  113.2500    81.9460     9.9690     9.0150     7.0800    23.5120   -17.9730     2.3270 
  113.3750    85.9420     8.9780     8.2940     6.6900    23.8210   -17.9090     2.3480 
  113.5000    92.6250     7.9230     7.3830     6.5390    24.2170   -17.8420     2.3620 
  113.6250    99.4160     7.2360     6.6250     6.1230    24.5400   -17.7690     2.3510 
  113.7500   102.5550     7.1830     6.2720     5.8340    24.7530   -17.6680     2.3260 
  113.8750   100.7060     8.0110     6.5270     5.5870    24.8630   -17.5490     2.3090 
  114.0000    95.2170    10.0080     7.6000     6.5940    24.8750   -17.3960     2.3180 
  114.1250    86.2460    13.4870     9.8510    11.2730    24.7540   -17.1000     2.3560 
  114.2500    75.5300    17.6440    12.9750    23.6310    24.5780   -16.6300     2.3900 
  114.3750    65.5160    21.3000    16.2620    37.7820    24.3150   -16.0050     2.3870 
  114.5000    60.6830    23.2370    18.6200    35.6340    23.7660   -15.2420     2.3330 
  114.6250    61.0340    22.6930    18.9690    17.2190    23.0980   -14.3140     2.2420 
  114.7500    61.2970    20.8830    17.9460     9.1710    22.8260   -13.2670     2.1620 
  114.8750    60.0940    19.0620    16.5330     7.3090    22.9320   -12.0970     2.1180 
  115.0000    58.8010    18.1240    15.5690     7.0510    23.1230   -10.8290     2.1130 
  115.1250    57.3150    18.4030    15.5060     7.0630    23.1610    -9.5730     2.1320 
  115.2500    55.3330    19.3460    16.0580     7.2380    23.0880    -8.4420     2.1500 
  115.3750    54.2530    20.5150    16.9290     7.3800    23.0020    -7.4670     2.1630 
  115.5000    55.2800    21.5640    17.8270     7.4240    22.9770    -6.6660     2.1700 
  115.6250    56.7340    22.2480    18.5060     7.3870    22.9650    -6.0890     2.1740 
  115.7500    57.8670    22.5990    18.9240     7.4130    22.9430    -5.7260     2.1700 
  115.8750    59.5270    22.6940    19.1160     7.5390    22.9240    -5.5870     2.1600 
  116.0000    61.9100    22.6210    19.1560     7.5560    22.9180    -5.6100     2.1470 
  116.1250    62.5330    22.4400    19.1110     7.3180    22.9180    -5.7370     2.1450 
  116.2500    61.5260    22.1950    19.0380     7.1370    22.9140    -5.8820     2.1580 
  116.3750    59.8300    21.8860    18.9480     7.2010    22.8890    -6.0310     2.1810 
  116.5000    57.4410    21.5090    18.8410     7.2310    22.8040    -6.1780     2.2050 
  116.6250    56.0290    21.0710    18.7210     7.0260    22.6350    -6.3170     2.2190 
  116.7500    57.1890    20.6330    18.6120     6.8370    22.4350    -6.4650     2.2230 
  116.8750    59.3580    20.2610    18.5460     7.0870    22.2680    -6.6450     2.2210 
  117.0000    60.0730    19.9990    18.5490     7.4290    22.1610    -6.9350     2.2160 
  117.1250    60.0600    19.7970    18.5970     7.5180    22.1340    -7.4050     2.2110 
  117.2500    60.8740    19.4200    18.5160     7.6340    22.1320    -8.0360     2.2070 
  117.3750    62.1890    18.5680    18.0360     7.5750    22.1110    -8.8150     2.2070 
