~V
VERS. 2.00: Ver 2.00
~W
STRT.M 50.0000:
STOP.M 226.0000:
STEP.M 0.1250:
NULL. -999.2500:
UWI. F10778:
~C
DEPT.M :
DEN.GM/CC :
GR.API :
RML.OHMM :
RI. :
RXO.OHMM :
CALI.CM :
SP.MV :
~A
# ...
   61.2500     2.1390    64.4680    11.7580    11.3240     7.3130    23.9500     9.1190 
   61.3750     2.1450    68.8080    11.8620    11.4240     6.9000    23.8920     6.7870 
   61.5000     2.1460    73.4000    11.5700    11.0250     6.7770    23.8700     4.4330 
   61.6250     2.1420    77.1130    11.1940    10.4690     6.9780    23.8770     2.1430 
   61.7500     2.1380    77.9910    11.0330    10.0910     7.2470    23.9320     0.1570 
   61.8750     2.1380    73.8280    11.1990    10.0170     7.5330    24.0170    -1.4670 
   62.0000     2.1480    67.8740    11.6710    10.2450     7.8710    24.1140    -2.7520 
   62.1250     2.1640    68.1930    12.3290    10.6890     8.2090    24.1710    -3.6070 
   62.2500     2.1730    73.6520    12.9490    11.1580     8.3900    24.2150    -4.2360 
   62.3750     2.1720    79.5290    13.3660    11.5090     8.3320    24.2360    -4.7420 
   62.5000     2.1630    81.8460    13.4470    11.6250     8.1440    24.2230    -5.1530 
   62.6250     2.1550    79.6840    13.0170    11.3410     7.8710    24.2210    -5.6050 
   62.7500     2.1550    77.4740    12.1390    10.6730     7.7330    24.2650    -6.2130 
   62.8750     2.1660    79.8900    10.9210     9.6740     7.5220    24.3430    -6.9900 
   63.0000     2.1890    86.5260     9.5630     8.4870     7.2370    24.4480    -7.9200 
   63.1250     2.2210    92.1710     8.3400     7.3300     6.4960    24.5010    -8.9810 
   63.2500     2.2540    94.1830     7.4080     6.3790     5.8180    24.5320   -10.0260 
   63.3750     2.2800    93.4660     6.8130     5.7120     5.3880    24.5550   -11.0350 
   63.5000     2.2950    91.3130     6.5230     5.3340     5.4160    24.5670   -11.9620 
   63.6250     2.2940    88.9080     6.4800     5.2300     5.6530    24.5530   -12.7300 
   63.7500     2.2800    89.0420     6.5340     5.2720     5.6100    24.5400   -13.3480 
   63.8750     2.2610    91.5420     6.6020     5.3780     5.6420    24.5560   -13.8570 
   64.0000     2.2420    92.7690     6.6280     5.4810     5.7450    24.5750   -14.3260 
   64.1250     2.2370    92.4740     6.5980     5.5420     5.6030    24.5840   -14.6710 
   64.2500     2.2480    93.3960     6.5450     5.5730     5.5940    24.5840   -14.9010 
   64.3750     2.2720    95.9700     6.4960     5.5950     5.7880    24.5710   -15.0520 
   64.5000     2.3030    97.4750     6.4520     5.6170     5.6550    24.5250   -15.2190 
   64.6250     2.3310    97.6450     6.3820     5.6150     5.4950    24.4420   -15.4120 
   64.7500     2.3550   101.3550     6.2430     5.5530     5.4930    24.3880   -15.6130 
   64.8750     2.3720   107.9810     6.0090     5.3990     5.6820    24.3610   -15.7740 
   65.0000     2.3810   112.6500     5.6810     5.1420     5.5350    24.3130   -15.8560 
   65.1250     2.3810   113.4930     5.2910     4.7970     5.2610    24.2750   -15.9400 
   65.2500     2.3760   112.9960     4.9070     4.4330     5.1620    24.2740   -16.0270 
   65.3750     2.3690   111.4770     4.5810     4.1040     5.0090    24.3480   -16.0960 
   65.5000     2.3630   107.9950     4.3500     3.8520     4.5390    24.4320   -16.0890 
   65.6250     2.3570   107.1000     4.2630     3.7220     4.4780    24.5040   -16.0810 
   65.7500     2.3520   109.7540     4.3130     3.7110     4.4880    24.5360   -16.1600 
   65.8750     2.3440   110.8960     4.4930     3.8190     4.5950    24.5430   -16.3090 
   66.0000     2.3310   107.7130     4.7880     4.0430     4.6510    24.5530   -16.4210 
   66.1250     2.3070   102.3030     5.1760     4.3830     5.0850    24.5980   -16.5190 
   66.2500     2.2730    98.1870     5.5860     4.7830     5.3490    24.6750   -16.7020 
   66.3750     2.2340    95.6560     5.9490     5.1860     5.5210    24.7300   -16.9730 
   66.5000     2.2000    94.0620     6.1920     5.5140     5.7300    24.6850   -17.2830 
   66.6250     2.1830    92.4730     6.2460     5.6760     6.0700    24.4850   -17.5260 
   66.7500     2.1830    88.5980     6.1710     5.6830     6.1690    24.2870   -17.6780 
   66.8750     2.1920    83.7840     6.0620     5.5900     6.0490    24.1520   -17.7880 
   67.0000     2.1980    80.5960     6.0330     5.4930     5.5410    24.0910   -17.9260 
   67.1250     2.1910    81.1000     6.2100     5.5190     5.0740    24.1260   -18.0580 
   67.2500     2.1780    82.7300     6.5800     5.7170     5.4100    24.2190   -18.1560 
   67.3750     2.1660    82.8670     7.0780     6.0770     6.1850    24.2640   -18.2490 
   67.5000     2.1610    81.8760     7.5860     6.5270     6.7040    24.2460   -18.4100 
   67.6250     2.1650    81.0260     7.9260     6.9200     6.8390    24.2240   -18.6320 
   67.7500     2.1720    80.5140     8.0300     7.1410     6.7700    24.2670   -18.8470 
   67.8750     2.1820    79.5990     7.9070     7.1520     6.6300    24.3760   -19.0130 
   68.0000     2.1950    78.0360     7.6370     6.9900     6.3840    24.4860   -19.0890 
   68.1250     2.2120    76.1540     7.3270     6.7300     6.2330    24.5350   -19.1370 
   68.2500     2.2310    78.4500     7.0640     6.4660     6.0550    24.4740   -19.1270 
   68.3750     2.2480    84.0110     6.8790     6.2410     5.9580    24.2970   -18.9840 
   68.5000     2.2610    89.3910     6.7840     6.0760     6.0150    24.0700   -18.6520 
   68.6250     2.2640    92.4500     6.7840     5.9890     6.1360    23.9740   -18.1850 
   68.7500     2.2560    95.3720     6.8490     5.9600     6.1950    23.9520   -17.7160 
   68.8750     2.2390    97.4560     6.9570     5.9740     6.4060    23.9590   -17.2690 
   69.0000     2.2170    96.7880     7.0920     6.0210     6.8800    23.9640   -16.8470 
   69.1250     2.2000    94.4340     7.2830     6.1210     7.2690    23.9110   -16.3910 
   69.2500     2.1920    92.7340     7.5840     6.3070     7.3060    23.8140   -15.9050 
   69.3750     2.1930    92.2330     8.0640     6.6260     7.1450    23.7050   -15.4420 
   69.5000     2.1920    90.9500     8.7700     7.1220     7.2690    23.6240   -15.0480 
   69.6250     2.1820    81.7730     9.7070     7.8320     8.8550    23.6360   -14.6580 
   69.7500     2.1620    68.7820    10.7160     8.6600     9.3820    23.8300   -14.2280 
   69.8750     2.1430    60.1910    11.6340     9.4950     9.0920    24.2800   -13.8120 
   70.0000     2.1350    60.8500    12.3190    10.2070     8.6190    24.7820   -13.4450 
   70.1250     2.1430    66.1420    12.6580    10.6640     8.6030    24.9630   -13.1190 
   70.2500     2.1560    68.9920    12.7480    10.8990     8.8180    24.8670   -12.8080 
   70.3750     2.1600    68.3660    12.6820    10.9680     8.9110    24.7140   -12.5290 
   70.5000     2.1490    66.0110    12.5570    10.9490     8.9320    24.6430   -12.3300 
   70.6250     2.1270    64.6210    12.4650    10.9180     8.9760    24.7290   -12.2570 
   70.7500     2.1140    65.6900    12.4620    10.9390     9.0900    24.7630   -12.2270 
   70.8750     2.1210    67.8690    12.5710    11.0480     8.8930    24.6990   -12.1790 
   71.0000     2.1460    68.5870    12.7710    11.2520     8.4090    24.4990   -12.1060 
   71.1250     2.1690    66.9410    12.9600    11.4940     8.0300    24.1840   -12.0870 
   71.2500     2.1740    63.7680    12.9830    11.6340     8.3860    23.9910   -12.1830 
   71.3750     2.1590    61.1850    12.7050    11.5280     9.0980    23.9890   -12.3990 
   71.5000     2.1400    61.3310    12.0710    11.0880     9.3090    24.1760   -12.6690 
   71.6250     2.1350    64.8130    11.1180    10.2970     9.0800    24.3870   -12.9290 
   71.7500     2.1450    69.5650    10.0980     9.3680     8.3800    24.4090   -13.2500 
   71.8750     2.1630    73.4230     9.2100     8.4860     7.3010    24.2680   -13.6580 
   72.0000     2.1750    77.0020     8.5960     7.7970     6.5410    24.1320   -14.1050 
   72.1250     2.1770    79.9500     8.3560     7.4230     6.3660    24.0830   -14.4660 
   72.2500     2.1720    81.8640     8.3780     7.3080     6.4640    24.0860   -14.6890 
   72.3750     2.1670    83.2030     8.5510     7.3860     6.5920    24.1110   -14.7610 
