~V
VERS. 2.00: Ver 2.00
~W
STRT.M 51.0000:
STOP.M 263.0000:
STEP.M 0.1250:
NULL. -999.2500:
UWI. F10758:
~C
DEPT.M :
DEN.GM/CC :
GR.API :
RML.OHMM :
RI. :
RXO.OHMM :
CALI.CM :
SP.MV :
~A
# ...
  174.7500     2.5860    49.6850    32.7550    28.7600    28.7420    24.0950   -11.3260 
  174.8750     2.5960    45.7390    32.3830    28.6290    29.0850    24.1610   -11.3850 
  175.0000     2.5980    44.0430    31.5060    28.0010    24.9570    24.1560   -11.4450 
  175.1250     2.5900    45.4170    30.4190    27.0240    22.0600    24.1940   -11.5390 
  175.2500     2.5750    47.9680    29.4070    25.9970    21.9680    24.1740   -11.6120 
  175.3750     2.5570    49.6160    28.5540    25.0820    23.5530    24.2530   -11.6670 
  175.5000     2.5440    48.7360    27.8730    24.3720    23.0960    24.2980   -11.6830 
  175.6250     2.5380    46.3600    27.3840    23.9280    20.8110    24.3080   -11.6950 
  175.7500     2.5390    45.9790    27.0850    23.6630    21.0630    24.3110   -11.6920 
  175.8750     2.5430    48.8750    27.0390    23.5260    22.4270    24.3120   -11.6980 
  176.0000     2.5480    52.5520    27.2680    23.4950    22.8090    24.3000   -11.7010 
  176.1250     2.5530    52.1810    27.6900    23.5380    22.8250    24.3040   -11.7250 
  176.2500     2.5590    48.1340    28.0860    23.5730    21.4130    24.2750   -11.7340 
  176.3750     2.5680    44.8420    28.3530    23.5670    20.7100    24.2810   -11.7210 
  176.5000     2.5770    44.7750    28.5030    23.5400    22.1580    24.2940   -11.7130 
  176.6250     2.5870    46.0230    28.6570    23.5430    22.2480    24.3100   -11.6750 
  176.7500     2.5990    45.9340    28.9170    23.6190    21.5490    24.3490   -11.6640 
  176.8750     2.6150    44.9610    29.2780    23.7980    21.2460    24.3590   -11.6400 
  177.0000     2.6340    45.4300    29.6780    24.0830    21.3960    24.2800   -11.6400 
  177.1250     2.6510    48.4220    30.0630    24.4770    21.1830    24.1830   -11.6570 
  177.2500     2.6620    50.6800    30.3680    24.9200    21.6790    24.2080   -11.7340 
  177.3750     2.6640    52.0640    30.5070    25.3250    23.5110    24.2110   -11.8260 
  177.5000     2.6580    53.2200    30.4150    25.5780    24.5480    24.2320   -11.8960 
  177.6250     2.6440    53.9060    30.0720    25.5950    23.6920    24.2620   -11.9710 
  177.7500     2.6240    53.9580    29.5930    25.4600    23.2950    24.2920   -12.0120 
  177.8750     2.6030    53.6450    28.9810    25.2110    23.0250    24.3090   -12.0580 
  178.0000     2.5840    53.6760    28.0990    24.7730    22.4600    24.3180   -12.0850 
  178.1250     2.5670    54.2460    26.6230    23.8720    22.6410    24.3290   -12.1240 
  178.2500     2.5480    54.5060    24.5360    22.4380    22.9320    24.3270   -12.1190 
  178.3750     2.5250    54.2790    22.0570    20.5770    21.6820    24.2980   -12.1240 
  178.5000     2.5000    53.2150    19.6280    18.6170    18.1910    24.2800   -12.1460 
  178.6250     2.4820    53.4610    17.8060    17.0370    13.6530    24.2870   -12.2120 
  178.7500     2.4740    55.1390    16.7220    16.0140    12.4010    24.2520   -12.2780 
  178.8750     2.4770    55.8880    16.3230    15.5430    13.0790    24.1510   -12.3250 
  179.0000     2.4860    54.7890    16.4180    15.4960    14.6330    23.9760   -12.3600 
  179.1250     2.4930    53.5670    16.7190    15.6720    16.0530    23.9310   -12.3270 
  179.2500     2.4940    54.0860    16.8690    15.7890    16.1150    23.9720   -12.3170 
  179.3750     2.4900    55.7650    16.7410    15.7130    15.0170    24.0420   -12.2900 
  179.5000     2.4850    54.8100    16.4640    15.4730    14.0840    24.1190   -12.2380 
  179.6250     2.4820    50.8320    16.4290    15.2810    14.1720    24.0870   -12.1480 
  179.7500     2.4830    49.1790    16.9010    15.3810    14.9480    23.9650   -12.0430 
  179.8750     2.4870    50.1750    17.9200    15.9170    16.4640    23.9780   -11.9470 
  180.0000     2.4960    50.4590    19.3100    16.8810    17.7520    24.1550   -11.8660 
  180.1250     2.5060    48.0310    20.6970    18.0880    19.8570    24.2290   -11.8550 
  180.2500     2.5110    47.2210    21.6900    19.1390    23.4160    24.2740   -11.8230 
  180.3750     2.5090    49.4670    22.0610    19.7300    24.2160    24.2920   -11.8000 
  180.5000     2.4990    51.6670    21.7780    19.7310    20.6620    24.2940   -11.7920 
  180.6250     2.4890    52.2840    20.9690    19.1820    16.5680    24.2830   -11.7920 
  180.7500     2.4820    53.2580    19.9890    18.3890    15.8300    24.2300   -11.8260 
  180.8750     2.4770    56.4590    18.9840    17.4880    16.8870    24.1560   -11.8830 
  181.0000     2.4710    61.1640    17.9490    16.5280    17.1700    24.1280   -11.9570 
  181.1250     2.4560    61.9660    16.7740    15.5160    15.0760    24.1000   -12.0060 
  181.2500     2.4370    58.8830    15.5210    14.5150    12.7530    24.0890   -12.0580 
  181.3750     2.4210    55.3290    14.4030    13.6360    11.6380    24.1100   -12.0780 
  181.5000     2.4110    55.7320    13.6770    13.0040    11.8540    24.1180   -12.0920 
  181.6250     2.4060    58.4330    13.5660    12.7500    12.2230    24.1290   -12.0820 
  181.7500     2.4020    59.5220    13.8800    12.7880    12.3310    24.2220   -12.0610 
  181.8750     2.3970    59.3600    14.3840    13.0020    12.1670    24.2650   -11.9850 
  182.0000     2.3920    58.6500    14.8180    13.2540    12.2680    24.1970   -11.8720 
  182.1250     2.3910    58.5020    14.9240    13.3760    12.9480    24.2850   -11.7450 
  182.2500     2.3950    57.9560    14.6700    13.2810    12.4020    24.3000   -11.5790 
  182.3750     2.4010    57.0480    14.1100    12.9670    11.2110    24.2990   -11.4450 
  182.5000     2.4060    55.0310    13.4250    12.5360    11.0430    24.2990   -11.3290 
  182.6250     2.4060    51.8020    12.9130    12.1590    11.3420    24.3120   -11.2950 
  182.7500     2.4040    49.6590    12.7590    11.9610    11.1410    24.3060   -11.2890 
  182.8750     2.4040    48.5860    13.0350    12.0100    10.4510    24.2810   -11.3380 
  183.0000     2.4050    48.7260    13.6970    12.3220    11.0460    24.3390   -11.4080 
  183.1250     2.4070    49.6560    14.6230    12.8850    11.6320    24.4700   -11.4920 
  183.2500     2.4080    51.3170    15.5810    13.5790    11.4180    24.4000   -11.6090 
  183.3750     2.4050    52.6760    16.4610    14.3200    11.4930    24.3110   -11.7450 
  183.5000     2.3990    53.0720    17.2460    15.0390    12.4570    24.2720   -11.9020 
  183.6250     2.3930    54.5660    18.0440    15.7310    13.1820    24.1990   -12.0400 
  183.7500     2.3930    57.4890    18.9870    16.4690    13.7440    24.1630   -12.1650 
  183.8750     2.4030    61.2640    20.0850    17.2770    14.5650    24.2850   -12.2670 
  184.0000     2.4230    62.7880    21.1740    18.0600    15.4570    24.3990   -12.3910 
  184.1250     2.4490    61.5620    21.8360    18.5400    17.3150    24.2820   -12.5220 
  184.2500     2.4680    61.5490    21.8460    18.5680    19.1190    24.2140   -12.6930 
  184.3750     2.4730    63.5800    21.2690    18.1830    18.4710    24.1940   -12.8270 
  184.5000     2.4650    64.5440    20.4720    17.6280    16.5230    24.1520   -12.9160 
  184.6250     2.4510    62.1690    20.0060    17.2820    14.5260    24.1910   -12.9400 
  184.7500     2.4460    60.7250    20.1040    17.3280    14.7960    24.1980   -12.9190 
  184.8750     2.4560    62.1860    20.6420    17.7440    17.3110    24.1810   -12.9060 
  185.0000     2.4760    63.1240    21.1900    18.3040    20.4370    24.0660   -12.8540 
  185.1250     2.4960    60.2410    21.0930    18.5330    21.4340    23.7880   -12.8010 
  185.2500     2.5050    56.6150    20.2420    18.1410    18.9080    23.7120   -12.7050 
  185.3750     2.5020    54.1890    18.8880    17.1570    15.8150    23.7870   -12.6270 
  185.5000     2.4900    51.9480    17.4140    15.8470    13.3410    23.8420   -12.5740 
  185.6250     2.4750    50.6230    16.1020    14.5430    12.2090    23.8030   -12.5170 
  185.7500     2.4610    51.2690    14.9400    13.4260    12.3360    23.8420   -12.4580 
  185.8750     2.4470    53.4130    13.8930    12.5330    12.6960    23.8980   -12.3570 
