~V
VERS. 2.00: Ver 2.00
~W
STRT.M 50.0000:
STOP.M 239.0000:
STEP.M 0.1250:
NULL. -999.2500:
UWI. F10783:
~C
DEPT.M :
GR.API :
RML.OHMM :
RI. :
RXO.OHMM :
CALI.CM :
SP.MV :
DEN.GM/CC :
~A
# ...
   83.7500    71.8090     8.3670     7.3400     6.5300    22.1450   -28.0650     2.2030 
   83.8750    71.4750     8.2690     7.2450     6.7050    22.2090   -27.8420     2.1870 
   84.0000    71.8900     8.0950     7.0870     6.8360    22.2820   -27.6130     2.1690 
   84.1250    69.9430     7.9070     6.8820     6.9270    22.3380   -27.3750     2.1520 
   84.2500    64.8540     7.8700     6.7400     6.9150    22.3760   -27.1340     2.1440 
   84.3750    61.2580     8.1720     6.8070     6.7690    22.3520   -26.8980     2.1570 
   84.5000    64.2100     8.9440     7.2260     6.5970    22.2670   -26.6610     2.2050 
   84.6250    73.7860    10.2130     8.1250     7.1630    22.2050   -26.4100     2.2960 
   84.7500    80.9740    11.6040     9.3050    10.2020    22.3390   -26.1120     2.4030 
   84.8750    82.7440    12.6750    10.4510    19.6940    22.6090   -25.7780     2.4920 
   85.0000    82.9120    13.0060    11.1540    24.6990    22.7650   -25.4160     2.5350 
   85.1250    86.6950    12.2830    10.9770    15.6850    22.6060   -24.9900     2.5210 
   85.2500    92.1550    10.9050    10.0960     9.0580    22.3390   -24.4700     2.4830 
   85.3750    95.5830     9.2810     8.8170     7.7540    22.1650   -23.8350     2.4470 
   85.5000    96.9200     7.7570     7.4730     8.1230    22.1270   -23.1090     2.4290 
   85.6250   101.1240     6.5720     6.3300     6.7700    22.2580   -22.3140     2.4240 
   85.7500   106.1970     5.7080     5.4450     5.1100    22.4450   -21.5220     2.4170 
   85.8750   107.7610     5.1390     4.8200     4.2930    22.5990   -20.7580     2.4040 
   86.0000   105.7240     4.8360     4.4400     4.1670    22.7630   -20.0330     2.3840 
   86.1250   104.5010     4.8030     4.3170     4.0170    22.9550   -19.4030     2.3610 
   86.2500   104.4300     4.9390     4.3740     4.1020    23.1330   -18.8950     2.3370 
   86.3750   102.4090     5.1660     4.5550     4.4130    23.2490   -18.5280     2.3160 
   86.5000    98.7480     5.4030     4.7870     4.7250    23.2560   -18.2870     2.2990 
   86.6250    95.7610     5.5710     4.9900     4.9140    23.1650   -18.2140     2.2890 
   86.7500    92.4670     5.6490     5.1180     4.9840    23.0750   -18.2350     2.2820 
   86.8750    90.7730     5.6410     5.1570     5.1610    23.0010   -18.3300     2.2780 
   87.0000    92.2010     5.5750     5.1190     5.3050    22.9370   -18.4830     2.2790 
   87.1250    97.4310     5.5010     5.0400     5.1150    22.8910   -18.6320     2.2870 
   87.2500   102.8160     5.4750     4.9750     4.8130    22.8380   -18.7690     2.2970 
   87.3750   105.1490     5.5310     4.9570     4.6240    22.7980   -18.9070     2.3040 
   87.5000   103.5990     5.6750     5.0020     4.7390    22.8410   -19.0260     2.3070 
   87.6250    99.7420     5.8890     5.1100     5.1800    23.0190   -19.0470     2.3040 
   87.7500    97.8240     6.0930     5.2310     5.5710    23.3370   -18.9770     2.2980 
   87.8750    98.4910     6.2140     5.3060     5.4760    23.7770   -18.8380     2.2910 
   88.0000    97.3370     6.2010     5.2850     5.2160    24.1980   -18.6470     2.2820 
   88.1250    94.8060     6.0350     5.1340     5.2170    24.3660   -18.4440     2.2710 
   88.2500    95.5020     5.8190     4.9220     5.2370    24.3960   -18.2630     2.2630 
   88.3750    99.4400     5.6580     4.7270     4.7900    24.3290   -18.1230     2.2600 
   88.5000   100.7920     5.6460     4.6290     4.3130    24.0990   -18.0610     2.2590 
   88.6250    97.0790     5.8710     4.7110     4.4770    23.6770   -18.1470     2.2530 
   88.7500    92.4700     6.2840     4.9550     5.1820    23.3190   -18.3670     2.2410 
   88.8750    87.2080     6.8160     5.3250     5.7810    23.1540   -18.6780     2.2270 
   89.0000    81.0180     7.3630     5.7540     5.8910    23.1110   -19.0440     2.2180 
   89.1250    76.5080     7.7870     6.1390     5.9880    23.1840   -19.4420     2.2180 
   89.2500    75.2180     8.0340     6.4120     6.0330    23.2710   -19.8380     2.2270 
   89.3750    74.6560     8.1120     6.5510     6.2870    23.2930   -20.1870     2.2410 
   89.5000    73.8870     8.0810     6.5820     6.4130    23.3210   -20.4540     2.2540 
   89.6250    75.1890     8.0330     6.5620     6.1840    23.4890   -20.6080     2.2640 
   89.7500    78.4510     8.0470     6.5620     5.9030    23.6580   -20.6890     2.2710 
   89.8750    80.2810     8.1520     6.6210     5.9950    23.5970   -20.7060     2.2760 
   90.0000    78.0460     8.3350     6.7470     6.2400    23.3060   -20.6430     2.2870 
   90.1250    73.9210     8.5460     6.9180     6.6080    23.1680   -20.4950     2.3080 
   90.2500    71.6570     8.7050     7.0760     7.0100    23.2810   -20.2980     2.3310 
   90.3750    70.6850     8.7590     7.1710     7.5980    23.6030   -20.1020     2.3450 
   90.5000    70.1740     8.6820     7.1680     8.3010    23.8430   -19.9290     2.3420 
   90.6250    73.0900     8.4680     7.0400     7.0040    23.5250   -19.7780     2.3230 
   90.7500    77.7990     8.1800     6.8270     6.1950    23.0440   -19.6390     2.3040 
   90.8750    78.7170     7.8640     6.5700     5.7510    22.6340   -19.5140     2.2970 
   91.0000    76.3000     7.5660     6.3100     5.6550    22.3760   -19.4160     2.3060 
   91.1250    77.0370     7.3380     6.0990     5.6630    22.2640   -19.3780     2.3240 
   91.2500    79.9920     7.2010     5.9630     5.7090    22.1990   -19.3770     2.3370 
   91.3750    81.6040     7.1680     5.9150     5.8270    22.2670   -19.3800     2.3360 
   91.5000    82.5020     7.2390     5.9590     5.9440    22.6280   -19.3620     2.3180 
   91.6250    84.6620     7.4100     6.1000     6.0650    23.2740   -19.3280     2.2910 
   91.7500    84.6620     7.6290     6.3010     6.1180    23.7840   -19.2640     2.2680 
   91.8750    81.3670     7.8500     6.5250     6.1570    23.9520   -19.1590     2.2590 
   92.0000    78.4580     8.0300     6.7340     6.3760    23.9150   -19.0260     2.2640 
   92.1250    77.7180     8.1240     6.8830     6.5180    23.8000   -18.8730     2.2770 
   92.2500    78.2640     8.1340     6.9630     6.7810    23.4870   -18.7240     2.2860 
   92.3750    80.0830     8.0730     6.9790     6.6300    23.0650   -18.5830     2.2830 
   92.5000    80.9160     7.9580     6.9440     6.3930    22.5820   -18.4640     2.2720 
   92.6250    78.1830     7.8040     6.8690     6.4850    22.1900   -18.3590     2.2620 
   92.7500    75.8980     7.6250     6.7710     6.6430    21.9670   -18.2690     2.2640 
   92.8750    78.6860     7.4210     6.6530     6.6660    21.9960   -18.2110     2.2770 
   93.0000    83.6040     7.1870     6.5090     6.5450    22.2280   -18.1960     2.2960 
   93.1250    82.7130     6.9270     6.3310     6.1920    22.6670   -18.2140     2.3100 
   93.2500    77.8190     6.6790     6.1350     5.8090    23.2540   -18.2420     2.3160 
   93.3750    76.2610     6.4880     5.9510     5.6470    23.8440   -18.2550     2.3170 
   93.5000    81.4010     6.4040     5.8220     5.7310    24.3650   -18.2380     2.3140 
   93.6250    85.1790     6.4520     5.7880     5.5140    24.6050   -18.1960     2.3070 
   93.7500    82.0400     6.5470     5.8070     5.5610    24.6930   -18.1130     2.2940 
   93.8750    77.4940     6.5640     5.7950     5.8390    24.6990   -17.9710     2.2770 
   94.0000    77.2390     6.3800     5.6500     6.2090    24.5330   -17.7930     2.2610 
   94.1250    77.9840     5.9160     5.2840     6.3060    24.0710   -17.5900     2.2480 
   94.2500    75.5320     5.3430     4.7990     5.7610    23.7850   -17.3690     2.2390 
   94.3750    72.8230     4.9070     4.3540     4.4060    23.9610   -17.1700     2.2370 
   94.5000    72.7610     4.8950     4.1440     3.6120    24.2730   -17.0420     2.2470 
   94.6250    74.4970     5.7610     4.4830     3.9640    24.2600   -16.9890     2.2840 
   94.7500    75.8460     7.6850     5.5650     5.8840    24.0660   -16.9870     2.3480 
   94.8750    74.3740    10.8170     7.6490    10.5530    24.0420   -17.0320     2.4300 
