~V
VERS. 2.00: Ver 2.00
~W
STRT.M 10.0000:
STOP.M 237.0000:
STEP.M 0.1250:
NULL. -999.2500:
UWI. F10776:
~C
DEPT.M :
DEN.GM/CC :
GR.API :
RML.OHMM :
RI. :
RXO.OHMM :
CALI.CM :
SP.MV :
~A
# ...
   55.0000  -999.2500    29.7200     0.0010     0.2070     1.4900    25.2900    92.8170 
   55.1250  -999.2500    31.2080     0.0100     0.2040     1.6290    25.2820    92.9870 
   55.2500  -999.2500    31.7810     0.0270     0.2010     1.6960    25.2640    93.0620 
   55.3750  -999.2500    30.0450     0.0410     0.1970     1.6440    25.2460    93.0730 
   55.5000  -999.2500    27.5740     0.0430     0.1910     1.5230    25.2360    93.0020 
   55.6250  -999.2500    25.7390     0.0320     0.1850     1.4340    25.2330    92.7720 
   55.7500  -999.2500    25.0200     0.0190     0.1800     1.4470    25.2310    92.3620 
   55.8750  -999.2500    24.9880     0.0070     0.1770     1.5360    25.2290    91.7640 
   56.0000  -999.2500    25.2160     0.0010     0.1770     1.6300    25.2280    91.0510 
   56.1250  -999.2500    26.5840     0.0020     0.1780     1.6630    25.2300    90.3400 
   56.2500  -999.2500    28.8300     0.0090     0.1780     1.6540    25.2330    89.6300 
   56.3750  -999.2500    30.5780     0.0190     0.1780     1.6380    25.2350    88.9150 
   56.5000  -999.2500    30.3500     0.0290     0.1770     1.6240    25.2340    88.2330 
   56.6250     1.9380    28.6640     0.0310     0.1760     1.5900    25.2320    87.6670 
   56.7500     1.9380    28.2510     0.0250     0.1730     1.5470    25.2290    87.2540 
   56.8750     1.9390    28.7320     0.0150     0.1700     1.4780    25.2290    87.0200 
   57.0000     1.9440    29.1650     0.0050     0.1660     1.4470    25.2330    86.9350 
   57.1250     1.9500    30.1110     0.0010     0.1620     1.4600    25.2370    86.9860 
   57.2500     1.9540    33.0260     0.0000     0.1600     1.5180    25.2380    87.1590 
   57.3750     1.9560    36.0330     0.0000     0.1600     1.5120    25.2360    87.4140 
   57.5000     1.9580    36.4210     0.0000     0.1620     1.4820    25.2420    87.7370 
   57.6250     1.9590    35.0830     0.0000     0.1650     1.4860    25.2600    88.1020 
   57.7500     1.9580    34.5140     0.0010     0.1690     1.5060    25.2780    88.4700 
   57.8750     1.9540    35.3810     0.0050     0.1750     1.5300    25.2610    88.8110 
   58.0000     1.9510    36.4920     0.0110     0.1800     1.5790    25.1950    89.1000 
   58.1250     1.9560    34.6930     0.0180     0.1840     1.6900    25.0880    89.3690 
   58.2500     1.9670    31.0890     0.0230     0.1870     1.8790    24.9650    89.6780 
   58.3750     1.9810    28.1650     0.0240     0.1880     2.0520    24.8540    90.0370 
   58.5000     1.9950    27.9490     0.0210     0.1890     2.0520    24.8000    90.4020 
   58.6250     2.0080    30.7230     0.0150     0.1880     1.8960    24.7920    90.7290 
   58.7500     2.0190    34.0600     0.0080     0.1860     1.7970    24.7900    91.0250 
   58.8750     2.0270    36.5470     0.0030     0.1800     1.7730    24.7780    91.3130 
   59.0000     2.0310    37.2680     0.0000     0.1730     1.8210    24.7470    91.6310 
   59.1250     2.0250    37.0950     0.0010     0.1680     1.9760    24.7210    91.9810 
   59.2500     2.0040    36.7130     0.0040     0.1660     2.2030    24.6990    92.2730 
   59.3750     1.9690    36.2330     0.0090     0.1660     2.3650    24.6890    92.4500 
   59.5000     1.9340    36.0700     0.0140     0.1690     2.4230    24.6860    92.4930 
   59.6250     1.9180    36.1770     0.0150     0.1710     2.4320    24.6880    92.3980 
   59.7500     1.9190    36.6110     0.0120     0.1700     2.4180    24.6920    92.2010 
   59.8750     1.9310    37.1070     0.0070     0.1670     2.3510    24.7010    91.9040 
   60.0000     1.9460    37.6830     0.0020     0.1630     2.2000    24.7210    91.4760 
   60.1250     1.9630    38.4620     0.0000     0.1600     1.9640    24.7300    90.8650 
   60.2500     1.9790    39.0980     0.0000     0.1580     1.7710    24.7300    90.1280 
   60.3750     1.9840    39.2410     0.0000     0.1560     1.6710    24.7340    89.3000 
   60.5000     1.9740    38.4420     0.0000     0.1520     1.6310    24.7440    88.4260 
   60.6250     1.9620    37.1990     0.0000     0.1490     1.6170    24.7490    87.5190 
   60.7500     1.9650    37.2960     0.0000     0.1510     1.6040    24.7500    86.5810 
   60.8750     1.9860    38.3950     0.0000     0.1560     1.5750    24.7490    85.6250 
   61.0000     2.0180    38.0220     0.0000     0.1640     1.5220    24.7410    84.6500 
   61.1250     2.0370    36.1270     0.0000     0.1690     1.4850    24.7200    83.6500 
   61.2500     2.0350    36.5420     0.0000     0.1700     1.4810    24.6930    82.6220 
   61.3750     2.0190    38.6140     0.0000     0.1690     1.4950    24.6570    81.5670 
   61.5000     2.0050    40.0300     0.0000     0.1670     1.5350    24.5830    80.4470 
   61.6250     1.9940    41.7490     0.0000     0.1670     1.6000    24.4620    79.1980 
   61.7500     1.9850    43.1610     0.0000     0.1650     1.6680    24.3210    77.7350 
   61.8750     1.9840    42.8840     0.0000     0.1580     1.7230    24.1980    75.9560 
   62.0000     1.9960    38.9300     0.0000     0.1410     1.7360    24.1390    73.7600 
   62.1250     2.0220    34.6500     0.0000     0.1140     1.7250    24.1260    70.9190 
   62.2500     2.0570    33.5040     0.0000     0.0830     1.7050    24.1140    67.3520 
   62.3750     2.0980    34.6030     0.0000     0.0590     1.6950    24.0810    62.9430 
   62.5000     2.1460    35.5290     0.0000     0.0510     1.7160    24.0220    57.6060 
   62.6250     2.1990    34.0790     0.0050     0.0750     1.8060    23.8620    51.1170 
   62.7500     2.2420    32.2260     0.0310     0.1530     2.1820    23.6710    43.9170 
   62.8750     2.2440    30.6630     0.1120     0.3390     3.1690    23.7120    36.2910 
   63.0000     2.2110    29.4270     0.3280     0.7280     5.0580    24.1880    28.5250 
   63.1250     2.2070    31.1400     0.9170     1.5390     6.4890    24.7330    20.9680 
   63.2500     2.2870    33.8710     2.0260     2.8040     7.0300    25.0330    13.8770 
   63.3750     2.4460    34.2330     3.4370     4.3200     7.0570    25.1150     7.4420 
   63.5000     2.6040    32.0630     4.5100     5.6400     7.0740    25.1230     1.8240 
   63.6250     2.6630    29.5240     4.9260     6.3720     7.1680    25.1250    -2.6360 
   63.7500     2.6640    28.2540     5.0700     6.6940     7.3330    25.1360    -6.2230 
   63.8750     2.6650    29.7670     5.1310     6.7950     7.4220    25.1560    -9.0680 
   64.0000     2.6720    32.9230     5.1840     6.8000     7.3820    25.1700   -11.2970 
   64.1250     2.6670    33.1350     5.2540     6.7860     7.2780    25.2170   -12.9790 
   64.2500     2.6580    30.5330     5.3330     6.7900     7.2130    25.5260   -14.2710 
   64.3750     2.6520    30.6430     5.3960     6.8110     7.1350    26.4300   -15.2150 
   64.5000     2.6490    34.2760     5.4080     6.8170     6.9590    27.7600   -15.8360 
   64.6250     2.6340    34.5960     5.3480     6.7590     6.6670    28.5020   -16.1450 
   64.7500     2.6010    33.9460     5.2530     6.6350     6.5710    27.9460   -16.2470 
   64.8750     2.5730    38.9400     5.1590     6.4660     6.5570    26.7660   -16.1790 
   65.0000     2.5860    47.8480     5.0950     6.2920     6.1910    26.0160   -16.0170 
   65.1250     2.6310    52.9280     5.0900     6.1720     5.6320    25.6920   -15.8040 
   65.2500     2.6120    55.4640     5.1500     6.1390     5.5720    25.2580   -15.6250 
   65.3750     2.4920    57.0860     5.2870     6.2110     5.8170    24.6720   -15.4550 
   65.5000     2.3490    57.8030     5.5090     6.3850     6.0040    24.2620   -15.3190 
   65.6250     2.2740    57.6540     5.8120     6.6340     6.0270    24.0800   -15.2070 
   65.7500     2.2510    56.8360     6.1350     6.8920     6.1280    23.9480   -15.1680 
   65.8750     2.2380    56.2060     6.4240     7.1220     6.2380    23.8360   -15.2210 
   66.0000     2.2170    56.8520     6.6420     7.3110     6.1700    23.8010   -15.3170 
   66.1250     2.2100    58.3820     6.7570     7.4460     6.1540    23.8730   -15.4630 
