~V
VERS. 2.00: Ver 2.00
~W
STRT.M 51.0000:
STOP.M 263.0000:
STEP.M 0.1250:
NULL. -999.2500:
UWI. F10758:
~C
DEPT.M :
DEN.GM/CC :
GR.API :
RML.OHMM :
RI. :
RXO.OHMM :
CALI.CM :
SP.MV :
~A
# ...
   73.5000     2.3290    74.6740     5.6360     5.0250     5.5650    22.3040   -19.2570 
   73.6250     2.3230    72.2240     5.4690     4.6810     4.5610    22.7520   -19.2910 
   73.7500     2.3210    68.5210     5.3340     4.3580     4.0240    23.2850   -19.3030 
   73.8750     2.3240    68.1150     5.2400     4.1290     3.9630    23.6040   -19.3330 
   74.0000     2.3270    72.5350     5.2210     4.0260     4.0880    23.6640   -19.4160 
   74.1250     2.3220    77.2240     5.3250     4.0590     4.2080    23.6290   -19.6060 
   74.2500     2.3080    77.5950     5.5070     4.1570     4.2100    23.4980   -19.9220 
   74.3750     2.2840    74.2690     5.7060     4.2700     4.3280    23.3250   -20.2980 
   74.5000     2.2560    69.2610     5.9010     4.3810     4.6830    23.1840   -20.6970 
   74.6250     2.2290    64.9710     6.2090     4.5590     5.0100    23.0190   -21.2280 
   74.7500     2.2110    64.0260     6.8080     4.9150     5.3130    22.8360   -21.8480 
   74.8750     2.2110    65.5710     7.8430     5.5650     5.6480    22.7320   -22.5000 
   75.0000     2.2350    66.1880     9.3370     6.5770     6.5270    22.7390   -23.2240 
   75.1250     2.2780    63.8230    11.1120     7.9240     8.8370    22.7580   -23.9670 
   75.2500     2.3190    60.8330    12.6080     9.2140    12.0620    22.8010   -24.7110 
   75.3750     2.3360    57.3650    13.2330     9.9390    12.8780    22.8150   -25.5090 
   75.5000     2.3200    55.4140    12.6800     9.7480    10.4160    22.7680   -26.3000 
   75.6250     2.2800    57.2510    11.2390     8.7420     8.3190    22.7770   -27.0130 
   75.7500     2.2370    61.5570     9.8080     7.6070     7.3990    22.7930   -27.6550 
   75.8750     2.2040    65.7230     8.8250     6.7060     6.9220    22.7230   -28.2290 
   76.0000     2.1840    68.2620     8.4070     6.1780     6.6080    22.6520   -28.7360 
   76.1250     2.1730    69.9250     8.5030     6.0510     6.8120    22.5790   -29.2000 
   76.2500     2.1700    68.5770     8.8040     6.1510     7.0610    22.5650   -29.6060 
   76.3750     2.1750    63.9460     9.1140     6.3640     7.2180    22.5350   -29.9660 
   76.5000     2.1890    57.9260     9.3370     6.6110     7.3270    22.4790   -30.3170 
   76.6250     2.2080    54.2250     9.4980     6.8630     7.3460    22.3370   -30.6550 
   76.7500     2.2240    54.6990     9.7050     7.1170     7.1090    22.2750   -31.0150 
   76.8750     2.2300    56.0460    10.0110     7.3740     6.8510    22.4100   -31.3890 
   77.0000     2.2250    55.8390    10.3820     7.6090     6.7450    22.8630   -31.7510 
   77.1250     2.2070    54.6130    10.6530     7.7490     6.7420    22.9300   -32.0820 
   77.2500     2.1810    55.2000    10.6640     7.7470     6.8110    22.8060   -32.3580 
   77.3750     2.1540    56.6300    10.3630     7.5850     7.0000    22.6340   -32.5290 
   77.5000     2.1320    57.5170     9.8470     7.3080     7.1840    22.5640   -32.6540 
   77.6250     2.1210    58.9240     9.3540     7.0010     7.1940    22.5780   -32.7320 
   77.7500     2.1190    60.3720     9.0910     6.7430     6.9920    22.5620   -32.7460 
   77.8750     2.1240    60.4620     9.0850     6.5730     6.8300    22.4260   -32.7460 
   78.0000     2.1310    60.5740     9.2040     6.4850     6.8850    22.4380   -32.6850 
   78.1250     2.1370    61.9520     9.2560     6.4520     6.8860    22.5170   -32.5370 
   78.2500     2.1400    62.9620     9.1870     6.4330     6.7030    22.5250   -32.4250 
   78.3750     2.1400    61.8320     9.0380     6.4130     6.5360    22.4430   -32.3230 
   78.5000     2.1370    57.7440     8.8770     6.3920     6.5210    22.3990   -32.1780 
   78.6250     2.1300    54.5550     8.7530     6.3720     6.5630    22.3940   -32.0390 
   78.7500     2.1230    55.1290     8.6800     6.3590     6.7050    22.4020   -31.8730 
   78.8750     2.1180    57.8870     8.6740     6.3580     6.9540    22.3820   -31.6610 
   79.0000     2.1150    60.1190     8.7150     6.3610     7.1850    22.2760   -31.4580 
   79.1250     2.1100    61.4610     8.7480     6.3660     7.2470    22.1720   -31.2350 
   79.2500     2.0980    63.0870     8.7160     6.3590     7.2760    22.0290   -30.9670 
   79.3750     2.0780    63.7400     8.6100     6.3220     7.4290    21.9360   -30.6710 
   79.5000     2.0520    64.2590     8.4570     6.2360     7.5790    21.9660   -30.3470 
   79.6250     2.0320    65.3350     8.2530     6.0820     7.5120    22.2100   -30.0040 
   79.7500     2.0250    64.0190     7.9890     5.8880     7.1460    22.5180   -29.6570 
   79.8750     2.0340    59.9910     7.6790     5.6980     6.5750    22.8120   -29.2970 
   80.0000     2.0540    56.7950     7.4030     5.5720     6.1060    23.1230   -28.9560 
   80.1250     2.0750    56.1190     7.3310     5.5850     6.1620    23.4210   -28.6550 
   80.2500     2.0910    55.5510     7.5120     5.7320     6.4530    23.7180   -28.3360 
   80.3750     2.1040    56.1650     7.8990     5.9710     6.7950    23.7930   -28.0310 
   80.5000     2.1180    58.9640     8.3610     6.2300     7.2300    23.6840   -27.7530 
   80.6250     2.1330    61.5980     8.6700     6.3840     7.5200    23.4310   -27.4050 
   80.7500     2.1500    62.3850     8.6720     6.3510     7.4500    23.2460   -27.0090 
   80.8750     2.1660    63.8360     8.3090     6.0910     7.1400    23.1890   -26.6030 
   81.0000     2.1800    67.3800     7.6490     5.6290     6.6910    23.1510   -26.1300 
   81.1250     2.1910    68.4540     6.9230     5.0820     6.3700    23.1800   -25.6320 
   81.2500     2.2040    67.2340     6.4590     4.6690     5.8940    23.4620   -25.1620 
   81.3750     2.2240    67.9570     6.5300     4.5690     5.2220    23.7370   -24.7330 
   81.5000     2.2620    72.7160     7.3480     4.9270     5.1190    23.8580   -24.4390 
   81.6250     2.3230    76.1450     9.1280     5.9350     7.2730    23.9300   -24.4190 
   81.7500     2.3890    72.7770    11.5070     7.4750    13.2230    23.9450   -24.7040 
   81.8750     2.4300    65.4340    13.8150     9.2260    21.2220    23.9060   -25.3010 
   82.0000     2.4190    60.5140    14.9620    10.4740    21.7210    23.9440   -26.1540 
   82.1250     2.3510    60.0560    13.8890    10.2710    14.0810    23.9010   -27.2470 
   82.2500     2.2650    58.6640    11.6600     9.0590     9.0980    23.8390   -28.4580 
   82.3750     2.1950    54.2870     9.4990     7.6170     7.4050    23.9350   -29.6790 
   82.5000     2.1560    51.9690     8.0730     6.4830     6.9180    24.0160   -30.8050 
   82.6250     2.1440    53.8920     7.5390     5.8750     6.5660    24.0250   -31.7600 
   82.7500     2.1390    55.1330     7.5170     5.6350     6.4330    23.9640   -32.4710 
   82.8750     2.1270    54.6000     7.7640     5.6400     6.4220    23.8420   -32.9170 
   83.0000     2.1090    54.3560     8.0680     5.7760     6.4620    23.7810   -33.1430 
   83.1250     2.0870    57.1170     8.2580     5.9570     6.5090    23.8220   -33.0690 
   83.2500     2.0700    60.5300     8.3190     6.1280     6.4780    24.1120   -32.8370 
   83.3750     2.0600    61.4300     8.3370     6.2790     6.5780    24.5620   -32.5500 
   83.5000     2.0570    58.6380     8.4310     6.4020     6.8750    24.7750   -32.1660 
   83.6250     2.0590    54.6210     8.6520     6.4710     7.1570    24.7960   -31.6810 
   83.7500     2.0640    54.1690     8.8480     6.4670     7.3890    24.7610   -31.1440 
   83.8750     2.0720    56.5470     8.8420     6.3680     7.4040    24.7280   -30.4880 
   84.0000     2.0870    58.9140     8.5510     6.1670     7.1810    24.7210   -29.7430 
   84.1250     2.1120    60.2980     8.0780     5.8840     6.9190    24.6820   -28.9130 
   84.2500     2.1430    62.0520     7.6910     5.5860     6.7440    24.4500   -28.0030 
   84.3750     2.1730    65.4230     7.5440     5.3340     6.4360    23.8350   -27.0760 
   84.5000     2.1970    69.6780     7.6420     5.1710     5.8720    23.1160   -26.2460 
   84.6250     2.2060    73.3190     7.8460     5.1270     5.8630    22.4790   -25.5500 
