~V
VERS. 2.00: Ver 2.00
~W
STRT.M 55.0000:
STOP.M 262.0000:
STEP.M 0.1250:
NULL. -999.2500:
UWI. F10759:
~C
DEPT.M :
DEN.GM/CC :
GR.API :
RML.OHMM :
RI. :
RXO.OHMM :
CALI.CM :
SP.MV :
~A
# ...
  212.5000     2.4020    66.5580    13.6860    13.6740     8.0140    23.5250   -11.7110 
  212.6250     2.3510    67.0540    12.7100    12.4000     9.5180    23.6140   -11.3110 
  212.7500     2.3090    69.0430    12.7500    12.0880    11.7600    23.6880   -10.9600 
  212.8750     2.2900    73.2710    13.6440    12.5850    12.7960    23.7510   -10.6740 
  213.0000     2.3000    75.2520    15.3520    13.8380    11.5530    23.7640   -10.4660 
  213.1250     2.3420    73.0030    17.8790    15.9120    12.4420    23.8180   -10.3300 
  213.2500     2.4020    68.7540    20.6750    18.4160    17.6400    23.8260   -10.2620 
  213.3750     2.4640    63.2710    23.0210    20.7490    24.7620    23.8280   -10.2430 
  213.5000     2.5100    57.4160    24.1910    22.1690    26.4010    23.8280   -10.2710 
  213.6250     2.5180    56.7560    23.8480    22.1340    21.8950    23.8280   -10.3730 
  213.7500     2.4860    61.4370    23.0160    21.3840    18.3420    23.8280   -10.5240 
  213.8750     2.4210    64.6430    22.6690    20.7230    16.7840    23.8280   -10.7260 
  214.0000     2.3400    62.1100    23.4290    20.7680    17.0490    23.8320   -10.9420 
  214.1250     2.2700    57.5690    25.4740    21.8760    23.2690    23.8610   -11.1440 
  214.2500     2.2270    55.1510    27.9780    23.5950    29.0340    23.9300   -11.3020 
  214.3750     2.2180    54.1980    30.0330    25.2950    27.5450    23.9160   -11.4060 
  214.5000     2.2400    54.7770    30.7950    26.2350    25.2110    23.8940   -11.4550 
  214.6250     2.2870    58.4140    29.7520    25.7830    24.4600    23.8670   -11.4310 
  214.7500     2.3410    62.5060    27.8100    24.4550    24.0180    23.8060   -11.3270 
  214.8750     2.3850    63.4570    25.8640    22.9210    22.7940    23.8170   -11.1410 
  215.0000     2.4030    60.9340    24.6070    21.7520    20.5510    23.8070   -10.8810 
  215.1250     2.3870    58.8290    24.4620    21.3870    18.6600    23.7050   -10.5750 
  215.2500     2.3640    58.1810    24.7710    21.4900    19.0320    23.6610   -10.2350 
  215.3750     2.3610    57.1290    25.9470    22.1150    21.8620    23.6520    -9.8710 
  215.5000     2.3980    56.4780    27.4050    23.1650    23.6590    23.6620    -9.4660 
  215.6250     2.4740    54.6910    27.5150    23.4670    23.2910    23.6630    -9.0250 
  215.7500     2.5480    52.7000    25.2100    21.9600    24.2160    23.6120    -8.5840 
  215.8750     2.5830    53.6210    20.7100    18.6110    26.3200    23.5150    -8.1700 
  216.0000     2.5700    58.5000    15.5220    14.5210    24.9610    23.4390    -7.7930 
  216.1250     2.5240    64.2480    11.4800    11.1130    17.8430    23.6380    -7.4550 
  216.2500     2.4780    67.3100     8.9230     8.7670    11.4690    23.7200    -7.1400 
  216.3750     2.4480    68.4240     7.5720     7.3680     8.5250    23.6950    -6.8670 
  216.5000     2.4340    69.6580     7.0300     6.6870     6.8580    23.6770    -6.6400 
  216.6250     2.4310    69.8610     6.9950     6.5530     6.6590    23.6690    -6.4750 
  216.7500     2.4310    68.7950     7.1080     6.6570     6.3280    23.6780    -6.3590 
  216.8750     2.4290    69.5830     7.2130     6.8320     6.0790    23.7020    -6.2800 
  217.0000     2.4240    73.8790     7.2590     6.9820     5.9690    23.7420    -6.2370 
  217.1250     2.4140    79.2430     7.2780     7.0970     5.9710    23.7470    -6.2250 
  217.2500     2.4020    82.1260     7.3180     7.2070     6.0390    23.7490    -6.2550 
  217.3750     2.3910    82.1910     7.3780     7.3150     6.2220    23.7640    -6.3180 
  217.5000     2.3830    81.4160     7.4340     7.3960     6.4210    23.7630    -6.4020 
  217.6250     2.3810    81.7880     7.4500     7.4050     6.3530    23.7620    -6.5010 
  217.7500     2.3830    85.3760     7.4280     7.3450     6.1350    23.7610    -6.6160 
  217.8750     2.3860    89.5070     7.3850     7.2340     6.0480    23.7550    -6.7350 
  218.0000     2.3910    93.2750     7.3470     7.1030     6.0760    23.7540    -6.8600 
  218.1250     2.3950    98.5760     7.3470     6.9920     6.1700    23.7660    -7.0200 
  218.2500     2.3990   103.2350     7.3990     6.9310     6.2580    23.7800    -7.1960 
  218.3750     2.4040   104.6850     7.5100     6.9300     6.3470    23.7740    -7.3620 
  218.5000     2.4090   105.2550     7.6910     6.9960     6.5180    23.7840    -7.5370 
  218.6250     2.4140   106.3470     8.0040     7.1620     6.8790    23.7550    -7.7360 
  218.7500     2.4190   104.5630     8.4980     7.4630     7.2830    23.7340    -7.9280 
  218.8750     2.4260    99.2090     9.2160     7.9420     7.6760    23.7330    -8.1290 
  219.0000     2.4340    93.1990    10.1420     8.6060     7.7550    23.7510    -8.3430 
  219.1250     2.4370    86.6460    11.1570     9.3960     8.7280    23.7720    -8.5430 
  219.2500     2.4280    81.4140    12.0290    10.1240    10.6910    23.8070    -8.7460 
  219.3750     2.4070    81.2790    12.5760    10.6230    12.4240    23.7750    -8.9810 
  219.5000     2.3800    84.8490    12.7700    10.8150    11.8950    23.7600    -9.2530 
  219.6250     2.3610    86.6180    12.8290    10.8040     9.7960    23.7830    -9.5650 
  219.7500     2.3630    85.9390    13.1550    10.9020     9.3220    23.8240    -9.9390 
  219.8750     2.3840    87.1820    14.0200    11.3430    10.5090    23.8210   -10.3540 
  220.0000     2.4130    89.4020    15.5680    12.2830    12.1660    23.8080   -10.7970 
  220.1250     2.4230    85.5760    17.9220    13.8850    13.7570    23.8040   -11.2850 
  220.2500     2.4070    76.4840    20.8560    16.0180    15.7850    23.8060   -11.8010 
  220.3750     2.3670    69.4730    24.2270    18.5850    18.8530    23.8090   -12.3400 
  220.5000     2.3190    69.3400    26.3230    21.4810    21.8760    23.8180   -12.8660 
  220.6250     2.2790    71.0850    29.9740    24.6470    24.7270    23.7900   -13.3620 
  220.7500     2.2540    71.7630    33.5390    27.8770    30.3590    23.7980   -13.8000 
  220.8750     2.2420    72.5380    36.6590    30.8840    38.0320    23.7700   -14.1880 
  221.0000     2.2370    72.4640    38.9730    33.3360    38.4870    23.7610   -14.5390 
  221.1250     2.2320    69.1080    40.1740    34.8570    34.9140    23.7440   -14.8300 
  221.2500     2.2220    64.1200    40.6890    35.6380    32.3990    23.7090   -15.0730 
  221.3750     2.2120    62.6090    41.1060    36.0690    31.8590    23.6820   -15.2790 
  221.5000     2.2160    65.4080    42.1400    36.7650    35.6710    23.6900   -15.4790 
  221.6250     2.2550    67.4000    44.6470    38.5620    37.9260    23.7270   -15.6600 
  221.7500     2.3280    66.4040    48.7270    41.7280    35.7430    23.7840   -15.8600 
  221.8750     2.4170    64.1140    54.3340    46.3650    35.1110    23.7950   -16.0690 
  222.0000     2.4870    63.6240    61.0630    52.2610    40.8820    23.6680   -16.2840 
  222.1250     2.4960    64.8060    67.9080    58.7230    52.3210    23.6850   -16.5180 
  222.2500     2.4500    64.8310    73.5740    64.5330    53.2550    23.8010   -16.7940 
  222.3750     2.3760    64.1920    77.3470    68.8820    45.7860    23.7910   -17.0840 
  222.5000     2.3050    62.8250    79.2490    71.5230    43.5850    23.7150   -17.3650 
  222.6250     2.2560    60.2170    79.6900    72.5950    50.5010    23.5630   -17.6460 
  222.7500     2.2240    57.9630    79.3370    72.7720    62.8310    23.6780   -17.8990 
  222.8750     2.2040    56.9350    78.1490    72.1220    69.4670    23.7220   -18.1380 
  223.0000     2.1890    56.4500    76.0750    70.5990    65.1270    23.6420   -18.3540 
  223.1250     2.1780    55.1080    73.6290    68.4890    57.4040    23.4580   -18.5460 
  223.2500     2.1680    55.0050    71.9500    66.7890    52.5380    23.3080   -18.6890 
  223.3750     2.1580    57.1660    71.8510    66.3360    51.9670    23.2810   -18.7960 
  223.5000     2.1430    57.3160    73.6730    67.6090    53.3690    23.2610   -18.8910 
  223.6250     2.1260    53.0480    77.5870    70.9490    57.4700    23.2080   -18.9310 
