~V
VERS. 2.00: Ver 2.00
~W
STRT.M 51.0000:
STOP.M 263.0000:
STEP.M 0.1250:
NULL. -999.2500:
UWI. F10758:
~C
DEPT.M :
DEN.GM/CC :
GR.API :
RML.OHMM :
RI. :
RXO.OHMM :
CALI.CM :
SP.MV :
~A
# ...
   96.0000     2.3010    79.4230     7.4690     5.8330     5.5890    21.8700   -13.4340 
   96.1250     2.3000    76.4160     7.5500     5.8960     5.6580    21.8090   -13.4630 
   96.2500     2.3050    72.9190     7.3060     5.7980     5.6980    21.7620   -13.4980 
   96.3750     2.3130    71.1050     6.8570     5.5830     5.7190    21.7460   -13.5700 
   96.5000     2.3220    71.2230     6.4430     5.3480     5.1320    21.8840   -13.6480 
   96.6250     2.3260    72.2860     6.3590     5.2220     4.7410    22.2010   -13.7150 
   96.7500     2.3240    72.2040     6.6480     5.2750     5.0470    22.4520   -13.8190 
   96.8750     2.3180    69.6110     7.2270     5.5250     5.7490    22.6850   -13.9130 
   97.0000     2.3120    64.0040     7.9220     5.9340     6.1280    22.8520   -13.9650 
   97.1250     2.3110    58.9100     8.5160     6.4040     6.3400    23.0070   -14.0750 
   97.2500     2.3110    57.6600     8.9230     6.8000     6.5750    23.0940   -14.1670 
   97.3750     2.3040    59.4040     9.1950     7.0740     6.7140    23.0560   -14.2030 
   97.5000     2.2820    59.7110     9.4700     7.2990     6.5340    22.9110   -14.2640 
   97.6250     2.2370    57.7590     9.9720     7.6680     6.2420    23.0420   -14.3180 
   97.7500     2.1830    56.9280    10.8160     8.3070     6.5710    23.1960   -14.3410 
   97.8750     2.1350    57.7760    12.0540     9.2730     7.6260    23.2840   -14.3860 
   98.0000     2.1060    58.2520    13.6410    10.5450     8.9520    23.4650   -14.4290 
   98.1250     2.1050    56.9350    15.3490    12.0080    10.3980    23.5460   -14.4060 
   98.2500     2.1230    56.2780    16.7820    13.3910    10.9970    23.4660   -14.3990 
   98.3750     2.1480    57.0930    17.7170    14.5110    11.0810    23.2620   -14.3960 
   98.5000     2.1700    56.9160    18.2110    15.3140    11.0380    23.0730   -14.3620 
   98.6250     2.1770    53.8860    18.4380    15.8240    10.9940    22.8330   -14.3510 
   98.7500     2.1740    51.4630    18.4540    16.0720    10.9530    22.7420   -14.3190 
   98.8750     2.1690    52.7280    18.0340    15.8650    10.9550    22.8470   -14.2740 
   99.0000     2.1710    56.1000    16.8990    14.9320    10.8870    23.0370   -14.2460 
   99.1250     2.1870    58.4970    14.8720    13.1140    10.3750    23.1780   -14.2310 
   99.2500     2.2120    60.5140    12.4600    10.9350     9.1220    23.1520   -14.2310 
   99.3750     2.2340    63.6870    10.1810     8.8870     7.2700    23.1010   -14.2770 
   99.5000     2.2480    68.2820     8.4230     7.3020     5.6030    22.8710   -14.3380 
   99.6250     2.2490    71.4590     7.4500     6.3860     4.9430    22.5720   -14.4060 
   99.7500     2.2450    72.4120     7.1070     5.9900     4.9320    22.3310   -14.5050 
   99.8750     2.2430    71.9390     7.2720     6.0190     5.3370    22.1410   -14.5860 
  100.0000     2.2430    71.5730     7.7470     6.3460     5.7210    22.0270   -14.6550 
  100.1250     2.2450    72.6150     8.2530     6.7950     5.6520    22.0310   -14.7420 
  100.2500     2.2450    72.4410     8.5540     7.1380     5.5190    21.9900   -14.7830 
  100.3750     2.2420    70.1680     8.5510     7.2500     5.6020    21.8990   -14.7880 
  100.5000     2.2370    66.9770     8.2380     7.0780     5.8430    21.8410   -14.8080 
  100.6250     2.2330    66.4340     7.6390     6.6070     5.5310    22.0170   -14.7470 
  100.7500     2.2310    69.2410     6.9270     5.9910     4.9850    22.3330   -14.6640 
  100.8750     2.2330    71.8300     6.3060     5.4050     4.7270    22.5590   -14.5960 
  101.0000     2.2390    72.9410     6.0450     5.0540     4.6930    22.6290   -14.5270 
  101.1250     2.2550    74.8860     6.5400     5.2130     4.6460    22.6100   -14.4870 
  101.2500     2.2830    74.6920     7.8790     5.9580     5.4110    22.5680   -14.4780 
  101.3750     2.3230    68.8250    10.0700     7.3550     8.0150    22.5720   -14.4830 
  101.5000     2.3640    61.6590    12.8500     9.3330    13.9470    22.5910   -14.5020 
  101.6250     2.3840    60.3230    15.3910    11.4710    17.9310    22.4140   -14.5670 
  101.7500     2.3720    61.1480    16.8290    13.0130    15.1770    22.0700   -14.6370 
  101.8750     2.3300    59.4610    17.1300    13.6670    11.0850    21.7750   -14.6980 
  102.0000     2.2740    58.2820    17.0980    13.8190     9.6240    21.6120   -14.7280 
  102.1250     2.2320    62.0860    17.7840    14.2230    10.8070    21.4610   -14.6950 
  102.2500     2.2210    67.8030    19.3610    15.2300    12.9090    21.2820   -14.6490 
  102.3750     2.2380    71.1340    21.4320    16.7550    14.8380    21.2740   -14.5760 
  102.5000     2.2660    70.6730    23.2070    18.3620    17.1040    21.3690   -14.4480 
  102.6250     2.2800    67.7270    23.6790    19.2900    16.9190    21.4230   -14.3530 
  102.7500     2.2690    65.3500    23.0400    19.3990    13.5880    21.7980   -14.2610 
  102.8750     2.2360    64.8100    21.9990    19.0320    12.0420    22.2730   -14.1380 
  103.0000     2.1950    65.8900    21.1710    18.6230    11.9760    22.5350   -14.0390 
  103.1250     2.1650    67.1720    20.5840    18.3180    12.3560    22.6280   -13.9650 
  103.2500     2.1530    65.6890    19.6370    17.8120    12.8120    22.6610   -13.8830 
  103.3750     2.1670    60.7960    17.8370    16.7000    12.8530    22.7240   -13.8460 
  103.5000     2.2040    55.6160    15.1420    14.7850    12.0900    22.9220   -13.8250 
  103.6250     2.2570    56.2690    12.1210    12.3000     9.7170    23.1330   -13.7650 
  103.7500     2.3050    63.6860     9.5540     9.9220     7.3160    23.3790   -13.7210 
  103.8750     2.3330    73.4530     7.7330     8.0160     6.0830    23.5020   -13.7000 
  104.0000     2.3370    80.1650     6.6430     6.6970     5.6790    23.1470   -13.7090 
  104.1250     2.3240    80.9370     6.2340     5.9880     5.2430    23.0340   -13.7670 
  104.2500     2.3080    79.1490     6.2810     5.6660     4.7780    22.8990   -13.8400 
  104.3750     2.2940    77.1730     6.6180     5.5820     4.9710    22.8000   -13.9180 
  104.5000     2.2850    77.4060     6.9850     5.5800     5.3920    22.7060   -14.0200 
  104.6250     2.2810    81.0600     7.0930     5.5480     5.1520    22.6530   -14.1120 
  104.7500     2.2830    85.0850     6.9570     5.5120     4.8510    22.6440   -14.2160 
  104.8750     2.2900    87.8460     6.7740     5.5570     4.8600    22.6370   -14.3280 
  105.0000     2.3020    88.3450     6.7820     5.7680     4.8340    22.6400   -14.3930 
  105.1250     2.3200    84.9450     7.1910     6.2170     5.3620    22.6320   -14.4310 
  105.2500     2.3410    79.5110     7.8600     6.8000     7.0460    22.6160   -14.4510 
  105.3750     2.3570    76.2570     8.4880     7.3240     9.1730    22.5250   -14.4110 
  105.5000     2.3610    75.3710     8.7090     7.5440     8.2580    22.3150   -14.3680 
  105.6250     2.3460    74.7640     8.2270     7.2450     6.5060    22.1540   -14.3270 
  105.7500     2.3220    75.8760     7.3350     6.6180     5.7860    22.0950   -14.2340 
  105.8750     2.2970    79.0900     6.4250     5.9050     5.5500    22.2330   -14.1500 
  106.0000     2.2780    82.0430     5.8480     5.3310     5.3620    22.3050   -14.1120 
  106.1250     2.2650    83.0480     5.8810     5.1110     5.0720    22.3190   -14.0680 
  106.2500     2.2490    82.1980     6.4590     5.2640     5.0310    22.2730   -14.1000 
  106.3750     2.2270    77.4370     7.5640     5.8280     5.3900    22.2470   -14.2000 
  106.5000     2.1960    69.4700     9.1850     6.8430     6.3150    22.0660   -14.2890 
  106.6250     2.1590    65.1480    11.3150     8.3820     7.9150    22.2010   -14.4340 
  106.7500     2.1200    63.9070    13.5800    10.2030    10.1060    22.6850   -14.6000 
  106.8750     2.0850    63.0340    15.4890    11.9570    12.0220    22.9940   -14.7660 
  107.0000     2.0610    60.4900    16.5680    13.2080    12.4190    23.1330   -14.9600 
  107.1250     2.0550    58.9840    16.5770    13.5950    10.8350    23.1310   -15.1310 
