~V
VERS. 2.00: Ver 2.00
~W
STRT.M 59.0000:
STOP.M 239.0000:
STEP.M 0.1250:
NULL. -999.2500:
UWI. F10784:
~C
DEPT.M :
DEN.GM/CC :
GR.API :
RML.OHMM :
RI. :
RXO.OHMM :
CALI.CM :
SP.MV :
~A
# ...
  227.7500     2.5240    67.0070    56.7200    54.5230    39.2600    23.9860   -16.2230 
  227.8750     2.5510    67.9620    59.0930    55.9850    48.7560    23.8710   -16.0710 
  228.0000     2.5870    69.0720    62.0080    58.0050    57.3030    23.8060   -16.0070 
  228.1250     2.6110    68.5690    65.0980    60.2090    56.1880    23.6100   -15.9890 
  228.2500     2.6220    68.0970    68.1540    62.3920    55.8590    23.7770   -15.9770 
  228.3750     2.6240    68.0970    71.0740    64.4890    62.3940    23.8360   -15.9790 
  228.5000     2.6240    68.0970    73.6480    66.3840    63.8370    23.7540   -15.9470 
  228.6250     2.6210    68.0970    75.3220    67.7000    58.2040    23.7280   -15.9180 
  228.7500     2.6140    68.0970    75.7830    68.1620    53.5060    23.6730   -15.9560 
  228.8750     2.6060    68.0970    74.8250    67.5450    52.5770    23.6500   -16.0400 
  229.0000     2.5990    68.0970    72.4890    65.8040    53.1860    23.8520   -16.1430 
  229.1250     2.5950    68.0970    68.7640    62.8750    58.4120    24.0160   -16.2380 
  229.2500     2.5930    68.0970    63.9160    58.9580    66.3030    24.1130   -16.3390 
  229.3750     2.5910    68.0970    57.8320    53.8920    62.8820    24.1090   -16.4990 
  229.5000     2.5860    68.0970    50.4570    47.5180    52.0680    23.9930   -16.7050 
  229.6250     2.5720    68.0970    42.0420    39.9160    43.0080    23.8470   -16.9280 
  229.7500     2.5430    68.0970    33.6590    32.0960    37.5230    23.7640   -17.1850 
  229.8750     2.4990    68.0970    26.2080    24.9720    24.6280    23.8240   -17.4960 
  230.0000     2.4440    68.0970    20.0430    19.1970    13.4690    23.8600   -17.7740 
  230.1250     2.3930    68.0970    15.3790    15.2210    10.5360    23.8680   -17.9260 
  230.2500     2.3560    68.0970    12.1260    12.5750     9.8240    23.8810   -18.0710 
  230.3750     2.3370    68.0970    10.3440    10.9600     9.4980    23.9560   -18.1930 
  230.5000     2.3340    68.0970     9.6860    10.0970     8.6020    23.9930   -18.3000 
  230.6250     2.3440    68.0970     9.5970     9.8230    10.1590    24.0030   -18.4030 
  230.7500     2.3630    68.0970     9.7210     9.8700    12.4540    24.0280   -18.4350 
  230.8750     2.3910    68.0970    10.0100    10.1240    12.2840    24.1790   -18.4310 
  231.0000     2.4260    68.0970    10.3810    10.4980    10.4570    24.2470   -18.4170 
  231.1250     2.4610    68.0970    10.7230    10.8790    10.5210    24.2190   -18.4800 
  231.2500     2.4840    68.0970    10.8910    11.1070    12.2080    24.1190   -18.5330 
  231.3750     2.4920    68.0970    10.7570    11.0240    12.8960    23.9560   -18.5320 
  231.5000     2.4840    68.0970    10.2560    10.5360    11.2590    23.8800   -18.4060 
  231.6250     2.4650    68.0970     9.4070     9.6340     9.1860    23.8670   -18.0840 
  231.7500     2.4430    68.0970     8.4530     8.5740     7.6710    23.8670   -17.7440 
  231.8750     2.4210    68.0970     7.6060     7.5710     6.6590    23.8570   -17.6150 
  232.0000     2.3980    68.0970     7.0180     6.7960     6.3300    23.8180   -17.2290 
  232.1250     2.3790    68.0970     6.7200     6.3990     6.5280    23.6220   -17.1790 
  232.2500     2.3440    68.0970     6.6290     6.3310     7.0320    23.6870   -17.2990 
  232.3750     2.3280    68.0970     6.7770     6.5430     7.8800    23.8370   -17.6080 
  232.5000     2.3150    68.0970     7.1590     6.9420     9.1300    23.8600   -18.0960 
  232.6250     2.3050    68.0970     7.6040     7.3790     9.7940    23.8260   -18.7280 
  232.7500     2.2980    68.0970     7.8760     7.6900     9.6960    23.7750   -19.3690 
  232.8750     2.2910    68.0970     7.9120     7.7870     8.8840    23.9140   -19.9100 
  233.0000     2.2870    68.0970     7.7490     7.6660     8.0790    23.9800   -20.3620 
  233.1250     2.2890    68.0970     7.5320     7.4520     7.9000    23.9790   -20.7250 
  233.2500     2.3040    68.0970     7.3120     7.2070     7.7330    23.8940   -21.0400 
  233.3750     2.3320    68.0970     7.1020     6.9270     8.4440    23.9040   -21.2990 
  233.5000     2.3610    68.0970     6.9810     6.7020    10.6580    23.9060   -21.5710 
  233.6250     2.3790    68.0970     6.9470     6.5340    13.2950    23.7960   -21.9180 
  233.7500     2.3770    68.0970     6.9770     6.4120    11.8180    23.7820   -22.3040 
  233.8750     2.3570    68.0970     7.0370     6.3340     9.3400    23.9530   -22.7730 
  234.0000     2.3340    68.0970     7.0830     6.2910     8.9810    23.9130   -23.2440 
  234.1250     2.3160    68.0970     7.1030     6.2730     9.2950    23.7930   -23.5880 
  234.2500     2.3060    68.0970     7.1040     6.2700     9.1950    23.7610   -23.8030 
  234.3750     2.3020    68.0970     7.1020     6.2700     9.2250    23.8390   -23.9000 
  234.5000     2.2990    68.0970     7.1020     6.2700     9.8710    23.7970   -23.8980 
  234.6250     2.2930    68.0970     7.1020     6.2700    10.1500    23.7440   -23.8070 
  234.7500     2.2840    68.0970     7.1020     6.2700     8.8560    23.7330   -23.6790 
  234.8750     2.2770    68.0970     7.1020     6.2700     7.6350    23.7330   -23.5050 
  235.0000     2.2760    68.0970     7.1020     6.2700     7.0330    23.7330   -23.3440 
  235.1250     2.2810    68.0970     7.1020     6.2700     6.8920    23.7330   -23.2300 
  235.2500     2.2880    68.0970     7.1020     6.2700     6.8140    23.7330   -23.1610 
  235.3750     2.2930    68.0970     7.1020     6.2700     6.8180    23.7980   -23.1290 
  235.5000     2.2980    68.0970     7.1020     6.2700     6.7090    23.9590   -23.1070 
  235.6250     2.3050    68.0970     7.1020     6.2700     6.4890    23.9590   -23.0670 
  235.7500     2.3150    68.0970     7.1020     6.2700     6.1920    23.9590   -23.0580 
  235.8750     2.3250    68.0970     7.1020     6.2700     5.8350    23.9590   -23.0360 
  236.0000     2.3360    68.0970     7.1020     6.2700     5.4020    23.9590   -23.0100 
  236.1250     2.3470    68.0970     7.1020     6.2700     5.2390    23.9580   -23.0070 
  236.2500     2.3590    68.0970     7.1020     6.2700     5.3030    23.9480   -22.9740 
  236.3750     2.3680    68.0970     7.1020     6.2700     5.6970    23.9230   -22.9590 
  236.5000     2.3660    68.0970     7.1020     6.2700     6.3670    23.8980   -22.9250 
  236.6250     2.3510    68.0970     7.1020     6.2700     6.8050    23.8870   -22.9230 
  236.7500     2.3280    68.0970     7.1020     6.2700     6.6480    23.8860   -22.9040 
  236.8750     2.3070    68.0970     7.1020     6.2700     6.4490    23.8860   -22.8860 
  237.0000     2.2930    68.0970     7.1020     6.2700     6.2570    23.8800   -22.8770 
  237.1250     2.2860    68.0970     7.1020     6.2700     5.8390    23.8250  -999.2500 
  237.2500     2.2800    68.0970     7.1020     6.2700     5.4150    23.6660  -999.2500 
  237.3750     2.2660    68.0970     7.1020     6.2700     5.3780    23.3610  -999.2500 
  237.5000     2.2350    68.0970     7.1020     6.2700     5.6580    22.9750  -999.2500 
  237.6250     2.1790    68.0970     7.1020     6.2700     5.7640    22.4000  -999.2500 
  237.7500     2.0970    68.0970     7.1020     6.2700     5.6310    21.6190  -999.2500 
  237.8750     1.9840    68.0970     7.1020     6.2700     5.3560    20.7170  -999.2500 
  238.0000     1.8530    68.0970     7.1020     6.2700     5.0550    19.4530  -999.2500 
  238.1250     1.7770    68.0970     7.1020     6.2700     4.6740    17.9730  -999.2500 
  238.2500     1.8430    68.0970     7.1020     6.2700     4.4390    16.9530  -999.2500 
  238.3750     2.1590    68.0970     7.1020     6.2700     4.3780    16.6360  -999.2500 
  238.5000     3.2770    68.0970     7.1020     6.2700     4.3760    16.6000  -999.2500 
  238.6250     3.2670    68.0970     7.1020     6.2700     4.3770    16.5960  -999.2500 
  238.7500     2.5490    68.0970     7.1020     6.2700     4.3780    16.5930  -999.2500 
  238.8750  -999.2500    68.0970     7.1020     6.2700     4.3780    16.5930  -999.2500 
