~V
VERS. 2.00: Ver 2.00
~W
STRT.M 50.0000:
STOP.M 261.0000:
STEP.M 0.1250:
NULL. -999.2500:
UWI. F10772:
~C
DEPT.M :
GR.API :
RML.OHMM :
RI. :
RXO.OHMM :
CALI.CM :
SP.MV :
DEN.GM/CC :
~A
# ...
  140.0000    46.4220    27.6000    26.1680    12.2590    25.7930    -1.8120     2.2360 
  140.1250    45.0600    27.8520    26.2160    12.1950    26.0200    -1.6930     2.2830 
  140.2500    47.5790    27.9520    26.0010    11.7790    25.9660    -1.4640     2.3150 
  140.3750    51.7880    28.0670    25.8830    11.1970    25.5120    -1.1850     2.3270 
  140.5000    54.3620    28.2320    26.0610    11.0610    24.9520    -0.9520     2.3160 
  140.6250    54.9690    28.2220    26.3530    12.0810    24.9270    -0.8670     2.2850 
  140.7500    54.6880    27.7590    26.2460    13.3220    25.4320    -0.8820     2.2570 
  140.8750    52.2230    26.7120    25.3960    13.1940    26.0230    -0.9340     2.2520 
  141.0000    49.7200    25.2020    23.8520    11.2140    26.1420    -1.0320     2.2740 
  141.1250    49.9360    23.6400    22.0780     9.5720    25.5520    -1.2990     2.3060 
  141.2500    50.9810    22.5020    20.6770     8.9650    24.8810    -1.7460     2.3170 
  141.3750    51.9450    22.0200    19.9640     9.6030    24.5890    -2.1840     2.3010 
  141.5000    51.9570    22.1670    19.9970    10.2510    24.7270    -2.5210     2.2680 
  141.6250    48.8980    22.6840    20.6060    10.5820    25.2280    -2.8120     2.2420 
  141.7500    45.4650    23.0980    21.2330    11.0070    25.9930    -3.1020     2.2340 
  141.8750    44.9440    23.1340    21.4710    11.5290    26.6950    -3.3780     2.2470 
  142.0000    48.0810    22.6930    21.1500    11.0160    26.9000    -3.6760     2.2770 
  142.1250    52.5130    21.7900    20.3380     9.7350    26.1370    -4.0420     2.3190 
  142.2500    54.4260    20.6610    19.3190     9.0340    25.2540    -4.3470     2.3640 
  142.3750    52.3250    19.4500    18.1920     9.0350    24.5870    -4.5880     2.4010 
  142.5000    50.1270    18.2900    17.0380     8.8070    24.1520    -4.7810     2.4170 
  142.6250    53.5940    17.3680    16.0310     7.8560    23.9000    -4.9170     2.3960 
  142.7500    57.9090    16.8040    15.3350     7.0030    23.8530    -5.0620     2.3400 
  142.8750    57.3580    16.6980    15.0780     6.9010    23.9210    -5.2620     2.2630 
  143.0000    52.1040    17.0890    15.3440     7.3640    24.1100    -5.4770     2.1880 
  143.1250    46.7040    17.9780    16.2420     8.4290    24.4870    -5.6620     2.1480 
  143.2500    43.8590    19.0810    17.5940     9.4860    24.8910    -5.8710     2.1500 
  143.3750    44.2470    20.0840    19.1700     9.9640    25.1600    -6.1120     2.1850 
  143.5000    46.7920    20.6030    20.5290     9.8880    25.2300    -6.3320     2.2270 
  143.6250    48.9620    20.1330    20.8200     9.5410    25.0360    -6.4630     2.2480 
  143.7500    50.6440    18.7000    19.7320     9.1620    24.8050    -6.4240     2.2500 
  143.8750    53.2030    16.5140    17.4500     8.8440    24.6060    -6.2700     2.2500 
  144.0000    57.9440    13.9900    14.5890     8.5880    24.4750    -6.0700     2.2650 
  144.1250    64.8700    11.6810    11.9290     8.2220    24.5400    -5.8500     2.2990 
  144.2500    73.4840     9.9200     9.8850     7.2090    24.5150    -5.7250     2.3320 
  144.3750    81.2690     8.8230     8.5370     6.6610    24.3970    -5.7560     2.3420 
  144.5000    84.2890     8.3630     7.8150     6.5340    24.2810    -5.8390     2.3230 
  144.6250    79.4270     8.5270     7.6940     6.6730    24.2090    -5.9350     2.2840 
  144.7500    72.3340     9.1370     8.0080     7.1910    24.1960    -6.1590     2.2530 
  144.8750    67.9170    10.1510     8.7120     7.7540    24.2670    -6.4710     2.2460 
  145.0000    66.1010    11.5540     9.7960     7.6870    24.3670    -6.7610     2.2760 
  145.1250    62.5410    13.3610    11.3500     7.5070    24.3390    -6.9740     2.3410 
  145.2500    56.4930    15.3770    13.2710     7.9740    24.1520    -7.0600     2.4140 
  145.3750    51.3400    17.3770    15.3650     8.6670    23.9570    -6.9440     2.4650 
  145.5000    49.6970    19.1010    17.2900     9.4360    23.9120    -6.7000     2.4730 
  145.6250    49.5320    20.2500    18.5780    10.5060    24.0810    -6.4220     2.4230 
  145.7500    48.1130    20.8770    19.1780    10.9280    24.1730    -6.1170     2.3420 
  145.8750    45.9480    21.1170    19.2440    10.3560    24.3170    -5.7670     2.2570 
  146.0000    44.2590    21.1700    19.0520     9.7650    24.5790    -5.3390     2.1940 
  146.1250    43.4020    21.2290    18.8410     9.5760    24.7870    -4.7410     2.1720 
  146.2500    43.6470    21.4170    18.7080     9.6120    24.7700    -4.0150     2.1790 
  146.3750    44.4030    21.8070    18.7070     9.6940    24.6880    -3.2570     2.1930 
  146.5000    44.3790    22.4750    18.9340     9.6550    24.7480    -2.5080     2.1970 
  146.6250    43.8420    23.5660    19.5770     9.6250    24.9730    -1.6690     2.1810 
  146.7500    44.7920    25.0520    20.6560     9.8770    25.1820    -0.7630     2.1590 
  146.8750    46.3670    26.8570    22.1700    10.5380    25.2960     0.1120     2.1450 
  147.0000    46.5640    28.7880    24.0050    11.5760    25.3420     0.8180     2.1470 
  147.1250    44.0040    30.4760    25.8410    12.4840    25.3210     1.3290     2.1660 
  147.2500    41.6380    31.6110    27.2470    12.6060    25.2240     1.7520     2.1940 
  147.3750    41.9920    32.0010    27.9240    11.9830    24.9540     2.0690     2.2200 
  147.5000    44.2560    31.6290    27.7660    11.4510    24.4660     2.2090     2.2370 
  147.6250    46.0420    30.6270    26.8240    11.4530    24.0320     2.1300     2.2340 
  147.7500    47.0290    29.4670    25.5940    11.4240    23.7370     1.9680     2.2150 
  147.8750    47.6920    28.5180    24.4610    11.0430    23.5870     1.8380     2.1910 
  148.0000    47.6630    28.0800    23.7280    10.7270    23.5120     1.8240     2.1720 
  148.1250    46.6240    28.4620    23.6980    10.7510    23.4590     1.8640     2.1620 
  148.2500    45.3670    29.5690    24.3660    11.0940    23.4540     1.9150     2.1570 
  148.3750    43.9500    31.2760    25.7150    11.6960    23.4950     1.9630     2.1530 
  148.5000    42.7020    33.3400    27.6100    12.1980    23.6330     1.9520     2.1480 
  148.6250    43.6150    35.3730    29.7540    12.8460    23.9190     1.8530     2.1450 
  148.7500    45.9430    36.9800    31.6610    14.2230    24.3110     1.7040     2.1470 
  148.8750    46.4670    37.9050    32.9660    15.4300    24.5700     1.4560     2.1540 
  149.0000    45.4760    38.0480    33.4780    15.5410    24.6520     1.0540     2.1690 
  149.1250    45.1710    37.4010    33.1240    14.0950    24.6560     0.5310     2.1940 
  149.2500    45.3700    36.3140    32.2600    12.6150    24.6440    -0.0510     2.2220 
  149.3750    43.9320    35.0160    31.1230    11.7780    24.5440    -0.6000     2.2460 
  149.5000    42.0890    33.6880    29.9170    11.8370    24.2300    -1.0460     2.2590 
  149.6250    43.4400    32.4730    28.8030    12.1600    23.8100    -1.4730     2.2530 
  149.7500    44.7880    31.4230    27.8360    12.2220    23.7140    -1.8760     2.2390 
  149.8750    44.5550    30.5810    27.0380    11.8720    23.9950    -2.1880     2.2260 
  150.0000    45.8320    29.9830    26.4220    11.4170    24.2790    -2.3830     2.2170 
  150.1250    48.2330    29.7250    26.0500    11.1680    24.3620    -2.4780     2.2060 
  150.2500    48.9340    29.8070    25.9340    11.1510    24.4210    -2.4410     2.1900 
  150.3750    49.0800    30.2690    26.1340    11.3060    24.5270    -2.2630     2.1690 
  150.5000    51.0430    31.1200    26.7160    11.5630    24.6870    -1.9380     2.1540 
  150.6250    52.2010    32.3370    27.7630    12.1790    24.7940    -1.4910     2.1550 
  150.7500    49.5080    33.6610    29.0800    13.1160    24.8670    -1.0870     2.1650 
  150.8750    46.3710    34.8210    30.4070    14.0200    24.9400    -0.7600     2.1760 
  151.0000    45.0450    35.5430    31.4070    14.9600    25.0710    -0.4430     2.1810 
  151.1250    44.4780    35.5730    31.6840    15.1770    25.2720    -0.0530     2.1810 
