~V
VERS. 2.00: Ver 2.00
~W
STRT.M 50.0000:
STOP.M 261.0000:
STEP.M 0.1250:
NULL. -999.2500:
UWI. F10772:
~C
DEPT.M :
GR.API :
RML.OHMM :
RI. :
RXO.OHMM :
CALI.CM :
SP.MV :
DEN.GM/CC :
~A
# ...
  173.7500    49.0540    28.6620    27.4870    27.1860    24.5920    -3.7390     2.5540 
  173.8750    48.0110    28.0020    26.6220    25.9820    24.6030    -3.8150     2.5670 
  174.0000    43.8900    27.6480    26.0590    22.6780    24.5100    -3.9500     2.5800 
  174.1250    40.4830    27.6500    25.8880    20.0710    24.4350    -4.1240     2.5910 
  174.2500    40.7990    27.8700    26.0330    19.9020    24.4080    -4.2890     2.6000 
  174.3750    43.6690    28.1680    26.3890    22.3680    24.4020    -4.4490     2.6030 
  174.5000    44.7690    28.3810    26.7610    23.7200    24.4040    -4.6400     2.5980 
  174.6250    43.1660    28.3300    26.8880    23.4830    24.3670    -4.8870     2.5820 
  174.7500    42.3970    28.0180    26.6970    23.9040    24.2700    -5.1290     2.5630 
  174.8750    43.6170    27.5270    26.2450    23.9620    24.2230    -5.2550     2.5470 
  175.0000    43.9840    27.0050    25.6940    22.5310    24.2630    -5.2260     2.5370 
  175.1250    41.6290    26.6510    25.2790    20.8480    24.3790    -5.1460     2.5370 
  175.2500    41.2270    26.5550    25.1190    20.8710    24.4300    -5.0190     2.5450 
  175.3750    44.1230    26.7200    25.2780    22.3400    24.4760    -4.8060     2.5590 
  175.5000    47.2830    27.0470    25.7410    24.2740    24.4880    -4.5130     2.5800 
  175.6250    46.5690    27.3070    26.3010    23.0320    24.4360    -4.1470     2.6040 
  175.7500    43.5090    27.2710    26.5710    21.7660    24.3420    -3.7530     2.6280 
  175.8750    41.0490    26.8110    26.2950    21.6010    24.2880    -3.4100     2.6430 
  176.0000    40.6180    25.9470    25.4400    23.8430    24.3490    -3.1640     2.6460 
  176.1250    41.1440    24.8450    24.1760    23.0520    24.4750    -2.9860     2.6330 
  176.2500    40.8150    23.8180    22.9260    19.3210    24.5420    -2.8810     2.6150 
  176.3750    39.7030    23.0760    21.9630    17.2140    24.5210    -2.8310     2.6000 
  176.5000    40.2000    22.7260    21.4180    17.8630    24.4520    -2.8110     2.5930 
  176.6250    43.6890    22.8090    21.3620    19.5560    24.4140    -2.8380     2.5930 
  176.7500    46.5740    23.1490    21.6410    20.6240    24.3980    -2.8840     2.5970 
  176.8750    46.5240    23.6210    22.1230    21.4750    24.3920    -2.9490     2.6030 
  177.0000    45.0050    24.1300    22.6520    20.8280    24.4020    -3.0560     2.6110 
  177.1250    44.8310    24.6330    23.1370    19.6910    24.4080    -3.1910     2.6230 
  177.2500    43.9720    25.1240    23.6030    19.9170    24.3810    -3.3730     2.6380 
  177.3750    41.9390    25.5870    24.0710    22.4450    24.3550    -3.5960     2.6500 
  177.5000    40.9870    25.9620    24.4950    23.5450    24.3780    -3.7950     2.6600 
  177.6250    41.5530    26.1110    24.7350    23.3270    24.4190    -3.8890     2.6650 
  177.7500    42.4980    25.9680    24.6800    22.2530    24.4080    -3.9290     2.6690 
  177.8750    42.8470    25.5060    24.2570    22.2490    24.3760    -3.9410     2.6700 
  178.0000    42.9080    24.7790    23.4990    22.0880    24.3590    -3.8930     2.6690 
  178.1250    44.5670    23.9170    22.5570    20.5630    24.3830    -3.7460     2.6620 
  178.2500    48.8160    23.1190    21.6800    18.8130    24.4140    -3.5080     2.6520 
  178.3750    53.3710    22.4980    21.0120    18.0860    24.3860    -3.2340     2.6440 
  178.5000    53.3980    22.0850    20.6040    17.4580    24.2980    -2.9710     2.6410 
  178.6250    49.4550    21.8210    20.4120    17.5180    24.1550    -2.7810     2.6480 
  178.7500    47.4200    21.5370    20.2400    17.5580    23.9850    -2.6570     2.6610 
  178.8750    48.4900    21.1090    19.9270    17.0230    23.7780    -2.5430     2.6760 
  179.0000    50.8510    20.4760    19.3580    15.3980    23.5620    -2.4470     2.6880 
  179.1250    52.3400    19.6330    18.4920    13.8620    23.3930    -2.3970     2.6980 
  179.2500    52.3320    18.7180    17.5030    12.9270    23.3000    -2.4080     2.7040 
  179.3750    49.4160    17.8500    16.5640    12.7070    23.2630    -2.4640     2.7050 
  179.5000    43.4610    17.1250    15.8250    12.3810    23.2780    -2.5700     2.6960 
  179.6250    39.3880    16.6090    15.3900    11.4340    23.3410    -2.6890     2.6720 
  179.7500    40.0870    16.2270    15.1500    11.2010    23.4360    -2.7620     2.6390 
  179.8750    43.2400    15.8940    14.9800    11.9080    23.4970    -2.8490     2.6060 
  180.0000    45.0070    15.5480    14.7610    12.2990    23.4860    -2.9420     2.5780 
  180.1250    46.4440    15.2030    14.4480    11.5420    23.3390    -2.9940     2.5580 
  180.2500    49.3570    14.9740    14.1580    10.3350    23.2640    -2.9980     2.5430 
  180.3750    51.4360    14.9930    14.0550     9.9500    23.2590    -2.9870     2.5320 
  180.5000    50.6060    15.3330    14.2770    10.7090    23.3250    -2.9860     2.5280 
  180.6250    49.7000    15.9620    14.9000    11.9820    23.4250    -3.0240     2.5320 
  180.7500    51.0970    16.6170    15.6940    13.3480    23.5280    -3.1140     2.5410 
  180.8750    54.2670    17.0640    16.3620    15.0100    23.5550    -3.1350     2.5490 
  181.0000    56.5840    17.1460    16.6130    15.3110    23.5250    -3.1080     2.5530 
  181.1250    54.4300    16.8160    16.2750    14.4840    23.4360    -3.1220     2.5490 
  181.2500    49.2670    16.3100    15.6450    13.3710    23.3470    -3.1630     2.5390 
  181.3750    46.5600    15.8360    15.0070    12.2890    23.2660    -3.2270     2.5240 
  181.5000    48.3740    15.5500    14.5730    11.4930    23.2060    -3.3340     2.5110 
  181.6250    49.4530    15.5660    14.4790    11.2780    23.1580    -3.4080     2.5070 
  181.7500    47.1620    15.8210    14.6460    11.9270    23.2090    -3.4050     2.5120 
  181.8750    44.1980    16.2600    15.0080    12.9670    23.3870    -3.4340     2.5230 
  182.0000    43.9020    16.8250    15.5180    14.5080    23.6440    -3.4870     2.5350 
  182.1250    47.4710    17.4290    16.1530    14.8990    23.9220    -3.5360     2.5440 
  182.2500    51.6280    17.9400    16.8020    15.6970    24.2190    -3.5950     2.5500 
  182.3750    52.4300    18.2250    17.3030    16.3850    24.3900    -3.5930     2.5560 
  182.5000    49.7530    18.1780    17.4740    17.3250    24.4260    -3.4700     2.5600 
  182.6250    46.9700    17.7250    17.1360    17.0960    24.3910    -3.3050     2.5590 
  182.7500    45.5450    17.0360    16.4440    15.3040    24.3210    -3.2100     2.5510 
  182.8750    44.5800    16.2790    15.5990    13.1550    24.1910    -3.1850     2.5380 
  183.0000    44.8360    15.6170    14.8000    11.9100    23.8960    -3.2440     2.5240 
  183.1250    47.4820    15.2080    14.2210    11.9410    23.5580    -3.3500     2.5130 
  183.2500    50.4030    15.0570    13.8840    12.0670    23.2830    -3.4000     2.5060 
  183.3750    52.3380    15.1560    13.7970    11.8840    23.1490    -3.4230     2.5010 
  183.5000    53.1010    15.4840    13.9670    11.9900    23.1190    -3.4520     2.5000 
  183.6250    52.6870    16.0370    14.4330    12.3970    23.2110    -3.4720     2.5030 
  183.7500    52.0540    16.7310    15.1060    13.5820    23.4290    -3.4770     2.5080 
  183.8750    52.7980    17.5000    15.8940    15.1540    23.7150    -3.4680     2.5140 
  184.0000    56.4270    18.2880    16.6870    17.6060    24.0760    -3.4100     2.5190 
  184.1250    60.0380    19.0580    17.4170    18.3810    24.5460    -3.2940     2.5210 
  184.2500    60.1600    19.8080    18.1340    17.8380    24.8190    -3.1780     2.5210 
  184.3750    58.1590    20.5100    18.8960    16.7920    24.9500    -3.0850     2.5260 
  184.5000    56.0480    21.0590    19.6650    17.9030    25.0010    -3.0320     2.5400 
  184.6250    53.1780    21.1900    20.1470    22.1920    24.9890    -3.0570     2.5630 
  184.7500    49.9440    20.7860    20.0280    26.1950    24.9780    -3.1120     2.5850 
  184.8750    49.3950    19.8450    19.1770    24.0150    24.9910    -3.1210     2.5970 
