~V
VERS. 2.00: Ver 2.00
~W
STRT.M 59.0000:
STOP.M 239.0000:
STEP.M 0.1250:
NULL. -999.2500:
UWI. F10784:
~C
DEPT.M :
DEN.GM/CC :
GR.API :
RML.OHMM :
RI. :
RXO.OHMM :
CALI.CM :
SP.MV :
~A
# ...
  216.5000     2.2300    76.7770    52.7890    48.3010    37.5760    24.3810   -21.4490 
  216.6250     2.2180    77.7490    55.7250    50.3080    47.1710    24.3810   -21.6980 
  216.7500     2.2000    80.7470    60.7670    54.5060    50.2000    24.3810   -21.9280 
  216.8750     2.1840    81.6240    66.9540    60.1250    52.8580    24.3770   -22.1220 
  217.0000     2.1770    75.3230    73.1810    66.1320    62.6900    24.3760   -22.2860 
  217.1250     2.1810    65.0460    78.3290    71.3680    78.7100    24.4010   -22.4200 
  217.2500     2.1930    62.3490    82.3330    75.5250    84.9620    24.4660   -22.5430 
  217.3750     2.2050    68.5790    85.6940    78.9210    77.0230    24.5350   -22.6470 
  217.5000     2.2160    74.8810    89.1490    82.2110    70.3090    24.5990   -22.7200 
  217.6250     2.2300    72.3430    93.2020    85.9680    77.8730    24.6720   -22.7260 
  217.7500     2.2470    66.9850    97.3150    89.8780    81.7870    24.8000   -22.6930 
  217.8750     2.2650    63.5240   100.4970    93.0890    79.2290    24.9220   -22.6370 
  218.0000     2.2730    62.7540   101.8990    94.7240    75.7590    24.9760   -22.5620 
  218.1250     2.2650    64.3250   101.4100    94.4120    93.6850    24.9760   -22.4530 
  218.2500     2.2480    67.6730   100.7720    93.6060   105.6510    24.9770   -22.2880 
  218.3750     2.2290    72.5340   101.7810    94.0300   100.0630    24.9730   -22.0870 
  218.5000     2.2130    74.2220   105.8530    97.2510    87.9710    24.9690   -21.8800 
  218.6250     2.1970    70.8770   113.8970   104.5170   105.0370    24.9720   -21.6830 
  218.7500     2.1810    67.6710   123.9800   114.2290   130.2420    24.9820   -21.5140 
  218.8750     2.1710    65.5610   133.4600   124.0270   144.4530    24.9830   -21.4000 
  219.0000     2.1730    62.7790   139.2500   130.9980   151.0300    24.9460   -21.3490 
  219.1250     2.1880    59.8620   138.4180   132.1180   152.7560    24.8660   -21.3620 
  219.2500     2.2060    59.4940   132.6160   128.5860   140.9400    24.8300   -21.4260 
  219.3750     2.2220    60.9880   126.5620   122.6870   122.9550    24.8220   -21.5640 
  219.5000     2.2310    61.7990   125.1030   117.0400   106.0980    24.8220   -21.7350 
  219.6250     2.2310    61.5380   128.3110   113.7620   100.9180    24.8050   -21.9360 
  219.7500     2.2250    61.8000   130.7000   112.6470   101.8020    24.7620   -22.1590 
  219.8750     2.2160    63.7950   130.2750   112.7480   116.5510    24.6970   -22.3690 
  220.0000     2.2060    67.1050   127.9340   112.6670   131.6080    24.6220   -22.5110 
  220.1250     2.2000    68.0650   123.6090   110.7190   126.2370    24.5130   -22.5750 
  220.2500     2.2000    67.5370   117.1050   106.6870   107.1790    24.4320   -22.6150 
  220.3750     2.2020    66.3580   109.6060   101.2330    94.8050    24.4000   -22.6230 
  220.5000     2.2040    64.8220   102.6290    95.6170    90.6300    23.8730   -22.6400 
  220.6250     2.2040    64.9950    97.7750    91.3980    78.3950    23.9720   -22.6750 
  220.7500     2.2010    64.9020    95.1890    89.0790    62.1630    24.1690   -22.6950 
  220.8750     2.1970    64.2370    94.6310    88.6380    58.3940    24.2530   -22.6930 
  221.0000     2.1930    65.6600    95.5400    89.6500    60.8230    24.2670   -22.7200 
  221.1250     2.1900    69.2390    97.2560    91.5240    66.3920    24.2670   -22.8200 
  221.2500     2.1900    70.7980    98.9810    93.4240    70.5850    24.2630   -22.9220 
  221.3750     2.1940    68.8770   100.4370    94.9590    75.8020    24.2540   -23.0250 
  221.5000     2.2000    67.4340   101.8340    96.1820    82.8500    24.1760   -23.1360 
  221.6250     2.2050    66.9000   104.1910    97.9070    86.9780    24.2540   -23.2650 
  221.7500     2.2070    64.6670   108.5720   101.2400    85.4320    24.2670   -23.4080 
  221.8750     2.2040    63.3060   115.8640   107.1600    83.1200    24.2840   -23.6210 
  222.0000     2.1960    64.7160   126.4300   116.2060    87.8590    24.3790   -23.8690 
  222.1250     2.1870    66.1810   139.9840   128.4220   108.3770    24.3910   -24.0790 
  222.2500     2.1790    63.7010   153.9120   141.5880   135.8520    24.3720   -24.2790 
  222.3750     2.1730    59.3230   165.1710   153.0500   153.0650    24.3220   -24.4930 
  222.5000     2.1710    57.7900   170.6930   159.9290   146.5400    24.2640   -24.7130 
  222.6250     2.1710    60.5320   167.7380   159.2990   129.4710    24.1900   -24.9190 
  222.7500     2.1720    64.2830   159.0030   152.9740   111.5040    24.0770   -25.1160 
  222.8750     2.1760    67.4720   147.5900   143.4800   103.2160    24.0110   -25.2440 
  223.0000     2.1810    69.7210   136.5520   133.6730    95.3750    24.0070   -25.3000 
  223.1250     2.1870    69.4770   128.3110   126.1010    87.7340    24.0440   -25.2980 
  223.2500     2.1930    68.2690   122.9700   121.2600    85.1890    24.1190   -25.2510 
  223.3750     2.1980    68.5170   120.1850   118.9800    91.3340    24.1370   -25.1400 
  223.5000     2.2010    70.4610   119.3620   118.7340    92.8550    24.1680   -24.9530 
  223.6250     2.2010    73.3070   119.9370   119.9930    88.0050    24.3350   -24.7090 
  223.7500     2.1970    74.6760   120.8160   121.6640    85.0140    24.4850   -24.4310 
  223.8750     2.1910    72.6060   121.0590   122.7830    85.8810    24.4180   -24.1450 
  224.0000     2.1840    68.0680   119.7420   122.3270    86.0340    24.2670   -23.8730 
  224.1250     2.1790    66.5810   116.0200   119.1690    80.4540    24.1020   -23.5620 
  224.2500     2.1760    69.1470   110.7310   113.9060    78.9930    23.9510   -23.2330 
  224.3750     2.1710    71.8890   105.1900   107.6760    75.0720    23.8790   -22.9310 
  224.5000     2.1620    71.8640   101.1670   102.2170    66.0630    23.8670   -22.6840 
  224.6250     2.1520    68.8960   101.3230   100.2560    60.0780    23.8820   -22.4020 
  224.7500     2.1580    64.8610   106.8360   103.3590    62.1870    24.1450   -22.0590 
  224.8750     2.1990    63.1200   118.9700   113.0570    69.3160    24.3830   -21.7200 
  225.0000     2.2860    63.8780   138.7450   130.5460    81.2070    24.3830   -21.4270 
  225.1250     2.4120    63.4480   167.7790   157.4560    99.4140    24.3860   -21.2310 
  225.2500     2.5410    61.4520   202.5750   190.2060   133.9680    24.3850   -21.0400 
  225.3750     2.6460    59.2040   237.2020   223.2980   152.5670    24.3840   -20.8270 
  225.5000     2.7160    56.4760   262.0630   248.3180   154.0960    24.3840   -20.5860 
  225.6250     2.7470    52.7540   263.3910   253.2010   156.6690    24.3850   -20.4370 
  225.7500     2.7500    51.3470   242.2490   237.8180   156.5820    24.3840   -20.3610 
  225.8750     2.7180    52.5420   205.8950   207.1000   156.9790    24.3850   -20.2210 
  226.0000     2.6410    54.0920   165.3630   169.9770   148.7270    24.3850   -19.9830 
  226.1250     2.5220    55.7260   131.0290   136.0340   112.3510    24.4420   -19.7100 
  226.2500     2.3900    58.1090   105.5030   109.4800    77.8730    24.5820   -19.4980 
  226.3750     2.2750    59.2900    88.2490    90.8440    64.4510    24.7370   -19.2810 
  226.5000     2.1950    58.3020    77.6330    79.0540    60.1280    24.8130   -18.9770 
  226.6250     2.1710    58.2300    72.3840    73.0920    56.2230    24.8220   -18.6040 
  226.7500     2.2000    61.0610    69.7950    70.1920    51.6130    24.8050   -18.2600 
  226.8750     2.2790    65.5100    68.2850    68.7020    49.2780    24.7100   -17.9290 
  227.0000     2.3910    69.7480    66.5650    67.1850    45.2210    24.4750   -17.5860 
  227.1250     2.4980    73.2410    63.8150    64.5800    45.1600    24.2270   -17.2890 
  227.2500     2.5620    75.0090    60.4900    61.1550    52.3750    24.1250   -16.9790 
  227.3750     2.5720    74.2640    57.4330    57.6850    49.7160    24.1060   -16.6650 
  227.5000     2.5460    71.5570    55.4830    55.0550    41.0480    24.1060   -16.4760 
  227.6250     2.5210    68.3790    55.3730    54.0850    34.7340    24.0740   -16.3800 
