~V
VERS. 2.00: Ver 2.00
~W
STRT.M 50.0000:
STOP.M 229.0000:
STEP.M 0.1250:
NULL. -999.2500:
UWI. F10777:
~C
DEPT.M :
DEN.GM/CC :
GR.API :
RML.OHMM :
RI. :
RXO.OHMM :
CALI.CM :
SP.MV :
~A
# ...
  173.7500     2.4740    43.9440    11.6390    10.2090     9.2730    25.5250   -17.0150 
  173.8750     2.4830    45.6050    12.1420    10.5630     9.6200    25.7620   -17.0560 
  174.0000     2.4930    46.2660    12.8140    11.0660    10.0690    25.8450   -17.0900 
  174.1250     2.5060    45.3750    13.5160    11.6230    10.1670    25.8910   -17.1430 
  174.2500     2.5210    45.3450    14.0370    12.0630    11.1220    25.9740   -17.2130 
  174.3750     2.5310    46.1570    14.2430    12.2600    12.4930    26.0210   -17.2810 
  174.5000     2.5320    47.2680    14.1290    12.1870    12.8280    25.9010   -17.3230 
  174.6250     2.5230    48.4410    13.8310    11.9300    11.3770    25.6540   -17.3130 
  174.7500     2.5080    48.6620    13.6100    11.6900     9.9090    25.4830   -17.2620 
  174.8750     2.4990    47.5280    13.6180    11.5990     9.6710    25.4210   -17.1900 
  175.0000     2.4980    46.2900    13.8730    11.7060    11.2490    25.3790   -17.1270 
  175.1250     2.5020    47.7060    14.2500    11.9620    12.8020    25.3390   -17.0990 
  175.2500     2.4980    51.3880    14.5290    12.2030    12.5780    25.3630   -17.0990 
  175.3750     2.4840    53.8400    14.6000    12.3230    12.7750    25.4470   -17.1060 
  175.5000     2.4660    51.4410    14.4640    12.2850    14.4140    25.5440   -17.0850 
  175.6250     2.4530    46.9890    14.2240    12.1270    12.2460    25.5950   -17.0140 
  175.7500     2.4520    46.6650    14.0290    11.9640    10.9830    25.6030   -16.9080 
  175.8750     2.4580    50.0370    13.9330    11.8550    10.9420    25.6000   -16.7800 
  176.0000     2.4650    51.7520    13.9340    11.8190    10.9680    25.6000   -16.6440 
  176.1250     2.4710    49.4080    14.0060    11.8500    11.1230    25.6020   -16.5260 
  176.2500     2.4730    48.0300    14.0590    11.8910    11.4110    25.5960   -16.4580 
  176.3750     2.4760    49.2540    14.0020    11.8690    11.9570    25.5650   -16.4580 
  176.5000     2.4810    51.7820    13.7840    11.7350    11.6270    25.5150   -16.5280 
  176.6250     2.4860    52.9670    13.4260    11.4880    10.6820    25.4530   -16.6390 
  176.7500     2.4880    52.5220    13.0730    11.2290     9.5980    25.4010   -16.7390 
  176.8750     2.4840    50.7360    12.8770    11.0660     9.2280    25.3850   -16.8060 
  177.0000     2.4740    48.6020    12.9580    11.0940     9.6990    25.4270   -16.8310 
  177.1250     2.4610    49.2440    13.3760    11.3780    10.3860    25.5330   -16.8240 
  177.2500     2.4520    52.7300    13.9380    11.7930    10.3970    25.6390   -16.8150 
  177.3750     2.4480    57.6090    14.4320    12.1900    10.6060    25.7210   -16.8300 
  177.5000     2.4480    62.1600    14.6450    12.4050    12.0100    25.7830   -16.8920 
  177.6250     2.4520    63.6550    14.3890    12.2780    12.4780    25.8310   -17.0150 
  177.7500     2.4550    61.9840    13.7950    11.8770    11.2680    25.8620   -17.1760 
  177.8750     2.4520    59.8950    13.0260    11.3080     9.6460    25.8710   -17.3410 
  178.0000     2.4440    60.2740    12.2500    10.6950     9.0990    25.8710   -17.4760 
  178.1250     2.4300    62.4750    11.6760    10.1980     9.5020    25.8300   -17.5390 
  178.2500     2.4190    62.0480    11.4690     9.9570     9.3750    25.7320   -17.5330 
  178.3750     2.4170    58.6300    11.8070    10.1140     9.0960    25.5950   -17.4830 
  178.5000     2.4200    56.2710    12.8360    10.7910     9.0550    25.4630   -17.4340 
  178.6250     2.4190    59.1790    14.6810    12.1340    10.5870    25.3690   -17.4520 
  178.7500     2.4020    62.2960    16.8590    13.8490    14.6670    25.3450   -17.5600 
  178.8750     2.3740    61.2920    18.5780    15.3710    22.6650    25.4450   -17.7570 
  179.0000     2.3450    59.8950    18.8900    15.9070    25.7200    25.6560   -18.0130 
  179.1250     2.3250    63.9670    17.1540    14.7980    20.5920    25.8600   -18.2880 
  179.2500     2.3210    70.0480    14.4570    12.8000    14.0530    25.9790   -18.5370 
  179.3750     2.3260    74.1810    11.8070    10.6840     9.7490    26.0890   -18.7380 
  179.5000     2.3360    76.4440     9.7880     8.9400     7.7930    26.2690   -18.8910 
  179.6250     2.3460    76.7900     8.5870     7.7830     7.6570    26.4470   -18.9980 
  179.7500     2.3580    74.9720     7.9150     7.0690     7.4740    26.5010   -19.0760 
  179.8750     2.3690    72.5700     7.6770     6.7480     6.9320    26.4190   -19.1280 
  180.0000     2.3730    71.9030     7.8950     6.8240     6.4280    26.2650   -19.1480 
  180.1250     2.3650    71.7410     8.8000     7.4520     6.6660    26.1210   -19.1270 
  180.2500     2.3390    69.9790    10.4010     8.6440     8.0590    26.0320   -19.0870 
  180.3750     2.3080    67.1420    12.5890    10.3780    10.8650    25.9430   -19.0600 
  180.5000     2.2850    64.9540    14.8990    12.3730    14.3050    25.7650   -19.0750 
  180.6250     2.2810    65.3150    16.2320    13.7850    15.7660    25.5280   -19.1510 
  180.7500     2.3010    65.3700    15.9680    13.9240    15.9760    25.3710   -19.2650 
  180.8750     2.3270    63.4360    14.2990    12.7860    14.2530    25.3270   -19.3890 
  181.0000     2.3450    63.1740    12.0900    11.0160    10.8310    25.3300   -19.4900 
  181.1250     2.3490    67.8740    10.2900     9.3900     8.3030    25.3530   -19.5400 
  181.2500     2.3430    73.9230     9.1600     8.2200     7.2400    25.4030   -19.5430 
  181.3750     2.3370    76.1400     8.6310     7.5170     6.9800    25.4430   -19.5070 
  181.5000     2.3360    74.1150     8.5330     7.2000     6.9210    25.4190   -19.4500 
  181.6250     2.3380    71.5090     8.7050     7.1810     6.7480    25.2930   -19.3980 
  181.7500     2.3390    69.0660     8.9540     7.2890     6.5340    25.1410   -19.3580 
  181.8750     2.3370    65.7760     9.2250     7.4620     6.7440    25.0420   -19.3250 
  182.0000     2.3320    63.7990     9.5390     7.6920     7.3750    25.0260   -19.2810 
  182.1250     2.3240    67.2140    10.0040     8.0400     7.5780    25.0730   -19.2080 
  182.2500     2.3140    71.6670    10.7280     8.5730     7.9340    25.1390   -19.1030 
  182.3750     2.2980    70.9380    11.8230     9.3750     8.8420    25.2170   -18.9750 
  182.5000     2.2800    66.1410    13.3240    10.4900    11.2510    25.2910   -18.8340 
  182.6250     2.2710    63.3870    15.1320    11.8880    13.4750    25.3270   -18.6950 
  182.7500     2.2840    61.6430    16.8260    13.2800    15.2460    25.3410   -18.5830 
  182.8750     2.3130    59.3080    17.9320    14.3040    16.3920    25.3250   -18.5220 
  183.0000     2.3420    56.5560    18.0550    14.6100    16.6600    25.2220   -18.5320 
  183.1250     2.3550    55.6120    16.9940    13.9640    14.9530    25.0220   -18.6230 
  183.2500     2.3490    56.1250    15.3120    12.7630    12.8990    24.7770   -18.7560 
  183.3750     2.3400    58.5930    13.4590    11.3450    11.1300    24.4130   -18.8920 
  183.5000     2.3400    62.8600    11.7740     9.9850     9.4020    23.8940   -18.9970 
  183.6250     2.3510    66.9560    10.4910     8.8910     8.2060    23.5780   -19.0640 
  183.7500     2.3630    70.7730     9.5680     8.0700     7.4780    23.7350   -19.1210 
  183.8750     2.3710    74.4930     8.9460     7.4970     7.0210    24.1650   -19.1870 
  184.0000     2.3730    76.0040     8.5500     7.1280     6.7390    24.4950   -19.2650 
  184.1250     2.3710    73.8970     8.3220     6.9290     6.5920    24.5970   -19.3380 
  184.2500     2.3680    71.8290     8.1750     6.8240     6.5420    24.6410   -19.3780 
  184.3750     2.3660    71.3110     8.0760     6.7780     6.5290    24.6660   -19.3690 
  184.5000     2.3690    70.6660     8.0100     6.7700     6.4950    24.6680   -19.3110 
  184.6250     2.3750    69.8690     7.9740     6.7920     6.4270    24.6660   -19.2180 
  184.7500     2.3840    72.0970     7.9550     6.8250     6.3770    24.6720   -19.1100 
  184.8750     2.3960    75.9570     7.9390     6.8570     6.3650    24.6470   -19.0010 
