~V
VERS. 2.00: Ver 2.00
~W
STRT.M 60.0000:
STOP.M 239.0000:
STEP.M 0.1250:
NULL. -999.2500:
UWI. F10775:
~C
DEPT.M :
DEN.GM/CC :
SP.MV :
GR.API :
RML.OHMM :
RI. :
RXO.OHMM :
CALI.CM :
~A
# ...
  217.5000     2.3260   -20.6080    67.8450     7.3530     6.1360     7.0510    25.5790 
  217.6250     2.3140   -21.4490    68.1300     7.6840     6.4470     7.4600    25.6280 
  217.7500     2.3120   -22.3360    66.2560     7.9150     6.7260     8.3020    25.5840 
  217.8750     2.3170   -23.1430    64.4030     7.9950     6.9050     9.0310    25.4870 
  218.0000     2.3250   -23.7400    65.2740     7.9200     6.9450     9.1910    25.4210 
  218.1250     2.3310   -23.9190    67.8490     7.7100     6.8300     8.8890    25.4590 
  218.2500     2.3350   -23.7960    68.7470     7.4460     6.6250     8.5160    25.5900 
  218.3750     2.3400   -23.4350    67.3950     7.1720     6.3790     7.9600    25.7060 
  218.5000     2.3440   -22.8490    65.1180     6.9140     6.1300     7.7130    25.7350 
  218.6250     2.3480   -21.9950    63.4060     6.6960     5.9060     7.6180    25.7330 
  218.7500     2.3490   -20.9570    62.3010     6.5290     5.7240     7.1910    25.7370 
  218.8750     2.3490   -19.9140    62.0090     6.4280     5.6040     6.7150    25.7570 
  219.0000     2.3510   -19.0520    62.0360     6.4060     5.5620     6.5090    25.7660 
  219.1250     2.3560   -18.4660    60.4040     6.4780     5.6190     6.5350    25.7840 
  219.2500     2.3630   -18.0870    57.0090     6.6090     5.7490     6.7150    25.8190 
  219.3750     2.3710   -17.8280    53.4460     6.7540     5.9200     6.9750    25.8640 
  219.5000     2.3800   -17.5950    50.8240     6.8500     6.0760     7.1890    25.8700 
  219.6250     2.3840   -17.3680    47.8940     6.8160     6.1270     7.1990    25.8420 
  219.7500     2.3810   -17.2400    43.8760     6.6480     6.0370     7.1380    25.8080 
  219.8750     2.3690   -17.1730    40.4190     6.3750     5.8090     7.0300    25.9120 
  220.0000     2.3570   -17.0160    38.3550     6.0530     5.4900     6.7080    26.3210 
  220.1250     2.3530   -16.7090    36.5910     5.7610     5.1630     5.9760    27.0730 
  220.2500     2.3590   -16.2660    33.6800     5.5530     4.9020     5.4350    27.5390 
  220.3750     2.3720   -15.7900    30.4940     5.4540     4.7400     5.2200    27.7280 
  220.5000     2.3870   -15.3660    28.9480     5.4710     4.6830     5.1590    28.0220 
  220.6250     2.4020   -15.0630    28.9500     5.6050     4.7350     5.2960    28.5520 
  220.7500     2.4190   -14.8370    30.3870     5.8200     4.8650     5.3900    28.3710 
  220.8750     2.4430   -14.6810    35.2100     6.0980     5.0660     5.4480    27.2910 
  221.0000     2.4730   -14.6880    42.9060     6.4210     5.3280     5.5770    26.3130 
  221.1250     2.5020   -14.9380    52.9270     6.7590     5.6330     5.9960    25.9750 
  221.2500     2.5190   -15.3660    65.6200     7.0640     5.9280     6.5870    25.9760 
  221.3750     2.5120   -15.9020    78.8420     7.2970     6.1700     7.3080    26.0000 
  221.5000     2.4820   -16.5050    86.3590     7.4430     6.3290     7.9490    26.0190 
  221.6250     2.4360   -17.2120    84.1680     7.5110     6.3960     7.6410    26.1090 
  221.7500     2.3940   -17.9930    77.6810     7.5580     6.4200     6.9450    26.1910 
  221.8750     2.3630   -18.8170    72.5510     7.6150     6.4420     6.9320    26.1400 
  222.0000     2.3470   -19.5930    70.6630     7.6890     6.4920     7.4090    25.9510 
  222.1250     2.3430   -20.0200    70.2750     7.7640     6.5780     7.9120    25.8050 
  222.2500     2.3440   -20.0700    69.0700     7.8170     6.6720     7.8540    25.7940 
  222.3750     2.3480   -19.9090    69.6110     7.8410     6.7470     7.8430    25.8110 
  222.5000     2.3530   -19.6060    72.5530     7.8380     6.7840     8.1320    25.7350 
  222.6250     2.3540   -19.1360    74.3460     7.8130     6.7800     8.1080    25.5930 
  222.7500     2.3510   -18.6280    73.9040     7.7790     6.7550     7.8090    25.5160 
  222.8750     2.3450   -18.1260    72.6190     7.7450     6.7190     7.4740    25.4840 
  223.0000     2.3380   -17.6070    69.3360     7.7260     6.6810     7.3020    25.4630 
  223.1250     2.3350   -17.3680    64.5910     7.7430     6.6490     7.4330    25.4250 
  223.2500     2.3340   -17.4920    63.4190     7.7950     6.6300     7.5410    25.3760 
  223.3750     2.3310   -17.8030    66.6220     7.8750     6.6350     7.3770    25.3970 
  223.5000     2.3260   -18.2550    70.1470     7.9770     6.6790     7.2180    25.4940 
  223.6250     2.3200   -18.8940    70.8800     8.1000     6.7790     7.3250    25.6560 
  223.7500     2.3210   -19.5930    69.8290     8.2410     6.9260     7.5320    25.7800 
  223.8750     2.3300   -20.2410    69.7390     8.3910     7.1010     7.7410    25.7790 
  224.0000     2.3460   -20.8070    71.9890     8.5360     7.2820     8.0530    25.7160 
  224.1250     2.3620   -21.2380    75.1120     8.6620     7.4440     8.4620    25.6530 
  224.2500     2.3710   -21.5170    75.6810     8.7790     7.5950     9.1260    25.6300 
  224.3750     2.3710   -21.7260    74.7420     8.9060     7.7570     9.4840    25.6180 
  224.5000     2.3600   -21.9150    75.8750     9.0520     7.9480     9.4980    25.6360 
  224.6250     2.3460   -21.9810    80.0210     9.1820     8.1660     8.9280    25.6710 
  224.7500     2.3390   -21.9310    82.6470     9.2110     8.3430     9.3210    25.6920 
  224.8750     2.3430   -21.8300    82.0610     9.0460     8.3730    10.6290    25.6690 
  225.0000     2.3580   -21.8350    77.8900     8.6290     8.1590    11.8950    25.5680 
  225.1250     2.3720   -21.8970    70.7890     7.9500     7.6340    11.5870    25.5990 
  225.2500     2.3730   -21.9750    64.4010     7.1610     6.9270    10.8080    25.8370 
  225.3750     2.3590   -22.0060    59.5820     6.3880     6.1640     8.6110    26.0530 
  225.5000     2.3330   -21.9220    54.4530     5.7290     5.4630     6.2330    25.8480 
  225.6250     2.3060   -21.8210    46.0750     5.2660     4.9240     5.3660    25.6680 
  225.7500     2.2870   -21.7100    36.6830     4.9680     4.5410     4.9570    25.7000 
  225.8750     2.2880   -21.6510    30.1420     4.8020     4.2980     4.4810    25.7980 
  226.0000     2.3150   -21.5540    27.3940     4.7220     4.1640     4.1840    25.7660 
  226.1250     2.3670   -21.4560    27.1860     4.6770     4.1060     4.2970    25.7090 
  226.2500     2.4160   -21.3330    26.0300     4.6200     4.0770     4.3740    25.7130 
  226.3750     2.4370   -21.2620    24.1270     4.5350     4.0510     4.4190    25.8420 
  226.5000     2.4150   -21.2740    22.7880     4.4270     4.0120     4.5320    26.1940 
  226.6250     2.3550   -21.3100    21.6630     4.3190     3.9500     4.6470    26.9080 
  226.7500     2.2880   -21.3580    20.7840     4.2310     3.8740     4.6590    27.6290 
  226.8750     2.2380   -21.4110    20.1050     4.1780     3.7990     4.6660    28.1190 
  227.0000     2.2240   -21.4490    20.1650     4.1710     3.7450     4.6740    28.2060 
  227.1250     2.2610   -21.4550    21.0900     4.2380     3.7470     4.5710    27.9840 
  227.2500     2.3330   -21.4920    21.6350     4.3890     3.8200     4.3280    27.9420 
  227.3750     2.4180   -21.5430    20.5700     4.6370     3.9770     4.4080    28.2830 
  227.5000     2.4930   -21.5790    18.0490     4.9710     4.2160     4.8730    28.7350 
  227.6250     2.5330   -21.6180    17.0300     5.3360     4.5110     5.1730    28.7060 
  227.7500     2.5410   -21.6660    18.7480     5.6330     4.7900     5.2620    28.1210 
  227.8750     2.5230   -21.6910    21.2570     5.7820     4.9780     5.3600    27.2390 
  228.0000     2.4900   -21.6910    22.4430     5.7440     5.0150     5.5900    26.7010 
  228.1250     2.4550  -999.2500    22.5090     5.5240     4.8700     5.7550    26.5990 
  228.2500     2.4290  -999.2500    22.7670     5.2490     4.6330     5.5380    26.6540 
  228.3750     2.4180  -999.2500    22.8930     5.0160     4.3850     5.0550    26.6630 
  228.5000     2.4230  -999.2500    22.8930     4.8910     4.1850     4.7540    26.1850 
  228.6250     2.4440  -999.2500    22.8930     4.9120     4.0730     4.6180    25.6660 
