~V
VERS. 2.00: Ver 2.00
~W
STRT.M 50.0000:
STOP.M 228.0000:
STEP.M 0.1250:
NULL. -999.2500:
UWI. F10779:
~C
DEPT.M :
GR.API :
RML.OHMM :
RI. :
RXO.OHMM :
CALI.CM :
SP.MV :
DEN.GM/CC :
~A
# ...
  185.0000    46.6300    49.5140    41.1880    39.9950    25.4850   -17.2740     2.4120 
  185.1250    47.6830    48.2790    40.3070    39.0610    25.4510   -17.3570     2.3910 
  185.2500    48.7780    46.6670    39.1670    37.4860    25.4070   -17.4220     2.3500 
  185.3750    51.3160    44.7680    37.8140    34.0970    25.3980   -17.4950     2.3040 
  185.5000    54.2430    42.8540    36.4330    31.4550    25.3220   -17.5420     2.2680 
  185.6250    54.4060    41.3140    35.3250    30.3290    25.3850   -17.5550     2.2500 
  185.7500    53.6560    40.2450    34.6060    29.8870    25.3590   -17.5640     2.2430 
  185.8750    54.9940    39.6160    34.2800    29.7110    25.3610   -17.5420     2.2430 
  186.0000    57.2010    39.3240    34.2750    29.8520    25.3610   -17.4980     2.2460 
  186.1250    56.6860    39.2350    34.4710    30.1730    25.4030   -17.3810     2.2510 
  186.2500    54.0950    39.1140    34.6430    31.0880    25.4060   -17.2460     2.2530 
  186.3750    51.6560    38.7230    34.5710    31.3640    25.4000   -17.0970     2.2450 
  186.5000    50.7800    37.7490    33.9760    30.2080    25.4130   -16.9660     2.2330 
  186.6250    50.7530    35.7450    32.4540    28.6410    25.4110   -16.8930     2.2400 
  186.7500    51.6450    32.8740    30.1290    26.6610    25.3470   -16.8420     2.2780 
  186.8750    51.9810    29.5230    27.3210    23.6060    25.2750   -16.8430     2.3330 
  187.0000    52.0690    26.2600    24.5150    20.9160    25.1810   -16.8870     2.3730 
  187.1250    54.1630    23.7840    22.2990    17.3390    25.1750   -16.9510     2.3660 
  187.2500    57.9810    22.3150    20.8900    14.9260    25.2060   -17.0080     2.3290 
  187.3750    61.5740    21.8930    20.3590    14.4670    25.2510   -17.0240     2.2880 
  187.5000    61.8160    22.3750    20.6390    15.7110    25.2120   -17.0240     2.2630 
  187.6250    57.7070    23.5130    21.5980    17.3350    25.0850   -16.9960     2.2550 
  187.7500    54.3320    24.7720    22.7810    18.1130    25.0260   -16.9690     2.2520 
  187.8750    54.7650    25.8210    23.8610    19.4180    25.1180   -16.9670     2.2460 
  188.0000    58.2670    26.5330    24.6520    20.2760    25.2040   -16.9970     2.2390 
  188.1250    60.0170    27.0120    25.1700    20.3750    25.2230   -17.1040     2.2360 
  188.2500    59.3290    27.5500    25.6570    20.5450    25.2200   -17.2380     2.2380 
  188.3750    57.6080    28.3240    26.2850    21.2510    25.1900   -17.4000     2.2400 
  188.5000    55.5760    29.3920    27.1380    22.2850    25.1690   -17.5680     2.2340 
  188.6250    53.3190    30.6920    28.2070    23.1050    25.1830   -17.7230     2.2170 
  188.7500    51.3740    31.9780    29.3060    24.6630    25.2330   -17.8600     2.1960 
  188.8750    49.8550    33.0330    30.2550    27.3510    25.3450   -17.9440     2.1820 
  189.0000    49.0060    33.6820    30.8960    27.7510    25.4130   -17.9970     2.1830 
  189.1250    49.1400    33.7990    31.1010    27.5840    25.4650   -17.9810     2.1990 
  189.2500    50.3430    33.5800    31.0170    27.2470    25.4620   -17.9120     2.2180 
  189.3750    52.3960    33.2190    30.8020    26.8510    25.4030   -17.7770     2.2330 
  189.5000    53.7990    32.9050    30.6210    26.0230    25.2080   -17.6060     2.2430 
  189.6250    54.4560    32.8020    30.6350    25.7600    25.1570   -17.4390     2.2460 
  189.7500    55.6660    32.9000    30.8540    26.0330    25.0960   -17.2780     2.2410 
  189.8750    57.2920    33.1260    31.2280    26.5730    24.9450   -17.1620     2.2300 
  190.0000    57.9490    33.3860    31.6650    27.3800    24.7390   -17.0760     2.2170 
  190.1250    56.3200    33.6070    32.0700    27.5370    24.8280   -17.0570     2.2060 
  190.2500    53.8240    33.7700    32.4020    27.3560    25.1820   -17.0940     2.1990 
  190.3750    51.5030    33.8740    32.6560    27.3670    25.4490   -17.1520     2.1960 
  190.5000    50.3500    33.9240    32.8440    27.6930    25.5110   -17.2150     2.1970 
  190.6250    51.0360    33.8700    32.9350    28.8640    25.5340   -17.2530     2.2020 
  190.7500    51.6510    33.6120    32.8400    29.5700    25.5320   -17.3090     2.2110 
  190.8750    51.2900    33.0200    32.4190    29.3770    25.5330   -17.3860     2.2260 
  191.0000    50.1750    32.0600    31.6190    29.3280    25.5370   -17.4790     2.2470 
  191.1250    50.2280    30.9590    30.6180    28.7040    25.5390   -17.6120     2.2690 
  191.2500    53.1980    30.2790    29.9260    27.4980    25.5270   -17.7450     2.2830 
  191.3750    59.0290    30.6090    30.0640    25.9080    25.5120   -17.9020     2.2880 
  191.5000    65.1540    32.4830    31.5270    26.4830    25.4830   -18.0440     2.2820 
  191.6250    68.0830    36.6260    35.0760    34.0650    25.4700   -18.1710     2.2700 
  191.7500    68.8270    42.7500    40.6330    49.5930    25.4730   -18.2960     2.2570 
  191.8750    69.3660    50.3750    47.9170    64.3030    25.4750   -18.3930     2.2480 
  192.0000    68.9790    58.4250    55.9670    67.3910    25.4770   -18.5020     2.2470 
  192.1250    66.0480    64.7720    62.6900    65.6370    25.4650   -18.6100     2.2540 
  192.2500    61.5640    67.6970    66.1930    65.2060    25.4260   -18.7300     2.2630 
  192.3750    57.2390    66.3870    65.5000    66.8950    25.3980   -18.8570     2.2680 
  192.5000    54.8190    61.5500    61.1560    65.7340    25.3060   -18.9720     2.2760 
  192.6250    54.6620    55.1450    54.9810    58.7460    25.2950   -19.0850     2.2980 
  192.7500    55.1190    49.6040    49.4130    44.3210    25.1390   -19.1740     2.3340 
  192.8750    55.7680    46.1670    45.6990    31.5250    24.7600   -19.2810     2.3720 
  193.0000    56.9130    45.3620    44.4370    29.2540    24.2630   -19.3930     2.3910 
  193.1250    58.1240    47.3000    45.9150    41.6320    24.2900   -19.5140     2.3750 
  193.2500    56.9110    50.5740    48.9080    56.2630    24.6780   -19.6650     2.3400 
  193.3750    54.0500    53.9730    52.2460    58.9420    25.1460   -19.8000     2.3060 
  193.5000    51.5280    56.4460    54.7740    54.0000    25.3250   -19.9430     2.2870 
  193.6250    50.3520    57.5390    55.8040    49.7110    25.3620   -20.0500     2.2860 
  193.7500    49.0820    58.3280    56.2480    45.1210    25.2950   -20.1150     2.2930 
  193.8750    47.9850    59.8500    57.1150    42.2100    25.2390   -20.1420     2.2960 
  194.0000    47.2780    62.5390    58.9320    41.4120    25.2720   -20.1230     2.2870 
  194.1250    45.6890    65.8870    61.3870    50.6790    25.2310   -20.1040     2.2670 
  194.2500    45.7000    68.6410    63.4350    56.6900    25.1280   -20.0680     2.2480 
  194.3750    47.5280    70.0970    64.4480    55.0210    24.8730   -20.0540     2.2380 
  194.5000    49.1480    70.3930    64.4720    47.4470    24.6880   -20.0810     2.2340 
  194.6250    49.7690    70.7250    64.4440    44.6740    24.6290   -20.1150     2.2380 
  194.7500    51.4260    72.5720    65.6780    47.2290    24.6840   -20.1840     2.2460 
  194.8750    53.4040    76.7380    68.9960    53.7730    24.9650   -20.2490     2.2620 
  195.0000    52.7710    83.1130    74.4580    60.8330    25.1660   -20.3140     2.2900 
  195.1250    50.6060    90.1430    80.8980    68.0090    25.3300   -20.3610     2.3290 
  195.2500    50.6050    94.8480    85.7130    78.6620    25.3410   -20.4070     2.3610 
  195.3750    51.3560    94.9190    86.7790    90.5180    25.1980   -20.4900     2.3740 
  195.5000    51.0260    89.8970    83.3580    91.6410    25.0550   -20.5850     2.3640 
  195.6250    50.5410    81.3670    76.3270    75.7590    25.0280   -20.7230     2.3380 
  195.7500    51.8950    72.5810    68.5250    63.5330    25.1950   -20.8520     2.3080 
  195.8750    54.6930    65.0520    61.4860    54.3170    25.2350   -20.9630     2.2800 
  196.0000    55.2220    59.3350    55.9300    48.7030    25.2190   -21.0580     2.2550 
  196.1250    52.7710    55.6890    52.2460    45.2770    25.2170   -21.1190     2.2370 
