~V
VERS. 2.00: Ver 2.00
~W
STRT.M 50.0000:
STOP.M 240.0000:
STEP.M 0.1250:
NULL. -999.2500:
UWI. F10736:
~C
DEPT.M :
DEN.GM/CC :
GR.API :
RML.OHMM :
RI. :
RXO.OHMM :
CALI.CM :
SP.MV :
~A
# ...
  218.7500     2.3100    59.5820     7.3620     6.5120     7.2520    25.2370    -9.0280 
  218.8750     2.3130    61.1540     7.0430     6.2600     6.8790    25.2390    -9.0000 
  219.0000     2.3200    61.0400     6.8390     6.0740     6.5800    25.2390    -8.9990 
  219.1250     2.3290    60.0690     6.8170     6.0100     6.3750    25.2370    -8.9980 
  219.2500     2.3350    57.6710     6.9710     6.0720     6.5100    25.2350    -9.0010 
  219.3750     2.3400    55.7040     7.2950     6.2670     7.0610    25.2340    -9.0090 
  219.5000     2.3450    57.2090     7.7450     6.5770     8.0410    25.2340    -9.0250 
  219.6250     2.3530    62.0130     8.2030     6.9380     9.1120    25.2360    -9.0510 
  219.7500     2.3590    66.5640     8.5290     7.2360    10.0240    25.2520    -9.0790 
  219.8750     2.3540    68.3680     8.6520     7.4040    10.1030    25.2830    -9.1070 
  220.0000     2.3430    66.9980     8.6000     7.4370     9.0910    25.3070    -9.1360 
  220.1250     2.3370    64.8820     8.4990     7.3970     8.0090    25.3140    -9.1560 
  220.2500     2.3410    64.4060     8.4820     7.3830     7.7190    25.3140    -9.1670 
  220.3750     2.3500    64.1490     8.5750     7.4240     8.4060    25.3190    -9.1670 
  220.5000     2.3570    62.4900     8.7100     7.4940     9.3060    25.3350    -9.1670 
  220.6250     2.3510    60.8260     8.7300     7.5030     9.4090    25.3660    -9.1670 
  220.7500     2.3260    61.5120     8.5540     7.3910     8.7690    25.3790    -9.1670 
  220.8750     2.3030    63.5730     8.2080     7.1580     8.1940    25.3810    -9.1670 
  221.0000     2.2930    64.2450     7.8020     6.8640     7.6450    25.3830    -9.1670 
  221.1250     2.2950    61.8620     7.4910     6.6130     7.0900    25.3960    -9.1670 
  221.2500     2.3040    59.7080     7.3380     6.4700     6.7570    25.4280    -9.1670 
  221.3750     2.3160    60.8510     7.3450     6.4550     6.8330    25.4690    -9.1670 
  221.5000     2.3300    64.4620     7.4810     6.5570     7.1080    25.5090    -9.1670 
  221.6250     2.3440    65.7080     7.7100     6.7530     7.3890    25.5230    -9.1660 
  221.7500     2.3500    64.6920     7.9630     6.9840     7.7580    25.5270    -9.1650 
  221.8750     2.3460    64.2340     8.1890     7.2100     8.3790    25.5270    -9.1690 
  222.0000     2.3300    65.1830     8.3510     7.3960     8.9320    25.5270    -9.1760 
  222.1250     2.3120    66.1260     8.4360     7.5130     8.9440    25.5270    -9.1790 
  222.2500     2.3040    65.9100     8.4770     7.5720     8.5880    25.5270    -9.1630 
  222.3750     2.3070    64.6010     8.4950     7.5830     8.1830    25.5180    -9.1210 
  222.5000     2.3130    62.7660     8.4990     7.5630     8.1310    25.4910    -9.0280 
  222.6250     2.3160    63.9350     8.4840     7.5190     8.4450    25.4370    -8.9160 
  222.7500     2.3160    66.5070     8.4360     7.4560     8.6910    25.4000    -8.8330 
  222.8750     2.3160    66.4430     8.3360     7.3640     8.5710    25.3850    -8.8330 
  223.0000     2.3180    65.1490     8.1740     7.2370     8.2610    25.3830    -8.8330 
  223.1250     2.3220    65.8840     7.9550     7.0750     7.9500    25.3830    -8.8340 
  223.2500     2.3210    66.7810     7.7290     6.9090     7.5860    25.3800    -8.8350 
  223.3750     2.3150    64.6220     7.5470     6.7740     7.2490    25.3710    -8.8370 
  223.5000     2.3070    61.1750     7.4510     6.7020     7.1600    25.3520    -8.8350 
  223.6250     2.3010    59.1080     7.4970     6.7350     7.1950    25.3240    -8.8240 
  223.7500     2.2890    57.4600     7.6850     6.8750     7.5720    25.3110    -8.7980 
  223.8750     2.2740    56.9560     8.0140     7.1300     8.0790    25.3090    -8.7520 
  224.0000     2.2620    59.8650     8.4620     7.4870     8.5800    25.3090    -8.6990 
  224.1250     2.2590    65.2690     8.9760     7.9160     9.0680    25.3090    -8.6400 
  224.2500     2.2630    69.2740     9.4240     8.3180    10.0230    25.3090    -8.5850 
  224.3750     2.2740    71.2510     9.6500     8.5680    11.2900    25.3090    -8.5360 
  224.5000     2.2910    72.0560     9.5210     8.5450    11.8930    25.3070    -8.5000 
  224.6250     2.3140    71.6420     8.9500     8.1560    10.2190    25.2920    -8.5000 
  224.7500     2.3420    68.9570     8.1530     7.5580     8.6780    25.2510    -8.5000 
  224.8750     2.3660    64.5280     7.3630     6.9230     7.5680    25.1970    -8.5000 
  225.0000     2.3760    60.2750     6.7980     6.4190     6.6450    25.1660    -8.5000 
  225.1250     2.3750    59.2150     6.6420     6.1990     6.2560    25.1680    -8.5010 
  225.2500     2.3670    60.4790     6.8230     6.2380     6.2780    25.1840    -8.5000 
  225.3750     2.3550    60.2520     7.2350     6.4850     6.8440    25.1930    -8.4960 
  225.5000     2.3410    58.6560     7.7240     6.8490     7.9890    25.1950    -8.4940 
  225.6250     2.3280    58.5560     8.1010     7.2000     8.9470    25.2340    -8.4970 
  225.7500     2.3110    60.1630     8.2980     7.4460     8.7470    25.2970    -8.5190 
  225.8750     2.2870    62.6270     8.3470     7.5700     8.2850    25.3480    -8.5590 
  226.0000     2.2650    65.3670     8.3280     7.6030     8.3420    25.3710    -8.6120 
  226.1250     2.2480    65.3490     8.2940     7.5760     8.7210    25.3780    -8.6670 
  226.2500     2.2470    61.5650     8.2390     7.5160     8.5630    25.3750    -8.6670 
  226.3750     2.2630    57.4440     8.1250     7.4110     8.0440    25.3620    -8.6670 
  226.5000     2.2860    57.4130     7.9270     7.2560     7.9020    25.3320    -8.6670 
  226.6250     2.3010    60.7030     7.6600     7.0600     7.9230    25.3100    -8.6670 
  226.7500     2.2970    62.9880     7.4160     6.8810     7.9390    25.2850    -8.6670 
  226.8750     2.2890    63.8870     7.2900     6.7810     7.6960    25.2410    -8.6670 
  227.0000     2.2870    63.8070     7.3630     6.8210     7.3810    25.1870    -8.6670 
  227.1250     2.2880    62.9460     7.6980     7.0590     7.6050    25.1640    -8.6680 
  227.2500     2.2900    63.3300     8.1830     7.4320     7.9910    25.1590    -8.6680 
  227.3750     2.2940    65.6190     8.6590     7.8360     8.6500    25.1590    -8.6650 
  227.5000     2.3010    67.5570     8.9390     8.1300     9.8170    25.1590    -8.6560 
  227.6250     2.3060    67.3080     8.8450     8.1530    10.2350    25.1590    -8.6370 
  227.7500     2.3000    67.5670     8.4830     7.9430     9.5810    25.1590    -8.6100 
  227.8750     2.2910    69.3530     8.0010     7.5900     8.3500    25.1590    -8.5820 
  228.0000     2.2860    70.5810     7.5400     7.2040     7.8260    25.1590    -8.5540 
  228.1250     2.2810    69.0490     7.1920     6.8710     7.9320    25.1590    -8.5270 
  228.2500     2.2740    66.7890     6.9390     6.6090     7.9210    25.1630    -8.5070 
  228.3750     2.2740    66.3740     6.7550     6.4140     7.4010    25.1800    -8.5000 
  228.5000     2.2920    67.5880     6.6230     6.2790     6.7950    25.2120    -8.5010 
  228.6250     2.3250    68.1880     6.5460     6.2020     6.5200    25.2270    -8.5020 
  228.7500     2.3600    67.1750     6.5220     6.1730     6.5580    25.2270    -8.4990 
  228.8750     2.3920    65.9440     6.5480     6.1880     6.6190    25.2120    -8.4910 
  229.0000     2.4160    65.1960     6.6020     6.2340     6.5860    25.1800    -8.4750 
  229.1250     2.4250    63.9140     6.6440     6.2860     6.4750    25.1640    -8.4490 
  229.2500     2.4130    63.7170     6.6470     6.3170     6.3070    25.1590    -8.4210 
  229.3750     2.3970    65.6610     6.6070     6.3160     6.7340    25.1590    -8.3940 
  229.5000     2.3810    68.2950     6.5300     6.2770     7.2450    25.1590    -8.3630 
  229.6250     2.3670    68.7130     6.4380     6.2140     7.0400    25.1590    -8.3390 
  229.7500     2.3610    68.7130     6.3810     6.1700     6.9090    25.1590    -8.3270 
  229.8750     2.3630    68.7130     6.4060     6.1840     6.7310    25.1570    -8.3400 
