~V
VERS. 2.00: Ver 2.00
~W
STRT.M 50.0000:
STOP.M 226.0000:
STEP.M 0.1250:
NULL. -999.2500:
UWI. F10778:
~C
DEPT.M :
DEN.GM/CC :
GR.API :
RML.OHMM :
RI. :
RXO.OHMM :
CALI.CM :
SP.MV :
~A
# ...
  117.5000     2.2460    87.4530     8.9990     8.3170     8.2330    25.1800   -12.6210 
  117.6250     2.2590    82.5460     9.0970     8.3980     8.5660    24.5710   -12.8410 
  117.7500     2.2740    81.3850     8.9610     8.2950     8.1920    24.1200   -13.0370 
  117.8750     2.2810    85.1900     8.5860     7.9670     7.5590    23.9170   -13.1600 
  118.0000     2.2790    90.2400     8.0500     7.4590     7.2430    23.8040   -13.2520 
  118.1250     2.2740    93.7190     7.4970     6.8840     7.2960    23.6830   -13.3940 
  118.2500     2.2790    97.1540     7.0770     6.3850     6.9910    23.6830   -13.5670 
  118.3750     2.2950   101.1110     6.9010     6.0710     6.3420    23.8050   -13.7630 
  118.5000     2.3160   104.4790     7.0620     6.0270     5.8790    23.8790   -13.9250 
  118.6250     2.3340   104.3930     7.6810     6.3760     6.2110    23.8680   -13.9680 
  118.7500     2.3480   100.0130     8.6630     7.0750     6.9980    23.8250   -13.8710 
  118.8750     2.3620    92.1380     9.8640     8.0490     8.3740    23.8140   -13.7140 
  119.0000     2.3740    84.4480    11.0400     9.1220    10.5310    23.8910   -13.5420 
  119.1250     2.3720    82.6940    11.8280     9.9790    12.2080    23.9420   -13.2800 
  119.2500     2.3480    86.4570    12.1150    10.4330    10.4670    23.7720   -12.9300 
  119.3750     2.3050    89.6430    11.9680    10.4670     8.6510    23.5680   -12.5790 
  119.5000     2.2540    88.1590    11.5810    10.2120     7.7430    23.5350   -12.2870 
  119.6250     2.2160    84.1330    11.1730     9.8550     7.5880    23.6670   -12.0740 
  119.7500     2.1980    82.4280    10.8480     9.5400     7.5100    23.8730   -11.9550 
  119.8750     2.1970    83.9090    10.5910     9.2860     7.6330    24.2360   -11.9370 
  120.0000     2.2060    85.6100    10.3520     9.0640     7.7860    24.7810   -12.0200 
  120.1250     2.2170    82.6130    10.0910     8.8400     7.7830    25.2840   -12.1750 
  120.2500     2.2280    78.2150     9.8210     8.6130     7.7710    25.5760   -12.3350 
  120.3750     2.2400    77.7970     9.5660     8.4000     7.8990    25.6850   -12.5050 
  120.5000     2.2550    82.5520     9.3310     8.2110     8.0370    25.6020   -12.6810 
  120.6250     2.2710    87.7250     9.0890     8.0300     8.1200    25.2730   -12.8340 
  120.7500     2.2820    89.8210     8.8030     7.8180     8.0600    24.8880   -12.9350 
  120.8750     2.2820    89.9950     8.4580     7.5510     7.7970    24.7730   -12.9680 
  121.0000     2.2710    89.6390     8.0870     7.2430     7.5950    24.9830   -12.9210 
  121.1250     2.2600    91.9210     7.7830     6.9630     7.2370    25.3760   -12.8410 
  121.2500     2.2560    94.8210     7.6350     6.7920     6.9450    25.6200   -12.7750 
  121.3750     2.2560    95.0600     7.7030     6.7910     6.6290    25.6430   -12.6830 
  121.5000     2.2540    94.1960     7.9900     6.9860     6.5600    25.4240   -12.5260 
  121.6250     2.2430    93.6410     8.4270     7.3540     6.8350    25.0220   -12.3970 
  121.7500     2.2310    91.2580     8.8100     7.7350     7.2300    24.6750   -12.3040 
  121.8750     2.2300    86.9790     8.9610     7.9600     7.2570    24.4730   -12.2390 
  122.0000     2.2460    85.6910     8.7660     7.8960     7.6660    24.3370   -12.2170 
  122.1250     2.2730    91.8410     8.2020     7.4680     7.6590    24.2000   -12.2110 
  122.2500     2.2970    99.9480     7.4880     6.8480     7.0320    24.1690   -12.2270 
  122.3750     2.3080   104.5520     6.8090     6.1970     6.1690    24.3090   -12.2970 
  122.5000     2.3040   105.2360     6.3130     5.6580     5.8050    24.4570   -12.4260 
  122.6250     2.2900   104.0120     6.1560     5.3820     5.7460    24.5370   -12.5010 
  122.7500     2.2760   101.4940     6.3620     5.4060     5.8620    24.6220   -12.4970 
  122.8750     2.2710    96.9820     6.9780     5.7790     5.9040    24.7020   -12.4610 
  123.0000     2.2810    92.0510     8.0160     6.5310     6.1740    24.6930   -12.3790 
  123.1250     2.3070    88.6000     9.4400     7.6960     6.9560    24.4900   -12.2150 
  123.2500     2.3310    87.0890    10.9420     9.0640     8.0600    24.1060   -12.0230 
  123.3750     2.3360    87.4380    12.1920    10.3670     8.1710    23.6410   -11.8080 
  123.5000     2.3130    87.5600    12.8790    11.2770     7.7890    23.3670   -11.6180 
  123.6250     2.2710    84.6540    12.7650    11.4500     7.6630    23.3040   -11.4870 
  123.7500     2.2290    79.1330    12.1440    11.0410     7.6910    23.3400   -11.4450 
  123.8750     2.1990    74.5270    11.3340    10.3100     7.5640    23.4540   -11.4940 
  124.0000     2.1800    73.6190    10.6400     9.5590     7.2980    23.7340   -11.5830 
  124.1250     2.1650    76.5140    10.3220     9.0640     7.1260    24.3330   -11.6450 
  124.2500     2.1540    78.3140    10.3920     8.8940     6.9500    24.9270   -11.6090 
  124.3750     2.1500    77.5270    10.8290     9.0650     6.9400    25.1230   -11.4850 
  124.5000     2.1530    76.9900    11.5770     9.5560     7.2570    24.9690   -11.2370 
  124.6250     2.1600    78.1980    12.5700    10.3530     7.7300    24.6510   -10.7540 
  124.7500     2.1630    78.6580    13.6600    11.3280     7.8850    24.3100   -10.0780 
  124.8750     2.1600    77.1140    14.7430    12.3860     7.9780    24.0300    -9.2610 
  125.0000     2.1530    75.4720    15.7230    13.4240     8.0760    23.8400    -8.3830 
  125.1250     2.1440    73.3950    16.4640    14.2890     8.1350    23.6960    -7.5410 
  125.2500     2.1360    69.5190    16.9160    14.8950     8.2240    23.5430    -6.8420 
  125.3750     2.1290    65.6480    17.0410    15.1800     8.2900    23.3790    -6.3450 
  125.5000     2.1250    64.0690    16.8540    15.1350     8.3250    23.2930    -6.0830 
  125.6250     2.1290    65.5290    16.4100    14.7900     8.1160    23.4250    -6.0810 
  125.7500     2.1420    68.4370    15.8860    14.3180     7.8240    23.7420    -6.2950 
  125.8750     2.1590    72.4390    15.4090    13.8420     7.7110    24.0280    -6.6920 
  126.0000     2.1700    76.1790    15.0850    13.4660     7.9100    24.0330    -7.1840 
  126.1250     2.1680    76.7380    15.0460    13.3150     8.1790    23.8380    -7.7290 
  126.2500     2.1620    75.1340    15.3010    13.4220     8.3590    23.7930    -8.2870 
  126.3750     2.1680    73.3450    15.8270    13.7970     8.5230    24.1060    -8.8300 
  126.5000     2.2010    71.8680    16.5140    14.3770     8.7480    24.6600    -9.3220 
  126.6250     2.2600    71.5040    17.1360    14.9940    10.3860    24.8230    -9.7480 
  126.7500     2.3190    71.7680    17.5180    15.4430    13.8080    24.7320   -10.1620 
  126.8750     2.3570    72.0330    17.6750    15.6580    15.3850    24.6340   -10.5530 
  127.0000     2.3660    72.9380    17.8370    15.7550    15.5030    24.6490   -10.9050 
  127.1250     2.3560    74.8800    18.5140    16.0930    12.7630    24.6940   -11.1620 
  127.2500     2.3580    74.3810    20.0430    17.0160    12.4090    24.6990   -11.3570 
  127.3750     2.3860    69.7130    22.5810    18.7640    15.0490    24.6660   -11.4800 
  127.5000     2.4350    64.4500    26.0250    21.3930    20.9330    24.5430   -11.5110 
  127.6250     2.4860    64.7860    30.0200    24.7610    35.0930    24.4410   -11.4850 
  127.7500     2.5210    68.5350    33.9480    28.2880    39.3920    24.4240   -11.3960 
  127.8750     2.5360    72.1730    37.4990    31.5970    32.1810    24.4540   -11.2420 
  128.0000     2.5410    72.6390    40.6590    34.5500    23.1480    24.4250   -11.0310 
  128.1250     2.5500    70.9880    43.6410    37.2670    23.3180    24.3600   -10.8480 
  128.2500     2.5650    70.6880    46.6630    39.9900    30.5660    24.3430   -10.7020 
  128.3750     2.5810    71.0360    49.6840    42.7500    41.2740    24.3110   -10.5470 
  128.5000     2.5930    69.2650    52.5050    45.4290    49.4120    24.2510   -10.3000 
  128.6250     2.6000    65.9900    54.6500    47.6910    48.6950    24.1960    -9.9390 
