~V
VERS. 2.00: Ver 2.00
~W
STRT.M 20.0000:
STOP.M 266.0000:
STEP.M 0.1250:
NULL. -999.2500:
UWI. F10773:
~C
DEPT.M :
DEN.GM/CC :
GR.API :
RML.OHMM :
RI. :
RXO.OHMM :
CALI.CM :
SP.MV :
~A
# ...
  177.5000     2.5690    53.7940    19.4400    18.2590    18.7610    24.6070    -7.8750 
  177.6250     2.5480    50.9030    18.6040    17.9560    16.6860    24.5560    -7.8480 
  177.7500     2.5230    49.5850    17.5120    17.2800    14.0370    24.5330    -7.9060 
  177.8750     2.5020    48.8420    16.4900    16.4560    12.6110    24.5540    -7.9870 
  178.0000     2.4880    47.8970    15.6950    15.6640    12.7080    24.5880    -8.0580 
  178.1250     2.4850    47.4510    15.1100    14.9770    13.3130    24.5650    -8.1250 
  178.2500     2.4850    49.4360    14.5560    14.3390    12.8750    24.5090    -8.2380 
  178.3750     2.4850    52.8160    13.9500    13.7190    12.7210    24.4530    -8.4020 
  178.5000     2.4850    55.5430    13.3280    13.1490    12.7340    24.3650    -8.5650 
  178.6250     2.4840    56.9500    12.8790    12.7610    11.4390    24.1910    -8.6780 
  178.7500     2.4830    57.7880    12.7600    12.6250    10.4740    24.0850    -8.6900 
  178.8750     2.4820    59.7010    13.0530    12.7710    10.1440    24.1530    -8.6290 
  179.0000     2.4830    61.8260    13.7230    13.1700    10.1410    24.2810    -8.5530 
  179.1250     2.4890    62.0010    14.6160    13.7640    11.0550    24.4240    -8.5010 
  179.2500     2.5000    61.3060    15.4370    14.4020    12.5640    24.4690    -8.4520 
  179.3750     2.5130    61.1400    15.9890    14.9640    14.3010    24.4750    -8.3940 
  179.5000     2.5230    60.2750    16.1790    15.3470    14.3610    24.4720    -8.2780 
  179.6250     2.5270    58.5330    16.0320    15.4530    12.8990    24.4860    -7.9990 
  179.7500     2.5240    58.3020    15.7970    15.3390    12.3980    24.5160    -7.6740 
  179.8750     2.5200    59.4390    15.6650    15.0820    13.0940    24.5120    -7.3630 
  180.0000     2.5170    59.2800    15.7410    14.7950    13.8550    24.4070    -7.0880 
  180.1250     2.5210    58.0940    16.0260    14.6170    12.8310    24.3010    -6.8620 
  180.2500     2.5310    58.1720    16.3530    14.5910    12.6220    24.3330    -6.6580 
  180.3750     2.5420    57.4630    16.5920    14.6900    13.6060    24.4300    -6.4900 
  180.5000     2.5500    54.6700    16.6560    14.8260    15.0640    24.5100    -6.3800 
  180.6250     2.5470    53.5240    16.5130    14.8900    15.3990    24.5310    -6.3890 
  180.7500     2.5350    54.5430    16.3060    14.8800    14.7720    24.5570    -6.4560 
  180.8750     2.5220    54.7420    16.2280    14.8950    13.8110    24.6010    -6.4550 
  181.0000     2.5140    54.0780    16.5160    15.1070    13.7070    24.6580    -6.3430 
  181.1250     2.5170    55.2200    17.4770    15.7740    15.0780    24.6890    -6.0980 
  181.2500     2.5300    56.0180    19.0080    16.8990    17.3960    24.7150    -5.8120 
  181.3750     2.5500    54.1990    20.7840    18.3220    19.8150    24.7350    -5.5270 
  181.5000     2.5720    51.2480    22.2240    19.6620    22.3580    24.7110    -5.2930 
  181.6250     2.5900    50.3460    22.5400    20.2700    24.2070    24.6620    -5.1640 
  181.7500     2.5980    50.9380    21.7510    19.9300    23.1110    24.5960    -5.1350 
  181.8750     2.5930    52.4890    20.2680    18.7730    20.1000    24.5140    -5.2250 
  182.0000     2.5760    55.4770    18.6930    17.2320    16.2290    24.4020    -5.4150 
  182.1250     2.5550    57.7650    17.5830    15.8830    13.7100    24.2730    -5.6780 
  182.2500     2.5390    56.6650    17.0070    15.0220    12.3140    24.1940    -5.9460 
  182.3750     2.5320    52.5080    16.8640    14.6750    12.5670    24.1210    -6.1780 
  182.5000     2.5340    49.1130    16.9640    14.6980    13.8830    24.0220    -6.3370 
  182.6250     2.5370    50.6660    17.0640    14.8450    15.0000    23.9900    -6.3980 
  182.7500     2.5370    53.1970    16.9820    14.8800    15.0510    24.1170    -6.3920 
  182.8750     2.5330    52.2850    16.6860    14.7360    14.4120    24.3410    -6.3860 
  183.0000     2.5290    48.1310    16.2710    14.4750    13.6160    24.5210    -6.3620 
  183.1250     2.5270    45.3230    15.9260    14.2480    13.3100    24.5380    -6.3190 
  183.2500     2.5300    44.8090    15.7650    14.1600    13.3490    24.5460    -6.2970 
  183.3750     2.5330    44.4440    15.7940    14.2260    14.0230    24.5890    -6.2990 
  183.5000     2.5330    43.9980    15.9500    14.3920    15.1330    24.6610    -6.3130 
  183.6250     2.5310    44.1280    16.1530    14.5660    15.3040    24.6950    -6.3160 
  183.7500     2.5300    45.0720    16.3540    14.6720    14.9270    24.7030    -6.2730 
  183.8750     2.5340    45.8750    16.5460    14.6930    14.7180    24.6990    -6.1390 
  184.0000     2.5400    47.3380    16.7160    14.6440    14.5320    24.6800    -5.9340 
  184.1250     2.5430    49.8720    16.7970    14.5460    14.9460    24.6290    -5.8020 
  184.2500     2.5420    50.7360    16.7400    14.4230    15.5540    24.5690    -5.8400 
  184.3750     2.5360    48.7300    16.5190    14.2750    15.9280    24.5430    -6.0380 
  184.5000     2.5320    46.0790    16.1560    14.0960    15.2580    24.5740    -6.3250 
  184.6250     2.5360    45.2680    15.7190    13.8810    13.9670    24.6250    -6.6120 
  184.7500     2.5450    45.4580    15.3310    13.6610    13.2360    24.6510    -6.8350 
  184.8750     2.5540    47.1230    15.0790    13.4720    13.2560    24.6520    -7.0340 
  185.0000     2.5580    50.0560    15.0080    13.3460    13.5150    24.6570    -7.3200 
  185.1250     2.5530    50.5150    15.1120    13.3110    13.9770    24.6740    -7.6740 
  185.2500     2.5460    48.1310    15.2630    13.3300    14.5820    24.6600    -7.9150 
  185.3750     2.5420    46.3260    15.3510    13.3540    14.6700    24.5640    -7.9640 
  185.5000     2.5400    47.9480    15.3040    13.3420    14.1280    24.3810    -7.8810 
  185.6250     2.5380    52.6490    15.1150    13.2880    13.4250    24.1460    -7.7580 
  185.7500     2.5310    56.5950    14.8850    13.2410    12.8120    24.0010    -7.6950 
  185.8750     2.5210    56.3380    14.6790    13.2340    12.5560    23.9320    -7.7290 
  186.0000     2.5110    53.5040    14.4670    13.2200    12.4160    23.8680    -7.7470 
  186.1250     2.5060    54.1070    14.0240    12.9860    12.0180    23.7410    -7.5530 
  186.2500     2.5040    56.8420    13.1580    12.3460    11.3210    23.5500    -7.2560 
  186.3750     2.4980    57.3910    11.8230    11.2300    10.8250    23.4220    -6.9810 
  186.5000     2.4810    55.3040    10.2050     9.7610     9.7080    23.4380    -6.7460 
  186.6250     2.4520    52.8940     8.6770     8.2420     7.3970    23.5970    -6.5860 
  186.7500     2.4230    49.5240     7.5070     6.9870     5.5110    23.8310    -6.4470 
  186.8750     2.4040    44.5020     6.7710     6.1410     4.9920    24.0960    -6.2810 
  187.0000     2.3970    39.5560     6.4290     5.7210     5.0030    24.2980    -6.1170 
  187.1250     2.4000    37.0380     6.4400     5.6930     5.0670    24.4060    -6.0410 
  187.2500     2.4040    36.0750     6.6640     5.8710     5.0090    24.4620    -6.0500 
  187.3750     2.4060    36.4930     7.0230     6.1380     4.9260    24.5390    -6.1050 
  187.5000     2.4060    38.9520     7.4300     6.4050     4.9250    24.5880    -6.1480 
  187.6250     2.4050    42.8450     7.7680     6.6070     5.0990    24.5220    -6.1860 
  187.7500     2.4010    46.9390     7.9780     6.7420     5.2940    24.4240    -6.2940 
  187.8750     2.3990    51.2580     8.0610     6.8260     5.4510    24.4480    -6.5220 
  188.0000     2.4030    55.6680     8.0670     6.8860     5.5820    24.5950    -6.8990 
  188.1250     2.4200    60.1580     8.0910     6.9430     5.7370    24.7610    -7.5070 
  188.2500     2.4410    65.7840     8.2240     7.0110     6.0910    24.9220    -8.2170 
  188.3750     2.4520    73.3780     8.5250     7.1090     6.6480    24.9910    -9.0040 
  188.5000     2.4430    82.4020     9.0110     7.2860     7.1720    24.9780    -9.9200 
  188.6250     2.4180    88.3110     9.6610     7.6180     7.9190    25.0540   -10.9420 
