~V
VERS. 2.00: Ver 2.00
~W
STRT.M 60.0000:
STOP.M 239.0000:
STEP.M 0.1250:
NULL. -999.2500:
UWI. F10775:
~C
DEPT.M :
DEN.GM/CC :
SP.MV :
GR.API :
RML.OHMM :
RI. :
RXO.OHMM :
CALI.CM :
~A
# ...
  161.2500     2.3730    -2.2860    46.3090    12.8570    11.6630     9.7930    26.5240 
  161.3750     2.4110    -2.2710    46.9620    12.8380    11.5300     9.8500    26.5200 
  161.5000     2.4870    -2.2430    48.5800    12.9180    11.5390    10.5980    26.0690 
  161.6250     2.5610    -2.1400    50.0920    13.0810    11.6640    10.8960    25.6520 
  161.7500     2.5920    -1.9940    51.7710    13.3310    11.8470    11.0440    25.4740 
  161.8750     2.5750    -1.8800    53.5660    13.7320    12.1130    11.0340    25.3680 
  162.0000     2.5250    -1.7320    54.8460    14.3580    12.5400    11.0050    25.1850 
  162.1250     2.4690    -1.6310    55.0660    15.2370    13.2390    10.8470    24.9300 
  162.2500     2.4240    -1.4860    54.3710    16.1430    14.1120    10.7760    24.7880 
  162.3750     2.3960    -1.3840    55.1820    16.7600    14.9090    12.0460    24.7420 
  162.5000     2.3920    -1.3400    58.1170    16.7670    15.2360    15.2030    24.7090 
  162.6250     2.4200    -1.3070    60.5560    15.9320    14.6620    15.3710    24.6410 
  162.7500     2.4680    -1.3180    60.0010    14.6530    13.5010    13.2170    24.5370 
  162.8750     2.5160    -1.2820    56.1540    13.3920    12.2280    10.7810    24.4350 
  163.0000     2.5460    -1.2710    51.2430    12.5750    11.2710     8.8840    24.3330 
  163.1250     2.5490    -1.2620    46.6690    12.5130    10.9690     8.7580    24.2530 
  163.2500     2.5380    -1.2750    44.2640    12.9580    11.2150     9.8630    24.2090 
  163.3750     2.5240    -1.3240    45.5800    13.5680    11.7730    11.7190    24.1100 
  163.5000     2.5070    -1.3270    48.2710    13.9690    12.2780    12.2610    23.9100 
  163.6250     2.4760    -1.3600    48.3220    13.8750    12.3300    11.1850    23.7500 
  163.7500     2.4330    -1.3800    47.6100    13.4760    12.0010     9.8760    23.7720 
  163.8750     2.3900    -1.3960    48.8700    13.0820    11.5700     9.2460    23.9620 
  164.0000     2.3670    -1.4460    52.6360    12.9870    11.3430     9.0820    24.2180 
  164.1250     2.3860    -1.4850    54.9160    13.3660    11.5520     9.7810    24.4940 
  164.2500     2.4380    -1.5610    53.9420    13.9900    12.0700    10.8760    24.6740 
  164.3750     2.5020    -1.6140    52.5510    14.5740    12.6790    11.9130    24.6080 
  164.5000     2.5530    -1.6640    53.1840    14.8440    13.1000    12.7190    24.2340 
  164.6250     2.5680    -1.7450    56.1340    14.5740    13.0230    12.0690    24.0250 
  164.7500     2.5520    -1.8410    56.3420    13.9140    12.5170    11.2190    24.3050 
  164.8750     2.5220    -2.0080    53.2870    13.0550    11.7650    10.3080    24.7880 
  165.0000     2.4950    -2.1180    50.7490    12.2060    10.9750     9.3860    24.9770 
  165.1250     2.4830    -2.2150    49.2470    11.5540    10.3230     8.6800    24.7990 
  165.2500     2.4810    -2.2680    46.8100    11.1440     9.8640     8.2190    24.6000 
  165.3750     2.4840    -2.3160    44.3950    10.9790     9.6190     7.9840    24.4430 
  165.5000     2.4890    -2.3670    45.1880    11.0260     9.5740     8.0470    24.3280 
  165.6250     2.5000    -2.3030    47.7650    11.2360     9.7060     8.3760    24.2090 
  165.7500     2.5150    -2.2080    47.1040    11.5000     9.9280     8.8990    24.1180 
  165.8750     2.5260    -2.0250    45.9050    11.7420    10.1740     9.6150    24.0750 
  166.0000     2.5260    -1.8380    47.1810    11.9020    10.3760    10.3390    24.0730 
  166.1250     2.5090    -1.6450    47.9800    11.9260    10.4570    10.7300    24.0630 
  166.2500     2.4870    -1.4330    46.4350    11.8390    10.4190    10.1900    24.0810 
  166.3750     2.4730    -1.2170    45.4490    11.6830    10.2830     9.6970    24.1430 
  166.5000     2.4750    -0.9910    46.4760    11.5190    10.1030     9.0870    24.2060 
  166.6250     2.4870    -0.8620    46.2700    11.4230     9.9620     8.8400    24.2140 
  166.7500     2.5000    -0.7770    45.4040    11.4140     9.8980     8.9480    24.1890 
  166.8750     2.5060    -0.7240    45.6910    11.4720     9.9080     9.5840    24.1690 
  167.0000     2.5040    -0.7360    47.5660    11.5530     9.9600    10.5220    24.1000 
  167.1250     2.4940    -0.7910    50.1350    11.6050    10.0050    10.3040    23.8530 
  167.2500     2.4760    -0.8920    51.1960    11.6240    10.0190     9.4310    23.4980 
  167.3750     2.4510    -1.0070    49.1780    11.6370    10.0120     8.8870    23.3320 
  167.5000     2.4270    -1.1160    45.2360    11.6840    10.0180     8.9930    23.4460 
  167.6250     2.4120    -1.2150    42.4450    11.7920    10.0790     9.2530    23.7370 
  167.7500     2.4090    -1.2400    42.0740    11.9290    10.1870     9.3750    23.8850 
  167.8750     2.4100    -1.2650    43.4540    12.0600    10.3130     9.1200    23.8780 
  168.0000     2.4080    -1.2150    45.1550    12.1650    10.4290     8.9720    23.8280 
  168.1250     2.3970    -1.1060    44.9610    12.2490    10.5220     9.4720    23.8610 
  168.2500     2.3820    -0.9570    43.9760    12.3420    10.6110     9.7430    24.0060 
  168.3750     2.3650    -0.7420    44.1320    12.4490    10.7130     9.5880    24.2470 
  168.5000     2.3550    -0.5620    45.9580    12.5490    10.8230     9.6560    24.6360 
  168.6250     2.3590    -0.3100    47.0070    12.5860    10.9030    10.4410    25.1990 
  168.7500     2.3820    -0.1140    47.3420    12.5420    10.9210    11.0920    25.7510 
  168.8750     2.4210     0.0360    47.3310    12.4280    10.8700    11.2930    26.0440 
  169.0000     2.4690     0.1480    47.2870    12.2890    10.7660    10.9380    26.1160 
  169.1250     2.5060     0.2070    47.0870    12.1750    10.6440    10.3430    26.0870 
  169.2500     2.5230     0.2440    47.0810    12.0830    10.5320    10.3000    25.9910 
  169.3750     2.5190     0.1650    46.8450    11.9680    10.4090    10.1990    25.7360 
  169.5000     2.5040     0.0980    46.0490    11.7770    10.2310     9.4800    25.2350 
  169.6250     2.4940     0.0530    46.2900    11.4770     9.9610     9.4950    24.8840 
  169.7500     2.4970     0.0550    48.0450    11.1480     9.6410     9.8170    24.9930 
  169.8750     2.5070     0.1260    49.5820    10.9190     9.3590     9.7610    25.4800 
  170.0000     2.5190     0.2040    50.0310    10.9530     9.2610     9.0470    25.8730 
  170.1250     2.5260     0.3300    51.1400    11.4690     9.5680     9.0620    26.0980 
  170.2500     2.5290     0.4750    53.3130    12.4290    10.3120     9.8060    26.2310 
  170.3750     2.5280     0.6850    55.7650    13.6890    11.4620    11.8300    26.1960 
  170.5000     2.5190     0.9070    57.0000    14.9340    12.8290    16.0170    26.2010 
  170.6250     2.5040     1.0200    55.4700    15.6110    13.9070    17.2020    26.4630 
  170.7500     2.4920     1.1000    53.0770    15.4610    14.2220    15.3470    26.8180 
  170.8750     2.4940     1.1300    50.8920    14.5040    13.6370    12.6000    27.1960 
  171.0000     2.5190     1.1570    48.8060    13.0490    12.4080    10.9110    27.3990 
  171.1250     2.5610     1.1500    46.0000    11.5670    10.9950     9.9020    27.3390 
  171.2500     2.5980     1.0970    44.2580    10.4040     9.7940     8.8280    26.9340 
  171.3750     2.6140     1.0440    45.0790     9.6630     8.9410     7.9820    26.5360 
  171.5000     2.6010     0.9570    46.7800     9.3220     8.4540     7.7270    26.3620 
  171.6250     2.5680     0.9650    46.5430     9.3540     8.3410     7.3040    26.3540 
  171.7500     2.5360     0.9600    45.2100     9.6150     8.4800     7.5840    26.3250 
  171.8750     2.5160     0.9930    44.4700    10.0230     8.8000     8.1160    26.2670 
  172.0000     2.5080     1.0510    45.3700    10.4960     9.2210     8.6790    26.2680 
  172.1250     2.5070     1.0930    47.1970    10.9590     9.6720     9.1870    26.3490 
  172.2500     2.5060     1.1600    48.6120    11.3780    10.1000     9.6540    26.3930 
  172.3750     2.5060     1.1990    49.2950    11.7550    10.4770     9.7450    26.3610 
