~V
VERS. 2.00: Ver 2.00
~W
STRT.M 59.0000:
STOP.M 239.0000:
STEP.M 0.1250:
NULL. -999.2500:
UWI. F10784:
~C
DEPT.M :
DEN.GM/CC :
GR.API :
RML.OHMM :
RI. :
RXO.OHMM :
CALI.CM :
SP.MV :
~A
# ...
  194.0000     2.3430    82.3800    11.1840     9.2980     9.5050    24.4000   -14.8650 
  194.1250     2.3360    78.6950    12.2310    10.1130    10.4360    24.4000   -14.8770 
  194.2500     2.3170    75.6650    13.3900    11.0920    11.8910    24.4050   -15.0120 
  194.3750     2.2910    75.4930    14.5050    12.1300    13.5280    24.4670   -15.2100 
  194.5000     2.2630    77.6270    15.4250    13.0840    15.0550    24.6410   -15.3850 
  194.6250     2.2420    77.1400    16.0150    13.7900    15.9310    24.9190   -15.5280 
  194.7500     2.2300    74.0710    16.3580    14.2590    15.3660    25.0410   -15.6750 
  194.8750     2.2280    72.0050    16.5560    14.5530    15.2330    25.0690   -15.8400 
  195.0000     2.2330    72.8740    16.7100    14.7660    15.7940    25.0690   -16.0080 
  195.1250     2.2400    74.4660    16.8730    14.9670    16.3170    25.0690   -16.1040 
  195.2500     2.2400    73.9720    17.0300    15.1630    16.6510    25.0690   -16.1610 
  195.3750     2.2330    72.4610    17.1420    15.3240    17.0110    25.0690   -16.2180 
  195.5000     2.2210    71.3090    17.1890    15.4200    16.3870    25.0700   -16.2710 
  195.6250     2.2150    71.8020    17.1870    15.4460    16.0660    25.0720   -16.2820 
  195.7500     2.2190    72.9910    17.2060    15.4610    15.7200    25.0720   -16.2900 
  195.8750     2.2310    73.8050    17.3040    15.5240    15.0950    25.0700   -16.3300 
  196.0000     2.2460    74.0310    17.5140    15.6790    14.6110    25.0690   -16.4130 
  196.1250     2.2550    74.4720    17.8290    15.9500    15.1440    25.0710   -16.5010 
  196.2500     2.2580    75.6050    18.1560    16.2670    16.1000    25.0740   -16.5410 
  196.3750     2.2570    75.1180    18.4140    16.5560    16.4440    25.0770   -16.5860 
  196.5000     2.2530    73.5110    18.5580    16.7590    16.4690    25.0770   -16.6940 
  196.6250     2.2500    75.0360    18.6020    16.8520    16.6140    25.0760   -16.8490 
  196.7500     2.2490    77.1600    18.6500    16.9090    16.4830    25.0760   -16.9570 
  196.8750     2.2500    75.1380    18.7800    17.0050    16.1150    25.0770   -16.9880 
  197.0000     2.2500    69.4530    19.0280    17.1930    16.4950    25.0770   -16.9820 
  197.1250     2.2480    68.7410    19.3690    17.4920    17.9120    25.0750   -17.0370 
  197.2500     2.2440    73.6750    19.6940    17.8240    18.7380    25.0750   -17.1350 
  197.3750     2.2380    78.1720    19.9050    18.0980    18.5240    25.0730   -17.2060 
  197.5000     2.2310    78.3310    19.9370    18.2300    17.3160    25.0700   -17.2210 
  197.6250     2.2260    75.0140    19.7670    18.1600    16.0860    25.0690   -17.2080 
  197.7500     2.2280    71.2000    19.5210    17.9710    15.7680    25.0690   -17.2180 
  197.8750     2.2420    67.1300    19.3430    17.7690    15.6940    25.0700   -17.2570 
  198.0000     2.2710    64.7920    19.3850    17.6820    16.0380    25.0710   -17.2950 
  198.1250     2.3160    66.1110    19.8640    17.8890    16.8320    25.0720   -17.3340 
  198.2500     2.3690    66.1840    20.8150    18.4610    17.5010    25.0710   -17.3720 
  198.3750     2.4280    63.6650    22.2520    19.4570    17.5940    25.0700   -17.3920 
  198.5000     2.4840    61.4520    24.1160    20.8800    18.0130    25.0710   -17.4180 
  198.6250     2.5250    62.1010    26.2780    22.6960    20.3990    25.0740   -17.4980 
  198.7500     2.5450    62.8070    28.4440    24.6630    23.4720    25.0770   -17.5990 
  198.8750     2.5380    62.5390    30.3740    26.5590    25.7840    25.0850   -17.7090 
  199.0000     2.5070    61.7070    31.8630    28.1620    27.4560    25.0980   -17.8100 
  199.1250     2.4580    61.2140    32.7180    29.2240    30.0590    25.1040   -17.8590 
  199.2500     2.4080    62.4440    33.0850    29.7930    30.2720    25.1060   -17.9110 
  199.3750     2.3690    64.0750    33.1160    29.9680    30.1850    25.1110   -18.0130 
  199.5000     2.3490    63.5090    32.9880    29.8990    30.2950    25.1050   -18.1340 
  199.6250     2.3500    62.2520    32.8430    29.7370    29.9180    25.0800   -18.1760 
  199.7500     2.3590    61.6270    32.7560    29.6070    30.1690    25.0520   -18.1710 
  199.8750     2.3660    59.8660    32.7490    29.5710    29.9590    25.0420   -18.1710 
  200.0000     2.3620    57.7880    32.7790    29.6640    28.9370    25.0420   -18.2080 
  200.1250     2.3440    58.7670    32.8510    29.8700    28.3050    25.0420   -18.2420 
  200.2500     2.3200    61.1890    33.0410    30.0470    28.8660    25.0420   -18.2240 
  200.3750     2.3030    62.9660    33.1540    30.0200    30.1470    25.0420   -18.2100 
  200.5000     2.2990    65.0540    32.7620    29.6330    30.9500    25.0420   -18.2520 
  200.6250     2.3090    67.7470    31.5310    28.7680    28.7410    25.0390   -18.3480 
  200.7500     2.3160    68.2770    29.9240    27.6140    24.0190    25.0240   -18.4200 
  200.8750     2.3080    68.2490    28.3810    26.3810    21.4350    24.9950   -18.4420 
  201.0000     2.2790    69.9920    27.1240    25.2890    21.5090    24.9750   -18.4480 
  201.1250     2.2410    72.0730    26.3600    24.5740    21.3130    24.9680   -18.5170 
  201.2500     2.2150    71.5370    26.0620    24.2650    20.3050    24.9680   -18.6130 
  201.3750     2.2120    67.8550    26.2000    24.3640    20.2830    24.9640   -18.6500 
  201.5000     2.2290    63.3210    26.7090    24.8280    22.7410    24.9520   -18.6200 
  201.6250     2.2510    63.5840    27.5210    25.6020    24.5260    24.9270   -18.6030 
  201.7500     2.2620    67.8620    28.4430    26.5060    25.2180    24.9140   -18.6330 
  201.8750     2.2540    69.4090    29.3450    27.4050    25.7270    24.9080   -18.6980 
  202.0000     2.2290    65.1580    30.1330    28.1920    26.9400    24.9120   -18.7730 
  202.1250     2.1970    62.5210    30.7770    28.7950    28.1420    24.9310   -18.8550 
  202.2500     2.1730    64.2810    31.3820    29.2920    27.6080    24.9540   -18.9750 
  202.3750     2.1670    64.3610    32.0450    29.7760    27.2040    24.9660   -19.1330 
  202.5000     2.1820    62.0550    32.8150    30.3190    27.7800    24.9670   -19.2690 
  202.6250     2.2180    62.5260    33.6420    30.9280    28.7150    24.9380   -19.3350 
  202.7500     2.2570    64.8380    34.3780    31.5090    29.3940    24.8630   -19.4030 
  202.8750     2.2820    66.9290    34.8960    31.9570    29.4840    24.7760   -19.5090 
  203.0000     2.2830    69.6270    35.1390    32.2020    29.1520    24.7390   -19.6420 
  203.1250     2.2610    72.0840    35.1260    32.2310    28.8840    24.7370   -19.7060 
  203.2500     2.2360    70.4450    35.0350    32.1810    29.5000    24.7400   -19.6790 
  203.3750     2.2210    66.1120    34.9910    32.1740    30.1470    24.7310   -19.6430 
  203.5000     2.2240    63.4730    35.0620    32.2950    31.2460    24.6960   -19.6790 
  203.6250     2.2380    64.1410    35.2540    32.5830    31.0020    24.6060   -19.7540 
  203.7500     2.2500    65.1090    35.4780    32.9540    31.1050    24.5600   -19.7810 
  203.8750     2.2540    64.2830    35.6600    33.3190    30.8550    24.5470   -19.7470 
  204.0000     2.2490    64.1580    35.7390    33.5990    30.2780    24.5460   -19.6740 
  204.1250     2.2400    66.7830    35.6650    33.7210    30.2740    24.5460   -19.6330 
  204.2500     2.2340    68.3640    35.4710    33.7050    30.3280    24.5460   -19.6200 
  204.3750     2.2390    66.6330    35.1980    33.5840    30.7010    24.5410   -19.6150 
  204.5000     2.2580    63.7020    34.9020    33.4090    30.9600    24.5170   -19.6200 
  204.6250     2.2940    62.6670    34.6500    33.2490    30.3680    24.4590   -19.6340 
  204.7500     2.3290    61.4410    34.4800    33.1630    28.9360    24.4090   -19.6360 
  204.8750     2.3490    61.0340    34.4060    33.1830    26.6430    24.3890   -19.6150 
  205.0000     2.3460    64.0290    34.4030    33.3030    24.7060    24.4000   -19.6090 
  205.1250     2.3230    67.9550    34.3960    33.4680    24.0690    24.4680   -19.6170 
