~V
VERS. 2.00: Ver 2.00
~W
STRT.M 50.0000:
STOP.M 226.0000:
STEP.M 0.1250:
NULL. -999.2500:
UWI. F10778:
~C
DEPT.M :
DEN.GM/CC :
GR.API :
RML.OHMM :
RI. :
RXO.OHMM :
CALI.CM :
SP.MV :
~A
# ...
   95.0000     2.2110    90.9440     8.7540     8.8590     7.0300    24.7990   -10.0100 
   95.1250     2.2330    93.7310     7.6050     7.5470     6.5050    24.8410   -10.7320 
   95.2500     2.2520    95.0910     6.9190     6.6790     6.0510    24.8750   -11.3750 
   95.3750     2.2640    96.0400     6.6210     6.2010     5.7920    24.8810   -11.9040 
   95.5000     2.2660    94.0210     6.6370     6.0460     6.0270    24.8890   -12.3070 
   95.6250     2.2550    90.1020     6.9760     6.2090     6.6510    24.9510   -12.5270 
   95.7500     2.2420    86.7040     7.6230     6.6460     6.9860    25.0430   -12.6040 
   95.8750     2.2430    83.2930     8.6660     7.4110     7.0490    25.0920   -12.5340 
   96.0000     2.2720    80.5800    10.2170     8.5960     7.3280    25.0180   -12.3390 
   96.1250     2.3250    80.8940    12.4370    10.3970     9.2370    24.7960   -12.0620 
   96.2500     2.3730    82.8230    15.0940    12.7250    13.1170    24.5650   -11.7090 
   96.3750     2.3850    83.2500    17.8060    15.3420    15.6850    24.3880   -11.2220 
   96.5000     2.3490    82.0860    20.0370    17.7720    14.7560    24.3810   -10.6260 
   96.6250     2.2740    79.8450    21.1540    19.3080    13.0860    24.6270   -10.0560 
   96.7500     2.2000    75.8950    21.3150    19.8700    13.8800    24.8370    -9.4800 
   96.8750     2.1520    71.6530    20.9310    19.7280    14.3730    24.9290    -8.8900 
   97.0000     2.1360    68.9180    20.5190    19.3540    12.8590    24.9770    -8.3700 
   97.1250     2.1420    68.2030    20.4710    19.1820    11.4810    24.9850    -7.9720 
   97.2500     2.1510    69.7620    20.6570    19.2240    11.2920    25.0030    -7.6140 
   97.3750     2.1540    74.0360    20.6990    19.2040    12.4300    25.0210    -7.3700 
   97.5000     2.1510    78.9560    20.1390    18.7120    13.6630    25.0050    -7.3400 
   97.6250     2.1480    79.1790    18.5660    17.3280    13.3240    24.8950    -7.4310 
   97.7500     2.1500    76.0760    16.3720    15.3360    11.7920    24.8100    -7.5330 
   97.8750     2.1600    75.1840    14.1420    13.2130    10.1890    24.7160    -7.7180 
   98.0000     2.1720    79.5450    12.5130    11.4880     8.4950    24.5160    -7.9580 
   98.1250     2.1750    85.5840    12.1240    10.6900     7.5960    24.2560    -8.1020 
   98.2500     2.1640    86.7410    12.9250    10.8520     8.9100    23.9740    -8.1670 
   98.3750     2.1450    80.9840    14.7860    11.9830    12.2270    23.7270    -8.1950 
   98.5000     2.1320    71.3940    17.3900    13.9710    17.1970    23.7150    -8.1370 
   98.6250     2.1430    64.9580    20.1490    16.5020    18.2210    24.0470    -7.9520 
   98.7500     2.1710    64.0080    22.2920    18.8320    16.7440    24.3660    -7.7660 
   98.8750     2.1980    65.7100    23.2850    20.3350    15.5050    24.5030    -7.6080 
   99.0000     2.2100    66.6520    22.9150    20.6220    16.1930    24.5670    -7.4800 
   99.1250     2.1990    66.2530    21.2070    19.5230    16.7470    24.6740    -7.5380 
   99.2500     2.1800    66.2160    18.8450    17.6250    17.0410    24.7540    -7.8500 
   99.3750     2.1700    67.0490    16.3010    15.3820    15.3070    24.8000    -8.4000 
   99.5000     2.1790    69.1870    13.9610    13.1940    11.7990    24.7310    -9.1540 
   99.6250     2.2120    72.6690    12.1470    11.3990     8.7880    24.4850   -10.0200 
   99.7500     2.2550    80.2580    10.8240    10.0320     7.9500    24.2200   -10.9070 
   99.8750     2.2940    89.7220     9.8980     9.0450     8.5450    24.1200   -11.8080 
  100.0000     2.3180    94.5630     9.2280     8.3360     9.7260    24.1360   -12.6470 
  100.1250     2.3200    91.3830     8.7050     7.8150     7.8400    24.1460   -13.3180 
  100.2500     2.3110    89.4930     8.2470     7.3820     7.2230    24.2470   -13.8320 
  100.3750     2.3020    93.2540     7.8600     7.0190     7.1540    24.4290   -14.1230 
  100.5000     2.2990    96.7680     7.5740     6.7360     6.5430    24.4930   -14.1570 
  100.6250     2.2990    95.3820     7.4150     6.5610     6.2260    24.3330   -14.1220 
  100.7500     2.2960    93.2760     7.3290     6.4590     6.0990    24.1210   -14.1210 
  100.8750     2.2860    94.6150     7.2530     6.3820     6.2510    23.9870   -14.0700 
  101.0000     2.2760    99.0320     7.1350     6.2740     6.3730    23.9380   -13.9880 
  101.1250     2.2720   102.2180     6.9620     6.1050     6.4490    23.9640   -13.9230 
  101.2500     2.2760   102.2480     6.8180     5.9270     6.3140    24.0470   -13.8790 
  101.3750     2.2830   101.0110     6.8230     5.8330     5.9910    24.1320   -13.8670 
  101.5000     2.2810    99.0020     7.1040     5.9310     5.8010    24.1480   -13.8490 
  101.6250     2.2590    92.6750     7.7860     6.3570     6.0400    24.0670   -13.7150 
  101.7500     2.2220    82.6730     8.7300     7.0540     6.6180    23.8750   -13.4780 
  101.8750     2.1890    74.9890     9.7140     7.8880     7.2070    23.6330   -13.1900 
  102.0000     2.1780    74.2640    10.4530     8.6290     7.6700    23.6750   -12.9110 
  102.1250     2.2010    79.4770    10.6380     8.9770     8.9900    24.0290   -12.7090 
  102.2500     2.2350    85.4730    10.3500     8.9050    10.7000    24.3750   -12.5120 
  102.3750     2.2590    89.1640     9.7760     8.5180     9.7890    24.4160   -12.3160 
  102.5000     2.2610    91.4660     9.1420     8.0000     7.4260    24.2350   -12.1560 
  102.6250     2.2430    93.5230     8.6090     7.5100     6.7460    24.1440   -12.1110 
  102.7500     2.2270    94.5800     8.1720     7.0920     6.6580    24.1400   -12.1910 
  102.8750     2.2240    94.3800     7.7820     6.7240     6.4120    24.1350   -12.3300 
  103.0000     2.2370    95.4540     7.4010     6.3800     6.1690    24.1290   -12.4690 
  103.1250     2.2560    99.0300     7.0440     6.0630     5.9290    24.1640   -12.6190 
  103.2500     2.2710   100.6940     6.7590     5.8000     5.7860    24.1840   -12.7780 
  103.3750     2.2770   100.2660     6.5900     5.6290     5.6050    24.1730   -12.8960 
  103.5000     2.2720   100.3300     6.5490     5.5700     5.6150    24.1700   -13.0200 
  103.6250     2.2640   101.6380     6.6220     5.6290     5.7900    24.2150   -13.1900 
  103.7500     2.2590   100.6180     6.7260     5.7410     6.0320    24.2940   -13.3200 
  103.8750     2.2610    98.2290     6.7940     5.8440     6.1180    24.4110   -13.4410 
  104.0000     2.2690    96.5550     6.7650     5.8740     6.4130    24.5310   -13.5960 
  104.1250     2.2770    96.5360     6.5910     5.7690     6.3910    24.5950   -13.7610 
  104.2500     2.2830    97.2100     6.3260     5.5580     6.1290    24.6290   -13.9080 
  104.3750     2.2880    99.7660     6.0470     5.3030     5.7530    24.6320   -14.0460 
  104.5000     2.2930   104.9530     5.8440     5.0800     5.4720    24.6110   -14.1780 
  104.6250     2.3020   108.0320     5.8200     4.9850     5.3180    24.5600   -14.2790 
  104.7500     2.3150   105.6540     5.9760     5.0420     5.6380    24.5140   -14.3340 
  104.8750     2.3250    99.0240     6.2940     5.2500     6.2030    24.4850   -14.3300 
  105.0000     2.3240    92.7170     6.7200     5.5810     6.9230    24.4700   -14.3020 
  105.1250     2.3060    91.3940     7.1820     5.9870     6.8100    24.5790   -14.2380 
  105.2500     2.2790    92.5550     7.5920     6.3830     6.9370    24.8630   -14.1230 
  105.3750     2.2550    93.7160     7.8940     6.7110     7.1190    25.2140   -14.0070 
  105.5000     2.2440    94.6750     8.0620     6.9360     7.1690    25.3070   -13.9250 
  105.6250     2.2460    96.5160     8.0900     7.0330     7.2950    25.0460   -13.8740 
  105.7500     2.2500    97.0140     8.0550     7.0560     7.0410    24.6850   -13.8250 
  105.8750     2.2440    95.5440     8.0370     7.0610     6.8680    24.4870   -13.7630 
  106.0000     2.2260    92.9060     8.1190     7.1180     6.7110    24.3590   -13.6710 
  106.1250     2.2030    87.1730     8.4040     7.3220     6.8760    24.2130   -13.5080 
