~V
VERS. 2.00: Ver 2.00
~W
STRT.M 59.0000:
STOP.M 239.0000:
STEP.M 0.1250:
NULL. -999.2500:
UWI. F10784:
~C
DEPT.M :
DEN.GM/CC :
GR.API :
RML.OHMM :
RI. :
RXO.OHMM :
CALI.CM :
SP.MV :
~A
# ...
  137.7500     2.1770    63.0560    19.3040    18.0330     9.3520    24.1980    -9.3120 
  137.8750     2.1650    65.0760    19.3580    18.3140    10.0840    24.1980    -9.1650 
  138.0000     2.1710    68.4330    19.0760    18.1780     9.7120    24.1980    -8.9710 
  138.1250     2.2010    70.3910    18.6980    17.8150     8.7150    24.1980    -8.7730 
  138.2500     2.2400    70.1700    18.4340    17.4730     8.4850    24.1980    -8.5660 
  138.3750     2.2730    69.2010    18.3490    17.2510     8.5990    24.1980    -8.3130 
  138.5000     2.2910    69.1700    18.4360    17.1730     8.7010    24.1980    -8.0630 
  138.6250     2.2900    69.6060    18.6710    17.2450     8.9110    24.1980    -7.8690 
  138.7500     2.2800    68.0380    18.9790    17.4120     9.1190    24.1980    -7.7150 
  138.8750     2.2680    65.9360    19.3100    17.6420     9.0930    24.1980    -7.5750 
  139.0000     2.2590    66.4050    19.6080    17.8900     9.4400    24.1980    -7.4470 
  139.1250     2.2580    68.8770    19.7750    18.0790     9.2100    24.1980    -7.3980 
  139.2500     2.2580    70.2480    19.7470    18.1310     9.8740    24.1980    -7.4540 
  139.3750     2.2530    69.7570    19.4920    17.9900    11.1320    24.1980    -7.6230 
  139.5000     2.2370    66.6430    19.0490    17.6500    10.0840    24.1980    -7.8510 
  139.6250     2.2120    62.0190    18.5570    17.1840     8.8630    24.1980    -8.1270 
  139.7500     2.1830    60.9120    18.2120    16.7670     7.9990    24.1980    -8.4430 
  139.8750     2.1590    63.8730    18.1370    16.5330     7.8630    24.1980    -8.8330 
  140.0000     2.1470    66.4070    18.3580    16.5530     7.9800    24.1980    -9.2680 
  140.1250     2.1520    64.7120    18.8190    16.8390     7.7880    24.1980    -9.7350 
  140.2500     2.1730    61.4440    19.3370    17.2460     7.6390    24.1980   -10.1260 
  140.3750     2.2010    60.2150    19.8070    17.6680     7.6380    24.1860   -10.4250 
  140.5000     2.2250    62.2770    20.1910    18.0350     7.8590    24.1440   -10.5810 
  140.6250     2.2320    64.9000    20.5310    18.3400     8.0820    24.0550   -10.4990 
  140.7500     2.2280    65.2590    20.9380    18.6660     8.3510    23.9980   -10.1600 
  140.8750     2.2230    64.2040    21.4780    19.0920     8.7380    23.9790    -9.6020 
  141.0000     2.2300    62.0790    22.1250    19.6400     8.7840    23.9770    -8.9220 
  141.1250     2.2540    60.5530    22.7030    20.2080     8.0310    23.9770    -8.1940 
  141.2500     2.2830    62.4260    22.9910    20.5880     7.9620    23.9770    -7.5120 
  141.3750     2.3030    67.5840    22.8490    20.6160     8.9650    23.9770    -6.9260 
  141.5000     2.3010    71.4170    22.2760    20.2390    10.3890    23.9770    -6.5180 
  141.6250     2.2740    69.5000    21.4060    19.5240     9.9380    23.9770    -6.3650 
  141.7500     2.2380    66.0380    20.5260    18.7320     9.4470    23.9770    -6.4480 
  141.8750     2.2090    65.4660    19.8030    18.0320     9.5150    23.9760    -6.7270 
  142.0000     2.1940    66.2240    19.3180    17.5180    10.0000    23.9750    -7.1110 
  142.1250     2.1930    65.6770    19.1180    17.2530    10.1250    23.9920    -7.5200 
  142.2500     2.1930    66.8710    19.1230    17.1750     9.8660    24.0390    -7.8710 
  142.3750     2.1870    71.3000    19.2950    17.2520     9.4950    24.1130    -8.1580 
  142.5000     2.1780    74.3430    19.5960    17.4490     9.3270    24.1720    -8.3690 
  142.6250     2.1720    72.3360    19.9840    17.7420     9.2950    24.2220    -8.4960 
  142.7500     2.1720    68.9140    20.3650    18.0600     9.5560    24.2770    -8.5250 
  142.8750     2.1770    65.8380    20.6520    18.3290     9.9010    24.3190    -8.4630 
  143.0000     2.1830    63.6430    20.7800    18.4810    10.4190    24.0790    -8.2720 
  143.1250     2.1830    63.5000    20.7240    18.4650     8.5510    24.1740    -8.0130 
  143.2500     2.1790    63.4060    20.5940    18.3460     7.7690    24.2630    -7.7750 
  143.3750     2.1710    63.0650    20.4870    18.2060     7.5700    24.3540    -7.6010 
  143.5000     2.1630    65.1930    20.4800    18.1250     7.6770    24.3930    -7.4430 
  143.6250     2.1580    68.8140    20.6110    18.1760     7.9000    24.3980    -7.2950 
  143.7500     2.1600    67.9700    20.8210    18.3380     8.0550    24.3860    -7.1110 
  143.8750     2.1660    63.4160    21.0580    18.5700     8.1330    24.3110    -6.8670 
  144.0000     2.1720    60.9750    21.2880    18.8260     8.2030    24.2670    -6.6380 
  144.1250     2.1710    63.0720    21.5160    19.0750     8.3280    24.2230    -6.4540 
  144.2500     2.1620    66.5040    21.7750    19.3250     8.3730    24.1470    -6.2600 
  144.3750     2.1460    68.9970    22.1000    19.6040     8.4020    24.1350    -6.0300 
  144.5000     2.1310    68.9310    22.5000    19.9410     8.4420    24.1400    -5.7600 
  144.6250     2.1190    66.1780    22.8840    20.3110     8.4460    24.1770    -5.5040 
  144.7500     2.1150    64.1090    23.0220    20.5400     8.4580    24.2530    -5.3430 
  144.8750     2.1230    64.8240    22.6440    20.3780     8.5160    24.2650    -5.3320 
  145.0000     2.1470    66.2080    21.5670    19.6110     8.5680    24.2670    -5.4500 
  145.1250     2.1830    68.4370    19.8200    18.1760     8.4140    24.2670    -5.6620 
  145.2500     2.2200    74.6410    17.9720    16.5250     7.9170    24.2670    -5.9540 
  145.3750     2.2480    81.7680    16.5630    15.1090     7.3930    24.2670    -6.2820 
  145.5000     2.2610    85.2560    16.0300    14.3100     7.9970    24.2730    -6.5980 
  145.6250     2.2580    82.0760    16.7720    14.5190     9.0980    24.3110    -6.8060 
  145.7500     2.2460    76.0150    18.4990    15.6360    11.8640    24.3860    -6.8180 
  145.8750     2.2250    69.3990    20.8350    17.4950    14.8740    24.3980    -6.5650 
  146.0000     2.1970    64.5070    23.2200    19.7100    13.2170    24.4070    -6.0440 
  146.1250     2.1670    61.9720    24.9010    21.6200    10.2700    24.4440    -5.3340 
  146.2500     2.1480    59.9550    25.6400    22.7820     8.8100    24.5190    -4.5950 
  146.3750     2.1490    59.2350    25.5440    23.1220     8.4370    24.5270    -3.9010 
  146.5000     2.1710    61.9040    24.9530    22.8610     8.3940    24.5120    -3.3650 
  146.6250     2.2010    66.8550    24.2190    22.2960     8.6160    24.4060    -3.0360 
  146.7500     2.2220    69.7300    23.5360    21.6770     9.2920    24.3230    -2.9200 
  146.8750     2.2270    69.9650    22.9340    21.0610    10.2710    24.1880    -2.9740 
  147.0000     2.2170    68.7880    22.4440    20.4920    10.3690    24.1330    -3.1710 
  147.1250     2.1970    68.8730    22.2030    20.0890     9.9720    24.0890    -3.4010 
  147.2500     2.1790    69.8010    22.3140    19.9600     9.6760    24.0140    -3.5500 
  147.3750     2.1680    67.5970    22.8660    20.2070     9.5940    24.0020    -3.5610 
  147.5000     2.1650    62.5260    23.8650    20.8750     9.5220    24.0000    -3.3790 
  147.6250     2.1690    59.3290    25.2100    21.9570     9.0490    24.0010    -3.0410 
  147.7500     2.1770    59.8760    26.5480    23.1700     8.7490    24.0610    -2.6350 
  147.8750     2.1860    59.9000    27.5450    24.2110     8.5410    24.1110    -2.2610 
  148.0000     2.1980    56.7430    27.9210    24.7720     8.4520    24.1170    -1.9580 
  148.1250     2.2120    57.1470    27.4700    24.5770     8.6800    24.1190    -1.7600 
  148.2500     2.2260    62.6620    26.4990    23.8380     9.2180    24.1020    -1.6590 
  148.3750     2.2330    66.7540    25.3360    22.8280     9.5970    24.0520    -1.6830 
  148.5000     2.2270    64.9830    24.3010    21.8510     9.7100    24.0010    -1.8610 
  148.6250     2.2040    59.8010    23.6720    21.1870     9.8390    23.9810    -2.1510 
  148.7500     2.1770    57.9360    23.4230    20.8670     9.9860    23.9770    -2.5180 
  148.8750     2.1580    60.0210    23.4700    20.8460     9.6780    23.9770    -2.8890 
