~V
VERS. 2.00: Ver 2.00
~W
STRT.M 50.0000:
STOP.M 226.0000:
STEP.M 0.1250:
NULL. -999.2500:
UWI. F10778:
~C
DEPT.M :
DEN.GM/CC :
GR.API :
RML.OHMM :
RI. :
RXO.OHMM :
CALI.CM :
SP.MV :
~A
# ...
  162.5000     2.6420    50.5680    25.8890    23.9700    21.8160    23.8890    -9.2670 
  162.6250     2.6560    49.3820    25.7730    24.2290    25.2680    23.9290    -9.3120 
  162.7500     2.6770    49.1040    24.6290    23.5500    25.1760    23.9950    -9.2980 
  162.8750     2.6880    50.2440    22.5420    21.9300    22.1700    24.0290    -9.3030 
  163.0000     2.6790    51.7720    19.9760    19.7540    20.0710    24.0110    -9.3850 
  163.1250     2.6450    54.0880    17.6520    17.6650    17.8450    23.9770    -9.4010 
  163.2500     2.5980    56.7100    15.9860    16.1000    14.1040    24.0730    -9.3830 
  163.3750     2.5530    58.0450    15.0120    15.1440    12.7090    24.3460    -9.3510 
  163.5000     2.5200    55.9640    14.5130    14.6490    13.6950    24.6050    -9.2830 
  163.6250     2.5030    50.7190    14.1770    14.3500    15.1360    24.7490    -9.1140 
  163.7500     2.4910    48.1780    13.7550    13.9830    15.3540    24.8730    -8.9540 
  163.8750     2.4770    51.1990    13.2240    13.4850    13.7230    24.9420    -8.7950 
  164.0000     2.4600    56.1150    12.6870    12.9310    11.4330    24.9940    -8.5830 
  164.1250     2.4460    55.9820    12.3260    12.4870    10.6460    25.0010    -8.3450 
  164.2500     2.4370    52.4240    12.1930    12.2430    10.6610    25.0100    -8.1260 
  164.3750     2.4320    49.3640    12.2610    12.2000    11.3640    24.9880    -7.9890 
  164.5000     2.4240    49.1010    12.4680    12.3070    12.5910    24.9400    -7.8890 
  164.6250     2.4100    52.3850    12.8190    12.5500    12.4320    24.9240    -7.8280 
  164.7500     2.3950    56.6020    13.3660    12.9500    11.7910    24.9050    -7.8440 
  164.8750     2.3890    58.6720    14.2050    13.5970    11.6120    24.8920    -7.8640 
  165.0000     2.4000    57.2510    15.3680    14.5650    12.2260    24.8330    -7.8600 
  165.1250     2.4260    53.6780    16.7520    15.8550    13.8130    24.5670    -7.9230 
  165.2500     2.4530    50.4390    18.0130    17.1810    16.5720    24.2150    -8.0470 
  165.3750     2.4690    49.1340    18.8140    18.2040    18.8530    24.0090    -8.0980 
  165.5000     2.4700    50.4870    18.9090    18.6030    19.4830    23.9560    -8.1000 
  165.6250     2.4580    53.3650    18.1550    18.1150    17.0900    23.9510    -8.1980 
  165.7500     2.4420    54.7080    16.9080    17.0330    15.0450    23.8260    -8.3090 
  165.8750     2.4270    54.6480    15.4760    15.6560    14.3360    23.6160    -8.4140 
  166.0000     2.4160    54.8060    14.1230    14.2690    13.6930    23.4680    -8.5900 
  166.1250     2.4110    54.8820    13.0670    13.1130    11.5020    23.4330    -8.7590 
  166.2500     2.4120    54.5870    12.3290    12.2440    10.4540    23.5070    -8.7960 
  166.3750     2.4180    54.3070    11.9030    11.6770    10.2430    23.7150    -8.7820 
  166.5000     2.4250    54.7010    11.7640    11.4000    10.1800    23.9890    -8.7880 
  166.6250     2.4290    56.0160    11.9100    11.4270    10.3310    24.1940    -8.7070 
  166.7500     2.4290    57.7430    12.2530    11.6780    10.5260    24.2340    -8.5930 
  166.8750     2.4250    58.1230    12.7470    12.1130    10.7640    24.1730    -8.5340 
  167.0000     2.4190    56.1370    13.3470    12.6820    11.2750    24.0860    -8.4840 
  167.1250     2.4150    53.5690    13.9920    13.3320    11.9260    24.0160    -8.4180 
  167.2500     2.4140    52.5200    14.6080    13.9740    12.2950    24.1650    -8.4330 
  167.3750     2.4130    52.6540    15.1510    14.5460    12.4940    24.3450    -8.5590 
  167.5000     2.4110    52.5150    15.6000    15.0160    12.6980    24.3780    -8.7000 
  167.6250     2.4080    53.4820    15.9440    15.3640    13.1380    24.2990    -8.8420 
  167.7500     2.4060    56.4240    16.1990    15.6120    13.2280    24.2450    -9.0000 
  167.8750     2.4070    61.7430    16.3440    15.7480    13.4440    24.1460    -9.1160 
  168.0000     2.4100    67.8830    16.3480    15.7440    14.4070    23.8230    -9.1350 
  168.1250     2.4100    70.6060    16.1770    15.5620    15.1830    23.4000    -9.0760 
  168.2500     2.4040    68.7350    15.8980    15.2590    15.2460    23.2310    -8.9990 
  168.3750     2.3960    65.9620    15.5870    14.9030    14.0150    23.3890    -8.8250 
  168.5000     2.3950    65.6280    15.3420    14.5860    14.0450    23.8380    -8.6300 
  168.6250     2.4050    66.9110    15.2990    14.4380    15.2840    24.1450    -8.5130 
  168.7500     2.4240    68.1010    15.5080    14.5230    16.4520    24.3420    -8.3990 
  168.8750     2.4440    68.7540    15.9760    14.8670    16.1170    24.3560    -8.2490 
  169.0000     2.4600    68.3430    16.6420    15.4360    15.2340    24.3870    -8.1440 
  169.1250     2.4720    67.4890    17.3760    16.1320    15.5520    24.4120    -8.1580 
  169.2500     2.4820    66.3440    18.0050    16.7840    17.5000    24.3650    -8.1630 
  169.3750     2.4890    65.3590    18.4240    17.2740    19.6150    24.2370    -8.1960 
  169.5000     2.4900    65.0470    18.6010    17.5420    19.0380    24.1170    -8.2490 
  169.6250     2.4810    66.9830    18.5720    17.5780    15.4380    24.0210    -8.2650 
  169.7500     2.4670    67.8180    18.5080    17.5170    13.8820    23.9140    -8.2410 
  169.8750     2.4510    66.3010    18.5550    17.4890    14.8080    23.8250    -8.2080 
  170.0000     2.4390    64.7130    18.8360    17.6270    17.0940    23.8800    -8.1540 
  170.1250     2.4330    64.3030    19.4540    18.0660    17.2730    23.8890    -8.0240 
  170.2500     2.4340    64.3040    20.3060    18.7550    16.4310    23.8780    -7.9040 
  170.3750     2.4410    64.6800    21.2480    19.5970    16.6380    23.9090    -7.8030 
  170.5000     2.4490    66.2810    22.0870    20.4300    18.2250    24.0080    -7.6850 
  170.6250     2.4510    67.1340    22.5160    20.9900    19.8070    24.0440    -7.5210 
  170.7500     2.4450    66.9340    22.3930    21.0910    19.2200    24.0050    -7.4060 
  170.8750     2.4320    66.3220    21.6650    20.6230    17.6430    23.9120    -7.3680 
  171.0000     2.4220    65.3430    20.4300    19.6190    17.1860    23.8390    -7.3580 
  171.1250     2.4200    65.1480    18.9170    18.2460    16.7030    23.7590    -7.4020 
  171.2500     2.4230    65.6760    17.4600    16.8380    15.7840    23.6450    -7.4750 
  171.3750     2.4240    66.4110    16.2330    15.5880    13.5800    23.5790    -7.5290 
  171.5000     2.4180    66.9860    15.3080    14.5910    11.6670    23.6450    -7.5920 
  171.6250     2.4070    68.4160    14.7290    13.9160    11.7670    23.8500    -7.7290 
  171.7500     2.3990    69.7570    14.4210    13.5060    12.4960    24.0470    -7.8370 
  171.8750     2.3970    69.5460    14.3720    13.3590    12.2220    24.0660    -7.8890 
  172.0000     2.3980    68.4590    14.5850    13.4800    11.4310    23.8280    -7.9720 
  172.1250     2.3970    67.7630    15.0770    13.9070    11.0470    23.5650    -8.0420 
  172.2500     2.3910    66.8290    15.7220    14.5380    11.6520    23.3740    -8.0950 
  172.3750     2.3830    65.9140    16.3730    15.2520    12.6340    23.1590    -8.1840 
  172.5000     2.3760    65.9420    16.8400    15.8720    13.6390    22.9220    -8.2540 
  172.6250     2.3720    66.9980    16.8670    16.1250    13.2020    22.8190    -8.2200 
  172.7500     2.3710    67.1430    16.4330    15.9260    12.2630    22.9020    -8.1850 
  172.8750     2.3740    66.0680    15.5990    15.2850    11.6540    23.0170    -8.1780 
  173.0000     2.3780    65.5670    14.5040    14.3160    11.8420    22.9440    -8.1280 
  173.1250     2.3820    67.2130    13.3180    13.1670    12.0020    22.7440    -8.0490 
  173.2500     2.3830    67.7710    12.1930    12.0190    11.2380    22.6060    -7.9610 
  173.3750     2.3790    63.6920    11.2110    10.9660     9.8890    22.5410    -7.8870 
  173.5000     2.3720    58.0410    10.4280    10.0790     8.6370    22.5480    -7.8070 
  173.6250     2.3690    56.0470     9.9360     9.4540     8.1500    22.6380    -7.7370 
