~V
VERS. 2.00: Ver 2.00
~W
STRT.M 40.0000:
STOP.M 236.0000:
STEP.M 0.1250:
NULL. -999.2500:
UWI. F10781:
~C
DEPT.M :
GR.API :
RML.OHMM :
RI. :
RXO.OHMM :
CALI.CM :
SP.MV :
DEN.GM/CC :
~A
# ...
  130.0000    56.9050    24.0490    20.7030    17.6520    25.1030    -7.2360     2.3070 
  130.1250    55.8830    24.7770    21.2280    19.4780    25.0970    -6.9550     2.2870 
  130.2500    57.2030    26.0180    22.1870    22.6290    25.0940    -6.7390     2.2800 
  130.3750    58.1980    27.5480    23.4280    25.9470    25.0890    -6.5880     2.2950 
  130.5000    57.9380    29.0530    24.7280    29.7790    25.0920    -6.5000     2.3320 
  130.6250    55.9930    30.0710    25.7230    32.8970    25.0930    -6.4450     2.3720 
  130.7500    53.9990    30.3560    26.1600    40.5200    25.0880    -6.3890     2.3950 
  130.8750    55.2550    29.7660    25.8740    43.1990    25.0810    -6.3160     2.3970 
  131.0000    59.4230    28.3040    24.8290    41.0160    25.0790    -6.2160     2.3860 
  131.1250    60.6730    26.0620    23.0760    34.5030    25.0810    -6.0770     2.3710 
  131.2500    57.5540    23.5350    21.0430    22.8420    25.0950    -5.9040     2.3570 
  131.3750    55.0930    21.1640    19.0890    16.6840    25.1070    -5.7010     2.3460 
  131.5000    56.9920    19.3830    17.5410    13.9120    25.1140    -5.4760     2.3360 
  131.6250    59.5940    18.6520    16.7440    12.0300    25.1110    -5.2440     2.3290 
  131.7500    59.2870    18.8580    16.6690    11.6210    25.1030    -5.0230     2.3260 
  131.8750    56.8590    19.7910    17.2390    12.2240    25.0790    -4.8250     2.3290 
  132.0000    53.1360    21.0890    18.2450    13.3860    25.0380    -4.6690     2.3350 
  132.1250    50.2180    22.2180    19.3130    14.1580    24.9960    -4.5770     2.3380 
  132.2500    49.2490    22.7520    19.9900    14.4960    24.9630    -4.5650     2.3330 
  132.3750    50.8340    22.5100    20.0110    14.6040    24.9390    -4.6480     2.3190 
  132.5000    54.0490    21.5990    19.3930    14.7970    24.9270    -4.8190     2.2990 
  132.6250    57.2660    20.4130    18.4450    15.3160    24.9290    -5.0730     2.2800 
  132.7500    58.6610    19.5690    17.6980    15.5840    24.9420    -5.3490     2.2730 
  132.8750    56.8930    19.5210    17.5150    14.9150    24.9620    -5.6170     2.2850 
  133.0000    54.0940    20.5110    18.1080    13.8130    24.9770    -5.8460     2.3200 
  133.1250    54.4160    22.5430    19.5600    15.2460    24.9730    -6.0110     2.3710 
  133.2500    56.2690    24.8520    21.3450    20.4030    24.9590    -6.1210     2.4160 
  133.3750    57.0840    26.5740    22.7990    25.9980    24.9480    -6.1940     2.4370 
  133.5000    56.6170    26.9150    23.2210    32.0800    24.9410    -6.2710     2.4270 
  133.6250    56.9980    25.4860    22.1940    23.0990    24.9450    -6.3900     2.3940 
  133.7500    58.2110    23.3080    20.4850    18.5830    24.9640    -6.5540     2.3550 
  133.8750    57.7420    21.2680    18.7800    16.9100    25.0150    -6.7520     2.3140 
  134.0000    55.0180    19.9180    17.5300    17.2510    25.1100    -6.9530     2.2780 
  134.1250    53.0170    19.4950    16.9930    18.1120    25.2240    -7.1030     2.2570 
  134.2500    53.2560    19.6190    16.9680    16.5260    25.3110    -7.1730     2.2550 
  134.3750    53.8530    19.9620    17.2420    16.3730    25.3630    -7.1560     2.2750 
  134.5000    53.1710    20.2570    17.5830    17.2900    25.3740    -7.0600     2.3070 
  134.6250    51.4750    20.3420    17.7930    15.4470    25.3380    -6.9280     2.3290 
  134.7500    51.6620    20.2600    17.8290    15.9660    25.2510    -6.8050     2.3290 
  134.8750    54.2640    20.0980    17.7390    16.3080    25.1400    -6.7260     2.3120 
  135.0000    57.1710    19.9740    17.6330    14.9510    25.0370    -6.7210     2.2910 
  135.1250    57.6710    20.0270    17.6380    15.4730    24.9660    -6.8050     2.2790 
  135.2500    56.2020    20.2190    17.7510    19.2430    24.9320    -6.9390     2.2750 
  135.3750    53.8930    20.3740    17.8430    27.0000    24.9180    -7.0940     2.2720 
  135.5000    51.2760    20.2360    17.7050    26.6610    24.9220    -7.2380     2.2660 
  135.6250    51.7920    19.6230    17.1650    19.4820    24.9380    -7.3580     2.2580 
  135.7500    55.7350    18.8620    16.4660    15.4990    24.9600    -7.4560     2.2560 
  135.8750    58.2850    18.3940    15.9540    13.9200    24.9770    -7.5230     2.2680 
  136.0000    57.4620    18.6070    15.9410    13.2530    24.9880    -7.5270     2.3110 
  136.1250    55.3000    19.8070    16.7040    15.9460    24.9880    -7.4490     2.3910 
  136.2500    53.7090    21.6440    18.0400    24.3010    24.9770    -7.3030     2.4700 
  136.3750    52.1450    23.6000    19.6070    34.2920    24.9430    -7.0970     2.5040 
  136.5000    50.1360    25.0320    20.8980    32.5420    24.8990    -6.8520     2.4760 
  136.6250    49.4870    25.3450    21.3500    20.2690    24.8710    -6.5850     2.4050 
  136.7500    50.4810    24.8620    21.1020    15.2440    24.8680    -6.3180     2.3360 
  136.8750    51.6320    24.0920    20.5120    14.1160    24.8820    -6.0820     2.2890 
  137.0000    52.0550    23.4800    19.9510    14.4740    24.9190    -5.8970     2.2660 
  137.1250    52.6560    23.2260    19.6470    14.6040    24.9610    -5.7630     2.2560 
  137.2500    54.6780    23.1230    19.5110    14.4610    25.0020    -5.6540     2.2500 
  137.3750    55.2320    22.9990    19.4170    14.5650    24.8850    -5.5630     2.2470 
  137.5000    52.9540    22.7980    19.2890    15.2060    24.7860    -5.4890     2.2480 
  137.6250    50.9290    22.5280    19.0950    15.4100    24.7250    -5.4390     2.2550 
  137.7500    50.2930    22.2100    18.8390    14.7520    24.6850    -5.4060     2.2650 
  137.8750    50.4780    21.8520    18.5320    14.4520    24.6680    -5.3640     2.2730 
  138.0000    50.8610    21.5050    18.2260    14.6310    24.6700    -5.2770     2.2750 
  138.1250    52.1960    21.3090    18.0360    14.8200    24.6920    -5.1400     2.2690 
  138.2500    53.0330    21.3540    18.0390    14.6250    24.7400    -4.9750     2.2590 
  138.3750    51.8620    21.6750    18.2710    14.6440    24.8130    -4.8090     2.2490 
  138.5000    50.2660    22.2340    18.7060    14.9590    24.8990    -4.6730     2.2400 
  138.6250    50.6770    22.9220    19.2620    15.7120    24.9770    -4.5890     2.2310 
  138.7500    53.5950    23.5510    19.7850    16.6350    25.0320    -4.5550     2.2210 
  138.8750    55.5760    23.9790    20.1730    16.3090    25.0710    -4.5750     2.2120 
  139.0000    53.5670    24.1380    20.3740    15.1890    25.1090    -4.6400     2.2060 
  139.1250    49.9170    24.0400    20.3980    14.5280    25.1540    -4.7130     2.2090 
  139.2500    49.1510    23.8420    20.3450    15.1510    25.1980    -4.7700     2.2200 
  139.3750    51.1410    23.6290    20.2630    16.2180    25.2230    -4.8190     2.2340 
  139.5000    51.9430    23.4080    20.1440    16.5450    25.2180    -4.8710     2.2480 
  139.6250    50.4270    23.1030    19.9120    16.1640    25.1830    -4.9520     2.2590 
  139.7500    51.1540    22.6700    19.5290    15.9100    25.1400    -5.0470     2.2700 
  139.8750    54.1780    22.1220    19.0130    15.3550    25.1030    -5.1430     2.2790 
  140.0000    55.4290    21.5530    18.4550    14.5640    25.0790    -5.2090     2.2820 
  140.1250    52.3440    21.1920    18.0410    13.7100    25.0680    -5.2210     2.2710 
  140.2500    49.5730    21.2240    17.9150    13.3850    25.0650    -5.1740     2.2500 
  140.3750    50.2980    21.7550    18.1520    13.3770    25.0650    -5.0690     2.2260 
  140.5000    52.3850    22.7300    18.7290    13.6900    25.0690    -4.9210     2.2120 
  140.6250    52.2170    23.9480    19.5370    14.5950    25.0830    -4.7580     2.2140 
  140.7500    50.7310    25.1210    20.3950    16.5600    25.1070    -4.6360     2.2220 
  140.8750    50.2990    26.1870    21.2670    18.7950    25.1410    -4.5770     2.2260 
  141.0000    50.9580    27.2500    22.2040    17.7070    25.1810    -4.5970     2.2270 
  141.1250    50.6330    28.4510    23.2660    16.9820    25.2220    -4.6990     2.2460 
