~V
VERS. 2.00: Ver 2.00
~W
STRT.M 20.0000:
STOP.M 266.0000:
STEP.M 0.1250:
NULL. -999.2500:
UWI. F10773:
~C
DEPT.M :
DEN.GM/CC :
GR.API :
RML.OHMM :
RI. :
RXO.OHMM :
CALI.CM :
SP.MV :
~A
# ...
  121.2500     2.1950    64.9160    17.0140    16.3670     8.7120    23.9530    -4.6830 
  121.3750     2.2020    59.7830    17.8550    17.4700     9.3090    23.8730    -4.3960 
  121.5000     2.2020    58.5170    18.6670    18.4960     9.8680    23.8230    -4.1890 
  121.6250     2.1940    62.2140    18.4230    18.4610    10.1060    23.8140    -4.0470 
  121.7500     2.1880    64.2450    16.8670    17.0820    10.1560    23.8140    -4.1000 
  121.8750     2.1880    63.9730    14.4610    14.7060     9.7900    23.8130    -4.4010 
  122.0000     2.1970    66.6290    12.0820    12.1550     8.7090    23.7880    -4.7930 
  122.1250     2.2230    74.5470    10.6260    10.4330     7.0440    23.8120    -5.1230 
  122.2500     2.2700    79.7470    10.2380     9.8800     6.4010    24.0290    -5.4520 
  122.3750     2.3390    77.9700    10.9710    10.5790     7.9310    24.4590    -5.8920 
  122.5000     2.4180    72.3300    12.8720    12.4370    12.5240    24.7880    -6.4230 
  122.6250     2.4700    66.7390    15.8560    15.1490    21.5060    24.8500    -6.8180 
  122.7500     2.4710    61.4780    18.8940    17.7690    25.7360    24.7990    -6.9290 
  122.8750     2.4170    57.4410    20.9530    19.5150    20.7900    24.7140    -6.8210 
  123.0000     2.3300    56.6300    21.5100    20.0410    13.4900    24.6520    -6.6610 
  123.1250     2.2520    58.4870    20.8830    19.5960    10.6230    24.6030    -6.5750 
  123.2500     2.2040    58.7100    20.1850    19.0540     9.6820    24.5450    -6.4840 
  123.3750     2.1850    56.5730    19.9100    18.8480     9.6730    24.4510    -6.2640 
  123.5000     2.1800    54.2850    20.1020    19.0490     9.8400    24.3310    -5.9400 
  123.6250     2.1790    54.3910    20.5740    19.4870     9.8450    24.2820    -5.6580 
  123.7500     2.1770    55.5540    21.0660    19.8940     9.7800    24.2820    -5.4460 
  123.8750     2.1730    57.1640    21.5010    20.2000     9.7410    24.3240    -5.2380 
  124.0000     2.1620    58.3440    21.8830    20.4620     9.8290    24.3870    -4.9940 
  124.1250     2.1440    58.3220    22.1940    20.7600     9.8920    24.4410    -4.7030 
  124.2500     2.1260    57.0080    22.3590    21.0230     9.9750    24.4820    -4.4150 
  124.3750     2.1240    55.6350    22.2590    21.0750    10.1400    24.5470    -4.1760 
  124.5000     2.1470    56.1150    21.8230    20.7690    10.5660    24.6390    -4.0120 
  124.6250     2.1940    57.9400    21.0690    20.0980    10.8770    24.6640    -3.9410 
  124.7500     2.2410    59.3920    20.2550    19.3710    10.4320    24.5520    -3.9480 
  124.8750     2.2710    60.7080    19.6340    18.8830     9.4330    24.3140    -3.9950 
  125.0000     2.2740    62.1300    19.4350    18.8630     9.0960    24.0560    -4.0300 
  125.1250     2.2520    62.5000    19.9170    19.4740    10.0400    23.9300    -4.0700 
  125.2500     2.2190    61.6900    20.9710    20.4930    10.8350    23.8790    -4.1760 
  125.3750     2.1860    60.5940    22.4050    21.6660    11.1050    23.8560    -4.3750 
  125.5000     2.1590    58.6790    23.8710    22.7140    11.0070    23.8190    -4.6340 
  125.6250     2.1470    56.0060    24.7570    23.3030    10.7460    23.7700    -4.9330 
  125.7500     2.1550    55.6140    24.6080    23.2730    10.6440    23.7080    -5.2780 
  125.8750     2.1870    58.5330    23.1500    22.4440    10.6530    23.6460    -5.6640 
  126.0000     2.2370    62.2270    20.4930    20.7320    10.9440    23.5800    -6.1850 
  126.1250     2.2910    65.7980    17.2000    18.2060    11.5960    23.4850    -6.8820 
  126.2500     2.3290    69.0290    14.1930    15.4400    11.3230    23.4000    -7.6010 
  126.3750     2.3420    71.7390    11.9440    12.8890     9.2240    23.4310    -8.2280 
  126.5000     2.3320    74.3210    10.5700    10.8790     7.5870    23.5630    -8.7850 
  126.6250     2.3060    75.6090    10.0690     9.6940     7.2200    23.7420    -9.3170 
  126.7500     2.2780    75.6130    10.1660     9.2600     7.6440    23.9400    -9.7980 
  126.8750     2.2560    74.5110    10.8010     9.5590     8.1250    24.1490   -10.2190 
  127.0000     2.2460    71.2830    11.9150    10.5000     8.2350    24.3630   -10.5000 
  127.1250     2.2570    67.4660    13.2840    11.8510     8.7720    24.3570   -10.5760 
  127.2500     2.2840    65.3150    14.3030    13.0450    11.7310    24.1740   -10.6070 
  127.3750     2.3150    67.0780    14.4090    13.5890    17.9990    24.0630   -10.6830 
  127.5000     2.3380    71.3000    13.4080    13.2050    20.7030    24.1730   -10.7620 
  127.6250     2.3450    74.5410    11.6750    11.9370    13.8240    24.3740   -10.7940 
  127.7500     2.3420    77.2000    10.0930    10.4280     9.2820    24.4860   -10.7900 
  127.8750     2.3340    79.3700     9.0870     9.1140     7.2640    24.6210   -10.7580 
  128.0000     2.3260    81.7510     8.6970     8.2390     7.1470    24.7060   -10.7800 
  128.1250     2.3160    81.5930     8.7660     7.9080     8.3120    24.6720   -10.9560 
  128.2500     2.3010    77.3860     8.9860     7.9180     9.0050    24.6280   -11.1310 
  128.3750     2.2860    73.2830     9.2100     8.1000     8.4380    24.6140   -11.2110 
  128.5000     2.2760    73.0420     9.3400     8.2730     7.7510    24.5880   -11.2200 
  128.6250     2.2800    75.6550     9.2640     8.2500     7.4680    24.5590   -11.2280 
  128.7500     2.2930    76.3060     8.9560     7.9960     7.4730    24.5540   -11.2960 
  128.8750     2.3100    74.3540     8.4370     7.5610     7.3110    24.5560   -11.4520 
  129.0000     2.3240    74.2560     7.8160     7.0560     6.7130    24.5920   -11.5860 
  129.1250     2.3360    79.7510     7.2910     6.6220     6.0830    24.6700   -11.4880 
  129.2500     2.3480    85.7500     6.9970     6.3300     5.7770    24.7370   -11.2720 
  129.3750     2.3610    87.8750     6.9620     6.1990     5.7550    24.7260   -11.0920 
  129.5000     2.3700    86.6310     7.1270     6.2120     6.0440    24.6760   -10.9940 
  129.6250     2.3660    86.1090     7.3810     6.3430     7.1440    24.6980   -10.9160 
  129.7500     2.3500    86.7230     7.6060     6.5120     8.0180    24.7400   -10.8290 
  129.8750     2.3280    87.9390     7.7760     6.6590     7.9100    24.7860   -10.7330 
  130.0000     2.3050    87.8100     7.9370     6.7660     7.4610    24.7970   -10.6580 
  130.1250     2.2860    81.6320     8.2330     6.9110     7.2860    24.7830   -10.6950 
  130.2500     2.2770    73.3830     8.7740     7.2350     7.3790    24.7390   -10.7840 
  130.3750     2.2880    70.3780     9.5840     7.8300     7.7850    24.6910   -10.8580 
  130.5000     2.3270    73.4070    10.5250     8.6370     8.4010    24.7250   -10.9210 
  130.6250     2.3900    76.1010    11.1600     9.3500    10.6650    24.7600   -10.9850 
  130.7500     2.4450    76.1010    11.1100     9.5990    14.8200    24.7190   -11.0030 
  130.8750     2.4670    78.6370    10.2900     9.2080    15.5060    24.6600   -10.9300 
  131.0000     2.4500    85.0300     9.0020     8.2910     9.9840    24.6830   -10.7620 
  131.1250     2.4080    90.0340     7.8250     7.2080     7.0190    24.7210   -10.5260 
  131.2500     2.3770    91.1800     7.1290     6.3570     6.0180    24.7370   -10.3170 
  131.3750     2.3690    91.8790     6.9730     5.9030     5.8150    24.7220   -10.2130 
  131.5000     2.3770    94.5890     7.2470     5.8520     6.1560    24.6920   -10.1950 
  131.6250     2.3840    94.6870     7.7660     6.1210     7.4030    24.6520   -10.1370 
  131.7500     2.3760    92.5240     8.2480     6.4850     8.2780    24.6330   -10.0180 
  131.8750     2.3540    91.9000     8.5350     6.8230     7.9500    24.6550    -9.9080 
  132.0000     2.3240    92.5290     8.5810     7.0890     7.4210    24.7010    -9.9200 
  132.1250     2.2970    91.2750     8.4450     7.2880     7.2350    24.7470   -10.1110 
  132.2500     2.2760    88.9780     8.2880     7.4570     7.4050    24.7930   -10.3500 
  132.3750     2.2650    89.7100     8.1910     7.6000     7.7390    24.8250   -10.4750 
