~V
VERS. 2.00: Ver 2.00
~W
STRT.M 50.0000:
STOP.M 228.0000:
STEP.M 0.1250:
NULL. -999.2500:
UWI. F10779:
~C
DEPT.M :
GR.API :
RML.OHMM :
RI. :
RXO.OHMM :
CALI.CM :
SP.MV :
DEN.GM/CC :
~A
# ...
  117.5000    82.6280     8.0650     7.5110     9.6190    24.9160   -17.9520     2.3220 
  117.6250    78.3050     8.3360     7.8150     9.8600    24.9050   -17.9190     2.3080 
  117.7500    78.3830     8.4910     8.0010     9.7470    24.9020   -17.9150     2.2980 
  117.8750    81.3210     8.5260     8.0750     9.9160    24.8750   -17.9260     2.2950 
  118.0000    81.7820     8.4390     8.0450     9.9230    24.8630   -17.9480     2.2960 
  118.1250    80.6780     8.2460     7.9270     9.6390    24.8590   -17.9410     2.2960 
  118.2500    81.8960     8.0270     7.7940     9.1660    24.8700   -17.9300     2.3000 
  118.3750    84.6250     7.8410     7.7020     8.6380    24.8700   -17.8960     2.3120 
  118.5000    87.4780     7.7290     7.6940     8.3920    24.8740   -17.8620     2.3330 
  118.6250    89.5220     7.7780     7.7060     9.0100    24.9130   -17.8450     2.3540 
  118.7500    88.1360     7.8890     7.7190     9.6170    24.8810   -17.8900     2.3600 
  118.8750    83.2600     7.9790     7.7260     9.5850    24.8140   -18.0050     2.3490 
  119.0000    80.1600     8.0340     7.7190     9.3080    24.7970   -18.1870     2.3300 
  119.1250    81.3470     8.1070     7.7370     8.9980    24.7880   -18.3850     2.3120 
  119.2500    82.1910     8.2750     7.8420     8.8120    24.7510   -18.5710     2.2980 
  119.3750    80.0700     8.5780     8.0740     9.0380    24.7360   -18.7190     2.2820 
  119.5000    77.6650     8.9880     8.4240     9.4900    24.7130   -18.8290     2.2620 
  119.6250    76.6350     9.3960     8.8040     9.9100    24.6200   -18.9050     2.2510 
  119.7500    76.9060     9.6630     9.0770    10.2630    24.6240   -18.9640     2.2560 
  119.8750    78.7770     9.7080     9.1550    10.3370    24.8360   -18.9930     2.2750 
  120.0000    81.8920     9.5220     9.0130    10.2410    24.9460   -19.0060     2.2940 
  120.1250    84.0280     9.1500     8.6840     9.9140    24.9960   -19.0130     2.3040 
  120.2500    82.9700     8.7240     8.2900     9.5900    25.0380   -19.0010     2.3080 
  120.3750    81.2120     8.3280     7.9080     9.4290    25.0600   -18.9610     2.3130 
  120.5000    81.3720     8.0280     7.5990     9.4160    25.0450   -18.8740     2.3210 
  120.6250    84.6580     7.9220     7.4470     9.1590    25.0060   -18.7500     2.3230 
  120.7500    87.7420     8.0420     7.4790     8.7290    24.9490   -18.5980     2.3130 
  120.8750    87.9480     8.4050     7.7150     8.5770    24.7500   -18.4580     2.2920 
  121.0000    85.7410     8.9660     8.1310     8.8170    24.6790   -18.3270     2.2690 
  121.1250    82.4690     9.5670     8.6290     9.6130    24.6240   -18.2250     2.2560 
  121.2500    80.0340     9.9610     9.0090    10.2320    24.5850   -18.1210     2.2510 
  121.3750    78.8550     9.9660     9.1040    10.2050    24.5520   -18.0160     2.2560 
  121.5000    80.0940     9.5410     8.8420     9.8240    24.5130   -17.9110     2.2690 
  121.6250    84.8340     8.8100     8.2780     9.2950    24.5780   -17.8270     2.2860 
  121.7500    88.7100     8.1060     7.6780     8.6710    24.7790   -17.7450     2.3010 
  121.8750    89.4370     7.6650     7.2450     8.0800    24.9080   -17.6670     2.3060 
  122.0000    88.0530     7.6400     7.1240     8.0930    24.9220   -17.5690     2.2960 
  122.1250    86.5400     8.1770     7.4490     8.3290    24.8580   -17.4720     2.2670 
  122.2500    83.9390     9.1820     8.1650     9.1040    24.7420   -17.3570     2.2320 
  122.3750    79.6870    10.5610     9.2200    10.1540    24.6400   -17.2390     2.2010 
  122.5000    74.9900    12.1290    10.4950    10.8300    24.6160   -17.1100     2.1820 
  122.6250    70.8230    13.5590    11.7560    11.0290    24.6410   -16.9890     2.1860 
  122.7500    67.5970    14.5880    12.7420    11.8670    24.7330   -16.8430     2.2100 
  122.8750    65.0310    15.1020    13.3040    14.5420    24.8200   -16.6630     2.2430 
  123.0000    63.3470    15.1490    13.4290    18.9240    24.9170   -16.4160     2.2720 
  123.1250    62.2960    14.9020    13.2200    18.2200    24.8910   -16.0730     2.2790 
  123.2500    62.4110    14.6930    12.9620    14.3480    24.7490   -15.6200     2.2650 
  123.3750    63.1740    14.7660    12.8620    11.7130    24.6010   -15.0560     2.2360 
  123.5000    63.0280    15.2900    13.0810    11.0100    24.5710   -14.3970     2.2080 
  123.6250    59.6170    16.3560    13.7420    11.3300    24.5900   -13.6660     2.1860 
  123.7500    56.0820    17.6490    14.6670    11.6080    24.5690   -12.9540     2.1720 
  123.8750    55.1090    18.7750    15.5930    11.6300    24.5580   -12.2990     2.1640 
  124.0000    57.2750    19.3810    16.2260    11.3820    24.5000   -11.7630     2.1640 
  124.1250    60.9540    19.4240    16.4510    10.9670    24.4710   -11.3800     2.1640 
  124.2500    62.7790    19.5290    16.6620    10.6930    24.4520   -11.1340     2.1580 
  124.3750    60.6830    20.2650    17.2860    10.8730    24.4740   -11.0010     2.1560 
  124.5000    55.7270    21.9220    18.6060    11.6380    24.5100   -10.9760     2.1790 
  124.6250    52.5210    24.3520    20.6460    14.5710    24.6320   -11.0210     2.2610 
  124.7500    52.6230    26.5570    22.6910    23.6170    24.8260   -11.0850     2.3880 
  124.8750    53.6600    27.4850    23.8390    36.3870    24.9010   -11.1270     2.5070 
  125.0000    54.7710    26.5200    23.4230    33.2380    24.8670   -11.1420     2.5440 
  125.1250    57.8380    23.9830    21.5250    18.8380    24.5520   -11.1370     2.4740 
  125.2500    61.8530    21.3750    19.3650    13.4200    24.3400   -11.1630     2.3660 
  125.3750    65.2080    19.5180    17.6590    12.0700    24.2680   -11.2180     2.2680 
  125.5000    67.2280    18.5850    16.6520    12.0320    24.2400   -11.3140     2.2020 
  125.6250    68.6440    18.2260    16.2030    12.1640    24.2460   -11.4470     2.1760 
  125.7500    68.6620    17.7200    15.7810    12.1700    24.2480   -11.6380     2.1750 
  125.8750    67.8900    16.7640    15.0950    12.0610    24.2500   -11.8490     2.1880 
  126.0000    67.4480    15.4870    14.1570    11.7300    24.2470   -12.0690     2.2080 
  126.1250    68.0790    14.3880    13.2810    10.9850    24.2470   -12.2490     2.2250 
  126.2500    69.2100    13.8410    12.7740    10.3720    24.2370   -12.3830     2.2360 
  126.3750    69.3690    13.9660    12.7770    10.9910    24.2170   -12.4460     2.2430 
  126.5000    67.3720    14.6870    13.2890    12.1480    24.1110   -12.4270     2.2490 
  126.6250    63.4580    15.7980    14.2170    12.5810    23.9660   -12.2830     2.2520 
  126.7500    59.7330    16.8890    15.2270    12.5400    23.9590   -12.0340     2.2490 
  126.8750    57.3030    17.7050    16.0640    12.5660    24.0080   -11.6630     2.2350 
  127.0000    56.4920    18.1860    16.6160    12.6330    24.2120   -11.1810     2.2130 
  127.1250    56.6870    18.4890    16.9540    13.0910    24.2760   -10.6260     2.1900 
  127.2500    56.7950    18.8620    17.2970    13.6200    24.4520   -10.0500     2.1770 
  127.3750    56.6420    19.3850    17.7360    13.8220    24.4680    -9.5180     2.1780 
  127.5000    57.0960    20.0050    18.2530    13.7260    24.5810    -9.0780     2.1900 
  127.6250    57.1050    20.5650    18.7370    13.4980    24.5400    -8.8090     2.2050 
  127.7500    55.7860    20.9440    19.0770    13.2060    24.5400    -8.6730     2.2130 
  127.8750    54.5500    21.1200    19.2390    12.8930    24.6330    -8.6440     2.2100 
  128.0000    53.4450    21.1630    19.2680    12.6800    24.6780    -8.6850     2.1970 
  128.1250    52.1010    21.2200    19.2850    12.5550    24.7080    -8.7620     2.1800 
  128.2500    50.6480    21.4070    19.4030    12.5520    24.7630    -8.8290     2.1680 
  128.3750    50.3510    21.7440    19.6530    12.6430    24.7910    -8.8670     2.1680 
  128.5000    51.6150    22.1650    19.9900    12.8590    24.8090    -8.8550     2.1790 
  128.6250    52.9420    22.5240    20.3080    13.0320    24.8040    -8.8340     2.1970 
