~V
VERS. 2.00: Ver 2.00
~W
STRT.M 50.0000:
STOP.M 239.0000:
STEP.M 0.1250:
NULL. -999.2500:
UWI. F10783:
~C
DEPT.M :
GR.API :
RML.OHMM :
RI. :
RXO.OHMM :
CALI.CM :
SP.MV :
DEN.GM/CC :
~A
# ...
   95.0000    68.9950    14.9630    10.8410    19.4180    24.2230   -17.0610     2.5030 
   95.1250    61.0810    19.1170    14.6870    27.5120    24.3650   -17.0210     2.5250 
   95.2500    55.4580    21.7630    17.7790    31.0970    24.3010   -16.9290     2.4760 
   95.3750    55.0470    22.0570    19.0180    26.0630    23.9390   -16.7920     2.3660 
   95.5000    59.0310    20.2960    18.2310    15.3280    23.3330   -16.6090     2.2300 
   95.6250    63.6920    17.7550    16.2400     9.8790    22.9820   -16.3950     2.1270 
   95.7500    64.9910    15.8050    14.3960     8.1080    22.9220   -16.1820     2.0900 
   95.8750    62.2590    14.8250    13.1960     7.6800    23.0140   -15.9770     2.1160 
   96.0000    57.9770    14.6860    12.6800     7.5980    23.0850   -15.7910     2.1780 
   96.1250    55.6200    15.1200    12.7410     7.4690    23.0530   -15.6260     2.2400 
   96.2500    56.1170    15.7370    13.0830     7.3780    22.9570   -15.4710     2.2820 
   96.3750    58.6340    16.3680    13.5570     7.3720    22.8350   -15.2740     2.3080 
   96.5000    62.4710    16.9330    14.0740     7.4070    22.7020   -15.0040     2.3210 
   96.6250    64.8910    17.3950    14.5880     7.3970    22.6110   -14.6860     2.3180 
   96.7500    64.8640    17.7700    15.0730     7.4190    22.4900   -14.3540     2.2920 
   96.8750    65.0180    18.0640    15.5040     7.4670    22.3430   -14.0390     2.2430 
   97.0000    67.5950    18.2830    15.8640     7.5300    22.2130   -13.7710     2.1870 
   97.1250    68.4150    18.4160    16.1380     7.5450    22.1610   -13.5850     2.1510 
   97.2500    65.3240    18.4110    16.3090     7.6500    22.1840   -13.4720     2.1480 
   97.3750    62.0460    18.1160    16.2710     7.7500    22.2860   -13.4500     2.1740 
   97.5000    62.1880    17.3320    15.8480     7.9430    22.3880   -13.5330     2.2160 
   97.6250    64.5460    15.8440    14.7980     8.0290    22.4030   -13.7070     2.2590 
   97.7500    67.3000    13.9020    13.2710     7.9350    22.3680   -13.9660     2.2970 
   97.8750    71.3740    11.8470    11.5300     7.4220    22.4010   -14.3220     2.3270 
   98.0000    76.9560    10.0550     9.9000     6.5260    22.6330   -14.7530     2.3440 
   98.1250    80.6500     8.8630     8.7000     5.5640    23.1520   -15.2290     2.3390 
   98.2500    81.9430     8.1880     7.9330     5.4100    23.5650   -15.7150     2.3180 
   98.3750    82.8820     7.8650     7.5070     5.8620    23.7330   -16.1820     2.2910 
   98.5000    84.0230     7.6720     7.2600     6.3600    23.6840   -16.6150     2.2720 
   98.6250    86.0170     7.4000     7.0040     6.3420    23.5840   -16.9750     2.2730 
   98.7500    91.5860     7.0120     6.6490     6.0650    23.5590   -17.2500     2.2870 
   98.8750    98.1960     6.6140     6.2440     5.6980    23.5940   -17.4280     2.3020 
   99.0000   100.2240     6.3860     5.9170     5.2260    23.6320   -17.5370     2.3070 
   99.1250    94.4350     6.5540     5.8650     4.6830    23.5950   -17.6170     2.2950 
   99.2500    88.4680     7.0980     6.1290     4.8740    23.4820   -17.6800     2.2750 
   99.3750    85.9510     7.9160     6.6770     5.6930    23.2110   -17.7330     2.2580 
   99.5000    84.6200     8.8280     7.3940     6.4380    22.9270   -17.7810     2.2520 
   99.6250    82.4380     9.6290     8.1080     6.9050    22.8100   -17.7880     2.2560 
   99.7500    79.9560    10.2950     8.7140     7.0090    22.8760   -17.7410     2.2580 
   99.8750    76.8890    10.9700     9.2510     7.0040    23.0040   -17.6070     2.2490 
  100.0000    75.3780    11.8750     9.8690     7.1200    23.0650   -17.3720     2.2250 
  100.1250    79.0060    13.2220    10.7920     7.7810    23.0020   -17.0410     2.1910 
  100.2500    83.6000    14.8370    12.0070     8.3360    22.9470   -16.6580     2.1570 
  100.3750    83.1730    16.3860    13.3360     9.2120    22.9830   -16.2660     2.1340 
  100.5000    78.5380    17.4480    14.4560    11.7610    23.0820   -15.9130     2.1300 
  100.6250    78.2560    17.5860    14.9440    14.0640    23.0360   -15.6640     2.1490 
  100.7500    80.9920    16.9990    14.8120    11.4650    22.8320   -15.5250     2.1790 
  100.8750    80.6640    15.9980    14.2440     8.0820    22.6400   -15.4920     2.2120 
  101.0000    76.4220    14.9040    13.4900     6.8060    22.5790   -15.5470     2.2400 
  101.1250    71.9620    13.8740    12.7050     6.5820    22.5930   -15.6630     2.2670 
  101.2500    69.6610    12.8310    11.8790     6.4270    22.6130   -15.8400     2.2960 
  101.3750    71.1710    11.6610    10.9290     6.4910    22.7090   -16.0760     2.3250 
  101.5000    77.0890    10.3280     9.8100     6.4410    22.9410   -16.3400     2.3480 
  101.6250    82.6680     8.9260     8.5730     6.1260    23.2840   -16.6290     2.3510 
  101.7500    85.1710     7.6460     7.3820     5.7260    23.6620   -16.9080     2.3350 
  101.8750    88.5500     6.6120     6.3620     5.3420    23.9030   -17.1920     2.3080 
  102.0000    94.6770     5.8610     5.5740     4.9520    23.9940   -17.5000     2.2820 
  102.1250    99.3090     5.4020     5.0520     4.5530    23.9900   -17.8660     2.2720 
  102.2500    99.5280     5.1600     4.7350     4.8120    23.9840   -18.2690     2.2760 
  102.3750    95.8720     5.1510     4.6270     5.2130    23.9710   -18.6720     2.2900 
  102.5000    91.4020     5.4250     4.7670     5.1550    23.9460   -19.0260     2.3070 
  102.6250    88.5510     6.0590     5.2530     4.9820    23.8940   -19.2940     2.3290 
  102.7500    86.5040     6.9110     6.0170     5.2520    23.8700   -19.5290     2.3630 
  102.8750    84.5790     7.7510     6.9020     6.6260    23.8520   -19.7320     2.4070 
  103.0000    83.1980     8.2670     7.6270    10.3210    23.8470   -19.8990     2.4510 
  103.1250    83.6270     8.1050     7.7850    12.7450    23.8590   -19.9920     2.4690 
  103.2500    85.0230     7.4110     7.3700     9.3600    23.8540   -20.0020     2.4530 
  103.3750    88.0690     6.4760     6.5830     6.1430    23.8440   -19.9490     2.4090 
  103.5000    92.6940     5.6320     5.7280     5.2780    23.8290   -19.8800     2.3570 
  103.6250    93.4660     5.1220     5.0820     5.1160    23.7870   -19.8270     2.3210 
  103.7500    92.3200     4.8810     4.6760     4.9160    23.7130   -19.7670     2.3060 
  103.8750    95.2390     4.7960     4.4530     4.9140    23.6340   -19.6900     2.3060 
  104.0000   102.3410     4.7570     4.3300     4.8870    23.6160   -19.6120     2.3110 
  104.1250   106.4090     4.7000     4.2410     4.6860    23.6440   -19.5640     2.3160 
  104.2500   104.3280     4.6250     4.1500     4.2530    23.6270   -19.5570     2.3190 
  104.3750   100.0950     4.5580     4.0630     4.1260    23.5960   -19.5770     2.3210 
  104.5000    99.1270     4.5380     4.0020     4.2990    23.5980   -19.5870     2.3230 
  104.6250   101.5010     4.6330     4.0190     4.3770    23.5940   -19.5740     2.3200 
  104.7500   105.5090     4.8930     4.1550     4.4500    23.5670   -19.5810     2.3110 
  104.8750   108.1010     5.3590     4.4490     4.5500    23.5230   -19.6260     2.3020 
  105.0000   106.0520     6.0290     4.9140     4.7910    23.4260   -19.6850     2.3010 
  105.1250   100.7950     6.8130     5.5170     5.5750    23.2840   -19.7320     2.3170 
  105.2500    98.2520     7.4960     6.1040     6.7590    23.2000   -19.7430     2.3450 
  105.3750    99.2110     7.9020     6.5270     7.5230    23.1870   -19.7310     2.3710 
  105.5000   100.0820     7.9530     6.6890     7.3920    23.1840   -19.7220     2.3810 
  105.6250   100.9490     7.7090     6.5760     6.6190    23.1730   -19.7190     2.3640 
  105.7500   102.4450     7.4260     6.3670     5.7210    23.2270   -19.6940     2.3310 
  105.8750   100.7930     7.2660     6.2000     5.3040    23.2710   -19.6510     2.2950 
  106.0000    94.6740     7.2890     6.1540     5.3070    23.2530   -19.6000     2.2680 
  106.1250    90.4780     7.4550     6.2410     5.6390    23.1950   -19.5610     2.2570 
