~V
VERS. 2.00: Ver 2.00
~W
STRT.M 59.0000:
STOP.M 248.0000:
STEP.M 0.1250:
NULL. -999.2500:
UWI. F10727:
~C
DEPT.M :
GR.API :
RML.OHMM :
RI. :
RXO.OHMM :
CALI.CM :
SP.MV :
DEN.GM/CC :
~A
# ...
  104.0000    68.9500    12.5230    10.7840     8.3690    24.1530   -11.2470     2.2260 
  104.1250    71.5690    11.9780    10.5550     8.4540    24.1740   -11.1440     2.2320 
  104.2500    73.3940    11.1720    10.0250     8.4560    24.2960   -11.0480     2.2330 
  104.3750    72.3260    10.2960     9.3280     8.3060    24.5880   -10.9470     2.2290 
  104.5000    70.7040     9.5680     8.6570     7.9310    24.9340   -10.8790     2.2240 
  104.6250    72.1580     9.2350     8.2410     7.7550    25.0010   -10.8120     2.2200 
  104.7500    73.2060     9.3400     8.1530     7.5680    24.9870   -10.7560     2.2150 
  104.8750    70.1490     9.8460     8.3990     7.5350    24.9530   -10.7290     2.2110 
  105.0000    64.7780    10.5510     8.8740     8.0220    24.9440   -10.7130     2.2080 
  105.1250    63.3690    11.0110     9.2880     8.5550    24.9350   -10.7190     2.2110 
  105.2500    67.1950    10.9190     9.3560     8.9020    24.9300   -10.7580     2.2230 
  105.3750    72.3460    10.2990     9.0090     8.8460    24.9150   -10.8380     2.2450 
  105.5000    75.9360     9.4700     8.4240     7.9560    24.9900   -10.9560     2.2730 
  105.6250    76.5750     8.8880     7.9210     7.1040    25.1930   -11.0970     2.2960 
  105.7500    75.9240     8.7370     7.6980     6.6630    25.2670   -11.2050     2.3090 
  105.8750    75.0400     8.9810     7.7830     6.9810    25.0620   -11.2850     2.3110 
  106.0000    73.4870     9.4370     8.0850     7.7520    24.8950   -11.3750     2.3030 
  106.1250    71.6390     9.8330     8.4370     7.8980    24.8990   -11.4170     2.2890 
  106.2500    69.3710     9.9940     8.6720     7.6760    24.9690   -11.3990     2.2740 
  106.3750    68.5420     9.9000     8.7260     7.5620    25.0330   -11.3430     2.2590 
  106.5000    71.0420     9.6440     8.6170     7.6140    24.9420   -11.2640     2.2480 
  106.6250    75.0890     9.3450     8.4090     7.8320    24.9020   -11.1760     2.2410 
  106.7500    77.4870     9.0640     8.1900     7.8740    24.8620   -11.0650     2.2390 
  106.8750    79.2950     8.8080     7.9980     7.6620    24.7050   -10.9530     2.2390 
  107.0000    81.5380     8.6030     7.8660     7.3370    24.5820   -10.8290     2.2410 
  107.1250    81.5140     8.5130     7.8360     6.9970    24.6650   -10.6740     2.2430 
  107.2500    78.5200     8.5280     7.8860     7.1750    24.6320   -10.4980     2.2450 
  107.3750    76.2460     8.6120     7.9810     7.4830    24.3860   -10.3230     2.2470 
  107.5000    77.2080     8.7230     8.0810     7.6620    24.2620   -10.1500     2.2470 
  107.6250    79.4330     8.8900     8.1830     7.3130    24.2030    -9.9190     2.2450 
  107.7500    80.1390     9.1920     8.3290     7.0720    24.1400    -9.6850     2.2410 
  107.8750    78.7090     9.6730     8.5620     7.0980    24.0950    -9.4790     2.2340 
  108.0000    75.4220    10.2570     8.8760     7.5680    24.0730    -9.3000     2.2260 
  108.1250    71.2860    10.6580     9.1350     8.0200    24.0460    -9.1380     2.2180 
  108.2500    68.3360    10.5950     9.1360     8.0340    23.9990    -9.0090     2.2100 
  108.3750    69.5560     9.9970     8.7700     7.6820    24.0020    -8.9030     2.2060 
  108.5000    74.0660     9.1230     8.1400     7.3170    24.0400    -8.7790     2.2070 
  108.6250    77.4150     8.5800     7.6080     7.1430    24.0250    -8.6360     2.2130 
  108.7500    79.0840     8.8300     7.5470     7.0120    23.9930    -8.4950     2.2230 
  108.8750    79.0510    10.1810     8.2370     7.0650    23.8890    -8.3400     2.2360 
  109.0000    75.0710    12.8170     9.9180     8.3630    23.7390    -8.1190     2.2520 
  109.1250    65.1740    16.8200    12.9430    12.3520    23.6500    -7.8820     2.2750 
  109.2500    55.2690    21.1380    16.7980    18.0050    23.5870    -7.6850     2.3020 
  109.3750    50.1640    24.1130    20.2650    18.3350    23.5100    -7.5420     2.3280 
  109.5000    50.0920    24.0120    21.5220    13.4430    23.3900    -7.5010     2.3420 
  109.6250    53.8900    22.4050    19.3780    10.5460    23.3110    -7.6500     2.3280 
  109.7500    59.6700    17.2580    15.7560     9.5740    23.3270    -7.9210     2.2950 
  109.8750    65.2420    12.7050    12.1680     8.8040    23.5380    -8.2200     2.2590 
  110.0000    70.3270     9.3990     9.3260     7.6730    24.1110    -8.5610     2.2350 
  110.1250    75.0940     7.4090     7.4290     6.4550    24.8170    -8.9480     2.2350 
  110.2500    78.2780     6.2120     6.1650     5.6840    24.9770    -9.2960     2.2490 
  110.3750    79.5200     5.5620     5.3730     5.1410    25.2610    -9.5340     2.2700 
  110.5000    79.7420     5.2650     4.9260     4.9290    25.1980    -9.6220     2.2920 
  110.6250    81.1420     5.1640     4.7390     5.0310    25.0080    -9.5130     2.3130 
  110.7500    83.8700     5.1060     4.6690     5.0870    25.0590    -9.2610     2.3300 
  110.8750    87.3120     5.0570     4.6540     5.0700    25.2420    -8.8900     2.3410 
  111.0000    88.7030     5.0730     4.6880     5.1040    25.1190    -8.3930     2.3420 
  111.1250    85.1430     5.3550     4.8610     5.3280    25.0630    -7.7660     2.3320 
  111.2500    79.7470     6.0900     5.2920     5.6600    24.8910    -7.0310     2.3140 
  111.3750    74.5980     7.5120     6.1460     6.1310    24.7610    -6.2190     2.2890 
  111.5000    68.5800     9.8480     7.6140     6.7580    24.4890    -5.3890     2.2580 
  111.6250    62.4280    12.9890     9.9760     7.9130    24.1940    -4.6100     2.2240 
  111.7500    59.3940    15.9330    13.0180     8.9290    23.9630    -3.8770     2.1910 
  111.8750    58.4380    19.6890    16.2960     9.5360    23.9040    -3.2680     2.1640 
  112.0000    56.0500    22.6210    19.1110     9.8070    23.8960    -2.8540     2.1450 
  112.1250    52.9290    24.1410    20.7610     9.9950    23.8890    -2.6270     2.1360 
  112.2500    51.9330    24.8330    21.5620    10.2640    23.8880    -2.6090     2.1360 
  112.3750    52.1640    25.1810    21.9180    10.4580    23.8880    -2.8670     2.1410 
  112.5000    51.0510    25.2030    21.9530    10.5910    23.8880    -3.3720     2.1520 
  112.6250    49.4970    24.2390    21.2480    10.5860    23.8920    -4.0490     2.1680 
  112.7500    50.4230    22.0140    19.5740    10.4270    23.9080    -4.8420     2.1880 
  112.8750    53.5770    18.8110    17.0890    10.0460    23.9780    -5.7170     2.2110 
  113.0000    57.9870    15.4400    14.3630     9.3700    24.1440    -6.6110     2.2360 
  113.1250    64.4760    12.8770    12.1320     8.5100    24.5480    -7.4540     2.2640 
  113.2500    70.2530    11.3080    10.6220     7.7660    24.8890    -8.2150     2.2900 
  113.3750    71.2500    10.5610     9.7850     7.8810    24.9820    -8.8670     2.3140 
  113.5000    67.7410    10.2940     9.4230     9.1200    24.9960    -9.3560     2.3360 
  113.6250    66.3010    10.1110     9.2600    11.1450    24.9490    -9.6560     2.3540 
  113.7500    68.7760     9.7270     9.0120    10.4340    24.9700    -9.8890     2.3660 
  113.8750    72.2730     9.1370     8.6100     8.3710    25.0010   -10.0490     2.3660 
  114.0000    74.8460     8.5220     8.1400     7.0140    25.0040   -10.1050     2.3530 
  114.1250    74.9450     8.1550     7.7890     6.8430    24.9370   -10.1810     2.3290 
  114.2500    72.1170     8.0750     7.6340     7.1770    24.9120   -10.2780     2.3060 
  114.3750    69.5240     8.1690     7.6360     7.2800    24.9370   -10.3570     2.2900 
  114.5000    70.5880     8.2400     7.6660     7.2000    24.9530   -10.4390     2.2810 
  114.6250    72.3610     8.0740     7.5440     7.2990    24.9730   -10.5820     2.2780 
  114.7500    71.8670     7.7100     7.2520     7.2850    25.0790   -10.7250     2.2760 
  114.8750    73.4310     7.3070     6.8800     7.0020    25.2880   -10.8320     2.2740 
  115.0000    79.0160     7.0420     6.5620     6.5090    25.4140   -10.9630     2.2730 
  115.1250    81.0730     7.0720     6.4410     5.9550    25.3610   -11.0570     2.2720 
