~V
VERS. 2.00: Ver 2.00
~W
STRT.M 50.0000:
STOP.M 239.0000:
STEP.M 0.1250:
NULL. -999.2500:
UWI. F10783:
~C
DEPT.M :
GR.API :
RML.OHMM :
RI. :
RXO.OHMM :
CALI.CM :
SP.MV :
DEN.GM/CC :
~A
# ...
  117.5000    64.6060    17.0020    16.8830     7.4060    22.0920    -9.7550     2.2180 
  117.6250    67.9410    14.6320    14.8690     7.2990    22.1200   -10.8970     2.2460 
  117.7500    72.8250    11.9490    12.4080     6.8380    22.2620   -12.1500     2.2860 
  117.8750    80.9960     9.4240     9.9450     5.9820    22.6320   -13.4490     2.3280 
  118.0000    92.1740     7.4380     7.8670     5.1890    23.2600   -14.7050     2.3560 
  118.1250   100.4610     6.2910     6.4950     4.6030    23.9400   -15.8250     2.3540 
  118.2500   103.3120     5.8410     5.7590     4.3510    24.2730   -16.7890     2.3270 
  118.3750   103.2850     6.0000     5.6110     4.3450    24.2480   -17.5750     2.2880 
  118.5000    99.7860     6.6690     5.9900     4.6490    23.8160   -18.1530     2.2500 
  118.6250    90.2990     7.7620     6.8730     5.2810    23.0610   -18.4690     2.2260 
  118.7500    80.2980     9.0130     8.0370     5.8580    22.4350   -18.5800     2.2130 
  118.8750    74.8180    10.2220     9.2930     6.2180    22.1430   -18.5180     2.2100 
  119.0000    73.6720    11.2340    10.4460     6.6200    22.1400   -18.3420     2.2140 
  119.1250    74.5450    11.9670    11.3220     7.1680    22.2650   -18.1040     2.2230 
  119.2500    75.7780    12.5540    11.9730     7.2420    22.3880   -17.8690     2.2330 
  119.3750    75.0510    13.1290    12.5020     7.3030    22.4870   -17.6570     2.2400 
  119.5000    71.5400    13.8030    13.0270     7.4120    22.5690   -17.4510     2.2460 
  119.6250    70.1130    14.6410    13.6360     7.6070    22.6670   -17.2410     2.2560 
  119.7500    71.4260    15.5780    14.3180     7.8810    22.7940   -17.0480     2.2720 
  119.8750    71.1520    16.5290    15.0220     8.1780    22.8870   -16.8650     2.2840 
  120.0000    68.1480    17.3940    15.6740     8.4830    22.9170   -16.6700     2.2850 
  120.1250    66.4850    18.0640    16.1810     8.7930    22.8600   -16.4180     2.2680 
  120.2500    66.2780    18.5470    16.5350     9.0270    22.7440   -16.0630     2.2440 
  120.3750    65.9590    18.8820    16.7640     8.8050    22.6310   -15.5880     2.2230 
  120.5000    67.1170    19.1380    16.9210     8.2830    22.5760   -14.9850     2.2100 
  120.6250    68.5750    19.3790    17.0720     7.9020    22.5690   -14.2090     2.2030 
  120.7500    66.5920    19.6390    17.2590     7.7780    22.5690   -13.3220     2.1950 
  120.8750    62.8280    19.9070    17.4900     7.8050    22.5640   -12.3900     2.1850 
  121.0000    61.7760    20.1630    17.7520     7.8460    22.5560   -11.4510     2.1730 
  121.1250    62.6310    20.4350    18.0560     7.8120    22.5490   -10.5560     2.1630 
  121.2500    62.4050    20.8070    18.4510     7.9090    22.5770    -9.7420     2.1620 
  121.3750    62.7390    21.3730    19.0080     8.0360    22.6280    -9.0340     2.1820 
  121.5000    64.1880    22.1640    19.7690     8.4080    22.6810    -8.4910     2.2370 
  121.6250    65.1460    23.0590    20.6760     9.5660    22.7210    -8.1910     2.3270 
  121.7500    65.3920    23.7320    21.4660    11.4760    22.7640    -8.0400     2.4150 
  121.8750    65.3270    23.8420    21.8240    12.4070    22.7710    -7.9850     2.4610 
  122.0000    65.6460    23.1420    21.4730     9.8600    22.6970    -8.0150     2.4450 
  122.1250    67.0220    21.5140    20.2080     8.2140    22.5970    -8.1510     2.3740 
  122.2500    68.6760    19.4200    18.3980     7.8250    22.5710    -8.3660     2.2970 
  122.3750    70.0500    17.3070    16.4290     7.9730    22.5740    -8.6220     2.2450 
  122.5000    71.2220    15.6390    14.7070     7.9370    22.5730    -8.8270     2.2240 
  122.6250    72.4540    15.0880    13.7440     7.7020    22.5720    -8.9470     2.2260 
  122.7500    71.9920    16.0320    13.8510     7.6210    22.5850    -9.0860     2.2430 
  122.8750    68.9700    18.9730    15.5610     7.7880    22.6390    -9.3490     2.2810 
  123.0000    64.9750    24.2740    19.5570     8.9940    22.7660    -9.7970     2.3500 
  123.1250    62.8460    31.6080    26.3410    15.0560    23.0330   -10.4490     2.4510 
  123.2500    62.2550    37.9440    33.3880    33.3950    23.3400   -11.2440     2.5560 
  123.3750    61.1810    39.7390    37.0130    68.6740    23.5740   -12.1670     2.6400 
  123.5000    60.7900    35.1910    34.5940    98.0100    23.6950   -13.2520     2.6800 
  123.6250    66.6690    26.0320    26.7430    65.5890    23.7480   -14.4910     2.6580 
  123.7500    78.2930    17.3990    18.4430    28.5820    23.8170   -15.7640     2.5920 
  123.8750    91.0510    11.5520    12.3120    11.2410    23.9890   -16.9490     2.5010 
  124.0000   101.1400     8.4710     8.7460     6.7520    24.3780   -17.9580     2.4090 
  124.1250   105.3710     7.3340     7.1610     6.4250    24.8510   -18.7250     2.3450 
  124.2500   103.4010     6.9980     6.4790     6.4640    25.1470   -19.3130     2.3160 
  124.3750    97.5990     7.0670     6.3230     6.1450    25.1800   -19.7720     2.3170 
  124.5000    93.8090     7.3280     6.4830     6.2480    25.0310   -20.1120     2.3370 
  124.6250    93.7020     7.6730     6.8390     6.8310    24.7620   -20.3530     2.3580 
  124.7500    94.2360     8.0360     7.2680     7.6590    24.5680   -20.5400     2.3690 
  124.8750    94.2200     8.3900     7.7180     8.0430    24.5230   -20.6940     2.3670 
  125.0000    95.2130     8.7010     8.1360     8.2080    24.5250   -20.8020     2.3530 
  125.1250    96.8820     8.9070     8.4440     8.9380    24.4040   -20.8310     2.3300 
  125.2500    97.3060     8.9960     8.6100     8.8770    24.1120   -20.7500     2.3060 
  125.3750    96.3040     8.9690     8.6180     8.0430    23.8260   -20.5590     2.2850 
  125.5000    94.5460     8.8430     8.4800     7.4240    23.7120   -20.3140     2.2730 
  125.6250    93.6680     8.6300     8.2100     7.0320    23.7830   -20.0540     2.2780 
  125.7500    93.8500     8.3590     7.8680     6.8240    23.7860   -19.7950     2.2990 
  125.8750    94.0170     8.0360     7.4810     6.8610    23.7380   -19.5490     2.3280 
  126.0000    94.8030     7.6720     7.0730     6.6090    23.8650   -19.3550     2.3550 
  126.1250    97.8410     7.2970     6.6730     6.3090    24.1890   -19.2580     2.3700 
  126.2500   101.2740     6.9690     6.3230     6.2420    24.4340   -19.2670     2.3710 
  126.3750   104.1780     6.7450     6.0660     6.0930    24.5140   -19.3810     2.3660 
  126.5000   106.8020     6.6670     5.9390     5.8010    24.4980   -19.5570     2.3600 
  126.6250   106.7640     6.7660     5.9820     5.8720    24.4990   -19.7480     2.3550 
  126.7500   102.3470     6.9790     6.1520     6.1710    24.5980   -19.9410     2.3440 
  126.8750    96.8240     7.2460     6.4090     6.4080    24.7790   -20.1400     2.3250 
  127.0000    95.0400     7.5140     6.7050     6.7100    24.8810   -20.3320     2.3010 
  127.1250    95.8000     7.7470     7.0000     6.8690    24.7040   -20.5010     2.2820 
  127.2500    94.4070     7.9520     7.2740     6.8230    24.3440   -20.6250     2.2690 
  127.3750    92.9980     8.1330     7.5220     6.7680    24.1740   -20.6940     2.2620 
  127.5000    93.7150     8.2690     7.7180     6.7620    24.3510   -20.7470     2.2580 
  127.6250    96.4710     8.2730     7.7760     7.0210    24.5200   -20.7990     2.2560 
  127.7500    98.7050     8.1010     7.6480     7.2950    24.5040   -20.8360     2.2570 
  127.8750   100.2550     7.7600     7.3260     7.2400    24.4000   -20.8490     2.2660 
  128.0000   101.2330     7.3300     6.8780     6.7370    24.4000   -20.8450     2.2810 
  128.1250   101.4100     6.9470     6.4270     6.0800    24.4680   -20.8130     2.2920 
  128.2500    99.4010     6.6870     6.0680     5.4750    24.4640   -20.7680     2.2920 
  128.3750    95.7800     6.5520     5.8250     5.3570    24.2550   -20.6970     2.2830 
  128.5000    92.1320     6.5250     5.6850     5.8200    23.8120   -20.5460     2.2700 
  128.6250    91.3260     6.6710     5.6860     6.3930    23.4260   -20.2570     2.2670 
