~V
VERS. 2.00: Ver 2.00
~W
STRT.M 60.0000:
STOP.M 239.0000:
STEP.M 0.1250:
NULL. -999.2500:
UWI. F10775:
~C
DEPT.M :
DEN.GM/CC :
SP.MV :
GR.API :
RML.OHMM :
RI. :
RXO.OHMM :
CALI.CM :
~A
# ...
  206.2500     2.2410   -20.1040    42.8300   240.5240   221.6710   185.2840    25.9410 
  206.3750     2.2510   -20.0650    46.0470   244.5070   225.5690   195.2740    25.9590 
  206.5000     2.2760   -20.0730    47.4140   246.2110   227.3440   172.0920    25.9220 
  206.6250     2.3010   -20.0940    48.2050   246.7080   228.0150   155.0750    25.6270 
  206.7500     2.3100   -20.0480    49.0060   246.6900   228.2700   174.6750    25.2050 
  206.8750     2.2970   -19.9590    48.1080   245.5630   227.5700   207.7480    25.0790 
  207.0000     2.2690   -19.7930    45.7470   242.3010   224.7950   211.0330    25.3870 
  207.1250     2.2440   -19.6880    43.1930   236.2170   218.9370   185.6530    25.7900 
  207.2500     2.2350   -19.6310    41.8930   229.1720   211.8960   166.5030    25.9680 
  207.3750     2.2410   -19.6010    41.1260   223.1690   206.2440   159.0320    26.0100 
  207.5000     2.2540   -19.5440    39.4950   218.7640   203.8150   150.4530    26.0320 
  207.6250     2.2630   -19.2570    38.5070   212.2050   202.5190   157.8770    26.0670 
  207.7500     2.2670   -18.8460    40.3740   197.9600   194.9660   164.0940    26.1600 
  207.8750     2.2700   -18.4450    43.7200   173.6580   175.6490   175.0420    26.3080 
  208.0000     2.2800   -18.0810    45.3900   142.4330   146.0980   179.1880    26.4040 
  208.1250     2.3080   -17.7370    46.0450   112.0900   114.9660   138.3310    26.2510 
  208.2500     2.3520   -17.3770    48.9570    88.3110    89.9230    85.1730    25.8500 
  208.3750     2.4010   -16.9240    52.3890    72.1060    72.7340    52.3670    25.4280 
  208.5000     2.4420   -16.4370    52.8470    62.0370    62.2090    42.5080    25.1900 
  208.6250     2.4570   -16.1440    50.5600    56.3290    56.4710    45.6020    25.0860 
  208.7500     2.4470   -15.8830    51.4120    52.3850    52.6320    48.5820    24.9990 
  208.8750     2.4210   -15.5330    56.7290    49.1570    49.5080    44.2380    24.9590 
  209.0000     2.3900   -15.0800    61.6370    46.2380    46.5650    38.8020    25.0250 
  209.1250     2.3650   -14.5460    61.3560    43.8550    43.9680    34.8510    25.2060 
  209.2500     2.3570   -14.0000    58.3720    42.3110    42.1320    32.2260    25.4200 
  209.3750     2.3640   -13.5280    56.6580    41.7630    41.3110    29.9070    25.5370 
  209.5000     2.3800   -13.1250    57.6900    42.0390    41.3930    24.5090    25.5600 
  209.6250     2.3900   -12.7250    61.0880    42.6530    41.8930    27.3920    25.6280 
  209.7500     2.3930   -12.3780    64.3390    42.9420    42.0530    30.3290    25.7760 
  209.8750     2.4030   -12.1150    64.8570    42.5790    41.4460    29.1950    25.8480 
  210.0000     2.4400   -11.8990    62.8680    41.5830    40.0240    23.7100    25.7710 
  210.1250     2.5100   -11.8420    61.3080    40.3330    38.1540    22.6060    25.5280 
  210.2500     2.5800   -11.9110    62.5910    39.4220    36.5160    22.7980    25.1740 
  210.3750     2.6150   -11.9890    65.4150    39.2060    35.5250    24.2560    24.8760 
  210.5000     2.5940   -12.0600    66.4510    39.8250    35.3550    26.9110    24.7850 
  210.6250     2.5240   -12.1940    62.6230    41.3090    36.1100    32.4880    24.9200 
  210.7500     2.4520   -12.3470    58.9520    43.2440    37.5220    35.3600    25.1490 
  210.8750     2.4080   -12.4710    59.1620    45.1980    39.3120    35.3980    25.3950 
  211.0000     2.3990   -12.6580    61.1530    46.6110    40.9520    30.7580    25.4070 
  211.1250     2.4100   -12.7970    58.9180    46.7090    41.5570    34.4910    25.2690 
  211.2500     2.4180   -12.8230    53.8930    45.4840    40.8400    49.6830    25.2960 
  211.3750     2.4220   -12.8820    51.0810    43.2200    38.9930    65.7200    25.5470 
  211.5000     2.4360   -13.0500    52.7240    40.3940    36.5940    57.4740    25.7600 
  211.6250     2.4730   -13.1900    57.0530    37.2510    34.0570    36.6710    25.8440 
  211.7500     2.5230   -13.2370    59.3310    33.6700    31.1480    30.3780    25.7940 
  211.8750     2.5770   -13.3720    58.1340    29.4190    27.3830    28.6580    25.7540 
  212.0000     2.6230   -13.6540    58.3970    24.5220    22.7180    30.4930    25.7260 
  212.1250     2.6550   -14.0450    64.1810    19.0410    17.8580    29.4710    25.5660 
  212.2500     2.6640   -14.6040    72.4120    13.6520    13.7300    20.8860    25.3230 
  212.3750     2.6410   -15.3120    79.3770    10.1680    10.7270    12.1800    25.1790 
  212.5000     2.5820   -16.0070    83.7930     8.2540     8.8460     8.8510    25.1700 
  212.6250     2.4920   -16.7950    86.7400     7.7520     8.0150     8.8100    25.2080 
  212.7500     2.3980   -17.7750    88.0680     7.8520     7.8640     9.0360    25.1220 
  212.8750     2.3180   -18.7280    87.7270     8.2870     8.2090     9.3080    24.9960 
  213.0000     2.2710   -19.5250    87.3800     8.8430     8.8280     9.6140    24.9490 
  213.1250     2.2710   -20.2580    89.3130     9.2330     9.4130    10.0720    24.8230 
  213.2500     2.3030   -20.7980    90.5620     9.2890     9.6930    10.5810    24.4190 
  213.3750     2.3460   -21.0530    89.3560     8.9530     9.5290    10.7250    24.1080 
  213.5000     2.3760   -21.1430    88.5220     8.2800     8.9270    10.2720    24.2620 
  213.6250     2.3750   -20.9830    91.5770     7.4360     8.0450     9.4330    24.8140 
  213.7500     2.3590   -20.5650    92.3930     6.6810     7.1910     8.6420    25.2650 
  213.8750     2.3450   -20.1040    86.6070     6.1790     6.5450     7.3610    25.4390 
  214.0000     2.3430   -19.7610    81.2880     6.0070     6.1940     6.4920    25.4870 
  214.1250     2.3520   -19.4720    81.6400     6.1840     6.1880     6.3910    25.4370 
  214.2500     2.3650   -19.1950    81.6100     6.5250     6.3970     6.8540    25.3720 
  214.3750     2.3800   -18.9650    78.2600     6.8700     6.6930     7.4310    25.2780 
  214.5000     2.3980   -18.6720    77.0930     7.0760     6.9280     7.8990    25.0620 
  214.6250     2.4140   -18.2490    83.0830     7.0360     6.9450     7.9920    24.6720 
  214.7500     2.4220   -17.8190    87.0380     6.8290     6.7660     8.1520    24.4620 
  214.8750     2.4140   -17.3750    85.6900     6.5640     6.4730     8.0650    24.6660 
  215.0000     2.3920   -16.8350    84.4620     6.3530     6.1710     7.4480    25.2140 
  215.1250     2.3660   -16.2050    85.8160     6.2940     5.9590     7.0750    25.6660 
  215.2500     2.3490   -15.7370    84.2140     6.3770     5.8630     6.7300    25.8080 
  215.3750     2.3470   -15.5810    77.6720     6.5620     5.8810     6.6350    25.8760 
  215.5000     2.3600   -15.6710    71.2430     6.7950     5.9870     6.8810    25.8990 
  215.6250     2.3810   -15.9480    69.6940     7.0140     6.1410     7.3840    25.8480 
  215.7500     2.4020   -16.4280    70.1300     7.1900     6.2910     7.6480    25.7990 
  215.8750     2.4170   -17.0140    70.1140     7.3220     6.4100     7.6190    25.7970 
  216.0000     2.4260   -17.6010    69.4900     7.4130     6.4880     7.4890    25.8080 
  216.1250     2.4260   -18.2240    70.5900     7.4580     6.5190     7.3010    25.7780 
  216.2500     2.4190   -18.8280    73.2630     7.4510     6.5060     7.2660    25.7430 
  216.3750     2.4030   -19.1890    73.6070     7.3800     6.4390     7.3940    25.7180 
  216.5000     2.3790   -19.3260    69.0290     7.2350     6.3070     7.6690    25.7080 
  216.6250     2.3540   -19.4300    63.6460     7.0230     6.1140     7.6050    25.7040 
  216.7500     2.3350   -19.4410    63.0770     6.7940     5.9080     7.1190    25.7170 
  216.8750     2.3270   -19.3580    66.8840     6.6000     5.7310     6.6640    25.7530 
  217.0000     2.3310   -19.3320    70.2090     6.4940     5.6160     6.2440    25.8160 
  217.1250     2.3410   -19.4690    69.6130     6.5360     5.6030     6.1370    25.7630 
  217.2500     2.3450   -19.6770    67.1890     6.7140     5.6890     6.3750    25.6560 
  217.3750     2.3400   -20.0170    66.4390     7.0020     5.8720     6.8450    25.5700 
