~V
VERS. 2.00: Ver 2.00
~W
STRT.M 50.0000:
STOP.M 228.0000:
STEP.M 0.1250:
NULL. -999.2500:
UWI. F10779:
~C
DEPT.M :
GR.API :
RML.OHMM :
RI. :
RXO.OHMM :
CALI.CM :
SP.MV :
DEN.GM/CC :
~A
# ...
  218.7500    43.9680    10.7520    10.0870    11.1030    25.0830   -23.4330     2.3430 
  218.8750    43.9680    11.1850    10.5040    10.4380    25.0880   -24.2770     2.3250 
  219.0000    43.9680    11.3840    10.7030    10.1510    25.0910   -24.9510     2.3120 
  219.1250    43.9680    11.4290    10.7550    10.0690    25.0690   -25.4000     2.3100 
  219.2500    43.9680    11.4350    10.7650    10.0370    25.0340   -25.6770     2.3130 
  219.3750    43.9680    11.4350    10.7660     9.7040    25.0230   -25.8180     2.3180 
  219.5000    43.9680    11.4370    10.7660     9.5510    25.0150   -25.8790     2.3260 
  219.6250    43.9680    11.4360    10.7650    10.0970    25.0210   -25.9010     2.3410 
  219.7500    43.9680    11.4310    10.7630    10.4470    25.0220   -25.8970     2.3580 
  219.8750    43.9680    11.4240    10.7630    10.2140    24.9940   -25.8830     2.3690 
  220.0000    43.9680    11.4170    10.7660     9.8750    25.0180   -25.8570     2.3710 
  220.1250    43.9680    11.4160    10.7700    10.3150    25.0190   -25.8110     2.3650 
  220.2500    43.9680    11.4180    10.7710    10.3100    25.0140   -25.7390     2.3570 
  220.3750    43.9680    11.4220    10.7700    10.1360    25.0010   -25.6560     2.3490 
  220.5000    43.9680    11.4270    10.7670     9.6400    24.9730   -25.5930     2.3430 
  220.6250    43.9680    11.4290    10.7650     9.6850    24.9650   -25.5700     2.3400 
  220.7500    43.9680    11.4300    10.7650    10.3390    24.9350   -25.6090     2.3390 
  220.8750    43.9680    11.4310    10.7640    10.2380    24.9420   -25.6920     2.3350 
  221.0000    43.9680    11.4320    10.7640     9.3560    24.9470   -25.7910     2.3250 
  221.1250    43.9680    11.4360    10.7640     8.9310    24.9260   -25.8910     2.3100 
  221.2500    43.9680    11.4390    10.7640     8.9590    24.9030   -25.9930     2.2970 
  221.3750    43.9680    11.4390    10.7640     8.8050    24.9000   -26.0810     2.2880 
  221.5000    43.9680    11.4390    10.7640     9.1930    24.9020   -26.1370     2.2830 
  221.6250    43.9680    11.4390    10.7640    10.0900    24.9000   -26.1770     2.2780 
  221.7500    43.9680    11.4390    10.7640    10.1080    24.8820   -26.2270     2.2680 
  221.8750    43.9680    11.4390    10.7640     9.4750    24.8520   -26.2900     2.2600 
  222.0000    43.9680    11.4390    10.7640     9.4540    24.8340   -26.3880     2.2610 
  222.1250    43.9680    11.4390    10.7640     9.0140    24.8360   -26.4900     2.2780 
  222.2500    43.9680    11.4390    10.7640     8.8790    24.8330   -26.5930     2.3010 
  222.3750    43.9680    11.4390    10.7640     8.4230    24.8150   -26.6930     2.3170 
  222.5000    43.9680    11.4390    10.7640     7.4720    24.7810   -26.8030     2.3150 
  222.6250    43.9680    11.4390    10.7640     6.5340    24.7560   -26.7970     2.2960 
  222.7500    43.9680    11.4390    10.7640     6.4210    24.7160   -26.7910     2.2760 
  222.8750    43.9680    11.4390    10.7640     6.8170    24.7060  -999.2500     2.2680 
  223.0000    43.9680    11.4390    10.7640     7.0010    24.6500  -999.2500     2.2740 
  223.1250    43.9680    11.4390    10.7640     6.6590    24.5910  -999.2500     2.2850 
  223.2500    43.9680    11.4390    10.7640     6.0600    24.5210  -999.2500     2.2690 
  223.3750    43.9680    11.4390    10.7640     5.5620    24.2860  -999.2500     2.2020 
  223.5000    43.9680    11.4390    10.7640     4.8640    23.3970  -999.2500     2.0840 
  223.6250    43.9680    11.4390    10.7640     3.9570    21.2220  -999.2500     1.9440 
  223.7500    43.9680    11.4390    10.7640     3.4050    18.3010  -999.2500     1.8220 
  223.8750    43.9680    11.4390    10.7640     3.2320    17.7770  -999.2500     1.7370 
  224.0000    43.9680    11.4390    10.7640     3.2150    17.7020  -999.2500     1.6920 
  224.1250    43.9680    11.4390    10.7640     3.2150    17.7060  -999.2500     1.6820 
  224.2500    43.9680    11.4390    10.7640     3.2150    17.7080  -999.2500     1.6820 
  224.3750    43.9680    11.4390    10.7640     3.2150    17.7060  -999.2500     1.6840 
  224.5000    43.9680    11.4390    10.7640     3.2150    17.7060  -999.2500     1.6850 
  224.6250    43.9680    11.4390    10.7640     3.2140    17.7070  -999.2500     1.6850 
  224.7500    43.9680    11.4390    10.7640     3.2140    17.7050  -999.2500     1.6880 
  224.8750    43.9680    11.4390    10.7640     3.2140    17.7040  -999.2500     1.6900 
  225.0000    43.9680    11.4390    10.7640     3.2140    17.7010  -999.2500     1.6930 
  225.1250    43.9680    11.4390    10.7640     3.2140    17.7040  -999.2500     1.6940 
  225.2500    43.9680    11.4390    10.7640     3.2140    17.7030  -999.2500     1.6940 
  225.3750    43.9680    11.4390    10.7640     3.2140    17.7040  -999.2500     1.6950 
  225.5000    43.9680    11.4390    10.7640     3.2150    17.7090  -999.2500     1.6950 
  225.6250    43.9680    11.4390    10.7640     3.2150    17.7060  -999.2500     1.6930 
  225.7500    43.9680    11.4390    10.7640     3.2140    17.7050  -999.2500     1.6900 
  225.8750    43.9680    11.4390    10.7640     3.2140    17.7010  -999.2500  -999.2500 
  226.0000    43.9680    11.4390    10.7640     3.2140    17.7000  -999.2500  -999.2500 
  226.1250  -999.2500  -999.2500  -999.2500  -999.2500  -999.2500  -999.2500  -999.2500 
  226.2500  -999.2500  -999.2500  -999.2500  -999.2500  -999.2500  -999.2500  -999.2500 
  226.3750  -999.2500  -999.2500  -999.2500  -999.2500  -999.2500  -999.2500  -999.2500 
  226.5000  -999.2500  -999.2500  -999.2500  -999.2500  -999.2500  -999.2500  -999.2500 
  226.6250  -999.2500  -999.2500  -999.2500  -999.2500  -999.2500  -999.2500  -999.2500 
  226.7500  -999.2500  -999.2500  -999.2500  -999.2500  -999.2500  -999.2500  -999.2500 
  226.8750  -999.2500  -999.2500  -999.2500  -999.2500  -999.2500  -999.2500  -999.2500 
  227.0000  -999.2500  -999.2500  -999.2500  -999.2500  -999.2500  -999.2500  -999.2500 
  227.1250  -999.2500  -999.2500  -999.2500  -999.2500  -999.2500  -999.2500  -999.2500 
  227.2500  -999.2500  -999.2500  -999.2500  -999.2500  -999.2500  -999.2500  -999.2500 
  227.3750  -999.2500  -999.2500  -999.2500  -999.2500  -999.2500  -999.2500  -999.2500 
  227.5000  -999.2500  -999.2500  -999.2500  -999.2500  -999.2500  -999.2500  -999.2500 
  227.6250  -999.2500  -999.2500  -999.2500  -999.2500  -999.2500  -999.2500  -999.2500 
  227.7500  -999.2500  -999.2500  -999.2500  -999.2500  -999.2500  -999.2500  -999.2500 
  227.8750  -999.2500  -999.2500  -999.2500  -999.2500  -999.2500  -999.2500  -999.2500 
  228.0000  -999.2500  -999.2500  -999.2500  -999.2500  -999.2500  -999.2500  -999.2500 
