~V
VERS. 2.00: Ver 2.00
~W
STRT.M 50.0000:
STOP.M 239.0000:
STEP.M 0.1250:
NULL. -999.2500:
UWI. F10783:
~C
DEPT.M :
GR.API :
RML.OHMM :
RI. :
RXO.OHMM :
CALI.CM :
SP.MV :
DEN.GM/CC :
~A
# ...
   61.2500    35.7240     4.6550     0.1750     0.4880    25.7650    73.7500     2.3940 
   61.3750    37.5690     4.4760     0.1740     0.5280    25.7210    71.6250     2.3720 
   61.5000    40.0160     4.3440     0.1740     0.5190    25.7020    69.3410     2.3280 
   61.6250    42.8500     4.2480     0.1740     0.4960    25.6980    67.1890     2.2620 
   61.7500    44.7190     4.1160     0.1750     0.5070    25.6840    65.1600     2.1920 
   61.8750    44.2680     3.8980     0.1750     0.5460    25.6650    63.2680     2.1320 
   62.0000    42.7060     3.5890     0.1750     0.5130    25.6400    61.7480     2.0910 
   62.1250    42.6400     3.2460     0.1760     0.4770    25.6250    61.1130     2.0710 
   62.2500    43.2700     2.9630     0.1750     0.4800    25.6090    61.1890     2.0650 
   62.3750    43.1060     2.8020     0.1750     0.5100    25.5650    61.6040     2.0670 
   62.5000    42.2880     2.7760     0.1740     0.5480    25.4900    62.0350     2.0740 
   62.6250    42.3310     2.8390     0.1710     0.5690    25.3400    62.2210     2.0800 
   62.7500    43.9140     2.8220     0.1650     0.5840    25.0180    62.2360     2.0850 
   62.8750    45.3380     2.5460     0.1540     0.5970    24.6160    62.1420     2.0900 
   63.0000    45.8300     1.9350     0.1400     0.5760    24.3700    61.8880     2.1040 
   63.1250    46.7630     1.1460     0.1250     0.6040    24.3420    61.3970     2.1480 
   63.2500    46.4780     0.5000     0.1120     0.8120    24.3480    60.6160     2.2360 
   63.3750    43.3950     0.1260     0.1040     1.0010    24.2350    59.3400     2.3670 
   63.5000    40.6890    -0.0130     0.1060     1.2550    23.8750    57.2130     2.5150 
   63.6250    45.9010     0.0260     0.1350     1.7480    23.3960    53.4680     2.6120 
   63.7500    56.3520     0.2090     0.2250     2.7070    23.1040    48.2040     2.6110 
   63.8750    67.1930     0.6110     0.4490     4.1180    23.0660    41.8000     2.5080 
   64.0000    77.2190     1.3770     0.9440     5.6620    23.3770    34.7220     2.3510 
   64.1250    87.0220     2.8160     2.0590     6.8820    24.0140    27.1590     2.2350 
   64.2500    94.0500     4.9610     3.9730     9.2610    24.5410    19.4320     2.2120 
   64.3750    95.8650     7.6180     6.6590    15.0310    24.6090    11.8610     2.2710 
   64.5000    93.3930    10.2170     9.6480    22.4280    24.3160     4.8750     2.3520 
   64.6250    88.8490    11.8610    11.9630    18.6290    23.7140    -0.7750     2.3690 
   64.7500    84.4640    12.3830    13.0990    11.8270    23.0430    -5.1100     2.3030 
   64.8750    82.2510    12.0760    13.1290     7.9740    22.7150    -8.4840     2.1900 
   65.0000    83.1850    11.4300    12.5170     6.7910    22.7440   -11.3170     2.0890 
   65.1250    82.8030    10.8310    11.7620     6.6210    22.9440   -13.7420     2.0650 
   65.2500    80.7910    10.3470    11.1030     6.5950    23.0840   -15.8830     2.1070 
   65.3750    81.3710     9.8880    10.4970     6.5720    23.1150   -17.7400     2.1860 
   65.5000    87.5610     9.3600     9.8390     6.4760    23.0850   -19.3250     2.2640 
   65.6250    92.9530     8.7290     9.0620     6.0650    23.0640   -20.6300     2.3160 
   65.7500    93.0060     8.0490     8.2140     5.5920    23.0670   -21.6960     2.3460 
   65.8750    90.7300     7.3610     7.3510     5.5840    23.0830   -22.5380     2.3610 
   66.0000    90.6440     6.6990     6.5220     5.6420    23.2420   -23.2560     2.3690 
   66.1250    95.0860     6.1430     5.8090     5.2100    23.5360   -23.8280     2.3680 
   66.2500    99.9720     5.7780     5.2790     4.6660    23.7280   -24.2500     2.3470 
   66.3750   100.7820     5.6980     5.0120     4.3590    23.7080   -24.6180     2.2960 
   66.5000    96.4270     5.9750     5.0750     4.3640    23.5120   -24.9220     2.2160 
   66.6250    87.7070     6.7100     5.5760     4.9000    23.2790   -25.1770     2.1280 
   66.7500    78.8980     7.8050     6.4340     5.8030    23.1710   -25.5110     2.0680 
   66.8750    72.0020     9.1340     7.5480     6.3230    23.1940   -25.9270     2.0540 
   67.0000    67.8400    10.4780     8.7310     6.5010    23.2550   -26.3620     2.0840 
   67.1250    64.3530    11.5020     9.6960     6.4900    23.2790   -26.8280     2.1380 
   67.2500    61.6210    12.0790    10.2990     6.5010    23.2850   -27.2560     2.1860 
   67.3750    61.5650    12.2290    10.5180     6.4960    23.2750   -27.5980     2.2190 
   67.5000    63.7060    12.0560    10.4150     6.5800    23.2390   -27.9490     2.2390 
   67.6250    65.8600    11.6150    10.0320     6.6190    23.1450   -28.3930     2.2580 
   67.7500    68.6420    10.9860     9.4670     6.6090    23.0510   -28.8310     2.2860 
   67.8750    73.6530    10.2310     8.7800     6.6180    23.0020   -29.2640     2.3200 
   68.0000    80.8230     9.4760     8.0740     6.6560    23.0840   -29.6830     2.3470 
   68.1250    85.2350     8.9250     7.5140     6.4970    23.3450   -30.1020     2.3390 
   68.2500    84.4160     8.6700     7.1960     6.1050    23.5870   -30.5770     2.2900 
   68.3750    80.3610     8.7270     7.1580     5.9930    23.5800   -31.1520     2.2160 
   68.5000    75.9350     9.0330     7.3720     6.3750    23.2490   -31.7460     2.1510 
   68.6250    71.4130     9.4630     7.7560     6.4880    22.7580   -32.2630     2.1330 
   68.7500    69.0450     9.8440     8.1520     6.5310    22.3340   -32.7620     2.1560 
   68.8750    69.2330    10.0870     8.4610     6.4990    22.2360   -33.1830     2.1950 
   69.0000    68.9370    10.1560     8.6340     6.3680    22.4010   -33.5160     2.2240 
   69.1250    67.6180    10.0060     8.6270     6.3420    22.5950   -33.7370     2.2320 
   69.2500    68.9770     9.6390     8.4440     6.3390    22.6980   -33.8730     2.2370 
   69.3750    72.2110     9.0270     8.0560     6.3850    22.7630   -33.8990     2.2560 
   69.5000    72.6710     8.1910     7.4610     6.4160    22.8140   -33.8330     2.2920 
   69.6250    71.6460     7.2280     6.7080     6.1370    22.9680   -33.6610     2.3350 
   69.7500    73.5270     6.3220     5.9460     5.3890    23.2640   -33.4330     2.3690 
   69.8750    77.5300     5.5960     5.2890     4.5530    23.5720   -33.1870     2.3880 
   70.0000    82.0630     5.1110     4.8110     4.4640    23.7020   -32.9540     2.3930 
   70.1250    85.7310     4.9090     4.5740     4.7750    23.7980   -32.7560     2.3860 
   70.2500    87.5090     4.9080     4.5290     4.6890    24.0690   -32.6060     2.3690 
   70.3750    86.5710     5.0540     4.6380     4.4010    24.3440   -32.5160     2.3420 
   70.5000    84.9660     5.2870     4.8520     4.3550    24.3390   -32.4900     2.3150 
   70.6250    84.7390     5.5320     5.1110     4.7080    23.9460   -32.5070     2.3100 
   70.7500    85.3190     5.7090     5.3340     5.2720    23.5560   -32.5050     2.3360 
   70.8750    87.3940     5.7570     5.4570     5.2990    23.5920   -32.4310     2.3830 
   71.0000    92.3990     5.6460     5.4310     5.0560    23.9000   -32.3250     2.4300 
   71.1250    98.4190     5.3700     5.2250     5.5950    24.2510   -32.2120     2.4490 
   71.2500   101.2750     5.0300     4.9170     5.6410    24.4070   -32.0320     2.4420 
   71.3750   100.5560     4.7160     4.5880     4.9590    24.4470   -31.8200     2.4200 
   71.5000    97.9270     4.5170     4.3240     4.2830    24.3430   -31.5440     2.3990 
   71.6250    95.1770     4.5360     4.2260     4.1610    24.1230   -31.3150     2.3820 
   71.7500    93.8700     4.7710     4.3130     4.4590    23.9330   -31.1720     2.3620 
   71.8750    94.1930     5.1980     4.5870     4.9550    23.8330   -31.0970     2.3320 
   72.0000    93.1570     5.7420     5.0070     5.7340    23.7280   -31.0800     2.2940 
   72.1250    86.9820     6.2580     5.4760     5.9150    23.4980   -31.1610     2.2650 
   72.2500    80.5740     6.6040     5.8540     6.1790    23.2770   -31.2730     2.2580 
   72.3750    77.9700     6.7110     6.0540     6.2840    23.1670   -31.3340     2.2740 
