~V
VERS. 2.00: Ver 2.00
~W
STRT.M 50.0000:
STOP.M 229.0000:
STEP.M 0.1250:
NULL. -999.2500:
UWI. F10777:
~C
DEPT.M :
DEN.GM/CC :
GR.API :
RML.OHMM :
RI. :
RXO.OHMM :
CALI.CM :
SP.MV :
~A
# ...
  185.0000     2.4100    77.7460     7.9100     6.8780     6.3310    24.5650   -18.9020 
  185.1250     2.4210    75.1260     7.8550     6.8750     6.2580    24.5460   -18.8270 
  185.2500     2.4270    71.9650     7.7820     6.8530     6.2000    24.7080   -18.7750 
  185.3750     2.4270    71.2260     7.7040     6.8200     6.1880    25.0060   -18.7410 
  185.5000     2.4200    73.7320     7.6370     6.7890     6.1460    25.2980   -18.7090 
  185.6250     2.4070    76.1480     7.6060     6.7780     6.0770    25.4980   -18.6620 
  185.7500     2.3920    77.3350     7.6200     6.7930     5.9800    25.6390   -18.6010 
  185.8750     2.3800    77.2370     7.6790     6.8370     5.8720    25.7160   -18.5380 
  186.0000     2.3760    74.9250     7.7780     6.9010     5.7960    25.7410   -18.4850 
  186.1250     2.3820    71.8830     7.8980     6.9660     5.8090    25.7160   -18.4540 
  186.2500     2.3960    71.0480     7.9980     7.0040     5.9370    25.6350   -18.4460 
  186.3750     2.4120    73.6720     8.0430     6.9910     6.1800    25.5080   -18.4680 
  186.5000     2.4280    77.4480     8.0150     6.9120     6.3320    25.3770   -18.5180 
  186.6250     2.4440    78.4710     7.9200     6.7650     6.1560    25.2810   -18.5940 
  186.7500     2.4600    77.7210     7.8160     6.5960     5.7620    25.2030   -18.6780 
  186.8750     2.4710    76.3740     7.7740     6.4630     5.5070    25.1090   -18.7640 
  187.0000     2.4690    76.3800     7.8890     6.4380     5.5600    24.7740   -18.8580 
  187.1250     2.4460    74.4660     8.3630     6.6660     5.8710    24.6570   -18.9740 
  187.2500     2.4120    69.6100     9.3480     7.2460     6.4410    24.6170   -19.1090 
  187.3750     2.3910    63.1440    11.0530     8.3190     7.6320    24.6810   -19.2520 
  187.5000     2.3970    55.4810    13.7030    10.0560     9.6980    24.7520   -19.3880 
  187.6250     2.4240    49.9160    17.6400    12.7830    14.6550    24.7830   -19.5050 
  187.7500     2.4430    48.0350    22.5110    16.3730    21.1060    24.7510   -19.6000 
  187.8750     2.4390    48.1610    27.6930    20.4670    25.1620    24.7040   -19.6770 
  188.0000     2.4220    48.5520    32.1870    24.3060    26.2730    24.6770   -19.7480 
  188.1250     2.4160    49.7210    34.7260    26.7560    27.4300    24.5980   -19.8340 
  188.2500     2.4320    51.6520    35.4270    27.6920    29.3980    24.5530   -19.9330 
  188.3750     2.4410    51.9300    34.8660    27.4850    29.6690    24.5770   -20.0290 
  188.5000     2.4190    50.5610    33.7690    26.7160    28.5430    24.6770   -20.0960 
  188.6250     2.3680    50.5580    32.6950    25.8580    25.7120    24.5990   -20.1180 
  188.7500     2.3110    53.3400    31.9280    25.1860    23.4870    24.3600   -20.1140 
  188.8750     2.2710    57.7950    31.5890    24.8270    21.3250    24.1360   -20.1020 
  189.0000     2.2560    59.6670    31.6900    24.8300    20.6380    24.1050   -20.0920 
  189.1250     2.2630    56.0480    32.1350    25.1720    20.5510    24.0690   -20.0750 
  189.2500     2.2850    52.0760    32.6400    25.6430    23.4830    24.0430   -20.0420 
  189.3750     2.3070    51.7610    33.0190    26.0860    26.0890    24.0790   -20.0000 
  189.5000     2.3200    54.0030    33.1660    26.3900    26.1630    24.2530   -19.9730 
  189.6250     2.3210    53.9110    33.0480    26.4870    25.4300    24.5580   -19.9900 
  189.7500     2.3140    53.0900    32.7860    26.4460    25.5320    24.9050   -20.0550 
  189.8750     2.3170    53.8130    32.4690    26.3320    25.4280    25.1570   -20.1600 
  190.0000     2.3400    55.2850    32.1690    26.1990    25.3200    25.3580   -20.2960 
  190.1250     2.3750    55.1110    31.9470    26.0890    25.2050    25.5420   -20.4670 
  190.2500     2.3950    55.5850    31.8450    26.0430    24.8530    25.7300   -20.6690 
  190.3750     2.3860    58.6040    31.9330    26.1190    24.4590    25.8190   -20.8850 
  190.5000     2.3540    62.0340    32.2770    26.3780    24.4630    25.3980   -21.0800 
  190.6250     2.3120    61.8630    32.9490    26.8900    24.6330    25.1650   -21.2020 
  190.7500     2.2770    59.1960    33.8330    27.5890    25.5160    25.0620   -21.2470 
  190.8750     2.2580    56.0140    34.7910    28.3830    26.1650    25.1960   -21.2250 
  191.0000     2.2570    53.3990    35.6570    29.1480    26.6590    25.3320   -21.1590 
  191.1250     2.2700    51.6720    36.2720    29.7510    27.2520    25.4320   -21.0640 
  191.2500     2.2830    52.0940    36.6680    30.1860    28.5150    25.1920   -20.9570 
  191.3750     2.2860    54.4620    36.9220    30.4970    29.8520    24.9970   -20.8500 
  191.5000     2.2760    55.9470    37.1220    30.7490    30.4170    24.9130   -20.7520 
  191.6250     2.2640    54.3530    37.3100    30.9950    29.1000    24.8930   -20.6710 
  191.7500     2.2590    52.1330    37.4580    31.2300    28.9350    24.8920   -20.5970 
  191.8750     2.2610    52.2240    37.5090    31.4130    29.6770    24.8930   -20.5260 
  192.0000     2.2610    53.9550    37.4310    31.5110    30.0590    24.8870   -20.4490 
  192.1250     2.2550    55.9670    37.2420    31.5220    28.8360    24.8800   -20.3580 
  192.2500     2.2440    58.4490    37.0500    31.5130    27.9680    24.8650   -20.2570 
  192.3750     2.2370    61.4210    36.9160    31.5420    27.8390    24.8590   -20.1560 
  192.5000     2.2350    62.7400    36.8440    31.6260    28.4670    24.8410   -20.0750 
  192.6250     2.2360    59.6290    36.7560    31.7210    28.2370    24.8610   -20.0460 
  192.7500     2.2360    56.3930    36.5450    31.7330    28.5440    24.7840   -20.0800 
  192.8750     2.2370    57.6660    36.1560    31.5950    28.9690    24.7700   -20.1750 
  193.0000     2.2450    61.8970    35.6030    31.2950    29.4650    24.8030   -20.3100 
  193.1250     2.2630    62.0470    34.9770    30.8800    28.6380    24.7700   -20.4440 
  193.2500     2.2810    57.6720    34.4360    30.4920    27.6400    24.6630   -20.5350 
  193.3750     2.2900    52.9070    34.1370    30.2740    26.9030    24.5580   -20.5680 
  193.5000     2.2890    52.2810    34.2370    30.3740    26.5280    24.5020   -20.5580 
  193.6250     2.2860    55.1040    34.9330    30.9840    26.1500    24.5260   -20.5420 
  193.7500     2.2910    56.2150    36.1340    32.0600    28.2070    24.6380   -20.5600 
  193.8750     2.3050    55.0650    37.7140    33.5240    32.1790    24.7790   -20.6200 
  194.0000     2.3210    53.9930    39.4440    35.1980    36.5600    24.8930   -20.7100 
  194.1250     2.3330    54.9080    40.9850    36.7870    36.8320    24.7630   -20.8100 
  194.2500     2.3320    54.8000    42.1410    38.0530    35.6630    24.6920   -20.9070 
  194.3750     2.3220    53.2540    42.8860    38.9050    35.0720    24.6690   -21.0010 
  194.5000     2.3070    52.1100    43.3250    39.3870    35.0030    24.6770   -21.0880 
  194.6250     2.2930    54.3790    43.6110    39.6110    36.2460    24.7090   -21.1620 
  194.7500     2.2880    59.2870    43.9160    39.7760    35.5640    24.7390   -21.2190 
  194.8750     2.2900    62.9920    44.3230    39.9930    34.8460    24.7490   -21.2630 
  195.0000     2.2940    62.4150    44.9230    40.3670    34.7430    24.7470   -21.3060 
  195.1250     2.2950    58.9590    45.9740    41.1300    35.8560    24.7580   -21.3480 
  195.2500     2.2950    56.9970    47.6820    42.4550    38.8270    24.7690   -21.3690 
  195.3750     2.2970    56.5120    50.2580    44.5200    42.0520    24.7760   -21.3490 
  195.5000     2.3000    55.4950    53.8320    47.4410    45.8330    24.7780   -21.2940 
  195.6250     2.3000    54.1700    58.6090    51.3920    49.0660    24.7770   -21.2420 
  195.7500     2.2930    53.8480    64.2750    56.1090    53.5730    24.7750   -21.2340 
  195.8750     2.2830    54.0410    70.5140    61.3240    59.3060    24.7730   -21.2950 
  196.0000     2.2720    52.4720    76.8990    66.6920    64.8890    24.7640   -21.4270 
  196.1250     2.2630    50.5750    82.8310    71.7960    69.4300    24.8400   -21.6290 
