~V
VERS. 2.00: Ver 2.00
~W
STRT.M 59.0000:
STOP.M 248.0000:
STEP.M 0.1250:
NULL. -999.2500:
UWI. F10727:
~C
DEPT.M :
GR.API :
RML.OHMM :
RI. :
RXO.OHMM :
CALI.CM :
SP.MV :
DEN.GM/CC :
~A
# ...
   92.7500    60.4390    18.7020    16.2430     8.9760    23.5130    -9.3590     2.1610 
   92.8750    63.0420    17.4350    15.2880     8.9330    23.5460    -9.8730     2.1570 
   93.0000    66.2640    15.8030    14.0830     8.9000    23.5590   -10.3590     2.1580 
   93.1250    67.1890    13.8100    12.5730     8.8260    23.6320   -10.8500     2.1670 
   93.2500    65.9780    11.8230    10.9790     8.5400    23.7880   -11.3350     2.1810 
   93.3750    65.1850    10.2190     9.5630     7.9300    24.1490   -11.7740     2.1970 
   93.5000    65.0710     9.3350     8.5950     7.1560    24.5750   -12.1710     2.2120 
   93.6250    63.7610     9.6060     8.4400     7.0480    24.4140   -12.5260     2.2270 
   93.7500    61.8570    10.9790     9.1520     7.2760    24.0780   -12.8500     2.2460 
   93.8750    60.1580    13.3360    10.7720     8.2230    23.9180   -13.1340     2.2750 
   94.0000    58.5620    16.1840    13.0930    10.8620    23.9960   -13.3710     2.3200 
   94.1250    57.1950    18.1310    15.1580    17.5500    24.2760   -13.5160     2.3840 
   94.2500    58.4940    17.9440    15.6530    25.0130    24.4920   -13.5660     2.4520 
   94.3750    63.8650    15.6750    14.2620    23.0220    24.5580   -13.5430     2.5050 
   94.5000    70.2580    12.6620    11.9300    13.5650    24.5970   -13.4370     2.5230 
   94.6250    72.7240    10.4380     9.9310     8.5700    24.5910   -13.2430     2.4870 
   94.7500    72.9900     9.2720     8.6800     7.2780    24.4660   -13.0210     2.4210 
   94.8750    72.9380     8.9120     8.1040     7.2980    24.2240   -12.7900     2.3500 
   95.0000    72.4700     8.9360     7.9590     7.6790    23.9750   -12.5750     2.2910 
   95.1250    71.3910     8.8430     7.9120     7.7940    23.9070   -12.3720     2.2570 
   95.2500    72.4980     8.3900     7.6890     7.3050    23.9210   -12.1800     2.2440 
   95.3750    74.2100     7.6830     7.2740     6.5590    24.0210   -12.0170     2.2450 
   95.5000    75.0220     6.9960     6.8050     6.2390    24.1540   -11.8900     2.2540 
   95.6250    75.7090     6.6120     6.4800     6.0690    24.5060   -11.7960     2.2620 
   95.7500    75.7100     6.5610     6.3690     6.0610    25.0130   -11.7360     2.2650 
   95.8750    73.7780     6.7980     6.4720     6.3170    25.2560   -11.7040     2.2610 
   96.0000    70.7680     7.2330     6.7440     6.7180    25.2510   -11.6750     2.2500 
   96.1250    68.6240     7.7590     7.1280     6.8320    25.1060   -11.6640     2.2340 
   96.2500    68.0260     8.2560     7.5350     6.9380    25.0140   -11.6770     2.2150 
   96.3750    67.3940     8.6430     7.9020     7.0380    25.0220   -11.7360     2.1990 
   96.5000    64.7440     8.8580     8.1620     7.1590    25.0460   -11.8380     2.1900 
   96.6250    60.1520     8.7920     8.1910     7.4580    24.8250   -11.9430     2.1950 
   96.7500    59.3400     8.4390     7.9480     7.5740    24.6640   -12.0420     2.2140 
   96.8750    63.0570     7.8370     7.4470     7.2430    24.7690   -12.1540     2.2480 
   97.0000    67.0880     7.1240     6.8020     6.7770    24.8660   -12.2390     2.2890 
   97.1250    69.1350     6.5480     6.2170     6.6220    24.9380   -12.2710     2.3260 
   97.2500    71.3380     6.2850     5.8590     6.1150    24.8920   -12.3050     2.3430 
   97.3750    74.4150     6.4070     5.8060     5.8770    24.5420   -12.3310     2.3380 
   97.5000    77.4880     6.8860     6.0590     6.1390    24.0310   -12.3350     2.3160 
   97.6250    77.1840     7.6100     6.5640     6.3100    23.8360   -12.3290     2.2900 
   97.7500    72.5440     8.2900     7.1120     7.0610    23.7970   -12.3190     2.2720 
   97.8750    68.0380     8.6880     7.5240     7.6030    23.8840   -12.3050     2.2640 
   98.0000    69.0970     8.6880     7.6810     7.6280    23.9160   -12.3030     2.2630 
   98.1250    73.5020     8.3400     7.5520     7.1330    23.8650   -12.3170     2.2660 
   98.2500    76.1630     7.9120     7.2880     6.8280    24.0180   -12.3090     2.2660 
   98.3750    77.0120     7.5730     7.0030     6.7850    24.2890   -12.2820     2.2630 
   98.5000    78.2580     7.4180     6.7940     6.8170    24.5950   -12.2410     2.2570 
   98.6250    81.5940     7.4760     6.7470     6.7430    24.9180   -12.2040     2.2540 
   98.7500    85.7640     7.6700     6.8430     6.6090    25.0040   -12.1510     2.2610 
   98.8750    86.0480     7.9490     7.0420     7.2830    25.0300   -12.0670     2.2810 
   99.0000    80.2550     8.2240     7.2710     9.7960    25.0300   -11.9890     2.3140 
   99.1250    73.2590     8.3310     7.3940    12.9060    24.9710   -11.9140     2.3520 
   99.2500    71.1620     8.2280     7.3500    10.8830    24.9440   -11.8420     2.3830 
   99.3750    72.7490     7.9860     7.1690     7.6350    24.9340   -11.7690     2.3960 
   99.5000    74.7200     7.7440     6.9450     6.5270    24.9370   -11.6940     2.3830 
   99.6250    76.7840     7.6470     6.7890     6.7810    24.9510   -11.6020     2.3490 
   99.7500    78.2500     7.7090     6.7450     7.1420    24.9450   -11.5130     2.3070 
   99.8750    78.8690     7.9140     6.8240     7.3360    24.9400   -11.4200     2.2680 
  100.0000    80.1210     8.2620     7.0230     7.2120    24.9990   -11.2720     2.2340 
  100.1250    78.9930     8.8690     7.4170     7.0480    25.0120   -11.1000     2.2050 
  100.2500    73.9720     9.7890     8.0620     7.5410    24.9830   -10.9560     2.1770 
  100.3750    66.8480    10.9630     8.9720     8.9020    24.9300   -10.8580     2.1510 
  100.5000    62.2250    12.1090     9.9940    10.2100    24.9050   -10.8120     2.1300 
  100.6250    62.7670    12.6300    10.6960     9.4520    24.9960   -10.8440     2.1240 
  100.7500    63.7370    12.2490    10.7360     8.7850    25.1140   -10.9150     2.1350 
  100.8750    64.7690    11.0870    10.0810     8.1530    25.2280   -11.0320     2.1640 
  101.0000    67.2920     9.6170     9.0180     7.3490    25.2780   -11.2010     2.2040 
  101.1250    70.4950     8.3810     7.9540     6.7120    25.2850   -11.3870     2.2410 
  101.2500    72.0780     7.5410     7.1140     6.6180    25.2820   -11.5790     2.2640 
  101.3750    72.5630     7.0620     6.5330     6.6050    25.2620   -11.7570     2.2720 
  101.5000    73.3300     6.8390     6.1720     6.4540    25.2020   -11.8650     2.2720 
  101.6250    75.8370     6.7690     5.9730     6.2110    25.1510   -11.8920     2.2720 
  101.7500    78.5040     6.7350     5.8360     6.1420    25.0730   -11.8950     2.2800 
  101.8750    80.3650     6.6930     5.7290     6.4860    25.0600   -11.8650     2.2940 
  102.0000    79.5990     6.6370     5.6580     7.1860    25.1330   -11.7840     2.3100 
  102.1250    77.9310     6.6190     5.6740     6.6080    25.3000   -11.7180     2.3180 
  102.2500    78.8020     6.7430     5.8180     6.2270    25.3430   -11.6890     2.3140 
  102.3750    80.0030     7.1220     6.1380     6.1880    25.1980   -11.6370     2.2990 
  102.5000    77.4740     7.8390     6.6740     6.8050    25.0350   -11.5870     2.2750 
  102.6250    71.6780     8.9290     7.4590     7.7880    24.9410   -11.6040     2.2480 
  102.7500    69.2560    10.1510     8.3670     8.2300    24.7880   -11.6480     2.2240 
  102.8750    70.8360    11.2310     9.2370     8.1350    24.4220   -11.6640     2.2080 
  103.0000    72.2850    11.9260     9.8960     7.9340    24.3980   -11.6900     2.2020 
  103.1250    70.4620    12.1070    10.1970     7.8320    24.4510   -11.7440     2.2090 
  103.2500    67.6630    12.0350    10.2490     7.8470    24.3240   -11.7560     2.2210 
  103.3750    66.2800    11.9430    10.1870     7.9590    24.2000   -11.7360     2.2290 
  103.5000    67.4670    11.9890    10.1460     8.0610    24.2050   -11.6640     2.2290 
  103.6250    70.4340    12.2220    10.2370     8.1080    24.1830   -11.5660     2.2210 
  103.7500    71.4670    12.5010    10.4450     8.1710    24.1690   -11.4580     2.2170 
  103.8750    69.5760    12.6550    10.6780     8.2710    24.1570   -11.3470     2.2190 
