~V
VERS. 2.00: Ver 2.00
~W
STRT.M 59.0000:
STOP.M 248.0000:
STEP.M 0.1250:
NULL. -999.2500:
UWI. F10727:
~C
DEPT.M :
GR.API :
RML.OHMM :
RI. :
RXO.OHMM :
CALI.CM :
SP.MV :
DEN.GM/CC :
~A
# ...
  194.0000    53.1520    19.7300    14.7800    19.5810    22.7000   -16.9740     2.4610 
  194.1250    49.3310    22.8500    18.6750    29.4270    22.6230   -17.3100     2.4740 
  194.2500    48.1040    28.4410    23.3990    32.7840    22.6150   -17.6600     2.4710 
  194.3750    50.7410    34.1510    28.4890    32.5990    22.7290   -18.0570     2.4470 
  194.5000    55.0880    39.3060    33.2920    34.8290    22.9150   -18.3890     2.4030 
  194.6250    57.2210    42.9610    36.9040    40.2470    22.5230   -18.6020     2.3460 
  194.7500    57.0020    44.7430    38.9390    46.6420    22.2160   -18.7420     2.2910 
  194.8750    55.1800    44.3470    39.0860    44.4770    22.2300   -18.7400     2.2490 
  195.0000    53.0840    41.8740    37.3410    35.4080    22.6430   -18.6320     2.2240 
  195.1250    52.6300    37.9880    34.1250    30.0680    23.4420   -18.4630     2.2170 
  195.2500    52.9530    34.1290    30.7210    28.7130    24.0940   -18.2040     2.2210 
  195.3750    51.4940    31.0830    27.9130    24.9210    24.1190   -17.9120     2.2290 
  195.5000    50.4610    29.1340    26.0670    20.7440    23.9920   -17.6230     2.2400 
  195.6250    53.1830    28.2840    25.3090    19.0070    23.9600   -17.3140     2.2520 
  195.7500    57.3580    28.0190    25.2100    18.5550    23.7380   -17.0300     2.2670 
  195.8750    59.8760    28.0340    25.4720    18.3840    23.2600   -16.7830     2.2830 
  196.0000    60.0130    28.1200    25.8590    18.1790    23.1240   -16.5350     2.2970 
  196.1250    58.2380    28.1680    26.2080    18.4080    23.0660   -16.2720     2.3020 
  196.2500    55.1620    28.1500    26.4420    19.1460    23.0550   -16.0210     2.3000 
  196.3750    52.5130    28.0020    26.4940    20.6150    23.1220   -15.7800     2.2990 
  196.5000    51.0290    27.5660    26.2350    23.7720    23.3090   -15.5810     2.3090 
  196.6250    49.8450    26.5390    25.3840    26.7430    23.2600   -15.4270     2.3410 
  196.7500    49.7550    25.0180    23.9920    25.5120    23.2180   -15.3210     2.3890 
  196.8750    51.6660    23.3710    22.3330    21.0240    23.0120   -15.2800     2.4390 
  197.0000    55.5080    22.2000    20.9050    16.6740    22.7730   -15.2620     2.4700 
  197.1250    58.4740    22.4780    20.4760    14.8640    23.0290   -15.3550     2.4630 
  197.2500    58.9300    24.6840    21.4910    15.3110    23.6580   -15.5120     2.4250 
  197.3750    56.5730    29.3340    24.4930    18.4630    24.2400   -15.6730     2.3730 
  197.5000    52.5120    36.8700    30.0790    26.3220    24.8580   -15.8530     2.3240 
  197.6250    48.5600    47.9110    39.2280    36.5860    25.0510   -16.0250     2.2890 
  197.7500    46.2960    61.0640    50.9590    51.0220    25.2190   -16.1690     2.2660 
  197.8750    46.4530    74.2240    63.4730    68.0150    25.3270   -16.2910     2.2520 
  198.0000    48.4010    84.7830    74.2380    85.6950    25.4510   -16.3820     2.2430 
  198.1250    49.3570    90.7120    80.9000    93.0680    25.3780   -16.4250     2.2390 
  198.2500    49.4750    93.4040    84.2370    88.9800    25.3630   -16.4330     2.2410 
  198.3750    50.6020    93.1900    84.7770    78.2830    25.4790   -16.3960     2.2490 
  198.5000    52.9480    88.1430    81.4500    70.7060    25.3820   -16.3440     2.2660 
  198.6250    53.6790    73.8620    70.3110    67.4830    24.9380   -16.3040     2.2950 
  198.7500    54.8550    53.6600    53.1220    62.9570    24.5950   -16.2430     2.3320 
  198.8750    59.2800    34.0420    35.3090    54.5590    24.7580   -16.1670     2.3690 
  199.0000    66.6270    23.7770    21.6150    32.5670    24.7860   -16.0800     2.3980 
  199.1250    74.1810    15.1440    13.7670    18.1390    24.8270   -15.9390     2.4140 
  199.2500    76.3870    10.4140     9.4670    10.3190    24.8540   -15.7830     2.4280 
  199.3750    71.3420     8.0760     7.3420     8.3040    24.8250   -15.6460     2.4470 
  199.5000    63.0630     7.1530     6.5020     7.0170    24.9330   -15.5230     2.4720 
  199.6250    61.1100     7.2010     6.5470     7.0490    25.0690   -15.3980     2.4910 
  199.7500    66.9060     7.7200     7.0180     7.3590    25.0320   -15.3000     2.4940 
  199.8750    75.6920     8.4290     7.6620     7.6360    25.0130   -15.2340     2.4800 
  200.0000    85.1980     9.0920     8.2660     7.7040    25.0010   -15.1800     2.4590 
  200.1250    93.2300     9.5500     8.6820     7.7670    24.8920   -15.1550     2.4420 
  200.2500    96.8190     9.8170     8.9240     7.8440    24.6490   -15.1450     2.4330 
  200.3750    96.2330     9.9210     9.0190     7.8240    24.5120   -15.0900     2.4270 
  200.5000    94.4330     9.9060     9.0050     7.7910    24.4720   -14.9830     2.4210 
  200.6250    93.0560     9.7980     8.9080     7.7040    24.4630   -14.8680     2.4130 
  200.7500    91.5420     9.6310     8.7550     7.6730    24.5030   -14.6980     2.4060 
  200.8750    93.1870     9.4170     8.5610     7.5860    24.6580   -14.5240     2.3990 
  201.0000    99.1340     9.1800     8.3450     7.5480    24.8030   -14.4020     2.3950 
  201.1250   103.1120     8.9420     8.1290     7.5870    24.8540   -14.2960     2.3920 
  201.2500   101.9460     8.7230     7.9300     7.6310    24.9010   -14.2510     2.3900 
  201.3750    97.8300     8.5690     7.7900     7.6330    24.9030   -14.2890     2.3860 
  201.5000    93.0500     8.5650     7.7860     7.6390    24.8520   -14.3940     2.3820 
  201.6250    89.2720     8.8240     8.0220     7.6820    24.9040   -14.6100     2.3810 
  201.7500    87.7740     9.3110     8.4640     8.0510    24.8980   -14.9180     2.3820 
  201.8750    86.3710     9.9420     9.0380     9.6310    24.8600   -15.2950     2.3860 
  202.0000    81.1470    10.5770     9.6150    12.9670    24.5950   -15.7230     2.3890 
  202.1250    76.2000    11.0720    10.0660    14.5440    24.7580   -16.2150     2.3890 
  202.2500    75.8330    11.5320    10.4840    11.5420    24.8350   -16.7720     2.3840 
  202.3750    76.4580    12.2780    11.1620     9.9610    24.8020   -17.3930     2.3760 
  202.5000    72.6510    13.7990    12.5450    11.2590    24.7400   -18.0410     2.3640 
  202.6250    65.8850    17.0150    15.4680    15.0960    24.6110   -18.7010     2.3480 
  202.7500    60.8290    26.1820    20.2950    22.9580    24.6160   -19.3580     2.3280 
  202.8750    57.4300    38.8950    27.1970    32.4640    24.5700   -19.9650     2.3040 
  203.0000    54.0990    49.9550    35.6080    40.5930    24.5090   -20.5600     2.2810 
  203.1250    51.6930    60.4640    43.9860    47.8650    24.3600   -21.1130     2.2620 
  203.2500    50.4820    69.6160    51.2230    52.0750    24.1060   -21.5600     2.2480 
  203.3750    50.2120    78.2220    57.7060    49.9990    24.0400   -21.9290     2.2380 
  203.5000    50.6530    87.5830    64.4880    47.9970    24.2140   -22.2120     2.2330 
  203.6250    50.7790    97.9400    72.0980    54.4360    24.3190   -22.3940     2.2320 
  203.7500    51.1330   106.6980    78.9980    62.9320    24.1440   -22.5140     2.2330 
  203.8750    53.4140   110.2050    82.7080    60.3930    23.7110   -22.5840     2.2340 
  204.0000    57.4650   106.1070    81.2710    52.9580    23.2990   -22.6080     2.2310 
  204.1250    60.1720    95.4810    74.6150    48.1950    23.1190   -22.5660     2.2230 
  204.2500    60.7880    84.2240    66.6500    40.3840    23.0930   -22.4970     2.2130 
  204.3750    60.7300    75.5810    60.0550    32.7760    23.1200   -22.4140     2.2060 
  204.5000    60.1440    70.5080    56.0430    32.7980    23.2480   -22.3250     2.2060 
  204.6250    59.1640    68.7370    54.7950    40.7980    23.6050   -22.2140     2.2110 
  204.7500    58.9630    68.3940    54.9660    51.8420    24.1800   -22.1110     2.2160 
  204.8750    59.7230    68.1760    55.5380    56.9040    24.6560   -22.0080     2.2180 
  205.0000    60.1570    67.0280    55.5540    51.6600    24.7910   -21.8970     2.2180 
  205.1250    58.1610    64.3080    54.2470    41.1150    24.7360   -21.8050     2.2160 
