~V
VERS. 2.00: Ver 2.00
~W
STRT.M 59.0000:
STOP.M 248.0000:
STEP.M 0.1250:
NULL. -999.2500:
UWI. F10727:
~C
DEPT.M :
GR.API :
RML.OHMM :
RI. :
RXO.OHMM :
CALI.CM :
SP.MV :
DEN.GM/CC :
~A
# ...
  137.7500    57.5950    34.7240    30.5750    27.9890    25.8860   -11.6430     2.1340 
  137.8750    53.9460    32.9410    29.5740    27.7320    25.8030   -11.6110     2.1190 
  138.0000    51.2500    29.8960    27.1970    25.9390    25.5220   -11.5690     2.1110 
  138.1250    51.6680    27.1050    24.6700    20.5780    24.8990   -11.5260     2.1110 
  138.2500    52.3240    25.4490    22.8670    15.7990    24.4270   -11.4920     2.1170 
  138.3750    52.6200    25.0910    22.0460    14.6340    24.6340   -11.4860     2.1280 
  138.5000    52.1450    25.8010    22.1600    16.9380    25.0980   -11.5190     2.1410 
  138.6250    50.4310    27.2100    23.0700    20.2470    25.2710   -11.5340     2.1510 
  138.7500    48.7410    28.7120    24.2920    23.5720    25.3540   -11.5640     2.1590 
  138.8750    48.4500    29.9340    25.4630    24.4530    25.6260   -11.6580     2.1620 
  139.0000    49.4710    30.7040    26.3300    21.8920    25.7110   -11.7980     2.1620 
  139.1250    50.9520    31.0540    26.8200    20.5150    25.6210   -11.9620     2.1600 
  139.2500    51.1470    31.2360    27.1250    21.5930    25.5130   -12.1420     2.1570 
  139.3750    48.5200    31.3710    27.3430    22.2270    25.2290   -12.3220     2.1560 
  139.5000    45.9370    31.5750    27.5350    21.3260    25.0960   -12.4800     2.1580 
  139.6250    47.5290    32.0270    27.7990    20.1280    24.9070   -12.6370     2.1600 
  139.7500    51.5140    32.7980    28.2210    19.6360    24.3880   -12.7940     2.1610 
  139.8750    54.5580    33.9120    28.8760    20.1050    23.8170   -12.9140     2.1600 
  140.0000    54.0650    35.2790    29.7850    21.3320    23.7910   -13.0030     2.1560 
  140.1250    51.6310    36.6330    30.8650    22.6680    23.9320   -13.1160     2.1510 
  140.2500    51.2160    37.6410    31.8580    23.5260    23.9640   -13.2220     2.1400 
  140.3750    52.6940    38.0780    32.5300    26.9570    23.9470   -13.2550     2.1240 
  140.5000    51.9410    37.8350    32.6960    34.0230    23.8660   -13.2830     2.1020 
  140.6250    49.4780    36.7880    32.1410    31.5010    24.0000   -13.2930     2.0820 
  140.7500    52.1290    35.1280    30.9760    24.1470    24.1800   -13.2390     2.0680 
  140.8750    57.7340    33.0290    29.3340    20.1430    24.0170   -13.1670     2.0620 
  141.0000    59.4420    30.7920    27.4780    18.5080    23.7750   -13.0430     2.0650 
  141.1250    54.7870    28.8740    25.8030    16.8880    23.5710   -12.8170     2.0740 
  141.2500    50.4630    27.5550    24.5730    14.9480    23.5070   -12.5570     2.0870 
  141.3750    49.5640    26.9490    23.9300    13.8140    23.4870   -12.2470     2.1020 
  141.5000    51.2910    26.9830    23.8750    14.0480    23.5480   -11.8760     2.1200 
  141.6250    52.8120    27.4070    24.2700    15.1370    23.6120   -11.4910     2.1380 
  141.7500    51.6990    27.7010    24.6560    15.6240    23.5780   -11.0810     2.1530 
  141.8750    51.3640    27.5010    24.6510    15.0960    23.4860   -10.6950     2.1630 
  142.0000    55.6100    26.6990    24.0670    14.1400    23.3760   -10.3850     2.1650 
  142.1250    60.4800    25.5940    23.0610    12.7250    23.3010   -10.1600     2.1570 
  142.2500    60.3620    24.8290    22.2180    11.1720    23.2860    -9.9970     2.1420 
  142.3750    55.9490    24.8190    21.9530    10.3230    23.3330    -9.8880     2.1190 
  142.5000    50.9920    25.6260    22.4170    10.7620    23.5370    -9.8100     2.0920 
  142.6250    48.4700    26.9160    23.4820    12.7590    24.0110    -9.7450     2.0680 
  142.7500    48.3190    27.9590    24.5500    15.7550    24.2200    -9.6840     2.0570 
  142.8750    49.5870    28.3300    25.1670    19.1740    24.2390    -9.5860     2.0630 
  143.0000    50.1640    28.0930    25.2160    18.4430    23.9920    -9.4420     2.0910 
  143.1250    49.7770    27.9870    25.1610    15.2390    23.5430    -9.2250     2.1410 
  143.2500    51.4110    28.7690    25.7340    12.8050    23.1880    -9.0020     2.2020 
  143.3750    54.0920    30.5770    27.2800    13.0550    22.7600    -8.8010     2.2650 
  143.5000    55.7620    32.8500    29.5870    16.6520    22.6170    -8.6100     2.3260 
  143.6250    53.6780    34.0810    31.5040    25.0090    22.8480    -8.4430     2.3770 
  143.7500    50.8610    33.0360    31.5450    29.0110    23.0330    -8.3410     2.4100 
  143.8750    51.5820    29.5240    29.0750    22.9630    22.8720    -8.3340     2.4170 
  144.0000    55.6600    24.6830    24.9000    14.2240    22.6760    -8.4130     2.3900 
  144.1250    60.8740    20.3470    20.7330    10.8410    22.5160    -8.5820     2.3330 
  144.2500    63.9340    17.3740    17.6120     9.2970    22.4170    -8.7940     2.2740 
  144.3750    64.9520    15.7120    15.6370     8.5830    22.3870    -9.0420     2.2310 
  144.5000    64.8870    14.9070    14.5180     8.7840    22.4840    -9.3150     2.2120 
  144.6250    63.5650    14.3920    13.8450    10.0030    22.5590    -9.6500     2.2180 
  144.7500    61.8540    13.7620    13.2070    12.0620    22.8030   -10.0410     2.2380 
  144.8750    60.8430    13.0740    12.5610    12.8860    23.5220   -10.4170     2.2700 
  145.0000    63.0270    12.6570    12.0920    10.2630    24.3330   -10.8030     2.3080 
  145.1250    66.4340    13.1240    12.2150     9.0100    24.4550   -11.1920     2.3450 
  145.2500    67.5380    14.7460    13.1760    10.5890    24.2500   -11.5710     2.3770 
  145.3750    65.9510    17.6580    15.1770    16.2840    24.1120   -11.9320     2.4010 
  145.5000    61.2520    21.7190    18.2480    24.3590    24.3600   -12.2720     2.4170 
  145.6250    53.6600    26.3950    22.1400    27.6010    24.5140   -12.5630     2.4220 
  145.7500    46.4020    30.5690    25.8880    28.4790    24.5310   -12.7780     2.4070 
  145.8750    43.8250    33.4080    28.6570    32.7440    24.7330   -12.9700     2.3650 
  146.0000    46.1440    34.6840    30.0990    35.1450    25.3020   -13.1250     2.3020 
  146.1250    49.2220    34.6770    30.3300    31.2010    25.6090   -13.2360     2.2400 
  146.2500    49.4390    34.1170    29.9370    26.8840    25.4010   -13.3380     2.1970 
  146.3750    46.5790    33.2760    29.1280    24.4620    25.2810   -13.4860     2.1760 
  146.5000    42.7400    32.3840    28.1060    23.5150    25.1380   -13.6550     2.1750 
  146.6250    39.3900    31.6650    27.1130    23.4610    25.0270   -13.8340     2.1910 
  146.7500    38.9710    31.1000    26.2390    24.0730    24.9750   -14.0630     2.2180 
  146.8750    42.2280    30.5700    25.4460    23.7680    24.7880   -14.2640     2.2620 
  147.0000    46.6150    29.9340    24.6680    21.5540    24.6250   -14.4470     2.3270 
  147.1250    49.0790    29.0190    23.7990    19.1730    24.5320   -14.6480     2.4130 
  147.2500    49.9130    27.8340    22.7980    16.9970    24.3510   -14.8150     2.5030 
  147.3750    50.3070    26.4610    21.6910    13.1030    24.1220   -14.9690     2.5830 
  147.5000    49.8190    25.0340    20.5690     9.7470    24.0190   -15.0920     2.6390 
  147.6250    47.0590    23.7120    19.5760     8.8590    23.8960   -15.1510     2.6660 
  147.7500    44.1780    22.5770    18.7830     8.6040    23.8730   -15.1890     2.6770 
  147.8750    43.1400    21.6580    18.1930     9.5010    23.8990   -15.1990     2.6820 
  148.0000    43.7290    20.9440    17.7560    10.1420    24.0040   -15.1940     2.6880 
  148.1250    43.8290    20.4130    17.4200     9.7810    23.9900   -15.1880     2.6920 
  148.2500    43.9940    20.0060    17.1430     9.9430    24.1040   -15.1840     2.6940 
  148.3750    44.7350    19.7600    16.9540    10.1630    24.2660   -15.1850     2.6950 
  148.5000    45.0920    19.7830    16.9270     9.5660    24.3220   -15.1680     2.6980 
  148.6250    43.6330    20.2420    17.1760     9.2130    24.3930   -15.1110     2.7010 
  148.7500    41.9420    21.0270    17.6460    10.0650    24.5390   -15.0360     2.7010 
  148.8750    40.5910    21.8820    18.1910    11.8410    24.6170   -14.9660     2.6930 
