~V
VERS. 2.00: Ver 2.00
~W
STRT.M 59.0000:
STOP.M 248.0000:
STEP.M 0.1250:
NULL. -999.2500:
UWI. F10727:
~C
DEPT.M :
GR.API :
RML.OHMM :
RI. :
RXO.OHMM :
CALI.CM :
SP.MV :
DEN.GM/CC :
~A
# ...
   70.2500    64.1790     9.6820     8.1970     7.8600    24.7670   -26.2530     2.1910 
   70.3750    63.3060     9.9500     8.3430     7.8930    24.8390   -26.1550     2.2000 
   70.5000    63.3160    10.2240     8.4820     7.9780    24.7900   -26.0110     2.2040 
   70.6250    64.8930    10.3920     8.5850     8.0540    24.7460   -25.8350     2.1970 
   70.7500    66.3170    10.3930     8.6250     8.0150    24.6010   -25.6500     2.1840 
   70.8750    67.5200    10.2270     8.5860     7.8870    24.4290   -25.4560     2.1670 
   71.0000    69.0530     9.9630     8.4730     7.8430    24.2890   -25.2530     2.1520 
   71.1250    69.7280     9.7180     8.3200     7.9020    24.2670   -25.1090     2.1380 
   71.2500    68.4750     9.5550     8.1780     7.9980    24.2590   -25.0480     2.1270 
   71.3750    65.3680     9.4710     8.0730     8.0270    24.2450   -25.0500     2.1180 
   71.5000    62.8660     9.4340     8.0120     8.0530    24.1870   -25.1290     2.1110 
   71.6250    62.0640     9.4050     7.9880     8.0930    24.1740   -25.2940     2.1060 
   71.7500    60.4600     9.3770     7.9780     8.1700    24.1520   -25.5220     2.0980 
   71.8750    57.8310     9.3600     7.9730     8.1830    24.1060   -25.8100     2.0840 
   72.0000    57.0700     9.3560     7.9640     8.1590    24.1220   -26.1530     2.0640 
   72.1250    59.1350     9.3570     7.9510     8.1940    24.1460   -26.5170     2.0390 
   72.2500    59.4740     9.3530     7.9300     8.3720    24.3110   -26.8690     2.0200 
   72.3750    58.0770     9.3460     7.9040     8.5240    24.4730   -27.2120     2.0120 
   72.5000    57.3110     9.3590     7.8840     8.5840    24.4480   -27.5070     2.0210 
   72.6250    57.4490     9.4260     7.8940     8.5470    24.4740   -27.7460     2.0460 
   72.7500    57.5060     9.5490     7.9370     8.4290    24.5490   -27.9510     2.0740 
   72.8750    56.3740     9.7130     8.0000     8.3240    24.7940   -28.1290     2.0910 
   73.0000    53.9110     9.8690     8.0510     8.2960    25.0850   -28.2500     2.0890 
   73.1250    51.7860     9.8990     8.0380     8.3170    25.5540   -28.3030     2.0680 
   73.2500    51.9030     9.7380     7.9300     8.2700    25.9270   -28.2920     2.0430 
   73.3750    52.0220     9.3810     7.7240     8.1400    26.4580   -28.2160     2.0250 
   73.5000    48.5440     8.9300     7.4610     8.0010    26.9830   -28.0950     2.0210 
   73.6250    44.5830     8.6630     7.2740     7.9030    27.1280   -27.9140     2.0350 
   73.7500    44.4500     8.8500     7.3250     7.7490    27.1580   -27.6860     2.0620 
   73.8750    46.4830     9.6760     7.7790     7.6170    27.0090   -27.4030     2.0980 
   74.0000    47.0120    11.1890     8.7540     8.3420    26.5230   -27.0620     2.1360 
   74.1250    46.9780    13.2480    10.3050    12.9420    25.6310   -26.6730     2.1670 
   74.2500    49.7620    15.1480    12.0020    24.6790    24.6890   -26.2930     2.1850 
   74.3750    52.5450    16.0550    13.1800    35.4060    24.2080   -25.9490     2.1840 
   74.5000    53.1570    15.3910    13.1860    30.0310    24.1500   -25.6270     2.1660 
   74.6250    51.7870    13.3470    11.8820    19.4050    24.4570   -25.3040     2.1310 
   74.7500    50.4690    11.1790    10.2110    12.2520    25.0240   -24.9760     2.0940 
   74.8750    50.3230     9.5540     8.7590     9.3940    25.3020   -24.6980     2.0650 
   75.0000    50.8640     8.6420     7.7620     8.5700    25.3700   -24.4780     2.0510 
   75.1250    51.9580     8.3630     7.2700     8.4970    25.3820   -24.2760     2.0560 
   75.2500    51.6580     8.3450     7.0620     8.4280    25.3810   -24.0890     2.0680 
   75.3750    51.7360     8.3580     6.9910     8.3180    25.2340   -23.9120     2.0810 
   75.5000    53.8410     8.2600     6.9450     8.1540    24.9120   -23.7070     2.0920 
   75.6250    56.0470     8.0130     6.8570     7.9960    24.6720   -23.4350     2.1000 
   75.7500    57.7100     7.7170     6.7240     7.8250    24.6020   -23.1200     2.1110 
   75.8750    59.9520     7.5120     6.5940     7.7190    24.6020   -22.7410     2.1260 
   76.0000    63.5680     7.6020     6.5750     7.6840    24.9170   -22.2830     2.1500 
   76.1250    66.0260     8.3010     6.8970     7.8200    25.2580   -21.6800     2.1870 
   76.2500    65.2710     9.6200     7.6660     7.9700    25.4200   -20.9370     2.2390 
   76.3750    62.2560    11.4100     8.8990     8.4210    25.0830   -20.0830     2.3060 
   76.5000    58.4170    13.2230    10.3840    10.1570    24.7160   -19.1930     2.3860 
   76.6250    57.7990    14.0550    11.4170    14.6250    25.2140   -18.3050     2.4660 
   76.7500    62.2890    13.3770    11.3440    18.0920    26.0700   -17.4500     2.5220 
   76.8750    69.7790    11.4440    10.1320    14.3480    26.6610   -16.6640     2.5390 
   77.0000    75.7800     9.1580     8.3910     8.3520    26.5820   -15.9570     2.5100 
   77.1250    78.7270     7.4160     6.8710     6.5240    25.8570   -15.3600     2.4460 
   77.2500    80.4140     6.3090     5.8200     6.2420    25.5660   -14.8850     2.3790 
   77.3750    80.9680     5.6640     5.1930     6.2480    25.3970   -14.5380     2.3230 
   77.5000    80.8970     5.2800     4.8490     5.9080    25.2960   -14.2950     2.2850 
   77.6250    81.7710     5.0460     4.6590     5.5240    25.2480   -14.1300     2.2660 
   77.7500    84.1630     4.9500     4.5500     5.3130    25.2410   -14.0170     2.2620 
   77.8750    86.5150     5.0770     4.5620     5.1220    25.1440   -13.9400     2.2670 
   78.0000    88.6800     5.4660     4.7510     5.1670    25.0720   -13.8910     2.2790 
   78.1250    86.7610     6.0810     5.1390     5.7830    24.9040   -13.9070     2.2920 
   78.2500    79.8030     6.7270     5.6100     6.9730    24.8630   -13.9660     2.3010 
   78.3750    72.5180     7.2220     6.0380     8.2410    24.8660   -14.0480     2.3040 
   78.5000    69.9280     7.4290     6.3100     8.1820    24.9130   -14.1210     2.2970 
   78.6250    69.9300     7.3290     6.3660     6.8790    24.8960   -14.1990     2.2820 
   78.7500    67.1110     7.1480     6.3200     6.3610    24.7410   -14.2670     2.2610 
   78.8750    63.2320     7.0370     6.2610     6.4890    24.5070   -14.3080     2.2390 
   79.0000    64.8840     7.0510     6.2280     6.7230    24.4190   -14.3270     2.2210 
   79.1250    72.5290     7.1150     6.1950     6.8480    24.4140   -14.2950     2.2150 
   79.2500    78.1950     7.0780     6.1000     6.7390    24.4340   -14.2010     2.2200 
   79.3750    77.9980     6.8700     5.9060     6.5430    24.4860   -14.0670     2.2350 
   79.5000    74.8620     6.5400     5.6300     6.3750    24.6430   -13.9170     2.2530 
   79.6250    75.7570     6.2610     5.3650     6.1380    24.8720   -13.7490     2.2660 
   79.7500    77.1480     6.1580     5.2020     5.8650    24.9850   -13.5710     2.2730 
   79.8750    77.4140     6.2330     5.1690     5.7510    25.0340   -13.3940     2.2750 
   80.0000    77.8520     6.3950     5.2360     6.1000    25.0290   -13.2440     2.2780 
   80.1250    76.5600     6.4900     5.3280     7.4500    25.0000   -13.1320     2.2850 
   80.2500    71.5040     6.4230     5.3500     9.0070    24.9720   -13.0330     2.2990 
   80.3750    65.6410     6.2010     5.2650     8.1420    25.0610   -12.9700     2.3140 
   80.5000    67.5740     5.9520     5.1120     6.2970    25.3090   -12.9740     2.3250 
   80.6250    74.2990     5.9090     5.0120     5.6630    25.3250   -13.0470     2.3270 
   80.7500    74.6270     6.1730     5.0800     5.7400    25.1650   -13.1260     2.3190 
   80.8750    70.1670     6.7590     5.3880     5.9800    24.9120   -13.1770     2.3050 
   81.0000    65.4290     7.5750     5.9420     6.2970    24.5030   -13.1980     2.2910 
   81.1250    64.6820     8.3890     6.6340     7.1720    24.1970   -13.1990     2.2820 
   81.2500    66.2250     8.9050     7.1970     8.2370    24.4220   -13.1910     2.2850 
   81.3750    68.5280     8.9400     7.4080     9.1900    24.7740   -13.1510     2.3000 
