~V
VERS. 2.00: Ver 2.00
~W
STRT.M 10.0000:
STOP.M 237.0000:
STEP.M 0.1250:
NULL. -999.2500:
UWI. F10776:
~C
DEPT.M :
DEN.GM/CC :
GR.API :
RML.OHMM :
RI. :
RXO.OHMM :
CALI.CM :
SP.MV :
~A
# ...
  190.0000     2.1820    44.9980     4.4650     4.3210     3.7570    22.5550   -11.3960 
  190.1250     2.1580    45.3970     4.7310     4.5920     4.1030    22.3600   -11.1880 
  190.2500     2.1280    44.8450     5.0830     4.9860     4.5660    22.6300   -11.1630 
  190.3750     2.1200    43.0200     5.4450     5.4060     5.0940    23.4650   -11.2570 
  190.5000     2.1590    41.5450     5.7850     5.7940     5.7750    25.0250   -11.4310 
  190.6250     2.2470    42.8140     6.0940     6.1130     6.1690    27.0010   -11.6540 
  190.7500     2.3410    45.7420     6.3820     6.3680     6.2200    28.0490   -11.8780 
  190.8750     2.4030    50.0360     6.6500     6.5640     6.3890    28.4210   -12.1020 
  191.0000     2.4210    56.4320     6.9000     6.7030     6.5610    28.5970   -12.3200 
  191.1250     2.4110    61.4730     7.1330     6.7740     6.6130    28.8320   -12.5050 
  191.2500     2.3920    61.6560     7.3500     6.7890     6.6950    28.8640   -12.6570 
  191.3750     2.3940    60.0860     7.5450     6.7590     6.8210    28.4930   -12.8050 
  191.5000     2.4030    61.0570     7.7130     6.7000     7.0100    27.7460   -12.9220 
  191.6250     2.4080    65.0390     7.8790     6.6470     7.3100    27.0780   -13.0080 
  191.7500     2.4040    69.0210     8.1410     6.6680     7.7150    26.6350   -13.0800 
  191.8750     2.3990    73.3170     8.6570     6.8650     8.0570    26.4330   -13.1050 
  192.0000     2.4070    77.0550     9.6370     7.3640     8.3790    26.3340   -13.1030 
  192.1250     2.4340    77.3180    11.4860     8.4200     9.4800    26.2510   -13.0830 
  192.2500     2.4680    75.2180    14.3580    10.1600    12.3740    26.1470   -13.0500 
  192.3750     2.4800    71.7580    17.1030    12.7670    16.9750    26.0810   -12.9810 
  192.5000     2.4530    67.3480    21.4680    16.3520    21.5470    26.1000   -12.8930 
  192.6250     2.4000    61.8050    26.7420    20.8120    26.1390    26.2390   -12.7940 
  192.7500     2.3470    57.3100    31.4100    25.2170    31.5040    26.4060   -12.6820 
  192.8750     2.3140    55.8090    34.4320    28.5500    36.2890    26.4800   -12.5740 
  193.0000     2.3010    57.7320    35.2580    30.0990    37.4770    26.4590   -12.4640 
  193.1250     2.3000    60.2350    33.8140    29.5480    34.1560    26.3970   -12.3320 
  193.2500     2.3020    59.9570    31.1750    27.7260    29.7600    26.3760   -12.1820 
  193.3750     2.2990    59.7820    28.1080    25.2920    27.2100    26.3800   -12.0410 
  193.5000     2.2950    63.1990    25.3520    22.9190    26.7930    26.3800   -11.9190 
  193.6250     2.2980    68.2270    23.7950    21.3550    24.1800    26.3290   -11.8220 
  193.7500     2.3100    71.1370    23.7910    20.9550    19.9890    26.2690   -11.7710 
  193.8750     2.3200    71.1290    25.4570    21.9480    19.2710    26.2450   -11.7530 
  194.0000     2.3140    67.9050    28.4740    24.3000    22.4150    26.2510   -11.7520 
  194.1250     2.2940    62.7860    31.8820    27.5590    29.8620    26.2580   -11.8020 
  194.2500     2.2730    59.8770    34.1420    30.3560    35.9440    26.2310   -11.8970 
  194.3750     2.2670    60.5520    34.2460    31.4700    34.7110    26.1750   -12.0210 
  194.5000     2.2770    60.9070    34.1060    31.5520    33.8290    26.1630   -12.0470 
  194.6250     2.2950    62.9400    30.0640    28.6600    22.7510    26.0860   -12.3320 
  194.7500     2.3080    60.7570    28.1770    26.6470    21.3880    26.0920   -12.5630 
  194.8750     2.2990    57.8300    28.0690    25.8480    22.5550    26.1080   -12.8440 
  195.0000     2.2740    56.5560    30.2020    26.7650    24.3290    26.1360   -13.1830 
  195.1250     2.2470    56.6830    34.9790    29.7860    25.0020    26.2060   -13.5810 
  195.2500     2.2290    55.0930    43.5020    36.0020    26.7010    26.3430   -14.0350 
  195.3750     2.2240    51.7390    55.7450    45.6590    34.5860    26.5570   -14.5290 
  195.5000     2.2270    47.9860    71.7240    58.9180    49.6680    26.7610   -15.0230 
  195.6250     2.2330    45.1300    90.4850    74.9030    63.9250    26.8560   -15.5140 
  195.7500     2.2370    44.6580   108.9160    90.8340    68.0560    26.7630   -15.9760 
  195.8750     2.2340    45.9090   122.9490   103.1270    70.5710    26.6240   -16.4010 
  196.0000     2.2280    47.1500   131.0800   110.2790    73.6980    26.5510   -16.7800 
  196.1250     2.2220    47.4420   135.2000   113.5080    79.3160    26.6860   -17.0990 
  196.2500     2.2170    45.8640   138.5760   115.3790    87.0360    27.0680   -17.3320 
  196.3750     2.2230    43.2490   143.0060   117.8200    92.0310    27.2850   -17.4940 
  196.5000     2.2420    41.5800   148.6610   121.2640    96.9730    27.2310   -17.6200 
  196.6250     2.2630    41.5240   155.4520   125.8260   105.2980    27.0420   -17.7130 
  196.7500     2.2760    41.1070   163.4710   131.7670   115.3900    26.9970   -17.7660 
  196.8750     2.2710    39.3270   172.2670   138.7710   122.6710    27.1310   -17.8010 
  197.0000     2.2540    38.3230   181.0940   146.3530   129.4360    27.2120   -17.8210 
  197.1250     2.2330    39.9700   188.5670   153.5100   135.3070    27.1850   -17.8390 
  197.2500     2.2120    42.7680   192.3550   158.3750   134.4780    27.2240   -17.8570 
  197.3750     2.1940    42.3560   192.1650   160.1810   132.1820    27.2680   -17.8750 
  197.5000     2.1830    40.4300   188.7650   159.0410   130.5500    27.2890   -17.8880 
  197.6250     2.1810    42.7290   183.9180   156.0500   127.2940    27.3080   -17.8860 
  197.7500     2.1910    47.6220   179.8500   152.9690   118.4480    27.3530   -17.8810 
  197.8750     2.2100    48.6240   177.7940   151.2880   106.4640    27.3540   -17.8820 
  198.0000     2.2280    46.0720   177.9500   151.5670    95.6270    27.2510   -17.8970 
  198.1250     2.2380    44.3770   179.7470   153.5950    90.6240    27.0960   -17.9210 
  198.2500     2.2320    45.0800   182.2140   156.6820    91.5300    26.9970   -17.9750 
  198.3750     2.2190    46.0750   184.3910   159.8110    96.6680    26.9470   -18.0630 
  198.5000     2.2100    46.5500   186.0210   162.5660   108.4110    26.9380   -18.1780 
  198.6250     2.2020    45.2210   187.2600   164.9170   129.4220    27.0630   -18.3210 
  198.7500     2.1890    42.1820   188.3650   167.0550   138.0360    27.3330   -18.4690 
  198.8750     2.1740    40.6510   189.2610   169.0180   142.4970    27.5690   -18.6100 
  199.0000     2.1670    40.5500   189.4310   170.4080   156.1970    27.7850   -18.7330 
  199.1250     2.1740    41.3990   188.2550   170.6290   170.9390    27.9950   -18.8440 
  199.2500     2.1900    43.4990   185.2050   169.0180   169.9730    28.1360   -18.9380 
  199.3750     2.2170    45.9140   181.0510   166.1100   152.4390    28.1010   -19.0320 
  199.5000     2.2490    46.1160   176.8180   162.7830   136.2040    27.9030   -19.1170 
  199.6250     2.2710    43.3600   173.6500   160.1980   129.2420    27.6870   -19.1840 
  199.7500     2.2720    40.4800   172.6550   159.6650   127.8790    27.6360   -19.2700 
  199.8750     2.2620    39.6710   173.4000   161.0720   123.7130    27.4840   -19.3930 
  200.0000     2.2560    39.8960   174.9860   163.7510   125.1690    27.1310   -19.5350 
  200.1250     2.2460    41.0720   176.1720   166.5440   143.4830    26.8700   -19.7070 
  200.2500     2.2280    43.8790   175.5620   167.9760   163.1420    26.7930   -19.9000 
  200.3750     2.2160    45.8620   173.0600   167.5870   174.7930    26.7930   -20.0960 
  200.5000     2.2160    45.2670   168.9480   165.4190   167.2530    26.7930   -20.2970 
  200.6250     2.2180    43.3520   163.6300   161.7670   149.4500    26.8000   -20.4980 
  200.7500     2.2140    42.1420   157.2790   156.7500   132.0710    26.8310   -20.6960 
  200.8750     2.2130    42.0630   150.2640   150.7950   120.7960    26.8670   -20.8790 
  201.0000     2.2250    42.6090   142.9100   144.1750   112.0700    26.8490   -21.0520 
  201.1250     2.2420    42.7590   135.8580   137.4460    99.5460    26.7550   -21.2040 
