~V
VERS. 2.00: Ver 2.00
~W
STRT.M 50.0000:
STOP.M 228.0000:
STEP.M 0.1250:
NULL. -999.2500:
UWI. F10779:
~C
DEPT.M :
GR.API :
RML.OHMM :
RI. :
RXO.OHMM :
CALI.CM :
SP.MV :
DEN.GM/CC :
~A
# ...
  140.0000    61.6060    16.4380    13.9920    16.3440    24.5490   -15.7830     2.2020 
  140.1250    58.8280    18.1050    15.3930    20.0270    24.5070   -15.3800     2.1970 
  140.2500    57.3100    19.6240    16.7690    17.3740    24.4960   -14.9880     2.1920 
  140.3750    58.0140    20.6750    17.8460    14.1890    24.4880   -14.6270     2.1840 
  140.5000    61.4140    20.9900    18.3470    13.0160    24.4830   -14.2930     2.1730 
  140.6250    64.4930    20.3850    18.0370    13.4460    24.4970   -13.9970     2.1720 
  140.7500    65.0850    19.2570    17.2150    14.3940    24.5410   -13.7450     2.1840 
  140.8750    66.5270    17.9860    16.1900    14.5720    24.6720   -13.5420     2.2030 
  141.0000    70.4410    16.9700    15.2760    12.1090    24.7210   -13.3530     2.2180 
  141.1250    71.7570    16.7320    14.8830    11.3200    24.6880   -13.1520     2.2170 
  141.2500    67.4820    17.4110    15.1830    13.1030    24.6830   -12.9370     2.2050 
  141.3750    61.5310    18.9920    16.2400    16.1380    24.6840   -12.7210     2.1910 
  141.5000    59.0100    21.2590    17.9630    16.6670    24.7210   -12.4790     2.1860 
  141.6250    60.9470    23.8480    20.1270    19.2200    24.7070   -12.2040     2.1930 
  141.7500    63.5320    26.2830    22.2790    22.4600    24.6690   -11.8460     2.2010 
  141.8750    64.5330    28.3800    24.1820    23.0120    24.6040   -11.4030     2.2020 
  142.0000    63.4530    30.1710    25.8100    19.4790    24.6280   -10.8620     2.1970 
  142.1250    60.4850    31.6530    27.1790    20.9340    24.6880   -10.2300     2.2090 
  142.2500    56.4040    32.6500    28.2000    25.0060    24.5940    -9.5450     2.2480 
  142.3750    51.4790    32.8290    28.6200    28.9200    24.4090    -8.8490     2.2960 
  142.5000    48.4750    31.9960    28.2570    27.1380    24.3640    -8.1570     2.3200 
  142.6250    50.0000    30.2450    27.0980    19.6680    24.5480    -7.5110     2.2930 
  142.7500    52.0890    28.3290    25.6920    16.2700    24.6590    -6.9470     2.2470 
  142.8750    51.8370    26.7940    24.4830    14.9940    24.7200    -6.4790     2.2130 
  143.0000    48.8280    25.8800    23.7250    14.7990    24.7370    -6.1100     2.2060 
  143.1250    46.5880    25.5070    23.4460    14.3090    24.7470    -5.8690     2.2170 
  143.2500    47.5250    25.2610    23.3370    14.5870    24.7950    -5.7330     2.2200 
  143.3750    52.5120    24.9520    23.2060    14.9550    24.9340    -5.6860     2.2090 
  143.5000    57.9650    24.5920    23.0030    13.9300    25.0360    -5.7080     2.1910 
  143.6250    57.7880    24.3610    22.8300    12.7780    25.0830    -5.7730     2.1770 
  143.7500    53.8350    24.3410    22.7820    12.6750    25.2050    -5.8400     2.1710 
  143.8750    50.4050    24.5080    22.8690    13.2210    25.2850    -5.9180     2.1810 
  144.0000    49.9510    24.7790    23.0480    14.0740    25.2990    -5.9830     2.2050 
  144.1250    52.6900    25.0320    23.2290    15.6380    25.2820    -6.0380     2.2380 
  144.2500    56.8830    25.1890    23.3360    17.4990    25.1560    -6.0840     2.2600 
  144.3750    59.8060    25.2900    23.3870    17.5480    24.9350    -6.0910     2.2640 
  144.5000    59.2220    25.4750    23.4920    16.3570    24.7670    -6.1030     2.2520 
  144.6250    57.0100    25.9950    23.8610    15.4910    24.7240    -6.1030     2.2360 
  144.7500    54.8380    27.0010    24.6200    14.9690    24.6760    -6.0850     2.2280 
  144.8750    53.1330    28.6270    25.8900    15.2140    24.6690    -6.0690     2.2250 
  145.0000    52.7040    30.8450    27.6780    16.5070    24.6660    -6.0980     2.2230 
  145.1250    54.2120    33.2520    29.7110    18.4310    24.6530    -6.2270     2.2180 
  145.2500    56.1300    35.0570    31.3300    20.4410    24.6270    -6.4340     2.2100 
  145.3750    56.3740    35.5640    31.9200    22.7400    24.6080    -6.7490     2.2010 
  145.5000    55.6220    34.4050    31.1040    24.4800    24.6460    -7.1470     2.1900 
  145.6250    54.7960    31.7210    28.9260    20.9430    24.8340    -7.6370     2.1890 
  145.7500    54.0990    28.7020    26.3850    16.9220    25.1740    -8.2220     2.2130 
  145.8750    53.8310    26.2000    24.2080    15.0330    25.3100    -8.8290     2.2770 
  146.0000    54.3870    24.7160    22.8340    15.7220    25.0010    -9.4180     2.3850 
  146.1250    56.7940    24.5730    22.5690    19.7760    24.9360    -9.8910     2.5090 
  146.2500    58.9360    25.3580    23.1340    25.3090    24.8830   -10.2060     2.5990 
  146.3750    59.5420    26.6200    24.2130    31.3260    24.9400   -10.3260     2.6330 
  146.5000    58.8830    27.8230    25.3650    35.7980    24.9630   -10.2140     2.6240 
  146.6250    58.5010    28.4560    26.1130    35.2590    24.9070    -9.8330     2.5820 
  146.7500    58.6800    28.5450    26.3730    29.3530    24.7310    -9.2320     2.5140 
  146.8750    58.6360    28.3390    26.2930    20.9580    24.6620    -8.5030     2.4280 
  147.0000    58.8190    28.1920    26.1410    16.4960    24.6030    -7.7300     2.3370 
  147.1250    60.0990    28.4420    26.1960    15.9030    24.5470    -7.0130     2.2590 
  147.2500    59.9260    29.0250    26.4880    17.2290    24.6140    -6.4320     2.2010 
  147.3750    57.1850    29.7180    26.9050    18.4420    24.6570    -6.0000     2.1640 
  147.5000    54.1090    30.2620    27.2790    17.5790    24.6300    -5.7740     2.1460 
  147.6250    54.9800    30.5030    27.4820    16.2310    24.5890    -5.7500     2.1440 
  147.7500    57.6200    30.6340    27.6140    15.8580    24.5220    -5.8790     2.1500 
  147.8750    57.6130    30.8850    27.8320    16.3420    24.4930    -6.1350     2.1560 
  148.0000    54.1500    31.4380    28.2800    17.3780    24.4970    -6.4840     2.1590 
  148.1250    51.5640    32.4810    29.1370    18.1480    24.5540    -6.9440     2.1570 
  148.2500    52.4560    33.9980    30.4100    19.4510    24.5890    -7.4650     2.1520 
  148.3750    54.3230    35.9640    32.0740    21.0600    24.6210    -8.0650     2.1490 
  148.5000    53.5950    38.2420    34.0020    21.6370    24.6660    -8.7170     2.1560 
  148.6250    51.3660    40.5170    35.9290    21.8470    24.6660    -9.4520     2.1890 
  148.7500    49.9530    42.3940    37.5320    24.9140    24.5740   -10.2500     2.2420 
  148.8750    49.7180    43.5630    38.5590    30.7360    24.5870   -11.0450     2.3010 
  149.0000    49.9420    43.7260    38.7570    33.1810    24.8050   -11.8200     2.3500 
  149.1250    48.4630    42.1770    37.4940    34.5910    25.0530   -12.5170     2.3900 
  149.2500    47.4390    38.9050    34.7030    33.6830    25.0500   -13.1130     2.4280 
  149.3750    49.2470    34.4170    30.8320    31.9200    24.9070   -13.5740     2.4580 
  149.5000    53.3730    29.8480    26.9000    27.0570    24.7240   -13.8830     2.4610 
  149.6250    56.0830    26.7740    24.2200    21.2550    24.7680   -14.0290     2.4260 
  149.7500    56.7360    26.0010    23.3710    16.4890    24.8460   -14.0720     2.3850 
  149.8750    56.2640    28.1130    24.8730    16.8050    24.8460   -14.0600     2.3720 
  150.0000    53.8130    33.3240    29.1760    26.8590    24.8530   -14.0070     2.4030 
  150.1250    49.0030    41.2920    36.6200    46.2610    24.8580   -13.9470     2.4660 
  150.2500    45.5040    49.2770    45.0290    49.7030    24.8620   -13.9120     2.5170 
  150.3750    44.3010    54.1190    51.2430    48.1800    24.8660   -13.8960     2.5340 
  150.5000    43.9110    53.6770    52.4700    44.3410    24.8670   -13.8990     2.5160 
  150.6250    43.3230    48.1410    48.0430    37.0370    24.8650   -13.9030     2.4830 
  150.7500    45.6370    40.8410    41.2250    26.5710    24.8570   -13.8880     2.4600 
  150.8750    51.9290    33.3060    33.8230    18.9660    24.8470   -13.8770     2.4520 
  151.0000    58.9840    26.1640    26.7570    17.0320    24.8330   -13.8490     2.4500 
  151.1250    64.3500    20.0910    20.7980    16.2530    24.7270   -13.8170     2.4350 
