~V
VERS. 2.00: Ver 2.00
~W
STRT.M 60.0000:
STOP.M 239.0000:
STEP.M 0.1250:
NULL. -999.2500:
UWI. F10775:
~C
DEPT.M :
DEN.GM/CC :
SP.MV :
GR.API :
RML.OHMM :
RI. :
RXO.OHMM :
CALI.CM :
~A
# ...
  127.5000     2.2670    -1.2530    36.2340    33.9470    35.7480    48.4920    29.5140 
  127.6250     2.2850    -1.1750    36.6040    30.9770    32.8420    38.3940    29.0700 
  127.7500     2.2960    -1.1500    40.6860    27.5660    29.2860    29.2740    28.6750 
  127.8750     2.2990    -1.2090    44.5410    24.1080    25.4720    24.0480    28.6290 
  128.0000     2.2980    -1.3520    46.1550    21.0000    21.8870    21.6880    28.7000 
  128.1250     2.2970    -1.5360    46.3010    18.7860    19.1550    16.9240    28.6540 
  128.2500     2.2990    -1.7540    47.1090    17.6730    17.4500    14.1300    28.3480 
  128.3750     2.3050    -2.0190    48.1660    17.8610    16.9040    11.3640    27.9190 
  128.5000     2.3090    -2.3480    46.7810    19.4200    17.6130    11.5970    27.8330 
  128.6250     2.3040    -2.7690    43.0450    22.3770    19.8140    16.3150    28.3580 
  128.7500     2.2850    -3.1240    40.7370    26.0140    23.0810    21.8100    28.7830 
  128.8750     2.2530    -3.4180    40.6270    29.5980    26.8490    24.2680    28.9730 
  129.0000     2.2140    -3.6310    40.3240    32.3520    30.2010    24.4960    28.9800 
  129.1250     2.1810    -3.7680    38.9970    33.5550    31.9880    24.0110    28.8930 
  129.2500     2.1680    -3.9520    39.2870    33.5710    32.3470    24.3310    28.8160 
  129.3750     2.1730    -4.0790    41.5280    32.9420    31.8760    24.2510    28.7730 
  129.5000     2.1890    -4.1540    43.5480    32.2260    31.2050    23.0160    28.7280 
  129.6250     2.1980    -4.1630    43.8980    31.8220    30.7770    22.3780    28.6840 
  129.7500     2.1910    -4.1320    43.6660    31.6900    30.6730    21.8230    28.6620 
  129.8750     2.1700    -4.1380    44.5690    31.5790    30.7400    21.0930    28.6440 
  130.0000     2.1430    -4.1480    45.5030    31.1040    30.5940    21.1370    28.6030 
  130.1250     2.1220    -4.2160    44.0570    29.7320    29.5960    21.9370    28.5370 
  130.2500     2.1130    -4.2470    42.2590    27.4490    27.5710    22.2140    28.4290 
  130.3750     2.1170    -4.2320    42.2630    24.4600    24.6570    20.5420    28.2980 
  130.5000     2.1340    -4.2850    44.3760    21.1960    21.3140    16.6010    28.1460 
  130.6250     2.1650    -4.4390    46.2710    18.2380    18.1860    12.4040    27.9310 
  130.7500     2.2030    -4.6920    47.8700    15.9300    15.6470     9.3690    27.8090 
  130.8750     2.2390    -5.0820    49.3480    14.4390    13.8400     8.4420    27.8390 
  131.0000     2.2610    -5.6110    48.8070    13.8330    12.8120     8.3420    27.9070 
  131.1250     2.2530    -6.3340    46.6580    14.2950    12.7080     8.6350    27.8640 
  131.2500     2.2180    -7.2420    46.3280    15.6850    13.4220     9.1260    27.5820 
  131.3750     2.1650    -8.3360    47.3160    17.9640    14.9940    10.1230    27.0760 
  131.5000     2.1140    -9.5390    46.0290    20.9790    17.4180    12.3930    26.6670 
  131.6250     2.0860   -10.7160    40.6980    24.3950    20.5710    15.2710    26.5360 
  131.7500     2.0850   -11.9270    36.7460    27.6010    23.8120    17.2090    26.5180 
  131.8750     2.1040   -13.0530    35.8930    30.1340    26.5280    17.6540    26.4990 
  132.0000     2.1280   -14.0900    36.4920    31.7450    28.2640    17.3060    26.4650 
  132.1250     2.1460   -14.9770    36.9800    32.3880    28.8230    16.5060    26.4130 
  132.2500     2.1580   -15.6740    36.7910    32.5600    28.7540    15.6530    26.3230 
  132.3750     2.1680   -16.2600    36.5660    32.6110    28.4560    15.9680    26.2070 
  132.5000     2.1800   -16.6610    36.5560    32.8000    28.2130    16.9850    26.0740 
  132.6250     2.1920   -16.9350    36.2310    33.3270    28.2550    17.6270    25.9640 
  132.7500     2.2000   -17.0940    36.9290    34.1910    28.6390    17.6520    25.8690 
  132.8750     2.2030   -17.1260    38.0800    35.3440    29.3830    17.7840    25.8220 
  133.0000     2.2060   -17.0720    39.5550    36.6240    30.4340    18.0900    25.8100 
  133.1250     2.2200   -16.8320    40.3470    37.6000    31.5810    18.3930    25.8120 
  133.2500     2.2520   -16.4930    39.6360    37.7420    32.3490    18.4380    25.8330 
  133.3750     2.2980   -15.9390    38.8960    36.5620    32.1680    18.0660    25.9160 
  133.5000     2.3490   -15.1610    38.8440    33.8550    30.5670    17.6020    26.0620 
  133.6250     2.3920   -14.3050    39.7460    29.7960    27.3810    17.2890    26.1890 
  133.7500     2.4230   -13.3710    40.3260    25.4200    23.5950    16.0370    26.2550 
  133.8750     2.4350   -12.4420    42.9540    21.5060    20.0410    13.5270    26.4730 
  134.0000     2.4180   -11.6060    49.0910    18.5680    17.2650    11.4190    26.8460 
  134.1250     2.3640   -10.9660    54.1830    16.9380    15.6050    11.2790    26.9940 
  134.2500     2.2880   -10.5320    54.8440    16.2540    14.8040    11.3760    26.7890 
  134.3750     2.2140   -10.3970    52.3570    16.2240    14.6680    10.8140    26.3510 
  134.5000     2.1640   -10.5160    50.2040    16.5230    14.9530    10.2400    25.9230 
  134.6250     2.1530   -10.7920    48.6970    16.8520    15.3760    10.0420    25.7170 
  134.7500     2.1610   -11.1640    47.0250    17.0540    15.6920    10.0560    25.5960 
  134.8750     2.1730   -11.5730    45.0590    17.1710    15.8690    10.0160    25.5050 
  135.0000     2.1790   -11.9110    43.8660    17.3560    16.0260     9.7620    25.4330 
  135.1250     2.1780   -12.1070    44.2360    17.8540    16.3910     9.4790    25.3910 
  135.2500     2.1730   -12.1720    44.4990    18.7250    17.0660     9.6140    25.3300 
  135.3750     2.1710   -12.0040    44.0170    19.9230    18.0610    10.5440    25.2350 
  135.5000     2.1740   -11.7120    43.2480    21.2800    19.2760    12.3300    25.1410 
  135.6250     2.1900   -11.2480    43.5450    22.4830    20.4510    13.9060    25.1260 
  135.7500     2.2150   -10.6720    45.9350    23.2660    21.2940    14.4860    25.1710 
  135.8750     2.2470   -10.0260    49.5530    23.4560    21.6170    14.4150    25.2190 
  136.0000     2.2860    -9.2090    51.6100    22.9960    21.3260    14.4350    25.2090 
  136.1250     2.3300    -8.2880    50.1600    21.9330    20.3640    14.3100    25.2420 
  136.2500     2.3720    -7.2540    49.0310    20.7200    19.1040    13.0560    25.4200 
  136.3750     2.3960    -6.1970    50.5500    19.8440    17.9960    11.5310    25.7920 
  136.5000     2.3930    -5.2370    53.5960    19.8140    17.5240    11.4300    26.3310 
  136.6250     2.3670    -4.4090    55.1030    21.2170    18.3260    12.8980    26.6970 
  136.7500     2.3450    -3.7310    55.2850    23.7630    20.4970    16.4020    26.7210 
  136.8750     2.3420    -3.1500    55.6900    26.7610    23.8580    28.4210    26.6190 
  137.0000     2.3560    -2.7100    55.7310    29.0070    27.4370    45.2750    26.4640 
  137.1250     2.3650    -2.4090    54.3350    28.8510    28.8870    38.7160    26.0810 
  137.2500     2.3530    -2.1370    51.5970    26.3980    27.3000    26.0600    25.8570 
  137.3750     2.3220    -1.9250    51.0820    22.6040    23.6720    19.6770    25.9550 
  137.5000     2.2850    -1.7380    54.7730    18.8030    19.7810    15.1420    26.2090 
  137.6250     2.2570    -1.5640    60.6290    16.0670    16.9140    11.4900    26.3200 
  137.7500     2.2450    -1.4080    64.4120    14.2700    14.9700    12.3100    26.2550 
  137.8750     2.2540    -1.2480    63.7190    13.0280    13.5510    15.3670    26.0780 
  138.0000     2.2830    -1.1100    61.2730    12.0180    12.3070    17.3850    26.0820 
  138.1250     2.3210    -1.0690    63.4710    11.2440    11.1870    11.6520    26.3580 
  138.2500     2.3440    -1.1910    67.3640    10.9780    10.4250     7.8210    26.6930 
  138.3750     2.3340    -1.5170    67.0280    11.6520    10.3400     6.7580    26.8410 
  138.5000     2.2890    -1.9560    61.1630    13.7370    11.2950     8.3010    26.7960 
  138.6250     2.2220    -2.5090    55.4750    17.9940    14.1140    13.2280    26.4760 
