~V
VERS. 2.00: Ver 2.00
~W
STRT.M 50.0000:
STOP.M 229.0000:
STEP.M 0.1250:
NULL. -999.2500:
UWI. F10777:
~C
DEPT.M :
DEN.GM/CC :
GR.API :
RML.OHMM :
RI. :
RXO.OHMM :
CALI.CM :
SP.MV :
~A
# ...
  140.0000     2.2230    62.7500    23.7110    18.5180    19.3620    24.5810   -19.8760 
  140.1250     2.1990    59.3170    23.8090    18.6000    19.6940    24.6590   -19.6300 
  140.2500     2.1720    53.0090    24.1690    18.8710    20.9390    24.7400   -19.3330 
  140.3750     2.1490    50.8940    24.7280    19.3060    21.9870    24.7990   -18.9680 
  140.5000     2.1360    54.3550    25.2960    19.7850    20.6470    24.7580   -18.5230 
  140.6250     2.1460    57.5540    25.6290    20.1250    18.7510    24.6380   -17.9820 
  140.7500     2.1900    57.2900    25.7200    20.2750    16.6880    24.5330   -17.3690 
  140.8750     2.2480    55.1450    25.7090    20.3140    15.6680    24.4820   -16.7060 
  141.0000     2.2910    52.3370    25.7690    20.3650    16.8000    24.4730   -16.0270 
  141.1250     2.2970    50.6320    25.9620    20.4920    16.2450    24.5200   -15.3840 
  141.2500     2.2680    52.9470    26.1260    20.6110    15.7120    24.5570   -14.8210 
  141.3750     2.2340    58.7330    26.0980    20.6120    15.6100    24.5640   -14.3760 
  141.5000     2.2100    62.7210    25.8380    20.4540    15.5340    24.5240   -14.0810 
  141.6250     2.1960    61.6610    25.5710    20.2560    15.3180    24.5350   -13.9880 
  141.7500     2.1820    58.6740    25.7080    20.2990    15.1030    24.6070   -14.0610 
  141.8750     2.1700    56.2650    26.5420    20.8110    15.6430    24.7020   -14.2630 
  142.0000     2.1690    55.6630    28.1090    21.8730    17.8290    24.7920   -14.5250 
  142.1250     2.1830    55.6650    30.0800    23.3450    22.5540    24.8700   -14.7510 
  142.2500     2.1980    55.1650    31.6510    24.6630    26.8860    24.9130   -14.8580 
  142.3750     2.2000    55.0490    32.1360    25.2630    28.1400    24.8780   -14.8000 
  142.5000     2.1850    55.7310    31.2420    24.8150    26.3090    24.7680   -14.5700 
  142.6250     2.1610    55.4320    29.2060    23.3880    20.4060    24.6640   -14.1880 
  142.7500     2.1470    53.6620    27.0150    21.7180    17.1710    24.6350   -13.7520 
  142.8750     2.1560    53.6890    25.3410    20.3270    15.5100    24.6410   -13.3270 
  143.0000     2.1880    57.3610    24.6210    19.5750    15.2940    24.6720   -12.9510 
  143.1250     2.2300    62.7050    25.2490    19.8000    16.7090    24.6910   -12.6260 
  143.2500     2.2570    66.5000    26.9700    20.8810    18.9570    24.6870   -12.3030 
  143.3750     2.2580    66.1870    29.5190    22.6840    21.4210    24.6670   -11.9360 
  143.5000     2.2380    61.8190    32.4150    24.9200    24.2930    24.6200   -11.4980 
  143.6250     2.2120    56.6040    34.8060    27.0170    25.8610    24.5140   -10.9990 
  143.7500     2.1940    54.3510    35.9960    28.3500    22.6770    24.3890   -10.5150 
  143.8750     2.1890    56.2000    35.6180    28.5100    18.9300    24.3060   -10.1110 
  144.0000     2.1930    58.4030    33.7590    27.4320    17.0770    24.2590    -9.8320 
  144.1250     2.2020    56.9730    30.9130    25.3980    17.3510    24.3060    -9.7030 
  144.2500     2.2100    54.3390    28.0590    23.2080    18.5510    24.4200    -9.6850 
  144.3750     2.2150    53.9590    25.7860    21.3650    17.9170    24.4610    -9.7690 
  144.5000     2.2140    56.5020    24.4300    20.1630    15.4820    24.3900    -9.9590 
  144.6250     2.2060    59.5310    24.2740    19.8520    13.8670    24.3160   -10.2590 
  144.7500     2.1930    60.7800    24.9800    20.2430    14.5110    24.2910   -10.5940 
  144.8750     2.1790    59.2970    26.1310    21.0980    16.1470    24.2730   -10.8740 
  145.0000     2.1660    56.2200    27.1580    22.0300    17.6680    24.2670   -11.0220 
  145.1250     2.1560    55.0220    27.4280    22.5290    16.2840    24.3270   -10.9880 
  145.2500     2.1500    56.1450    27.0050    22.5100    15.0280    24.4310   -10.8350 
  145.3750     2.1490    58.3440    26.2960    22.1990    14.5840    24.4630   -10.6180 
  145.5000     2.1520    60.4280    25.8140    21.9650    14.4930    24.3810   -10.3740 
  145.6250     2.1590    59.5660    25.9700    22.1470    14.8680    24.2320   -10.1050 
  145.7500     2.1710    56.2460    26.6040    22.6980    15.4190    24.2050    -9.8070 
  145.8750     2.1820    54.3340    27.4140    23.4320    15.5640    24.2920    -9.4930 
  146.0000     2.1870    54.3140    28.0100    24.0570    15.7990    24.3550    -9.2000 
  146.1250     2.1880    55.8420    27.8820    24.1510    15.8110    24.2480    -9.0070 
  146.2500     2.1910    59.5650    26.9340    23.5740    16.0490    24.0940    -8.9680 
  146.3750     2.2000    64.0940    25.2940    22.3740    18.1710    23.9970    -9.1290 
  146.5000     2.2200    65.0970    23.3480    20.8270    21.6940    24.0280    -9.5010 
  146.6250     2.2430    61.6520    21.6920    19.3900    23.4100    24.1790   -10.0650 
  146.7500     2.2580    59.2990    20.7410    18.4340    18.4800    24.3330   -10.6920 
  146.8750     2.2560    59.4810    20.7330    18.1720    15.6410    24.4350   -11.2780 
  147.0000     2.2370    58.8570    21.7300    18.7010    14.9760    24.4440   -11.7300 
  147.1250     2.2110    56.9980    23.6520    20.0540    15.6530    24.3940   -11.9640 
  147.2500     2.1960    55.8480    25.8200    21.7650    17.0050    24.3720   -12.0190 
  147.3750     2.1940    54.4280    27.5490    23.2920    19.2490    24.4000   -11.9560 
  147.5000     2.2010    52.0480    28.2700    24.0920    20.3340    24.4430   -11.8750 
  147.6250     2.2060    50.8230    27.8950    23.9320    17.6740    24.4490   -11.9320 
  147.7500     2.2050    51.9180    27.4650    23.5420    16.1710    24.4150   -12.2310 
  147.8750     2.2130    52.4370    27.9850    23.6750    16.0950    24.3840   -12.8170 
  148.0000     2.2520    51.8190    30.2390    24.9570    18.4340    24.3920   -13.6600 
  148.1250     2.3360    54.4900    34.9690    28.0770    29.1270    24.4840   -14.6900 
  148.2500     2.4650    57.4210    41.4550    32.7210    54.4050    24.5900   -15.7620 
  148.3750     2.5910    55.5860    48.4650    38.1290    89.8360    24.6840   -16.7860 
  148.5000     2.6660    50.5360    54.0520    42.8450   101.5510    24.7310   -17.6940 
  148.6250     2.6760    49.6810    55.8160    44.8510    77.5830    24.7440   -18.4040 
  148.7500     2.6380    50.1050    54.4360    44.3080    39.4430    24.7390   -18.9240 
  148.8750     2.5900    46.4470    51.7580    42.4610    33.2020    24.7050   -19.2770 
  149.0000     2.5500    41.7470    49.7830    40.8750    29.3780    24.6500   -19.5120 
  149.1250     2.5330    43.9530    49.8810    40.7940    29.9270    24.5190   -19.6740 
  149.2500     2.5460    49.8960    51.4420    41.9850    29.2310    24.3270   -19.7990 
  149.3750     2.5820    51.2290    53.2220    43.6060    32.9610    24.2170   -19.8870 
  149.5000     2.6260    47.1230    53.4670    44.2680    38.6720    24.2880   -19.9260 
  149.6250     2.6570    43.7770    50.1090    42.1200    42.9390    24.4940   -19.9160 
  149.7500     2.6550    44.9350    43.8530    37.4260    38.6970    24.6560   -19.8840 
  149.8750     2.6240    48.5030    36.4270    31.4940    26.3060    24.7350   -19.8550 
  150.0000     2.5820    51.7510    29.8040    25.9850    16.1210    24.7470   -19.8460 
  150.1250     2.5470    54.6280    25.6080    22.2830    13.7910    24.7890   -19.8830 
  150.2500     2.5310    56.0240    23.7710    20.3930    16.3200    24.7950   -19.9730 
  150.3750     2.5310    54.8770    24.1900    20.2440    17.0540    24.7990   -20.1180 
  150.5000     2.5400    51.2010    26.7410    21.7940    19.1850    24.8100   -20.3020 
  150.6250     2.5540    48.5500    31.4670    25.2540    21.2200    24.8130   -20.5060 
  150.7500     2.5700    48.7880    37.4590    30.0270    20.9180    24.8070   -20.6980 
  150.8750     2.5890    49.5630    43.8140    35.4320    25.9300    24.8130   -20.8580 
  151.0000     2.6140    47.8910    49.3420    40.4140    39.8030    24.8230   -20.9870 
  151.1250     2.6490    43.6150    52.3260    43.3470    56.3040    24.8050   -21.1000 
