~V
VERS. 2.00: Ver 2.00
~W
STRT.M 10.0000:
STOP.M 237.0000:
STEP.M 0.1250:
NULL. -999.2500:
UWI. F10776:
~C
DEPT.M :
DEN.GM/CC :
GR.API :
RML.OHMM :
RI. :
RXO.OHMM :
CALI.CM :
SP.MV :
~A
# ...
  201.2500     2.2440    42.7470   130.3460   131.7210    85.7360    26.6910   -21.3390 
  201.3750     2.2220    42.8730   127.1080   127.8490    78.8640    26.6800   -21.4440 
  201.5000     2.2010    42.9280   126.6950   126.4850    78.9280    26.7010   -21.5220 
  201.6250     2.1940    42.6530   129.3100   127.9610    81.5230    26.7180   -21.5740 
  201.7500     2.2020    43.4200   135.2600   132.6350    84.6010    26.7460   -21.5950 
  201.8750     2.2120    44.7520   143.8500   139.7350    89.7930    26.8040   -21.5920 
  202.0000     2.2180    44.6600   155.2720   149.2990    98.0870    26.8710   -21.5700 
  202.1250     2.2250    44.3440   170.0590   161.7900   110.7990    26.9050   -21.5300 
  202.2500     2.2350    45.9800   189.2150   178.1900   121.3700    26.9100   -21.4590 
  202.3750     2.2320    47.4800   211.5210   197.5300   128.8870    26.9340   -21.3610 
  202.5000     2.2040    46.7380   235.1750   218.4020   143.3950    26.9770   -21.2490 
  202.6250     2.1690    43.2320   257.2310   238.4810   177.7670    27.0330   -21.1370 
  202.7500     2.1530    38.6800   273.1420   254.0310   193.5420    27.1700   -20.9790 
  202.8750     2.1700    35.3080   281.8820   263.6720   209.6780    27.4930   -20.7760 
  203.0000     2.2100    35.9170   284.2620   267.5450   212.5870    27.7180   -20.5310 
  203.1250     2.2640    38.9370   282.4490   267.2090   204.7120    27.5520   -20.2500 
  203.2500     2.3190    40.3680   278.4700   264.5180   196.1940    27.1550   -19.9430 
  203.3750     2.3410    39.1760   273.5020   261.0240   192.0260    26.8480   -19.6540 
  203.5000     2.3170    37.1600   266.8580   256.3680   188.0230    26.8650   -19.3650 
  203.6250     2.2740    36.5420   257.4490   249.4050   184.6050    26.9800   -19.0700 
  203.7500     2.2460    38.2380   244.6750   238.9620   169.3270    26.9750   -18.7760 
  203.8750     2.2490    40.8020   230.6440   226.4720   154.4600    26.8320   -18.4620 
  204.0000     2.2620    41.8610   217.7570   213.9800   148.1300    26.6340   -18.1560 
  204.1250     2.2730    40.5070   208.4450   203.8840   148.2100    26.4910   -17.8470 
  204.2500     2.2870    37.6050   205.9210   199.5150   132.0490    26.3930   -17.5420 
  204.3750     2.2990    34.9230   210.5030   201.7520   126.0410    26.3190   -17.2140 
  204.5000     2.2920    34.5660   222.1970   210.9590   134.6300    26.3470   -16.8740 
  204.6250     2.2640    37.9470   239.7630   226.1920   156.2430    26.4750   -16.5390 
  204.7500     2.2360    41.3660   260.3430   244.9390   165.0990    26.5620   -16.2360 
  204.8750     2.2230    40.1880   278.9070   262.2490   156.9610    26.5810   -15.9670 
  205.0000     2.2150    36.9670   292.0020   274.5710   146.4020    26.5580   -15.7120 
  205.1250     2.1980    36.7970   298.3060   280.2920   144.4030    26.5390   -15.4750 
  205.2500     2.1720    39.4910   297.5800   279.0850   152.9390    26.5330   -15.2390 
  205.3750     2.1520    40.0560   291.8030   273.1810   173.9780    26.5470   -15.0010 
  205.5000     2.1480    38.1030   281.6000   263.3430   202.5100    26.6230   -14.7620 
  205.6250     2.1570    36.7160   268.1340   250.6330   243.3350    26.8010   -14.5020 
  205.7500     2.1730    37.2160   252.8860   236.5120   242.8630    27.0000   -14.1920 
  205.8750     2.1980    38.2220   237.1460   222.2550   189.5380    27.0620   -13.8450 
  206.0000     2.2360    40.6530   221.1560   208.1060   141.7100    26.9290   -13.4890 
  206.1250     2.2820    43.8700   205.0120   194.1270   116.4890    26.5000   -13.1520 
  206.2500     2.3190    44.2040   188.7700   180.3350   106.6360    25.7200   -12.8050 
  206.3750     2.3110    41.2310   173.8190   166.4300   102.2300    25.3280   -12.4360 
  206.5000     2.2730    37.9690   162.2250   151.9440    97.1460    25.4570   -12.1000 
  206.6250     2.2490    37.0260   143.9800   136.3990   105.4040    25.8090   -11.7880 
  206.7500     2.2780    38.9390   129.3230   119.5790    87.2820    25.9710   -11.5090 
  206.8750     2.3560    42.9460   108.4600   102.6470    61.6630    25.9060   -11.3050 
  207.0000     2.4160    47.9040    91.0480    86.9880    51.1120    25.7760   -11.1150 
  207.1250     2.4150    50.9520    76.7190    73.7030    48.1140    25.7930   -10.9140 
  207.2500     2.3670    50.6980    66.3680    63.7910    42.0790    26.1030   -10.7160 
  207.3750     2.3360    49.6950    59.1320    56.6680    34.0460    26.6100   -10.5400 
  207.5000     2.3560    49.7560    54.4150    51.8880    30.9220    27.0560   -10.3230 
  207.6250     2.3950    49.4130    51.5650    48.8880    33.5910    27.2690   -10.0940 
  207.7500     2.4060    47.0180    50.2330    47.3260    36.3500    27.1230    -9.8600 
  207.8750     2.3820    44.1300    49.8640    46.6520    34.9430    27.0450    -9.5890 
  208.0000     2.3590    42.0990    50.2750    46.6840    33.0730    26.8810    -9.3000 
  208.1250     2.3560    41.7270    51.2600    47.2410    35.3940    26.5070    -9.0050 
  208.2500     2.3800    42.4260    52.5180    48.0470    40.1850    26.0860    -8.7040 
  208.3750     2.4250    44.0190    53.7050    48.7600    46.2670    25.9240    -8.4120 
  208.5000     2.4610    45.9860    54.7790    49.3020    49.7100    25.8790    -8.1380 
  208.6250     2.4770    47.9530    55.9490    49.8320    48.2450    25.8490    -7.8920 
  208.7500     2.4810    49.3220    57.6340    50.7240    38.7540    25.7640    -7.6520 
  208.8750     2.5020    49.1430    59.8570    52.1060    31.7060    25.6260    -7.4240 
  209.0000     2.5470    49.0800    62.2150    53.7540    31.7920    25.4600    -7.2010 
  209.1250     2.6000    49.4170    63.9160    55.0560    41.6860    25.3080    -6.9750 
  209.2500     2.6370    49.8930    63.9290    55.0850    52.3910    25.2650    -6.7790 
  209.3750     2.6410    51.0570    62.5060    53.8720    55.1940    25.2630    -6.5860 
  209.5000     2.6270    51.9840    60.3610    51.9200    53.6060    25.2670    -6.3930 
  209.6250     2.6040    51.4580    58.2900    49.9050    49.7980    25.2790    -6.1980 
  209.7500     2.5720    50.2540    56.7910    48.3520    42.5440    25.3460    -6.0380 
  209.8750     2.5330    51.7780    55.5960    47.1580    40.2630    25.4150    -5.8850 
  210.0000     2.4980    52.5160    54.3050    46.0060    42.9850    25.4640    -5.7870 
  210.1250     2.4730    48.4190    52.6960    44.6360    47.4140    25.4900    -5.7130 
  210.2500     2.4580    44.4120    50.9310    43.0750    45.2300    25.4870    -5.6720 
  210.3750     2.4510    44.9580    49.4260    41.6370    37.5780    25.5310    -5.6420 
  210.5000     2.4560    47.8490    48.4020    40.5290    33.3570    25.5620    -5.6580 
  210.6250     2.4800    49.9440    47.8620    39.8040    32.8170    25.5100    -5.6870 
  210.7500     2.5150    52.5930    47.6030    39.3780    41.4910    25.4160    -5.7500 
  210.8750     2.5330    54.7040    47.1960    38.9290    42.0460    25.3870    -5.8720 
  211.0000     2.5260    54.1010    46.3620    38.2130    30.2590    25.3820    -5.9940 
  211.1250     2.5150    52.2500    45.0490    37.1480    22.3820    25.3380    -6.1610 
  211.2500     2.5210    50.0540    43.4440    35.8690    26.4790    25.3200    -6.3790 
  211.3750     2.5390    47.5220    41.9410    34.6970    33.3100    25.3220    -6.6330 
  211.5000     2.5360    45.2610    40.8190    33.8560    33.3040    25.2340    -6.8730 
  211.6250     2.5120    44.7470    40.2100    33.4590    30.0950    25.1410    -7.1350 
  211.7500     2.4910    48.2800    39.9760    33.4410    31.6770    25.0640    -7.4220 
  211.8750     2.4910    53.1640    39.4780    33.3170    34.3920    24.9950    -7.6750 
  212.0000     2.5010    55.9760    37.9750    32.4790    36.1430    24.9810    -7.9270 
  212.1250     2.5040    55.8000    34.8370    30.3170    36.6210    25.0190    -8.2010 
  212.2500     2.4860    55.9680    29.8070    26.4300    31.5780    25.0120    -8.4160 
  212.3750     2.4380    57.3360    24.0960    21.7520    23.2190    24.9900    -8.6060 
