~V
VERS. 2.00: Ver 2.00
~W
STRT.M 50.0000:
STOP.M 261.0000:
STEP.M 0.1250:
NULL. -999.2500:
UWI. F10772:
~C
DEPT.M :
GR.API :
RML.OHMM :
RI. :
RXO.OHMM :
CALI.CM :
SP.MV :
DEN.GM/CC :
~A
# ...
   61.2500    29.7280     0.5110     0.4240     2.2740    25.5490   125.2060     2.1710 
   61.3750    28.3530     0.5040     0.4230     1.9270    25.5260   121.6250     2.1690 
   61.5000    28.4040     0.5210     0.4240     1.6740    25.5170   117.5060     2.1790 
   61.6250    30.3850     0.5530     0.4280     1.5540    25.5160   113.1210     2.2160 
   61.7500    31.6780     0.5810     0.4330     1.5620    25.5150   108.6650     2.2780 
   61.8750    31.9570     0.5930     0.4380     1.5950    25.5150   104.2000     2.3480 
   62.0000    32.5110     0.5870     0.4410     1.5230    25.5080    99.8850     2.4060 
   62.1250    32.9790     0.5740     0.4410     1.3670    25.4840    96.0550     2.4260 
   62.2500    34.0130     0.5680     0.4370     1.2520    25.4460    92.9910     2.4000 
   62.3750    35.1750     0.5750     0.4320     1.2010    25.4070    90.7830     2.3310 
   62.5000    35.2270     0.5890     0.4270     1.1680    25.3790    89.1730     2.2310 
   62.6250    34.1460     0.5860     0.4160     1.1080    25.3480    87.7930     2.1270 
   62.7500    33.7080     0.5470     0.3950     1.0340    25.2830    86.2460     2.0470 
   62.8750    34.7640     0.4590     0.3550     1.0070    25.1370    84.4380     2.0110 
   63.0000    35.0080     0.3360     0.2930     1.0580    24.8840    82.2940     2.0240 
   63.1250    33.8610     0.2090     0.2210     1.1980    24.6170    79.4810     2.0940 
   63.2500    33.6860     0.1160     0.1590     1.3150    24.4730    75.6830     2.2130 
   63.3750    34.3880     0.0720     0.1170     1.3670    24.4880    70.4660     2.3660 
   63.5000    35.8940     0.0890     0.1050     1.3410    24.6520    63.7510     2.5200 
   63.6250    37.9010     0.2120     0.1620     1.5680    24.9240    55.9050     2.6130 
   63.7500    39.8300     0.5290     0.3530     2.6890    25.1930    47.5580     2.6200 
   63.8750    41.2790     1.2150     0.8130     5.0000    25.5640    44.1510     2.5560 
   64.0000    43.6340     2.4630     1.7710     7.6650    25.9450    37.1390     2.4690 
   64.1250    48.3630     4.3750     3.6780     9.4570    25.9450    28.2860     2.4110 
   64.2500    51.9920     6.4870     6.3040     9.9970    25.6870    19.7770     2.3840 
   64.3750    52.8270     8.2860     8.8760     9.8230    25.4940    12.0880     2.3590 
   64.5000    51.9550     9.4210    10.6610     9.5870    25.4250     5.6510     2.3080 
   64.6250    51.9210     9.8350    11.5280    10.0120    25.3810     0.6580     2.2360 
   64.7500    53.3990     9.9420    11.9480    11.9950    25.3330    -3.5050     2.1770 
   64.8750    54.2050     9.9700    12.1100    15.0410    25.2760    -6.9760     2.1520 
   65.0000    52.5970    10.0060    12.1270    13.6690    25.2360    -9.7430     2.1570 
   65.1250    51.2360    10.0420    12.0640    11.4170    25.2200   -11.8110     2.1680 
   65.2500    52.3890    10.0650    11.9650    10.2910    25.2310   -13.5030     2.1660 
   65.3750    53.0750    10.0840    11.8520    10.1240    25.2360   -14.9300     2.1530 
   65.5000    50.8470    10.1170    11.7570    10.0800    25.2260   -16.1830     2.1390 
   65.6250    49.8350    10.1810    11.7100    10.0790    25.1970   -17.2970     2.1300 
   65.7500    52.3050    10.2660    11.6970    10.1780    25.1830   -18.2520     2.1250 
   65.8750    53.4870    10.3580    11.6960    10.4920    25.1790   -19.0290     2.1270 
   66.0000    52.0340    10.4440    11.6840    10.8390    25.1820   -19.7290     2.1390 
   66.1250    51.7700    10.5150    11.6410    10.8900    25.1820   -20.3980     2.1660 
   66.2500    54.1900    10.5670    11.5650    10.6510    25.1860   -20.9930     2.1980 
   66.3750    57.7750    10.5930    11.4560    10.5420    25.2040   -21.5290     2.2200 
   66.5000    58.5430    10.5860    11.3230    10.6020    25.2450   -22.0370     2.2220 
   66.6250    55.2830    10.5400    11.1810    10.5510    25.2980   -22.4430     2.2000 
   66.7500    51.3100    10.4700    11.0450    10.3820    25.3450   -22.7820     2.1680 
   66.8750    49.3770    10.3880    10.9170    10.2570    25.3690   -23.0840     2.1390 
   67.0000    50.3510    10.3030    10.7920    10.1590    25.3780   -23.3370     2.1200 
   67.1250    52.9070    10.2190    10.6650    10.0910    25.3680   -23.5190     2.1160 
   67.2500    55.6940    10.1370    10.5370     9.9870    25.3450   -23.6520     2.1210 
   67.3750    56.2280    10.0620    10.4090     9.8780    25.3200   -23.7340     2.1320 
   67.5000    53.0990     9.9930    10.2910     9.8330    25.3050   -23.7470     2.1450 
   67.6250    49.8330     9.9280    10.1900     9.9360    25.2970   -23.6960     2.1580 
   67.7500    48.4410     9.8600    10.1090     9.9700    25.3010   -23.6280     2.1670 
   67.8750    48.1370     9.7850    10.0490     9.8670    25.3030   -23.5640     2.1700 
   68.0000    48.1410     9.7120    10.0150     9.7090    25.2960   -23.4850     2.1690 
   68.1250    48.5450     9.6600    10.0150     9.6360    25.3180   -23.3640     2.1640 
   68.2500    48.7750     9.6400    10.0490     9.5810    25.3570   -23.2440     2.1590 
   68.3750    47.6770     9.6470    10.1160     9.4900    25.4070   -23.0680     2.1540 
   68.5000    45.7110     9.6510    10.1970     9.3760    25.4350   -22.7950     2.1510 
   68.6250    45.6460     9.5750    10.2210     9.3670    25.4410   -22.4250     2.1480 
   68.7500    47.4020     9.3520    10.0850     9.3200    25.4360   -21.9290     2.1420 
   68.8750    51.6110     8.9330     9.6990     9.1220    25.4080   -21.3050     2.1370 
   69.0000    57.1210     8.3200     9.0290     8.7890    25.3240   -20.5680     2.1370 
   69.1250    63.1490     7.5630     8.1230     8.3580    25.2150   -19.7470     2.1530 
   69.2500    69.8620     6.8150     7.1680     7.6800    25.1290   -18.8780     2.1840 
   69.3750    75.8290     6.2100     6.3100     6.9030    25.0870   -18.0540     2.2240 
   69.5000    80.2710     5.8870     5.6870     6.2800    25.0690   -17.3580     2.2590 
   69.6250    84.1560     6.0620     5.5110     5.9450    25.0670   -16.9020     2.2760 
   69.7500    85.5270     6.7790     5.8470     5.7390    25.1010   -16.6750     2.2850 
   69.8750    82.5340     8.0620     6.7870     5.7370    25.1400   -16.6220     2.3040 
   70.0000    75.6450     9.8070     8.3730     6.9900    25.1320   -16.7060     2.3480 
   70.1250    67.4830    11.6840    10.5030    12.3330    25.0210   -17.0320     2.4040 
   70.2500    59.2450    13.1870    12.5240    21.6790    24.8500   -17.4900     2.4340 
   70.3750    53.7370    13.9990    13.7650    20.4770    24.6990   -17.9750     2.4110 
   70.5000    53.3330    14.0960    13.9540    12.9440    24.7080   -18.3970     2.3320 
   70.6250    53.1760    13.7450    13.4230    10.5330    24.7900   -18.6760     2.2280 
   70.7500    51.0730    13.4220    12.9050    10.3610    24.8730   -18.8120     2.1440 
   70.8750    49.8350    13.2900    12.6920    10.7540    24.8980   -18.8660     2.0990 
   71.0000    50.5380    13.2560    12.7510    10.9880    24.8680   -18.8670     2.0950 
   71.1250    49.7070    13.0070    12.7020    10.8970    24.8160   -18.6890     2.1240 
   71.2500    47.7390    12.3570    12.1600    10.8010    24.7660   -18.4160     2.1690 
   71.3750    49.6340    11.3310    11.0660    10.8940    24.7130   -18.1340     2.2240 
   71.5000    56.0960    10.1410     9.6870    10.4600    24.6260   -17.8420     2.2810 
   71.6250    62.4740     9.1530     8.4790     8.6060    24.4560   -17.5810     2.3270 
   71.7500    66.1470     8.5930     7.7070     6.7070    24.2770   -17.4340     2.3510 
   71.8750    68.1320     8.5330     7.4430     6.3200    24.1600   -17.4230     2.3440 
   72.0000    69.9420     8.9030     7.6470     7.2980    24.1610   -17.5310     2.3050 
   72.1250    68.8890     9.5340     8.2210     8.5150    24.3250   -17.7650     2.2450 
   72.2500    65.0070    10.1310     8.8780     8.9920    24.5540   -18.0380     2.1850 
   72.3750    61.0500    10.5110     9.3840     9.0520    24.7440   -18.2980     2.1410 
