~V
VERS. 2.00: Ver 2.00
~W
STRT.M 59.0000:
STOP.M 248.0000:
STEP.M 0.1250:
NULL. -999.2500:
UWI. F10727:
~C
DEPT.M :
GR.API :
RML.OHMM :
RI. :
RXO.OHMM :
CALI.CM :
SP.MV :
DEN.GM/CC :
~A
# ...
  160.2500    50.1030    31.8630    28.9680    24.4640    24.9410   -12.6970     2.4600 
  160.3750    53.3890    31.9190    28.9500    23.2360    24.8830   -12.7250     2.4650 
  160.5000    55.9270    32.4870    29.4150    24.0810    24.6510   -12.7570     2.4700 
  160.6250    53.3490    33.4020    30.3130    25.6200    24.7960   -12.8140     2.4730 
  160.7500    49.0800    34.1440    31.2090    28.9460    24.7640   -12.8320     2.4760 
  160.8750    47.6890    34.2510    31.6650    33.2120    24.6330   -12.8140     2.4800 
  161.0000    50.7170    33.4900    31.3640    33.9570    24.5650   -12.8040     2.4830 
  161.1250    53.3960    31.9750    30.2650    28.6820    24.5290   -12.7980     2.4840 
  161.2500    52.3230    30.3130    28.8760    24.4580    24.4950   -12.7480     2.4830 
  161.3750    48.7600    28.8940    27.5550    23.1450    24.5020   -12.6900     2.4790 
  161.5000    45.7220    27.9500    26.5520    22.5030    24.5930   -12.6560     2.4750 
  161.6250    45.4780    27.6110    26.0660    22.0620    24.4500   -12.5810     2.4740 
  161.7500    47.0790    27.6610    25.9860    22.3820    24.5170   -12.4870     2.4750 
  161.8750    47.9960    27.9400    26.1930    22.0780    24.7210   -12.4310     2.4770 
  162.0000    47.7560    28.3270    26.5720    22.4900    24.9750   -12.3800     2.4790 
  162.1250    49.1360    28.7560    27.0500    24.6840    25.0930   -12.3120     2.4810 
  162.2500    49.8060    29.1700    27.5480    25.9300    25.1400   -12.2600     2.4840 
  162.3750    47.6230    29.5080    28.0000    25.4780    25.1250   -12.2440     2.4880 
  162.5000    44.9080    29.6700    28.3050    24.3460    24.7170   -12.2010     2.4910 
  162.6250    46.2090    29.4730    28.2840    24.6260    24.1170   -12.1660     2.4900 
  162.7500    48.9700    28.8950    27.9070    25.1030    24.4220   -12.1760     2.4860 
  162.8750    50.2740    27.9540    27.1760    25.2560    24.7620   -12.1860     2.4780 
  163.0000    51.2720    26.7200    26.1230    23.6650    24.9180   -12.1630     2.4700 
  163.1250    52.6120    25.3210    24.8160    20.8140    24.9370   -12.1640     2.4630 
  163.2500    52.4300    23.9860    23.4890    19.9570    24.7770   -12.1500     2.4580 
  163.3750    51.9790    22.8590    22.3180    20.1130    24.6290   -12.1180     2.4550 
  163.5000    52.3350    22.0040    21.4100    19.5480    24.6530   -12.1190     2.4550 
  163.6250    51.9220    21.4580    20.8260    18.7550    24.6610   -12.1020     2.4550 
  163.7500    50.7510    21.1230    20.4620    18.8050    24.5160   -12.0360     2.4530 
  163.8750    51.0880    20.9100    20.2410    19.1450    24.3710   -11.9880     2.4470 
  164.0000    52.1510    20.7270    20.0880    18.7390    24.3180   -11.9830     2.4410 
  164.1250    50.3340    20.5170    19.9560    18.2650    24.2950   -11.9260     2.4360 
  164.2500    48.7440    20.3030    19.8250    18.2280    24.3360   -11.8690     2.4350 
  164.3750    50.5660    20.1600    19.7100    17.7100    24.5760   -11.8490     2.4370 
  164.5000    54.2620    20.1490    19.6530    16.4260    24.8590   -11.8350     2.4420 
  164.6250    55.5660    20.2350    19.6660    17.1810    24.8200   -11.8410     2.4490 
  164.7500    55.0760    20.2030    19.6200    19.2600    24.6880   -11.8680     2.4610 
  164.8750    55.2080    19.8510    19.3410    19.9310    24.3380   -11.8810     2.4760 
  165.0000    54.9950    19.1020    18.7230    18.8680    24.0770   -11.8520     2.4910 
  165.1250    53.9210    18.0660    17.7990    17.2670    24.1430   -11.8360     2.5000 
  165.2500    53.4130    17.0760    16.8440    16.2170    24.1810   -11.8330     2.5030 
  165.3750    53.0850    16.3660    16.0700    14.8320    24.2140   -11.7790     2.4990 
  165.5000    52.7410    16.0640    15.6040    15.0710    24.2640   -11.6920     2.4930 
  165.6250    52.5320    16.2270    15.5210    15.7330    24.3460   -11.6270     2.4850 
  165.7500    53.0820    16.6760    15.7020    16.5440    24.5770   -11.5660     2.4770 
  165.8750    52.7520    17.2980    16.0780    16.5340    24.8080   -11.4860     2.4700 
  166.0000    50.7950    18.0280    16.6050    15.9810    24.9770   -11.4520     2.4650 
  166.1250    49.2620    18.8870    17.2960    16.7820    24.9870   -11.4670     2.4670 
  166.2500    48.6250    19.8540    18.1090    17.7810    24.9560   -11.4820     2.4740 
  166.3750    47.6290    20.8240    18.9530    18.7670    24.9710   -11.5330     2.4870 
  166.5000    44.8930    21.5500    19.6230    19.1770    24.9330   -11.6150     2.5030 
  166.6250    42.0970    21.5590    19.7100    20.4060    24.9180   -11.6740     2.5170 
  166.7500    42.4100    20.7210    19.0640    21.2460    24.8300   -11.7240     2.5290 
  166.8750    45.6880    19.1340    17.7360    19.3650    24.5950   -11.7930     2.5390 
  167.0000    48.1840    17.1420    16.0080    15.2330    24.4930   -11.8400     2.5460 
  167.1250    47.7660    15.2200    14.2770    12.1040    24.4480   -11.8240     2.5460 
  167.2500    47.6780    13.6770    12.8310    10.7930    24.4270   -11.7990     2.5380 
  167.3750    49.2480    12.6040    11.7730    10.2340    24.3760   -11.7560     2.5220 
  167.5000    51.7200    11.9720    11.1060     9.9420    24.4170   -11.6730     2.5010 
  167.6250    53.8210    11.7440    10.8180     9.7730    24.4770   -11.5900     2.4800 
  167.7500    54.0740    11.7810    10.7820     9.9100    24.5290   -11.5350     2.4640 
  167.8750    51.1210    12.0180    10.9480    10.0680    24.7300   -11.4570     2.4560 
  168.0000    46.3980    12.3760    11.2600    10.4610    24.8250   -11.3970     2.4560 
  168.1250    44.2450    12.7430    11.6280    11.2700    24.5070   -11.4160     2.4630 
  168.2500    44.1820    13.0120    11.9320    12.1250    24.1640   -11.4390     2.4700 
  168.3750    43.3540    13.1540    12.1150    12.3270    23.8630   -11.4520     2.4770 
  168.5000    42.4700    13.1900    12.1800    11.9290    23.7730   -11.5110     2.4800 
  168.6250    45.5830    13.1400    12.1410    11.2600    23.7800   -11.5640     2.4820 
  168.7500    49.0240    13.0110    12.0180    11.2490    23.7780   -11.5900     2.4830 
  168.8750    48.8320    12.7620    11.7770    12.2320    23.6780   -11.6610     2.4860 
  169.0000    46.4470    12.3510    11.3820    13.0170    23.6280   -11.7540     2.4900 
  169.1250    47.1530    11.7800    10.8370    11.8600    23.6590   -11.8010     2.4920 
  169.2500    49.4910    11.1900    10.2740    10.6710    23.7780   -11.8540     2.4920 
  169.3750    49.5710    10.7180     9.8100    10.0540    23.8550   -11.9020     2.4880 
  169.5000    47.0820    10.4680     9.5340     9.8480    23.9350   -11.9360     2.4820 
  169.6250    44.3720    10.5210     9.5270     9.8240    24.2550   -12.0310     2.4780 
  169.7500    43.4960    10.7810     9.7230    10.1030    24.6410   -12.1610     2.4760 
  169.8750    43.4600    11.1360    10.0500    10.3740    24.7070   -12.2490     2.4760 
  170.0000    43.5710    11.4460    10.3930    10.3370    24.6600   -12.3190     2.4770 
  170.1250    43.5960    11.4980    10.5690    10.4380    24.6390   -12.4110     2.4750 
  170.2500    43.1760    11.1770    10.4420    10.4580    24.6010   -12.5040     2.4700 
  170.3750    43.3520    10.4470     9.9560    10.4090    24.5010   -12.5970     2.4590 
  170.5000    45.0960     9.4110     9.1750     9.8430    24.2990   -12.6830     2.4420 
  170.6250    49.7610     8.3160     8.2690     8.1880    24.1650   -12.7120     2.4200 
  170.7500    54.9230     7.4200     7.4540     6.7970    24.2850   -12.7040     2.3960 
  170.8750    59.6740     6.8250     6.8340     6.2650    24.3390   -12.7190     2.3740 
  171.0000    63.0220     6.5180     6.4400     6.2030    24.4830   -12.7240     2.3610 
  171.1250    63.2920     6.4280     6.2680     6.2910    24.6600   -12.6780     2.3580 
  171.2500    62.6020     6.4060     6.2140     6.3510    24.6670   -12.6410     2.3620 
  171.3750    64.1530     6.3720     6.2010     6.3030    24.6330   -12.6360     2.3680 
