~V
VERS. 2.00: Ver 2.00
~W
STRT.M 50.0000:
STOP.M 261.0000:
STEP.M 0.1250:
NULL. -999.2500:
UWI. F10772:
~C
DEPT.M :
GR.API :
RML.OHMM :
RI. :
RXO.OHMM :
CALI.CM :
SP.MV :
DEN.GM/CC :
~A
# ...
  128.7500    65.8980    15.1580    14.9570    16.5620    24.8440    -5.2410     2.6390 
  128.8750    70.9020    12.0170    11.5690     9.4710    24.8170    -5.2290     2.5870 
  129.0000    73.1380     9.7210     9.2130     7.6820    24.7590    -5.2070     2.5110 
  129.1250    73.9930     8.4980     7.9000     8.1090    24.6270    -5.2520     2.4520 
  129.2500    75.8730     7.9160     7.1800     8.2620    24.4830    -5.4090     2.4210 
  129.3750    79.6890     7.7210     6.8500     7.5200    24.4180    -5.6120     2.4110 
  129.5000    84.7250     7.7600     6.7800     6.7170    24.4030    -5.7940     2.4030 
  129.6250    86.0790     7.9970     6.9290     6.6300    24.3740    -5.9240     2.3840 
  129.7500    82.6140     8.3900     7.2500     6.7550    24.3610    -6.1300     2.3530 
  129.8750    76.9400     8.9240     7.7490     7.1770    24.4230    -6.4550     2.3160 
  130.0000    72.7440     9.5560     8.4090     7.8070    24.3940    -6.7950     2.2820 
  130.1250    72.7760    10.1990     9.1690     8.1090    24.3290    -6.9630     2.2610 
  130.2500    73.3360    10.7320     9.8910     8.2760    24.2400    -6.9660     2.2540 
  130.3750    71.4000    11.0500    10.4360     8.3490    24.1860    -6.8690     2.2600 
  130.5000    68.5550    11.0750    10.6610     8.9170    24.1740    -6.7290     2.2760 
  130.6250    68.5390    10.7390    10.4100     8.8230    24.1560    -6.5500     2.2960 
  130.7500    70.1040    10.1780     9.8280     8.4640    24.1460    -6.2590     2.3140 
  130.8750    70.7750     9.5310     9.0920     7.7790    24.1480    -5.8940     2.3290 
  131.0000    70.9850     8.9470     8.3930     7.0390    24.1720    -5.5570     2.3420 
  131.1250    74.6010     8.5760     7.9100     7.2930    24.2230    -5.3680     2.3550 
  131.2500    80.6810     8.4210     7.6650     7.8170    24.2600    -5.3260     2.3690 
  131.3750    84.4860     8.4450     7.6300     8.2650    24.2800    -5.4020     2.3820 
  131.5000    82.2600     8.5820     7.7410     8.8040    24.3000    -5.4970     2.3880 
  131.6250    77.2980     8.7650     7.9210     8.0580    24.3220    -5.6070     2.3780 
  131.7500    77.2720     8.9380     8.0930     7.8560    24.3580    -5.8360     2.3550 
  131.8750    80.7240     9.0840     8.2390     7.8260    24.3420    -6.1610     2.3270 
  132.0000    82.0090     9.2030     8.3580     7.8350    24.2610    -6.4800     2.3020 
  132.1250    79.3400     9.2950     8.4410     7.7820    24.2120    -6.6610     2.2910 
  132.2500    76.8210     9.3730     8.4880     7.8280    24.2550    -6.7090     2.2910 
  132.3750    76.5550     9.4520     8.5100     7.9840    24.4310    -6.6780     2.2980 
  132.5000    77.7680     9.5530     8.5290     7.9940    24.6040    -6.6450     2.3040 
  132.6250    79.0980     9.7210     8.5900     7.9690    24.5280    -6.5780     2.3050 
  132.7500    80.0480     9.9920     8.7150     7.8440    24.2950    -6.4190     2.3000 
  132.8750    79.3770    10.4150     8.9330     8.1010    24.0860    -6.1650     2.2890 
  133.0000    76.7180    11.0420     9.2930     8.5860    23.9590    -5.8830     2.2730 
  133.1250    74.1760    11.9620     9.9010     8.8740    23.9050    -5.6230     2.2530 
  133.2500    74.0170    13.1440    10.7810     9.0040    23.8890    -5.3460     2.2360 
  133.3750    73.6220    14.5540    11.9360     9.5070    23.9030    -5.0040     2.2270 
  133.5000    69.7910    16.1110    13.3160    11.1750    23.9560    -4.6320     2.2320 
  133.6250    62.9820    17.6970    14.8130    13.4430    24.0510    -4.2920     2.2470 
  133.7500    57.9780    19.1800    16.2680    13.6220    24.0910    -3.9670     2.2620 
  133.8750    55.5450    20.4670    17.5770    12.1010    24.1140    -3.6650     2.2650 
  134.0000    54.2410    21.4860    18.6590    11.7730    24.1820    -3.4300     2.2530 
  134.1250    54.1840    22.1320    19.4010    15.2150    24.3050    -3.3160     2.2290 
  134.2500    56.0210    22.4440    19.8200    23.0510    24.3520    -3.2930     2.2060 
  134.3750    60.1560    22.4670    19.9170    27.7910    24.2890    -3.3390     2.1930 
  134.5000    64.9690    22.3120    19.7580    21.7070    24.1290    -3.3880     2.1880 
  134.6250    67.5490    22.1610    19.5260    14.2310    23.9820    -3.4900     2.1880 
  134.7500    66.7240    22.1770    19.4620    11.6770    23.9870    -3.6660     2.1850 
  134.8750    63.1110    22.4080    19.6820    11.3430    24.1200    -3.8000     2.1780 
  135.0000    58.3210    22.7890    20.1750    11.5930    24.2630    -3.8640     2.1720 
  135.1250    55.2720    23.1500    20.7910    11.6500    24.2490    -3.8870     2.1720 
  135.2500    56.5630    23.3410    21.2780    11.6220    24.1810    -3.9040     2.1790 
  135.3750    61.1380    23.3240    21.5140    11.6030    24.1450    -3.9440     2.1900 
  135.5000    65.2280    23.1620    21.5320    11.6350    24.1410    -4.0970     2.1990 
  135.6250    65.4110    23.0060    21.4960    11.6450    24.1430    -4.2360     2.1940 
  135.7500    63.9450    22.9800    21.5790    11.6950    24.1660    -4.2190     2.1750 
  135.8750    62.4430    23.1070    21.8370    11.7550    24.2310    -4.1380     2.1490 
  136.0000    60.5600    23.3180    22.2280    11.7800    24.3310    -4.0850     2.1290 
  136.1250    57.2890    23.4450    22.5750    11.9170    24.4090    -4.1080     2.1280 
  136.2500    54.3620    23.3340    22.6580    11.9920    24.4490    -4.1740     2.1410 
  136.3750    54.6570    22.9050    22.3290    11.8020    24.4680    -4.2260     2.1580 
  136.5000    57.4260    22.1720    21.5570    11.4390    24.5050    -4.1710     2.1660 
  136.6250    61.4490    21.2530    20.4380    11.0300    24.5830    -4.1050     2.1640 
  136.7500    64.6780    20.4220    19.2760    10.7380    24.6440    -4.1530     2.1610 
  136.8750    65.4090    19.9660    18.3200    10.4830    24.6750    -4.2600     2.1620 
  137.0000    62.4620    20.2340    17.8460    10.2050    24.7140    -4.2930     2.1650 
  137.1250    56.4720    21.9290    18.3880    10.1900    24.7670    -4.2160     2.1660 
  137.2500    51.3170    25.4720    20.3200    10.6550    24.8000    -4.1100     2.1710 
  137.3750    48.2650    31.4650    24.3610    12.7740    24.7720    -4.0740     2.2000 
  137.5000    48.2000    40.2740    31.5320    19.5970    24.7090    -4.0800     2.2710 
  137.6250    50.9970    51.3980    43.2350    43.6710    24.6490    -3.9800     2.3890 
  137.7500    53.2800    61.6470    57.1630    71.8630    24.5560    -3.8610     2.5170 
  137.8750    53.8350    67.4110    68.1080    81.2400    24.4950    -3.8200     2.6180 
  138.0000    52.8480    66.1580    69.6970    75.5530    24.5080    -3.8180     2.6660 
  138.1250    53.4520    57.6330    59.7220    56.8300    24.5250    -3.7600     2.6530 
  138.2500    55.7680    46.7280    46.6180    35.9090    24.4600    -3.6720     2.6020 
  138.3750    56.5320    36.9650    35.7020    19.9960    24.5050    -3.5610     2.5240 
  138.5000    54.2900    30.1570    28.6330    13.3480    24.6520    -3.4710     2.4300 
  138.6250    52.4750    26.6960    25.1890    11.7220    24.7640    -3.3730     2.3340 
  138.7500    51.6930    25.0920    23.6300    11.9490    24.7980    -3.1840     2.2580 
  138.8750    50.4030    24.4780    23.1300    12.6820    24.7910    -2.9080     2.2150 
  139.0000    48.7480    24.2490    23.0630    12.6870    24.6860    -2.6290     2.2040 
  139.1250    48.9040    24.0810    22.9760    11.7790    24.5680    -2.3970     2.2080 
  139.2500    49.3710    23.9450    22.7800    10.8300    24.4810    -2.2020     2.2010 
  139.3750    49.8380    23.9890    22.6660    10.3460    24.4070    -2.0570     2.1750 
  139.5000    51.4910    24.3620    22.8700    10.6250    24.4270    -1.9640     2.1400 
  139.6250    52.2280    25.1430    23.5660    11.5920    24.6800    -1.9200     2.1240 
  139.7500    51.0450    26.1000    24.5550    12.4180    25.0730    -1.8820     2.1400 
  139.8750    49.1470    26.9860    25.5370    12.4440    25.4060    -1.8490     2.1830 
