~V
VERS. 2.00: Ver 2.00
~W
STRT.M 50.0000:
STOP.M 239.0000:
STEP.M 0.1250:
NULL. -999.2500:
UWI. F10783:
~C
DEPT.M :
GR.API :
RML.OHMM :
RI. :
RXO.OHMM :
CALI.CM :
SP.MV :
DEN.GM/CC :
~A
# ...
  207.5000    64.5850    31.2490    29.5770    30.5710    25.0750   -14.2960     2.2560 
  207.6250    66.4640    32.0570    30.0280    31.1580    25.1710   -14.2900     2.2570 
  207.7500    69.0770    33.0830    30.6070    31.0800    25.1980   -14.3410     2.2610 
  207.8750    69.5030    34.4150    31.4120    30.7110    25.1670   -14.4440     2.2690 
  208.0000    66.4200    36.1030    32.5080    31.4900    25.0870   -14.5760     2.2820 
  208.1250    63.1350    38.1950    33.9630    33.5700    24.9620   -14.7380     2.2960 
  208.2500    64.0200    40.5500    35.6770    37.5450    24.9310   -14.9060     2.3070 
  208.3750    67.7190    43.0550    37.5690    40.4980    25.0430   -15.0510     2.3130 
  208.5000    71.1760    45.5870    39.5420    43.2160    25.1740   -15.1200     2.3150 
  208.6250    72.3750    48.0220    41.5110    47.6100    25.2440   -15.0450     2.3120 
  208.7500    71.0360    50.2860    43.4300    52.4740    25.3150   -14.8450     2.3000 
  208.8750    68.4680    52.2510    45.2440    55.2900    25.4130   -14.5490     2.2790 
  209.0000    66.9940    53.6610    46.7920    55.5390    25.5370   -14.2100     2.2500 
  209.1250    67.1910    53.9280    47.6200    54.1670    25.5440   -13.8760     2.2310 
  209.2500    66.0700    52.9040    47.4750    52.4100    25.3860   -13.5540     2.2410 
  209.3750    63.2280    50.6700    46.2850    45.6820    25.1320   -13.2550     2.2960 
  209.5000    60.7460    47.6130    44.2620    36.5940    24.9450   -12.9770     2.3900 
  209.6250    60.2570    44.1030    41.6620    26.2370    24.7790   -12.7550     2.5030 
  209.7500    60.3170    40.2040    38.5820    26.3910    24.5370   -12.5500     2.6040 
  209.8750    61.2160    35.5370    34.6520    31.5930    24.2590   -12.2950     2.6750 
  210.0000    62.6960    29.7970    29.5310    34.5330    24.0940   -11.9270     2.7140 
  210.1250    65.4940    23.1830    23.3550    28.7810    24.0200   -11.3610     2.7140 
  210.2500    69.5020    16.8030    17.2640    19.0970    23.9110   -10.6150     2.6790 
  210.3750    73.6430    11.5500    12.1520    11.1350    23.7460    -9.7410     2.6060 
  210.5000    76.2100     7.8630     8.4470     6.3520    23.5670    -8.8210     2.5050 
  210.6250    75.5620     5.8460     6.2590     4.5360    23.3580    -7.9310     2.4000 
  210.7500    73.4480     4.8270     5.0250     4.1130    23.2870    -7.1210     2.3210 
  210.8750    72.6880     4.4520     4.4680     4.0730    23.3680    -6.4390     2.2790 
  211.0000    74.4260     4.4810     4.3850     4.0630    23.4900    -5.9030     2.2730 
  211.1250    77.9150     4.7890     4.6720     4.2730    23.6160    -5.5710     2.2940 
  211.2500    80.8660     5.2180     5.1470     5.0330    23.8760    -5.4300     2.3240 
  211.3750    82.0320     5.6670     5.6990     6.2060    24.2920    -5.4410     2.3560 
  211.5000    81.6390     6.0490     6.2190     6.7920    24.6480    -5.5550     2.3860 
  211.6250    83.2470     6.2860     6.5930     6.6950    24.7600    -5.7260     2.4080 
  211.7500    86.9420     6.3990     6.8090     6.7290    24.7910    -5.9160     2.4230 
  211.8750    89.9160     6.4290     6.8830     6.8600    24.7980    -6.1230     2.4310 
  212.0000    91.2560     6.4260     6.8600     6.9780    24.8000    -6.3550     2.4330 
  212.1250    93.3760     6.4380     6.7860     7.2310    24.8020    -6.6100     2.4280 
  212.2500    96.2770     6.4820     6.7060     7.4980    24.8000    -6.8860     2.4200 
  212.3750   101.2090     6.5560     6.6410     7.5590    24.7950    -7.1800     2.4140 
  212.5000   110.3270     6.6530     6.6060     7.3990    24.7810    -7.4720     2.4100 
  212.6250   119.0130     6.7680     6.6140     7.3720    24.7540    -7.7390     2.4080 
  212.7500   123.6150     6.8970     6.6570     7.6630    24.7410    -7.9630     2.4060 
  212.8750   126.4670     7.0420     6.7300     7.9820    24.7340    -8.1650     2.4000 
  213.0000   129.0500     7.2110     6.8310     8.0790    24.7330    -8.3450     2.3900 
  213.1250   127.7970     7.4240     6.9760     8.1040    24.7290    -8.4850     2.3810 
  213.2500   123.3910     7.6860     7.1690     8.0840    24.7310    -8.5950     2.3750 
  213.3750   121.3320     7.9810     7.4080     8.2530    24.7290    -8.6820     2.3780 
  213.5000   122.0550     8.2700     7.6630     8.6010    24.7100    -8.7720     2.3900 
  213.6250   121.7970     8.4750     7.8590     9.2780    24.6730    -8.8930     2.4080 
  213.7500   120.9360     8.5690     7.9470     9.8870    24.6360    -9.0470     2.4260 
  213.8750   121.1000     8.5860     7.9300     9.8480    24.6080    -9.2050     2.4360 
  214.0000   119.8860     8.6310     7.8770     9.2240    24.5970    -9.3580     2.4360 
  214.1250   115.1150     8.9220     7.9460     8.7730    24.6000    -9.5470     2.4270 
  214.2500   112.1460     9.6110     8.2830     9.1700    24.6050    -9.7760     2.4170 
  214.3750   113.5630    10.8320     9.0170    10.8610    24.6040   -10.0460     2.4090 
  214.5000   114.9960    12.6880    10.2640    13.1200    24.5990   -10.3590     2.3990 
  214.6250   110.3460    15.4060    12.2560    15.3640    24.6090   -10.7250     2.3810 
  214.7500   103.5990    18.9910    15.0260    18.7760    24.6450   -11.1310     2.3530 
  214.8750    97.8320    23.5820    18.7180    23.7260    24.6970   -11.5780     2.3200 
  215.0000    92.1000    29.3200    23.4910    29.1790    24.7330   -12.0560     2.2890 
  215.1250    85.5440    36.4460    29.6440    35.5490    24.7500   -12.5010     2.2670 
  215.2500    82.0040    44.5020    36.8220    47.3880    24.7490   -12.9130     2.2500 
  215.3750    82.9140    52.8410    44.4870    69.3700    24.7130   -13.2790     2.2370 
  215.5000    83.4300    60.4680    51.7620    88.3750    24.6720   -13.6000     2.2240 
  215.6250    78.1730    65.9090    57.3150    87.6000    24.6920   -13.8580     2.2140 
  215.7500    73.6230    68.8650    60.7240    80.2150    24.7170   -14.0580     2.2070 
  215.8750    75.3100    69.5760    62.0530    74.3260    24.7270   -14.1930     2.2040 
  216.0000    80.2040    68.8360    61.8750    70.5120    24.7410   -14.3080     2.2050 
  216.1250    82.1820    67.7030    61.0400    69.5070    24.8220   -14.4650     2.2100 
  216.2500    81.2480    67.1670    60.5220    70.2790    24.8590   -14.6500     2.2170 
  216.3750    79.8660    67.7460    60.8820    70.6400    24.8670   -14.8530     2.2250 
  216.5000    79.2110    69.6740    62.4430    67.9780    24.8620   -15.0460     2.2320 
  216.6250    76.8220    72.9900    65.3980    67.9010    24.8580   -15.1960     2.2350 
  216.7500    73.7980    76.8720    69.0990    74.4960    24.8580   -15.3360     2.2330 
  216.8750    71.2590    80.5010    72.8440    85.8530    24.8660   -15.4630     2.2250 
  217.0000    69.9940    83.1480    75.9170    89.7420    24.8720   -15.5040     2.2150 
  217.1250    70.4440    84.4360    77.7980    84.7870    24.8720   -15.4000     2.2060 
  217.2500    71.2280    85.2050    79.0510    78.3680    24.8720   -15.2330     2.2010 
  217.3750    71.4310    86.4130    80.4960    75.6880    24.8720   -15.0330     2.2010 
  217.5000    70.2630    88.8180    82.9180    78.8740    24.8720   -14.8210     2.2060 
  217.6250    69.3070    92.6990    86.7820    85.6950    24.8720   -14.6650     2.2140 
  217.7500    71.5120    96.9840    91.2590    96.8350    24.8720   -14.5670     2.2220 
  217.8750    73.2410   100.3730    95.1990   111.7680    24.8770   -14.5110     2.2280 
  218.0000    72.6510   101.6140    97.3630   119.9490    24.8940   -14.5280     2.2290 
  218.1250    74.0780    99.6450    96.5230   112.0170    24.9390   -14.6440     2.2240 
  218.2500    76.7050    95.4920    93.3610   104.2890    24.9810   -14.8170     2.2160 
  218.3750    75.9250    90.4090    88.9100    95.5970    25.0150   -15.0650     2.2080 
  218.5000    71.7900    85.8010    84.5040    84.3980    25.0630   -15.3880     2.2020 
  218.6250    70.5980    83.2380    81.7600    75.0460    25.0890   -15.7670     2.1990 
