~V
VERS. 2.00: Ver 2.00
~W
STRT.M 50.0000:
STOP.M 226.0000:
STEP.M 0.1250:
NULL. -999.2500:
UWI. F10778:
~C
DEPT.M :
DEN.GM/CC :
GR.API :
RML.OHMM :
RI. :
RXO.OHMM :
CALI.CM :
SP.MV :
~A
# ...
  196.2500     2.2480    65.9490    69.1850    63.6170    67.9600    23.6340   -14.0100 
  196.3750     2.2450    67.7430    70.7920    65.1240    68.4660    23.7190   -14.2000 
  196.5000     2.2490    71.2830    71.1080    65.1380    59.1450    23.8150   -14.3070 
  196.6250     2.2550    73.7000    71.6100    64.9650    50.4270    23.7680   -14.4430 
  196.7500     2.2550    71.6490    73.3420    65.7070    52.8790    23.6710   -14.5640 
  196.8750     2.2500    67.3800    76.6420    67.7800    62.8020    23.6600   -14.5940 
  197.0000     2.2390    64.6920    81.3840    71.1570    67.2410    23.6650   -14.6510 
  197.1250     2.2280    64.0130    87.2170    75.6000    73.3130    23.5860   -14.7580 
  197.2500     2.2180    63.1410    93.4110    80.4610    77.8730    23.5660   -14.8230 
  197.3750     2.2100    62.0110    99.6860    85.4670    81.7140    23.6710   -14.9150 
  197.5000     2.2070    61.7840   106.0820    90.6220    87.9290    23.8440   -15.0800 
  197.6250     2.2080    62.5970   112.7810    96.1460    95.0400    24.1150   -15.2010 
  197.7500     2.2130    62.6130   119.2240   101.7540    98.5370    24.3140   -15.3610 
  197.8750     2.2180    61.2700   123.8440   106.4110   102.4160    24.4710   -15.5950 
  198.0000     2.2200    59.7470   124.3090   108.3810   105.4960    24.5420   -15.7650 
  198.1250     2.2170    60.0580   117.5890   105.0130   110.8400    24.5780   -15.8480 
  198.2500     2.2180    60.6880   105.1530    96.6650   114.2790    24.5970   -15.9490 
  198.3750     2.2310    58.4330    89.7420    84.8810   104.9170    24.6010   -16.0690 
  198.5000     2.2580    54.8300    74.8400    72.2970    76.6260    24.5260   -16.1330 
  198.6250     2.2920    56.2040    63.8380    62.0100    57.9700    24.3660   -16.2440 
  198.7500     2.3250    59.6120    57.1080    55.1630    46.6250    24.2920   -16.3140 
  198.8750     2.3670    61.0960    54.0480    51.7530    38.9100    24.3330   -16.2840 
  199.0000     2.4290    60.3850    52.9470    50.5720    38.6640    24.3720   -16.2630 
  199.1250     2.5160    58.9390    50.5350    48.6630    53.1790    24.1200   -16.1780 
  199.2500     2.6020    57.3960    44.3800    43.3430    57.5860    23.7490   -15.9870 
  199.3750     2.6530    58.4050    34.5450    34.3680    50.8750    23.5710   -15.6890 
  199.5000     2.6470    64.1080    23.4460    23.8900    39.5530    23.6250   -15.2950 
  199.6250     2.5790    70.6190    14.6620    15.2670    22.4040    23.7320   -14.7720 
  199.7500     2.4860    74.0000     9.1950     9.5960     9.6320    23.5950   -14.3130 
  199.8750     2.3990    73.8120     6.4630     6.4630     5.3530    23.3570   -13.9590 
  200.0000     2.3440    71.4080     5.4510     5.0320     4.4370    23.2240   -13.6300 
  200.1250     2.3380    71.4600     5.4960     4.7600     4.7310    23.3600   -13.4160 
  200.2500     2.3620    74.6030     6.0220     5.0830     5.5910    23.6290   -13.2900 
  200.3750     2.3960    77.1550     6.7880     5.7700     6.9110    24.0620   -13.1630 
  200.5000     2.4240    76.4680     7.5590     6.5960     7.6560    24.5290   -13.1010 
  200.6250     2.4340    77.0090     8.0890     7.2970     7.9130    24.7850   -13.0590 
  200.7500     2.4350    80.2920     8.3350     7.7420     8.0840    24.8270   -12.8520 
  200.8750     2.4340    83.5380     8.3510     7.9190     8.3330    24.7650   -12.5030 
  201.0000     2.4370    85.2430     8.2390     7.8960     8.4520    24.6800   -12.0650 
  201.1250     2.4400    88.3160     8.0930     7.7570     8.4290    24.5710   -11.5560 
  201.2500     2.4410    95.4270     7.9750     7.5850     8.2730    24.5200   -11.0070 
  201.3750     2.4360   106.0320     7.9050     7.4130     8.1060    24.5150   -10.5410 
  201.5000     2.4250   113.9300     7.8890     7.2570     8.0150    24.5170   -10.1690 
  201.6250     2.4120   112.7040     7.9320     7.1380     8.0150    24.5110    -9.8870 
  201.7500     2.3990   105.8110     8.0180     7.0660     7.9370    24.5060    -9.7520 
  201.8750     2.3880   101.0960     8.1380     7.0450     7.9280    24.4820    -9.7630 
  202.0000     2.3780   103.7570     8.2820     7.0780     7.9110    24.4340    -9.8540 
  202.1250     2.3720   109.8020     8.4500     7.1690     8.1150    24.3740   -10.0310 
  202.2500     2.3670   113.1010     8.6330     7.3000     8.3740    24.3670   -10.2790 
  202.3750     2.3650   115.0640     8.8180     7.4500     8.4060    24.3840   -10.5220 
  202.5000     2.3650   118.8230     8.9780     7.5930     8.3160    24.4020   -10.7590 
  202.6250     2.3660   120.6030     9.0570     7.6720     8.3770    24.3810   -10.9820 
  202.7500     2.3680   118.1330     9.0340     7.6640     8.5010    24.3640   -11.1050 
  202.8750     2.3700   115.0960     8.9310     7.5710     8.3020    24.3380   -11.1540 
  203.0000     2.3720   114.8950     8.8240     7.4470     7.8910    24.2360   -11.2310 
  203.1250     2.3760   115.3900     8.8700     7.4140     7.7090    24.0470   -11.2600 
  203.2500     2.3790   114.8730     9.1800     7.5760     7.9120    23.8120   -11.2710 
  203.3750     2.3780   113.8240     9.8140     8.0080     8.6420    23.5910   -11.3330 
  203.5000     2.3710   112.2880    10.7510     8.7330    10.1720    23.4030   -11.3550 
  203.6250     2.3560   108.8590    11.8820     9.7240    13.0650    23.2980   -11.3630 
  203.7500     2.3390   104.3360    12.9650    10.7830    13.3540    23.1330   -11.5020 
  203.8750     2.3250    99.3740    13.8210    11.7240    12.6770    22.9280   -11.6730 
  204.0000     2.3160    97.7760    14.3500    12.3950    12.1960    22.7220   -11.7780 
  204.1250     2.3120    99.9830    14.5230    12.6880    12.2910    22.5950   -11.9020 
  204.2500     2.3120   101.6650    14.5070    12.7230    12.6330    22.5880   -12.0470 
  204.3750     2.3180   102.5220    14.4330    12.6190    12.4850    22.6700   -12.1240 
  204.5000     2.3310   104.2840    14.4230    12.4980    12.0050    22.7890   -12.1760 
  204.6250     2.3480   106.0440    14.6340    12.5020    11.9090    22.8020   -12.2540 
  204.7500     2.3600   102.5770    15.1450    12.7160    12.9190    22.7350   -12.2900 
  204.8750     2.3640    95.6860    16.0580    13.2220    12.9960    22.6120   -12.3030 
  205.0000     2.3590    90.7440    17.5150    14.1160    13.4230    22.4260   -12.3550 
  205.1250     2.3450    89.5140    19.9590    15.6870    14.5610    22.2000   -12.4180 
  205.2500     2.3260    88.4400    23.7900    18.2280    16.4420    22.1350   -12.4080 
  205.3750     2.3020    85.6430    29.7750    22.4170    17.5910    22.2950   -12.4070 
  205.5000     2.2730    81.9750    38.9690    29.3620    20.4690    22.6240   -12.4790 
  205.6250     2.2430    75.7090    53.6210    41.4580    32.7120    23.1360   -12.4920 
  205.7500     2.2180    68.0680    74.1630    59.2250    65.2050    23.7560   -12.4280 
  205.8750     2.2000    63.7400   100.4630    82.1270   121.0100    24.3700   -12.3830 
  206.0000     2.1920    65.4220   129.2470   107.2060   162.6660    24.7680   -12.3220 
  206.1250     2.1920    69.0730   150.7340   128.3520   170.1070    24.9210   -12.2330 
  206.2500     2.1950    66.5110   160.4310   141.6380   171.1320    24.9590   -12.2440 
  206.3750     2.1960    59.7790   161.2480   146.5170   164.5660    24.9900   -12.2690 
  206.5000     2.1940    55.2330   159.0450   145.2310   151.6500    25.0610   -12.1710 
  206.6250     2.1900    54.9340   156.3010   140.8610   149.7340    25.1140   -12.0700 
  206.7500     2.1860    55.5430   152.6310   136.4890   132.9170    25.1240   -12.0080 
  206.8750     2.1840    56.2010   148.9480   133.3630   114.3920    25.0540   -11.9040 
  207.0000     2.1830    57.4090   146.2970   131.8640   111.3820    24.9220   -11.7890 
  207.1250     2.1800    58.6310   144.8100   131.5140   114.7840    24.8520   -11.7050 
  207.2500     2.1760    59.6450   143.6080   130.8130   131.2410    24.7780   -11.6100 
  207.3750     2.1710    61.0800   141.7580   128.6780   146.1130    24.7460   -11.4870 
