~V
VERS. 2.00: Ver 2.00
~W
STRT.M 50.0000:
STOP.M 229.0000:
STEP.M 0.1250:
NULL. -999.2500:
UWI. F10777:
~C
DEPT.M :
DEN.GM/CC :
GR.API :
RML.OHMM :
RI. :
RXO.OHMM :
CALI.CM :
SP.MV :
~A
# ...
   72.5000     2.1950    61.5080    13.3740    11.1850    10.1130    23.9790   -20.5980 
   72.6250     2.2040    60.4570    13.3520    11.0970     9.8450    23.9810   -20.6950 
   72.7500     2.2080    64.9850    13.4260    11.0950     9.7310    23.9680   -20.7440 
   72.8750     2.2040    69.2190    13.5360    11.1440     9.7220    23.9510   -20.7010 
   73.0000     2.1910    68.4950    13.6390    11.2100    10.0970    23.9650   -20.5330 
   73.1250     2.1780    65.0930    13.7430    11.2820    10.5950    23.9910   -20.2080 
   73.2500     2.1770    63.3390    13.9290    11.4000    10.9420    24.0230   -19.7740 
   73.3750     2.1880    63.0380    14.3030    11.6320    10.9710    24.0400   -19.2660 
   73.5000     2.2000    62.9960    14.9500    12.0430    11.4550    24.0220   -18.7070 
   73.6250     2.2020    62.0620    15.9180    12.7030    12.0560    23.9490   -18.0970 
   73.7500     2.1850    60.5460    17.0300    13.5280    12.5660    23.8640   -17.4530 
   73.8750     2.1600    59.7200    18.0760    14.3840    12.3320    23.8110   -16.7980 
   74.0000     2.1380    60.4960    18.8190    15.0830    12.0080    23.8070   -16.1830 
   74.1250     2.1280    60.3790    19.0000    15.3720    12.0600    23.8360   -15.7010 
   74.2500     2.1320    58.4940    18.7170    15.2560    12.2020    23.8750   -15.3910 
   74.3750     2.1380    58.3860    18.1940    14.8680    12.0280    23.9680   -15.2680 
   74.5000     2.1410    60.6960    17.7990    14.4800    11.6200    24.1610   -15.3130 
   74.6250     2.1440    61.8950    18.0180    14.4730    11.1580    24.4370   -15.4940 
   74.7500     2.1720    60.2960    18.9460    14.9790    11.0030    24.6680   -15.7330 
   74.8750     2.2470    57.8170    20.4560    15.9720    12.0080    24.8130   -15.9830 
   75.0000     2.3560    55.5960    22.1200    17.2040    16.1510    24.8590   -16.2010 
   75.1250     2.4430    53.4130    23.0740    18.0760    21.7110    24.7770   -16.3400 
   75.2500     2.4260    52.8010    22.8250    18.1110    18.7570    24.6580   -16.3970 
   75.3750     2.3340    53.4630    21.4720    17.2690    12.3240    24.6530   -16.3790 
   75.5000     2.2280    52.9290    19.6450    15.9530     9.7870    24.8140   -16.3010 
   75.6250     2.1620    52.4500    18.1780    14.7560     9.7980    24.9620   -16.1850 
   75.7500     2.1570    53.4870    17.4100    14.0020     9.8510    25.0100   -16.0630 
   75.8750     2.1770    54.9660    17.2860    13.7260     9.7790    24.9710   -15.9490 
   76.0000     2.1930    54.9510    17.5420    13.7960     9.7540    24.9270   -15.8530 
   76.1250     2.1940    53.6420    17.8530    14.0090     9.6770    24.9080   -15.7730 
   76.2500     2.1850    52.1130    18.0020    14.1700     9.6370    24.9110   -15.7010 
   76.3750     2.1730    51.2280    17.9280    14.2100     9.6130    24.9320   -15.6340 
   76.5000     2.1510    51.1830    17.6430    14.1170     9.6390    24.9760   -15.5820 
   76.6250     2.1200    50.4110    17.1900    13.9070     9.7320    25.0760   -15.5670 
   76.7500     2.0910    48.2490    16.6970    13.6560     9.7820    25.1950   -15.6000 
   76.8750     2.0860    45.7670    16.2730    13.4220     9.5650    25.3080   -15.6890 
   77.0000     2.1240    43.7860    16.0060    13.2610     9.1690    25.3660   -15.8440 
   77.1250     2.2040    43.8800    15.9570    13.2230     9.0110    25.4150   -16.1010 
   77.2500     2.2910    46.2070    16.0230    13.2680     9.0950    25.4280   -16.4640 
   77.3750     2.3350    49.1530    16.0590    13.3110     9.3160    25.2030   -16.9360 
   77.5000     2.3360    51.3930    15.8490    13.1940     9.3890    24.8360   -17.5070 
   77.6250     2.3080    54.4400    15.0480    12.6270     9.3950    24.5750   -18.1640 
   77.7500     2.2810    59.5520    13.6430    11.5720     9.2090    24.4710   -18.8790 
   77.8750     2.2720    66.4860    11.8240    10.1580     8.7460    24.4450   -19.6530 
   78.0000     2.2820    76.1520     9.9500     8.6590     8.2090    24.4930   -20.4860 
   78.1250     2.3040    87.1370     8.4490     7.3980     6.9480    24.5880   -21.3410 
   78.2500     2.3300    94.2730     7.4360     6.4850     6.0370    24.6760   -22.1340 
   78.3750     2.3540    94.4480     6.8820     5.9190     6.3420    24.7070   -22.7860 
   78.5000     2.3730    89.4980     6.6770     5.6410     7.7610    24.6870   -23.2460 
   78.6250     2.3840    86.5130     6.7180     5.6020     9.3280    24.7100   -23.4930 
   78.7500     2.3830    86.5710     6.8770     5.6970     8.2750    24.7310   -23.6110 
   78.8750     2.3680    87.4310     7.1070     5.8790     7.0110    24.7550   -23.6510 
   79.0000     2.3390    86.3460     7.3990     6.1190     6.8650    24.7870   -23.6450 
   79.1250     2.3030    81.6230     7.7690     6.4130     7.8400    24.8150   -23.6080 
   79.2500     2.2690    75.1960     8.1860     6.7420     8.7530    24.8070   -23.5580 
   79.3750     2.2460    71.3540     8.6000     7.0740     8.8170    24.7740   -23.5080 
   79.5000     2.2370    70.9840     8.9440     7.3640     8.4100    24.6960   -23.4630 
   79.6250     2.2400    69.1980     9.1240     7.5300     8.6930    24.5790   -23.4210 
   79.7500     2.2500    66.7710     9.1140     7.5390     9.1320    24.5350   -23.3770 
   79.8750     2.2620    68.2270     8.9060     7.3830     8.8890    24.5800   -23.3320 
   80.0000     2.2760    72.6060     8.5490     7.0930     8.4210    24.6730   -23.2950 
   80.1250     2.2880    74.7290     8.1340     6.7370     7.5800    24.7560   -23.2900 
   80.2500     2.2930    75.5560     7.7890     6.4120     6.9440    24.7880   -23.3230 
   80.3750     2.2900    76.1140     7.5920     6.1830     6.7060    24.7930   -23.3960 
   80.5000     2.2830    76.5470     7.5690     6.0810     7.0370    24.7760   -23.5000 
   80.6250     2.2770    78.7720     7.6760     6.0940     6.9380    24.7290   -23.6160 
   80.7500     2.2730    82.2570     7.7810     6.1370     6.8760    24.6830   -23.7200 
   80.8750     2.2700    83.3460     7.8100     6.1540     7.0170    24.6590   -23.7950 
   81.0000     2.2690    81.4600     7.7480     6.1230     7.4030    24.6550   -23.8410 
   81.1250     2.2800    79.0980     7.6620     6.0750     7.5320    24.6350   -23.8730 
   81.2500     2.3160    77.1130     7.6740     6.0830     7.1610    24.5950   -23.9180 
   81.3750     2.3690    75.8940     7.8700     6.2050     7.0760    24.5640   -23.9940 
   81.5000     2.4170    74.7800     8.2720     6.4700     8.6190    24.5530   -24.1030 
   81.6250     2.4340    71.7050     8.8060     6.8570     9.0660    24.5500   -24.2320 
   81.7500     2.4080    67.7970     9.2630     7.2350     9.8910    24.5490   -24.3510 
   81.8750     2.3630    65.1150     9.4660     7.4720     9.8490    24.5470   -24.4440 
   82.0000     2.3220    64.2670     9.3320     7.4760     9.2450    24.5680   -24.5020 
   82.1250     2.2930    64.1000     8.9550     7.2590     8.6680    24.6490   -24.5200 
   82.2500     2.2770    66.8150     8.6270     7.0090     8.0660    24.7460   -24.5090 
   82.3750     2.2640    70.8900     8.5280     6.8620     7.5440    24.7040   -24.4740 
   82.5000     2.2550    71.5270     8.7170     6.8890     7.4100    24.4940   -24.4150 
   82.6250     2.2520    66.8230     9.1520     7.0950     8.0790    24.2800   -24.3310 
   82.7500     2.2630    62.1140     9.5960     7.3480     8.2520    24.1980   -24.2360 
   82.8750     2.2820    60.2890     9.8160     7.4990     7.8630    24.2150   -24.1410 
   83.0000     2.3000    61.0680     9.6520     7.4270     7.4370    24.3330   -24.0480 
   83.1250     2.3050    63.2610     9.1120     7.0930     7.6620    24.5870   -23.9470 
   83.2500     2.2880    66.4970     8.5650     6.7060     7.8570    24.8300   -23.8290 
   83.3750     2.2620    70.0670     8.3900     6.4990     7.8020    24.9970   -23.6940 
   83.5000     2.2430    71.0690     8.9500     6.7180     7.5380    25.0800   -23.5560 
   83.6250     2.2560    67.9650    10.7300     7.7150     8.6770    25.0930   -23.4550 
