~V
VERS. 2.00: Ver 2.00
~W
STRT.M 40.0000:
STOP.M 236.0000:
STEP.M 0.1250:
NULL. -999.2500:
UWI. F10781:
~C
DEPT.M :
GR.API :
RML.OHMM :
RI. :
RXO.OHMM :
CALI.CM :
SP.MV :
DEN.GM/CC :
~A
# ...
   85.0000    65.2150    12.5080     9.7560    10.2170    24.7380   -11.5920     2.3370 
   85.1250    64.8600    12.8060    10.1180    11.3470    24.8130   -11.6330     2.3870 
   85.2500    64.1860    12.6490    10.1110    12.8400    24.9060   -11.6430     2.4680 
   85.3750    64.3250    12.0940     9.7550    12.3640    25.0230   -11.6300     2.5370 
   85.5000    64.0910    11.2950     9.1600     9.6430    25.1420   -11.5950     2.5450 
   85.6250    63.4160    10.4210     8.4740     8.9890    25.2620   -11.5380     2.4790 
   85.7500    63.9100     9.5990     7.8310     8.7480    25.3490   -11.4710     2.3980 
   85.8750    65.2550     8.8860     7.2820     8.2360    25.4060   -11.4170     2.3390 
   86.0000    66.3950     8.3090     6.8430     7.7790    25.4300   -11.3970     2.3170 
   86.1250    68.3040     7.9240     6.5320     7.1640    25.4360   -11.4310     2.3220 
   86.2500    71.4320     7.7610     6.3540     6.5180    25.4340   -11.5210     2.3330 
   86.3750    74.2310     7.8530     6.3440     6.7760    25.4260   -11.6620     2.3430 
   86.5000    73.2210     8.1700     6.5100     7.6250    25.4180   -11.8370     2.3470 
   86.6250    68.9010     8.6110     6.8240     8.3610    25.3960   -12.0280     2.3450 
   86.7500    65.1210     9.0250     7.1780     8.5930    25.3780   -12.2150     2.3370 
   86.8750    63.4100     9.3330     7.5030     8.7970    25.3550   -12.3730     2.3290 
   87.0000    64.1020     9.5310     7.7620     8.5720    25.3450   -12.4890     2.3210 
   87.1250    67.3580     9.6910     7.9700     8.8450    25.3310   -12.5350     2.3120 
   87.2500    69.9910     9.8820     8.1690     8.8250    25.3350   -12.5150     2.2960 
   87.3750    67.8330    10.0880     8.3570     8.7740    25.3310   -12.4260     2.2760 
   87.5000    61.9860    10.2480     8.4950     9.0530    25.3380   -12.2810     2.2590 
   87.6250    58.4730    10.2690     8.5250     9.3900    25.3290   -12.0960     2.2640 
   87.7500    60.2940    10.1620     8.4580     9.5190    25.3260   -11.8960     2.2920 
   87.8750    65.9790     9.9940     8.3360     8.9070    25.3110   -11.7130     2.3300 
   88.0000    71.2460     9.8620     8.2170     8.3730    25.2980   -11.5620     2.3560 
   88.1250    71.2220     9.8680     8.1510     8.0340    25.2510   -11.4580     2.3520 
   88.2500    68.8030     9.9750     8.1220     8.7260    25.2050   -11.3870     2.3280 
   88.3750    68.9280    10.0740     8.0800     9.2090    25.1500   -11.3340     2.3000 
   88.5000    72.8020    10.0530     7.9700     9.1290    25.0860   -11.2830     2.2840 
   88.6250    75.5200     9.8910     7.8050     8.6320    25.0070   -11.2290     2.2810 
   88.7500    75.1000     9.7780     7.7000     8.3310    24.9450   -11.1900     2.2780 
   88.8750    74.2250     9.9000     7.7680     8.5010    24.9080   -11.1730     2.2720 
   89.0000    74.7600    10.3790     8.0830     9.7600    24.9060   -11.1810     2.2710 
   89.1250    72.5220    11.2400     8.6750    12.4690    24.9410   -11.2150     2.2940 
   89.2500    66.5520    12.2240     9.3900    15.0960    24.9930   -11.2580     2.3330 
   89.3750    61.3600    13.1000    10.0830    13.9560    25.0530   -11.3010     2.3640 
   89.5000    60.9650    13.7310    10.6520    11.4820    25.1090   -11.3230     2.3630 
   89.6250    62.5900    14.0870    11.0590    10.9630    25.1640   -11.2960     2.3230 
   89.7500    60.5870    14.3200    11.3820    11.3160    25.1960   -11.2100     2.2740 
   89.8750    56.3410    14.5240    11.6690    11.7430    25.2070   -11.0860     2.2390 
   90.0000    53.8680    14.7230    11.9230    11.8630    25.1910   -10.9510     2.2260 
   90.1250    55.4020    14.8420    12.0750    11.8820    25.1840   -10.8240     2.2260 
   90.2500    57.0090    14.8240    12.0840    11.8790    25.1670   -10.7000     2.2270 
   90.3750    58.0610    14.6630    11.9490    11.7380    25.1500   -10.5740     2.2270 
   90.5000    59.2530    14.3720    11.7020    10.7170    25.1140   -10.4500     2.2280 
   90.6250    60.1790    13.9480    11.3740    10.0090    25.0880   -10.3370     2.2340 
   90.7500    61.2600    13.4320    11.0040     9.5870    25.0540   -10.2300     2.2460 
   90.8750    64.2290    12.8590    10.6090     9.3530    25.0360   -10.1120     2.2630 
   91.0000    68.0960    12.2930    10.2160     9.2000    25.0110    -9.9830     2.2800 
   91.1250    68.4870    11.8450     9.8700    10.0750    25.0090    -9.8440     2.2890 
   91.2500    66.4770    11.5480     9.5970    11.0200    25.0140    -9.7070     2.2900 
   91.3750    65.3260    11.3970     9.4100    11.1410    25.0310    -9.5510     2.2850 
   91.5000    67.1110    11.3780     9.3240    10.5180    25.0410    -9.3450     2.2770 
   91.6250    67.8690    11.5180     9.3910    10.6490    25.0590    -9.0340     2.2630 
   91.7500    65.5690    11.8600     9.6460    10.4800    25.0640    -8.6240     2.2460 
   91.8750    62.5290    12.5070    10.1570     9.9950    25.0640    -8.1210     2.2300 
   92.0000    61.8110    13.5530    10.9810     9.8340    25.0690    -7.5420     2.2220 
   92.1250    63.7500    15.1070    12.1870    10.4330    25.0670    -6.9260     2.2260 
   92.2500    64.2220    17.0170    13.6560    11.6650    25.0660    -6.3540     2.2350 
   92.3750    62.1030    19.0800    15.2420    12.7920    25.0700    -5.8970     2.2420 
   92.5000    58.9210    20.9490    16.7160    13.4510    25.0890    -5.6100     2.2470 
   92.6250    57.3330    21.9630    17.6520    13.6870    25.1040    -5.5360     2.2480 
   92.7500    57.2400    21.7730    17.7900    13.8500    25.1240    -5.6360     2.2400 
   92.8750    56.8760    20.2720    16.9830    13.6360    25.1400    -5.8780     2.2180 
   93.0000    55.4370    17.7430    15.3340    13.0940    25.1590    -6.2270     2.1890 
   93.1250    56.3280    14.7950    13.2060    11.8510    25.1450    -6.6500     2.1780 
   93.2500    61.2820    12.1650    11.1800     9.9450    25.1140    -7.0910     2.2030 
   93.3750    68.8090    10.2180     9.5730     8.3100    25.0540    -7.5180     2.2590 
   93.5000    75.5310     9.0670     8.5270     7.2330    24.9860    -7.9170     2.3210 
   93.6250    79.0540     8.7310     8.1140     6.8930    24.8940    -8.2550     2.3510 
   93.7500    79.6970     8.8530     8.1000     7.5560    24.8130    -8.5170     2.3440 
   93.8750    76.3630     9.1180     8.2640     8.6590    24.7330    -8.6810     2.3200 
   94.0000    70.8510     9.1920     8.3410     8.9990    24.6750    -8.7330     2.2980 
   94.1250    69.2320     8.8170     8.0910     8.4540    24.6230    -8.6630     2.2930 
   94.2500    71.9550     8.1710     7.5930     7.4580    24.6040    -8.5190     2.3010 
   94.3750    76.6540     7.5160     7.0240     6.7570    24.6040    -8.3310     2.3180 
   94.5000    80.0570     7.0670     6.5640     6.2970    24.6300    -8.1230     2.3350 
   94.6250    79.3450     6.9530     6.3520     6.3880    24.6600    -7.9150     2.3450 
   94.7500    76.8100     7.0880     6.3650     7.1350    24.7080    -7.7110     2.3480 
   94.8750    75.4470     7.4330     6.5900     7.4450    24.7580    -7.5150     2.3420 
   95.0000    76.0320     8.0290     7.0370     7.5450    24.8030    -7.3110     2.3270 
   95.1250    75.0580     9.0710     7.8090     7.7790    24.8300    -7.0440     2.3020 
   95.2500    70.8630    10.6100     8.9240     8.7950    24.8440    -6.6940     2.2750 
   95.3750    65.8970    12.6190    10.3940     9.9540    24.8520    -6.2710     2.2520 
   95.5000    61.5300    14.8680    12.1160    11.0810    24.8670    -5.8210     2.2390 
   95.6250    57.9970    16.8290    13.7590    11.1520    24.9190    -5.3890     2.2360 
   95.7500    55.4660    18.0750    14.9300    11.1880    24.9880    -5.0190     2.2350 
   95.8750    54.6720    18.4960    15.4460    11.2980    25.0770    -4.7390     2.2320 
   96.0000    55.5010    18.3380    15.4210    11.2770    25.1620    -4.5530     2.2280 
   96.1250    56.9070    18.1250    15.2160    11.1080    25.2310    -4.4600     2.2260 
