~V
VERS. 2.00: Ver 2.00
~W
STRT.M 40.0000:
STOP.M 236.0000:
STEP.M 0.1250:
NULL. -999.2500:
UWI. F10781:
~C
DEPT.M :
GR.API :
RML.OHMM :
RI. :
RXO.OHMM :
CALI.CM :
SP.MV :
DEN.GM/CC :
~A
# ...
  186.2500    77.2250     8.9020     7.9830     7.5170    25.1590    -5.9010     2.3880 
  186.3750    73.7270     9.1020     8.0290     7.6370    25.1310    -5.9050     2.3920 
  186.5000    68.8670     9.2590     8.0700     7.6710    25.1060    -5.9040     2.3980 
  186.6250    67.2040     9.2690     8.0360     7.8710    25.0780    -5.9080     2.4020 
  186.7500    69.6840     9.1580     7.9200     7.9330    25.0540    -5.9040     2.3990 
  186.8750    73.1490     9.0240     7.7730     7.9470    25.0200    -5.8850     2.3900 
  187.0000    74.5800     9.0200     7.7000     7.8920    24.9860    -5.8570     2.3780 
  187.1250    73.6100     9.3650     7.8760     8.1160    24.9510    -5.8170     2.3670 
  187.2500    71.9220    10.1440     8.3830     8.8120    24.9330    -5.7780     2.3540 
  187.3750    70.7430    11.4130     9.2740    10.4890    24.9250    -5.7470     2.3340 
  187.5000    69.4740    13.1210    10.5360    13.4780    24.9370    -5.7270     2.3070 
  187.6250    67.3370    15.0500    12.0490    16.2890    24.9670    -5.7210     2.2810 
  187.7500    64.4880    16.7770    13.4890    17.4250    25.0150    -5.7180     2.2630 
  187.8750    62.1720    17.9950    14.5840    17.4470    25.0760    -5.7270     2.2540 
  188.0000    61.2610    18.5960    15.1900    17.2920    25.1480    -5.7460     2.2490 
  188.1250    61.0130    18.6700    15.3160    16.7290    25.2010    -5.7700     2.2460 
  188.2500    61.1380    18.5780    15.2480    16.6050    25.2390    -5.7950     2.2470 
  188.3750    61.1530    18.4870    15.1560    16.1820    25.2640    -5.8210     2.2530 
  188.5000    60.4090    18.4480    15.1120    15.1910    25.2850    -5.8540     2.2630 
  188.6250    59.4340    18.4050    15.0970    14.3930    25.2940    -5.9090     2.2680 
  188.7500    58.9190    18.2670    15.0310    15.1340    25.2970    -5.9830     2.2680 
  188.8750    60.7960    17.9820    14.8650    15.8830    25.2910    -6.0670     2.2640 
  189.0000    65.1880    17.5650    14.6070    16.3390    25.2840    -6.1480     2.2620 
  189.1250    68.7450    17.1140    14.3350    15.4960    25.2760    -6.2120     2.2660 
  189.2500    67.8690    16.7800    14.1610    14.8530    25.2600    -6.2580     2.2730 
  189.3750    64.5080    16.6630    14.1570    14.8460    25.2200    -6.2890     2.2780 
  189.5000    62.7300    16.7960    14.3480    15.3400    25.1650    -6.3150     2.2770 
  189.6250    62.9130    17.1500    14.7120    15.8800    25.1090    -6.3570     2.2680 
  189.7500    62.8090    17.5740    15.1250    16.4050    25.0740    -6.4230     2.2590 
  189.8750    62.0530    17.9800    15.4970    16.7010    25.0610    -6.5280     2.2530 
  190.0000    60.4750    18.3180    15.7770    17.2360    25.0720    -6.6720     2.2540 
  190.1250    58.8650    18.5880    15.9620    16.6510    25.0980    -6.8470     2.2590 
  190.2500    58.0060    18.8580    16.1270    16.4660    25.1410    -7.0220     2.2610 
  190.3750    57.9930    19.1770    16.3300    16.3310    25.1970    -7.1720     2.2610 
  190.5000    57.8110    19.5630    16.6000    16.5910    25.2530    -7.2900     2.2620 
  190.6250    57.4740    20.0340    16.9450    17.4980    25.2900    -7.3770     2.2680 
  190.7500    58.5300    20.6190    17.3630    19.0470    25.3120    -7.4550     2.2770 
  190.8750    59.8130    21.4090    17.9070    19.9100    25.3320    -7.5380     2.2840 
  191.0000    59.8240    22.5370    18.6720    19.7510    25.3630    -7.6410     2.2800 
  191.1250    59.8510    24.2860    19.8670    19.5840    25.3970    -7.7760     2.2620 
  191.2500    60.0360    26.7580    21.5880    21.9280    25.4180    -7.9270     2.2400 
  191.3750    59.2560    29.9870    23.9000    28.1350    25.4140    -8.0690     2.2250 
  191.5000    56.8260    33.7850    26.7200    34.4880    25.3940    -8.1720     2.2340 
  191.6250    55.4920    37.6440    29.7270    37.7440    25.3390    -8.2050     2.2910 
  191.7500    56.3340    40.8700    32.3660    38.2120    25.2680    -8.1830     2.3860 
  191.8750    56.2470    43.0020    34.2300    37.7050    25.1910    -8.1240     2.4840 
  192.0000    53.2000    43.9400    35.1740    35.7270    25.1130    -8.0510     2.5340 
  192.1250    49.0190    43.8260    35.2530    34.8580    25.0260    -7.9870     2.5020 
  192.2500    48.0780    43.2460    34.9090    32.3370    24.9450    -7.9490     2.4250 
  192.3750    50.6110    42.5420    34.3980    29.1310    24.8710    -7.9410     2.3400 
  192.5000    53.3300    41.9880    33.9410    27.1430    24.8070    -7.9630     2.2700 
  192.6250    53.4870    41.8320    33.7490    27.2710    24.7470    -8.0110     2.2320 
  192.7500    52.1650    42.0580    33.8550    28.1700    24.6970    -8.0670     2.2170 
  192.8750    51.8810    42.5640    34.2130    30.6370    24.6590    -8.1190     2.2180 
  193.0000    52.4970    43.1500    34.7040    34.1040    24.6440    -8.1630     2.2300 
  193.1250    52.0290    43.5460    35.1450    32.9020    24.6490    -8.2020     2.2460 
  193.2500    50.8820    43.6480    35.4100    29.9560    24.6600    -8.2380     2.2610 
  193.3750    51.0880    43.4570    35.4520    29.6490    24.6640    -8.2670     2.2730 
  193.5000    52.6140    43.0310    35.2800    31.5320    24.6560    -8.2930     2.2800 
  193.6250    54.6700    42.4270    34.9220    33.8160    24.6520    -8.3060     2.2790 
  193.7500    57.8590    41.7340    34.4710    33.4840    24.6520    -8.3090     2.2720 
  193.8750    59.8240    40.9980    33.9770    31.3710    24.6560    -8.2950     2.2650 
  194.0000    58.8650    40.2720    33.4880    29.2900    24.6690    -8.2780     2.2580 
  194.1250    55.8140    39.6270    33.0730    27.8400    24.6960    -8.2650     2.2540 
  194.2500    53.4170    39.0730    32.7540    27.9610    24.7230    -8.2710     2.2500 
  194.3750    52.1840    38.5870    32.5170    28.8010    24.7460    -8.3040     2.2440 
  194.5000    52.1260    38.1530    32.3200    31.6680    24.7650    -8.3690     2.2340 
  194.6250    53.8660    37.7730    32.1080    33.0610    24.7780    -8.4740     2.2260 
  194.7500    55.6800    37.4350    31.8670    32.5230    24.7820    -8.5980     2.2270 
  194.8750    56.6370    37.1360    31.6300    30.9870    24.8040    -8.7160     2.2430 
  195.0000    56.7170    36.8890    31.4490    29.5210    24.8470    -8.8100     2.2670 
  195.1250    55.9790    36.7440    31.4020    29.4840    24.9040    -8.8610     2.2790 
  195.2500    54.6610    36.7440    31.5130    30.3670    24.9640    -8.8930     2.2690 
  195.3750    52.9750    36.9350    31.7930    31.2160    25.0230    -8.9080     2.2430 
  195.5000    51.4260    37.3410    32.2390    32.5790    25.0750    -8.9110     2.2220 
  195.6250    52.3390    37.9770    32.8460    34.3410    25.1240    -8.9110     2.2220 
  195.7500    54.3320    38.7400    33.5440    36.1760    25.1650    -8.9140     2.2340 
  195.8750    54.9190    39.5190    34.2640    35.9540    25.2000    -8.9200     2.2410 
  196.0000    53.5980    40.1840    34.9130    36.5400    25.2200    -8.9160     2.2330 
  196.1250    51.0430    40.6030    35.3710    38.1310    25.2450    -8.9040     2.2230 
  196.2500    51.1450    40.7970    35.6260    39.0940    25.2600    -8.8880     2.2280 
  196.3750    54.4410    40.8070    35.6960    39.5710    25.2610    -8.8780     2.2520 
  196.5000    57.2730    40.6770    35.6290    39.9030    25.2470    -8.8770     2.2800 
  196.6250    55.7520    40.4160    35.4580    39.5750    25.2370    -8.8850     2.2860 
  196.7500    53.0750    40.0660    35.2210    36.8050    25.2280    -8.8920     2.2690 
  196.8750    52.9380    39.6660    34.9390    36.0670    25.2360    -8.9010     2.2440 
  197.0000    54.2720    39.2640    34.6370    37.3080    25.2520    -8.9070     2.2280 
  197.1250    54.2100    38.9100    34.3660    37.5290    25.2780    -8.8990     2.2320 
  197.2500    53.4010    38.6230    34.1720    37.4310    25.2920    -8.8790     2.2430 
  197.3750    52.2020    38.4100    34.0870    37.0030    25.3070    -8.8670     2.2520 
