~V
VERS. 2.00: Ver 2.00
~W
STRT.M 50.0000:
STOP.M 230.0000:
STEP.M 0.1250:
NULL. -999.2500:
UWI. F10780:
~C
DEPT.M :
DEN.GM/CC :
GR.API :
RML.OHMM :
RI. :
RXO.OHMM :
CALI.CM :
SP.MV :
~A
# ...
  128.7500     2.2040    66.0250    22.9320    19.5860    12.8410    23.6730   -11.7200 
  128.8750     2.2090    66.6830    21.8830    18.7780    10.9980    23.6770   -11.7900 
  129.0000     2.2050    64.9220    20.7810    17.8790     9.7450    23.6450   -11.9240 
  129.1250     2.1960    64.2320    19.8810    17.1190     9.2970    23.6010   -12.1580 
  129.2500     2.1870    66.9010    19.2310    16.5650     9.0480    23.5640   -12.4710 
  129.3750     2.1820    70.2900    18.7930    16.2030     8.8430    23.5350   -12.8520 
  129.5000     2.1820    70.9990    18.5030    15.9860     8.6700    23.5220   -13.2060 
  129.6250     2.1830    70.6500    18.3330    15.8880     8.5820    23.5210   -13.4940 
  129.7500     2.1800    72.7810    18.2680    15.8870     8.5610    23.5240   -13.7220 
  129.8750     2.1710    74.5200    18.3120    15.9900     8.6310    23.5430   -13.9130 
  130.0000     2.1590    72.4510    18.4280    16.1740     8.6020    23.5900   -14.1340 
  130.1250     2.1540    69.5830    18.5090    16.3510     8.5800    23.6360   -14.3530 
  130.2500     2.1610    68.9900    18.4570    16.4220     8.7300    23.6260   -14.5030 
  130.3750     2.1800    69.4560    18.2500    16.3470     8.9290    23.5640   -14.5700 
  130.5000     2.2120    69.2980    17.9380    16.1550     9.0240    23.5270   -14.6400 
  130.6250     2.2580    70.0750    17.6170    15.9220     8.7980    23.5230   -14.8070 
  130.7500     2.3140    71.9860    17.3230    15.7000     8.2510    23.5420   -15.0920 
  130.8750     2.3690    74.0190    16.9880    15.4400     8.4260    23.5660   -15.4190 
  131.0000     2.4080    76.6130    16.4940    15.0350     9.0180    23.5810   -15.6900 
  131.1250     2.4140    79.6690    15.7460    14.3700     9.1960    23.5950   -15.9110 
  131.2500     2.3930    81.4960    14.9060    13.5640     8.9810    23.6370   -16.1360 
  131.3750     2.3560    82.0210    14.2280    12.8220     9.0150    23.7120   -16.3370 
  131.5000     2.3170    81.8030    13.9870    12.3830     8.5460    23.7810   -16.4040 
  131.6250     2.2840    80.3390    14.4860    12.5410     8.4830    23.7480   -16.2350 
  131.7500     2.2540    76.8670    15.6090    13.2830     9.0550    23.6600   -15.8850 
  131.8750     2.2280    72.2820    17.1580    14.5250    10.1000    23.5700   -15.4260 
  132.0000     2.2060    68.3090    18.8290    16.0610    10.5580    23.5360   -14.9390 
  132.1250     2.1970    65.6470    20.2510    17.5660    10.2260    23.6020   -14.4050 
  132.2500     2.2040    64.8040    21.2700    18.7780     9.8850    23.7830   -13.7830 
  132.3750     2.2230    65.1420    21.8990    19.6140    10.1640    24.0110   -13.1010 
  132.5000     2.2440    65.5010    22.2610    20.1300    10.6180    24.0960   -12.4490 
  132.6250     2.2470    65.2100    22.4820    20.4290    11.2570    23.9710   -11.9150 
  132.7500     2.2280    64.3150    22.6490    20.6300    11.5520    23.8270   -11.4760 
  132.8750     2.1970    63.3360    22.7510    20.7460    10.4290    23.8180   -11.1280 
  133.0000     2.1690    61.8170    22.7470    20.7600     9.4670    23.8550   -10.8380 
  133.1250     2.1620    60.4700    22.5370    20.6060     8.9330    23.8030   -10.6330 
  133.2500     2.1730    60.2350    22.0560    20.2350     8.8670    23.6530   -10.5970 
  133.3750     2.1950    61.4980    21.2300    19.5730     9.0880    23.4910   -10.7800 
  133.5000     2.2210    65.0880    20.0580    18.5950     9.1580    23.4100   -11.1550 
  133.6250     2.2410    69.3070    18.6520    17.3630     8.8700    23.4370   -11.6310 
  133.7500     2.2510    72.3770    17.3110    16.1310     8.8620    23.3630   -12.1320 
  133.8750     2.2500    73.8090    16.2770    15.1210     9.0720    23.2060   -12.6960 
  134.0000     2.2420    72.4080    15.7080    14.5020     9.2940    23.1290   -13.3770 
  134.1250     2.2370    69.7260    15.6950    14.4040     8.8640    23.2460   -14.1550 
  134.2500     2.2370    68.1040    16.0090    14.6690     9.0900    23.4270   -14.9030 
  134.3750     2.2420    67.2360    16.4400    15.1220     8.8390    23.5500   -15.5540 
  134.5000     2.2450    65.3970    16.7810    15.5610     8.5210    23.5820   -16.1480 
  134.6250     2.2450    64.8800    16.8490    15.7760     8.2250    23.5590   -16.7870 
  134.7500     2.2410    68.2060    16.6820    15.7420     7.8990    23.5330   -17.4820 
  134.8750     2.2350    71.7890    16.3730    15.5210     7.7210    23.5240   -18.1120 
  135.0000     2.2250    71.7250    16.0400    15.2190     7.7230    23.5430   -18.5590 
  135.1250     2.2090    70.5890    15.7920    14.9460     7.8570    23.6140   -18.8120 
  135.2500     2.1920    71.1600    15.6700    14.7570     7.9630    23.7060   -19.0010 
  135.3750     2.1790    71.0080    15.7080    14.6850     7.9490    23.7390   -19.1580 
  135.5000     2.1770    66.6820    15.9330    14.7590     7.9710    23.7260   -19.2420 
  135.6250     2.1980    61.9650    16.3770    15.0210     8.1730    23.7500   -19.1490 
  135.7500     2.2460    62.0050    16.9420    15.4120     8.4340    23.8240   -18.8670 
  135.8750     2.3100    64.0910    17.5250    15.8540     8.6250    23.8940   -18.4470 
  136.0000     2.3670    65.0850    18.0180    16.2520     9.2990    23.8070   -17.9910 
  136.1250     2.3820    66.4190    18.3480    16.5180    10.0510    23.3670   -17.5360 
  136.2500     2.3460    69.7810    18.5950    16.6900     9.2880    22.8710   -17.0330 
  136.3750     2.2740    71.5190    18.8860    16.8630     8.0860    22.6180   -16.4200 
  136.5000     2.1960    68.0610    19.3580    17.1600     8.1290    22.6720   -15.6900 
  136.6250     2.1490    61.6370    20.1450    17.7370     9.1910    22.9260   -14.9090 
  136.7500     2.1420    57.1270    21.1910    18.5960    10.0720    23.2050   -14.1730 
  136.8750     2.1640    56.7150    22.4000    19.6880    10.0030    23.4900   -13.5390 
  137.0000     2.1950    59.0160    23.6070    20.8900    10.1480    23.6730   -13.0110 
  137.1250     2.2140    61.5560    24.5190    21.9520    10.6490    23.7120   -12.5530 
  137.2500     2.2170    62.3410    24.9120    22.6190    10.6030    23.6680   -12.2230 
  137.3750     2.2080    61.0170    24.6220    22.6880    10.2270    23.5920   -12.1360 
  137.5000     2.1980    59.5450    23.6370    22.0790     9.7640    23.5540   -12.3330 
  137.6250     2.1980    59.9020    22.0810    20.8280     9.4350    23.5690   -12.7880 
  137.7500     2.2120    62.8980    20.3560    19.3000     9.5910    23.5790   -13.3340 
  137.8750     2.2350    66.4200    18.6980    17.7330    10.2330    23.5780   -13.8800 
  138.0000     2.2630    68.2120    17.2370    16.2830    11.1550    23.5740   -14.3840 
  138.1250     2.2840    69.6860    16.0850    15.0870     9.7740    23.6070   -14.8720 
  138.2500     2.2930    73.9020    15.2620    14.1840     8.9680    23.6550   -15.2930 
  138.3750     2.2880    80.3680    14.8400    13.6400     8.1500    23.6930   -15.5680 
  138.5000     2.2710    84.1690    14.8760    13.5080     7.1940    23.6920   -15.6470 
  138.6250     2.2490    82.1540    15.4110    13.8540     7.2650    23.5660   -15.5590 
  138.7500     2.2300    78.4210    16.2220    14.5210     8.2460    23.4340   -15.4220 
  138.8750     2.2190    75.8120    17.0970    15.3500     8.9480    23.3850   -15.3350 
  139.0000     2.2160    73.9210    17.8300    16.1440     9.1370    23.4500   -15.3360 
  139.1250     2.2130    69.6060    18.2630    16.7020     8.6310    23.5200   -15.3500 
  139.2500     2.2050    65.3640    18.4910    17.0260     8.0600    23.5110   -15.3640 
  139.3750     2.1930    64.2350    18.6400    17.1970     7.7460    23.4510   -15.4230 
  139.5000     2.1850    66.2940    18.7870    17.3070     7.9170    23.3720   -15.5920 
  139.6250     2.1950    67.7870    18.8740    17.3510     8.4500    23.4940   -15.8850 
  139.7500     2.2230    67.4150    18.7590    17.2430     8.9860    23.6490   -16.2390 
  139.8750     2.2570    66.8440    18.3280    16.8830     9.2900    23.6930   -16.6120 
