~V
VERS. 2.00: Ver 2.00
~W
STRT.M 10.0000:
STOP.M 237.0000:
STEP.M 0.1250:
NULL. -999.2500:
UWI. F10776:
~C
DEPT.M :
DEN.GM/CC :
GR.API :
RML.OHMM :
RI. :
RXO.OHMM :
CALI.CM :
SP.MV :
~A
# ...
   66.2500     2.2370    58.1700     6.7720     7.5170     6.3410    24.0280   -15.5690 
   66.3750     2.2920    58.2830     6.6870     7.4950     6.7890    24.2470   -15.6840 
   66.5000     2.3450    61.0120     6.5130     7.3520     7.3350    24.4260   -15.8030 
   66.6250     2.3620    62.6710     6.2840     7.0710     6.8040    24.3280   -15.9320 
   66.7500     2.3410    61.3300     6.0590     6.7260     6.2980    24.0880   -16.0370 
   66.8750     2.2970    59.9420     5.8750     6.3870     5.8180    23.9060   -16.1420 
   67.0000     2.2450    60.3640     5.7480     6.1180     5.5250    23.9370   -16.3010 
   67.1250     2.1870    60.7050     5.6710     5.9610     5.4630    23.9750   -16.4890 
   67.2500     2.1230    58.9030     5.6150     5.8710     5.5680    23.9330   -16.7150 
   67.3750     2.0720    55.3600     5.5980     5.8270     6.0230    23.7970   -16.9330 
   67.5000     2.0600    51.8100     5.6850     5.8620     6.5170    23.7010   -17.1170 
   67.6250     2.1150    50.3640     6.0040     6.0950     6.5410    23.7130   -17.2750 
   67.7500     2.2250    50.9650     6.5630     6.5700     6.3420    23.7660   -17.3970 
   67.8750     2.3510    53.8400     7.3020     7.2560     6.5780    23.8800   -17.4640 
   68.0000     2.4280    57.3840     8.0130     7.9920     8.3150    24.0370   -17.4140 
   68.1250     2.4170    57.5600     8.2340     8.3940    11.0430    24.1570   -17.2580 
   68.2500     2.3910    55.7460     7.7970     8.2220    10.6010    24.1660   -17.0290 
   68.3750     2.3980    56.0220     6.9130     7.5120     7.6250    24.3590   -16.7630 
   68.5000     2.4320    59.3470     5.9960     6.5580     5.7180    24.7690   -16.4850 
   68.6250     2.4490    62.3230     5.3840     5.7270     5.2060    25.0570   -16.2440 
   68.7500     2.4280    65.8800     5.0890     5.1780     5.0630    25.1380   -16.0200 
   68.8750     2.3850    68.6300     5.0460     4.9150     4.9310    25.1360   -15.8310 
   69.0000     2.3400    67.3790     5.1730     4.8710     4.8760    25.1380   -15.6950 
   69.1250     2.3020    64.1950     5.4230     4.9880     5.1260    25.0990   -15.6410 
   69.2500     2.2650    65.0060     5.7830     5.2030     5.4790    24.8920   -15.6510 
   69.3750     2.2250    66.9710     6.3160     5.5360     5.6080    24.5080   -15.7120 
   69.5000     2.1850    63.1790     7.1340     6.0550     5.6350    24.0980   -15.8090 
   69.6250     2.1530    54.8350     8.4220     6.9230     6.0340    23.6960   -15.9170 
   69.7500     2.1450    48.5270    10.1130     8.1470     7.0060    23.3150   -16.0430 
   69.8750     2.1730    45.8700    11.9630     9.6150     8.3650    23.2080   -16.1690 
   70.0000     2.2380    47.2980    13.4290    10.9880    10.4100    23.4860   -16.3320 
   70.1250     2.3220    51.0380    13.6150    11.5620    12.8760    24.0200   -16.4660 
   70.2500     2.3940    55.8190    12.5900    11.1210    13.3310    24.4050   -16.6120 
   70.3750     2.4200    59.7050    10.9770     9.9560     9.8700    24.3990   -16.7530 
   70.5000     2.3830    61.0400     9.4870     8.6340     7.1190    24.1090   -16.8670 
   70.6250     2.2900    57.6550     8.5700     7.6370     6.3130    23.8700   -16.9090 
   70.7500     2.2010    51.2010     8.1300     7.0290     6.1600    23.7440   -16.8750 
   70.8750     2.1570    47.0060     8.0150     6.7510     6.2370    23.6950   -16.7630 
   71.0000     2.1710    46.9630     8.0490     6.6820     6.3440    23.7660   -16.5720 
   71.1250     2.2250    53.0730     8.0700     6.6760     6.2420    24.0290   -16.3360 
   71.2500     2.2890    60.5950     8.0030     6.6150     5.9680    24.3900   -16.0520 
   71.3750     2.3510    64.6420     7.8440     6.4770     5.8240    24.7050   -15.7490 
   71.5000     2.3950    62.6450     7.6000     6.2810     5.9980    24.9100   -15.4710 
   71.6250     2.4060    59.2760     7.3040     6.0620     5.9950    25.1250   -15.2330 
   71.7500     2.3930    59.6730     7.0800     5.8910     5.9260    25.3190   -15.0700 
   71.8750     2.3610    63.0760     7.0640     5.8390     5.8400    25.3590   -15.0130 
   72.0000     2.3100    65.6690     7.3490     5.9640     5.8460    25.2300   -15.0420 
   72.1250     2.2520    64.1220     7.9650     6.3120     6.0370    24.9240   -15.1420 
   72.2500     2.2050    59.0840     8.7300     6.8020     6.6110    24.4630   -15.2760 
   72.3750     2.1800    53.3510     9.4540     7.3340     7.6690    23.9320   -15.4140 
   72.5000     2.1740    49.2130     9.9770     7.7920     8.4570    23.4460   -15.5100 
   72.6250     2.1780    46.7680    10.2310     8.0820     7.6390    23.2800   -15.5430 
   72.7500     2.1790    46.6450    10.3660     8.2550     6.8070    23.1980   -15.4910 
   72.8750     2.1740    49.1160    10.4640     8.3600     6.5900    23.0440   -15.3420 
   73.0000     2.1650    51.6840    10.5040     8.4040     6.7700    22.8950   -15.0990 
   73.1250     2.1630    51.0820    10.3450     8.3060     6.9490    22.9180   -14.7730 
   73.2500     2.1840    49.5360     9.9070     8.0100     6.9760    23.1650   -14.4110 
   73.3750     2.2420    50.3770     9.1990     7.5070     6.7240    23.6810   -14.0450 
   73.5000     2.3350    54.3610     8.3510     6.8720     6.1700    24.4090   -13.7050 
   73.6250     2.4190    60.0480     7.5540     6.2410     5.7560    25.0750   -13.4550 
   73.7500     2.4500    63.1760     6.9100     5.7030     5.6710    25.3950   -13.2770 
   73.8750     2.4270    62.6430     6.4400     5.2880     5.6620    25.4800   -13.1540 
   74.0000     2.3800    61.2570     6.1420     5.0000     5.6090    25.4790   -13.0750 
   74.1250     2.3420    62.2060     6.0570     4.8690     5.3840    25.4460   -13.0440 
   74.2500     2.3160    63.5850     6.1760     4.8840     5.0870    25.3700   -13.0340 
   74.3750     2.2940    62.0070     6.4990     5.0570     5.0620    25.2700   -13.0380 
   74.5000     2.2700    58.4070     6.9830     5.3730     5.4840    25.1860   -13.0730 
   74.6250     2.2450    55.9050     7.5130     5.7860     6.3090    25.1310   -13.1130 
   74.7500     2.2260    54.9180     7.9320     6.1760     6.7660    25.0780   -13.1870 
   74.8750     2.2190    53.9860     8.1660     6.4570     6.8150    24.9960   -13.2800 
   75.0000     2.2220    51.6260     8.2450     6.6010     6.6020    24.8250   -13.4120 
   75.1250     2.2260    49.5890     8.2840     6.6560     6.4500    24.5810   -13.5610 
   75.2500     2.2270    50.1020     8.3930     6.7200     6.3610    24.4330   -13.7130 
   75.3750     2.2250    51.5330     8.5830     6.8300     6.3330    24.4290   -13.8700 
   75.5000     2.2230    51.5670     8.8010     6.9720     6.3640    24.3690   -14.0210 
   75.6250     2.2250    49.2000     8.9340     7.0830     6.5300    24.1220   -14.1040 
   75.7500     2.2320    45.9330     8.9110     7.1050     6.5720    24.0110   -14.1390 
   75.8750     2.2360    43.4530     8.7240     7.0140     6.3840    24.1750   -14.1230 
   76.0000     2.2290    43.7880     8.4380     6.8340     6.1840    24.2720   -14.0430 
   76.1250     2.2140    47.3400     8.1830     6.6450     6.2240    24.1860   -13.9280 
   76.2500     2.2030    52.4050     8.0700     6.5330     6.1900    24.2150   -13.7670 
   76.3750     2.2010    56.7770     8.1460     6.5460     5.9400    24.2780   -13.5750 
   76.5000     2.2030    57.7770     8.3960     6.6880     5.8820    24.1240   -13.3450 
   76.6250     2.2010    53.8280     8.7380     6.9160     6.0510    23.7550   -13.1080 
   76.7500     2.1990    48.8190     9.0270     7.1260     6.2280    23.5400   -12.8190 
   76.8750     2.2120    47.2900     9.1810     7.2450     6.3200    23.6350   -12.5300 
   77.0000     2.2540    51.0660     9.1820     7.2470     6.3310    23.9960   -12.2690 
   77.1250     2.3010    56.3250     9.0830     7.1480     6.3980    24.3080   -12.0470 
   77.2500     2.3110    56.4150     8.9940     7.0240     6.3310    24.4000   -11.8830 
   77.3750     2.2800    50.9300     8.9890     6.9330     6.3310    24.2540   -11.7420 
