~V
VERS. 2.00: Ver 2.00
~W
STRT.M 50.0000:
STOP.M 228.0000:
STEP.M 0.1250:
NULL. -999.2500:
UWI. F10779:
~C
DEPT.M :
GR.API :
RML.OHMM :
RI. :
RXO.OHMM :
CALI.CM :
SP.MV :
DEN.GM/CC :
~A
# ...
  128.7500    52.2360    22.7100    20.5150    13.1110    24.7450    -8.8360     2.2060 
  128.8750    50.7160    22.6870    20.5750    13.2710    24.7070    -8.8920     2.2000 
  129.0000    51.4390    22.5040    20.5100    13.5710    24.7870    -8.9810     2.1830 
  129.1250    55.3830    22.2720    20.3790    13.9210    24.7830    -9.1110     2.1670 
  129.2500    58.2650    22.0980    20.2630    13.7180    24.7500    -9.2510     2.1610 
  129.3750    58.1750    22.0370    20.2130    13.8260    24.7690    -9.4050     2.1630 
  129.5000    56.1800    22.1320    20.2820    13.7000    24.7160    -9.5450     2.1650 
  129.6250    54.3310    22.4290    20.5300    13.7200    24.4700    -9.6960     2.1660 
  129.7500    54.4530    22.8610    20.9110    13.7700    24.2750    -9.8250     2.1750 
  129.8750    56.2300    23.3480    21.3560    13.8660    24.3340    -9.9390     2.1990 
  130.0000    57.4240    23.7890    21.7740    14.0500    24.3660   -10.0210     2.2340 
  130.1250    56.4030    24.0640    22.0480    14.2820    24.2610   -10.0850     2.2570 
  130.2500    56.0320    24.1740    22.1590    13.9130    24.2610   -10.1320     2.2570 
  130.3750    56.3490    24.1330    22.1080    13.6560    24.3400   -10.1640     2.2410 
  130.5000    55.5040    23.9080    21.8690    14.0770    24.6130   -10.1820     2.2330 
  130.6250    54.0250    23.3680    21.3330    16.0010    24.8740   -10.1690     2.2530 
  130.7500    54.8260    22.5390    20.5480    19.3980    24.9300   -10.1320     2.2890 
  130.8750    57.7200    21.5310    19.6270    24.0910    24.9360   -10.0760     2.3170 
  131.0000    59.7650    20.5550    18.7470    23.1910    24.9780    -9.9980     2.3200 
  131.1250    58.5680    19.9470    18.1640    19.2740    24.8210    -9.8860     2.2950 
  131.2500    55.1180    19.8290    17.9820    15.4380    24.7960    -9.7690     2.2670 
  131.3750    51.6250    20.1370    18.1700    14.6060    24.7910    -9.6740     2.2510 
  131.5000    49.7410    20.6290    18.5610    14.5930    24.8160    -9.6660     2.2510 
  131.6250    50.9630    21.0030    18.9240    14.3420    24.7720    -9.7830     2.2580 
  131.7500    53.2550    21.1600    19.1430    13.5750    24.6610   -10.0270     2.2630 
  131.8750    52.7100    21.1880    19.2510    13.0710    24.5830   -10.3460     2.2650 
  132.0000    50.0220    21.2530    19.3620    12.9890    24.7970   -10.7200     2.2670 
  132.1250    50.5980    21.4540    19.5710    15.5650    24.7650   -11.0930     2.2700 
  132.2500    53.7560    21.5940    19.7480    20.1250    24.4330   -11.4770     2.2700 
  132.3750    55.6720    21.4150    19.6690    19.9000    24.1130   -11.8570     2.2640 
  132.5000    56.9130    20.7810    19.1940    15.0430    24.0020   -12.2370     2.2520 
  132.6250    60.5320    19.7360    18.3270    12.3670    23.9460   -12.5900     2.2440 
  132.7500    63.2650    18.5570    17.3130    11.6210    23.9360   -12.9650     2.2480 
  132.8750    63.6290    17.3940    16.2940    10.9270    23.9330   -13.3650     2.2640 
  133.0000    63.7690    16.2800    15.3160    10.0010    23.9490   -13.8120     2.2840 
  133.1250    66.1620    15.1360    14.3100     9.5220    24.0380   -14.2750     2.3000 
  133.2500    68.9850    13.9150    13.2220     9.8660    24.1800   -14.7650     2.3100 
  133.3750    70.9730    12.6830    12.0980     9.6010    24.2870   -15.2540     2.3100 
  133.5000    72.4220    11.5590    11.0450     8.3020    24.3600   -15.7430     2.3040 
  133.6250    73.9590    10.6940    10.2010     8.2050    24.3860   -16.1950     2.2990 
  133.7500    72.9830    10.0910     9.5870     8.8510    24.4180   -16.5860     2.2970 
  133.8750    68.6050     9.7090     9.1790     9.4400    24.4190   -16.8740     2.2950 
  134.0000    64.3850     9.4610     8.9140     9.7670    24.3690   -17.0780     2.2890 
  134.1250    66.1980     9.2820     8.7360    10.2530    24.3150   -17.1750     2.2750 
  134.2500    71.1140     9.1640     8.6170    10.6480    24.2720   -17.2400     2.2580 
  134.3750    73.0150     9.1710     8.5950    10.3560    24.2050   -17.2860     2.2480 
  134.5000    70.3280     9.3750     8.7270    10.0000    24.1260   -17.3330     2.2480 
  134.6250    68.3410     9.8600     9.0890     9.5270    24.1160   -17.3530     2.2530 
  134.7500    69.4200    10.5600     9.6440     9.5950    24.1110   -17.3510     2.2500 
  134.8750    69.8200    11.3910    10.3340     9.6790    24.1050   -17.3260     2.2400 
  135.0000    66.8610    12.2300    11.0570     9.9240    24.0680   -17.2790     2.2290 
  135.1250    62.7900    12.8700    11.6320    10.3320    24.0460   -17.2130     2.2280 
  135.2500    60.9280    13.1570    11.9040    10.6950    24.0230   -17.1580     2.2360 
  135.3750    61.7930    12.9910    11.7740    10.6770    24.1090   -17.1510     2.2470 
  135.5000    65.0170    12.4080    11.2650    10.3320    24.2930   -17.2150     2.2500 
  135.6250    68.5050    11.6200    10.5470     9.9280    24.4210   -17.3370     2.2410 
  135.7500    70.1230    10.9790     9.9130     9.4070    24.5700   -17.4810     2.2260 
  135.8750    69.9580    10.6810     9.5270     9.2010    24.6100   -17.5990     2.2100 
  136.0000    68.2490    10.7700     9.4430     9.8200    24.6240   -17.6850     2.1990 
  136.1250    64.3780    11.1530     9.6280    11.8760    24.6570   -17.7210     2.2040 
  136.2500    60.9580    11.5720     9.9040    14.1880    24.7850   -17.7360     2.2240 
  136.3750    61.6430    11.9020    10.1740    14.4420    24.9000   -17.7480     2.2520 
  136.5000    65.8950    12.1840    10.4370    11.7480    24.8740   -17.7680     2.2750 
  136.6250    68.1730    12.6670    10.8360    11.3060    24.8760   -17.8000     2.2790 
  136.7500    67.4340    13.5320    11.5020    11.4840    24.8690   -17.8300     2.2650 
  136.8750    66.6970    14.7450    12.4570    12.9950    24.7630   -17.8500     2.2390 
  137.0000    67.1340    15.9950    13.5250    14.3160    24.7480   -17.8450     2.2120 
  137.1250    66.9100    16.5980    14.2010    15.6330    24.7450   -17.8450     2.1930 
  137.2500    66.7840    16.2300    14.1340    15.8110    24.7400   -17.8570     2.1850 
  137.3750    67.9060    15.0270    13.3390    14.8700    24.7360   -17.9170     2.1890 
  137.5000    68.3890    13.4980    12.1740    12.9150    24.7420   -18.0260     2.2050 
  137.6250    66.9870    12.2510    11.1210    10.8200    24.7360   -18.2270     2.2260 
  137.7500    66.7980    11.5000    10.4190     9.9280    24.7390   -18.4580     2.2440 
  137.8750    69.7610    11.2160    10.1010     9.7450    24.7400   -18.6870     2.2530 
  138.0000    72.6510    11.2740    10.1050     9.9470    24.7440   -18.8710     2.2540 
  138.1250    71.3030    11.5180    10.3270    10.1400    24.7340   -18.9780     2.2500 
  138.2500    68.6320    11.7670    10.5930    10.2400    24.6840   -19.0010     2.2420 
  138.3750    68.7640    11.9590    10.8190    10.2350    24.6360   -18.9630     2.2340 
  138.5000    72.0690    12.1050    10.9880    10.2030    24.6680   -18.8750     2.2270 
  138.6250    73.8940    12.2540    11.1280    10.3370    24.7070   -18.7480     2.2320 
  138.7500    72.7760    12.4380    11.2750    10.4550    24.6740   -18.5760     2.2570 
  138.8750    71.0560    12.6470    11.4300    10.5160    24.6200   -18.3940     2.2950 
  139.0000    70.5210    12.8450    11.5690    10.4920    24.5460   -18.1930     2.3270 
  139.1250    68.2080    12.9750    11.6400    10.4560    24.4540   -17.9950     2.3270 
  139.2500    64.8360    13.0140    11.6210    10.4780    24.4290   -17.7550     2.3000 
  139.3750    64.5220    12.9870    11.5340    10.5550    24.3960   -17.4820     2.2650 
  139.5000    67.7690    12.9950    11.4650    10.7920    24.4750   -17.1780     2.2390 
  139.6250    69.8370    13.2560    11.5960    11.1750    24.5150   -16.8810     2.2280 
  139.7500    68.2160    13.8950    12.0350    11.5890    24.5030   -16.5570     2.2200 
  139.8750    64.8360    14.9730    12.8390    13.0330    24.5350   -16.1920     2.2100 
