~V
VERS. 2.00: Ver 2.00
~W
STRT.M 59.0000:
STOP.M 239.0000:
STEP.M 0.1250:
NULL. -999.2500:
UWI. F10784:
~C
DEPT.M :
DEN.GM/CC :
GR.API :
RML.OHMM :
RI. :
RXO.OHMM :
CALI.CM :
SP.MV :
~A
# ...
  115.2500     2.2570    60.3970    22.4770    20.2620     9.9640    23.6110    -0.8180 
  115.3750     2.2520    61.9810    22.4280    20.2030     8.9600    23.5270    -0.4100 
  115.5000     2.2500    66.0460    22.3380    20.0770     8.6730    23.4530    -0.2080 
  115.6250     2.2480    67.9930    22.3260    20.0150     8.3680    23.4010    -0.1890 
  115.7500     2.2410    66.6150    22.4350    20.0920     8.3100    23.3840    -0.2640 
  115.8750     2.2290    65.0170    22.6470    20.3280     8.5390    23.3810    -0.3890 
  116.0000     2.2140    65.1250    22.8840    20.6900     9.0830    23.3810    -0.5330 
  116.1250     2.1960    65.7430    23.0010    21.0930     9.8780    23.3810    -0.6920 
  116.2500     2.1790    65.3170    22.8710    21.4090    10.7130    23.3810    -0.8870 
  116.3750     2.1660    63.7690    22.6980    21.5510    11.4330    23.3810    -1.1240 
  116.5000     2.1560    61.4100    22.7790    21.4850    11.8630    23.3810    -1.4130 
  116.6250     2.1520    60.6300    23.0090    21.2390    11.8610    23.3810    -1.7590 
  116.7500     2.1520    63.8700    22.9660    20.9550    11.3650    23.3800    -2.2190 
  116.8750     2.1520    69.4580    22.6410    20.7300    10.8340    23.3770    -2.7840 
  117.0000     2.1530    73.9100    22.2920    20.5780    10.3770    23.3770    -3.4580 
  117.1250     2.1530    74.0170    21.8110    20.2830     9.7950    23.3750    -4.1880 
  117.2500     2.1550    71.2840    20.7370    19.4770     9.0590    23.3830    -4.9970 
  117.3750     2.1620    67.8980    18.8200    17.8650     8.5770    23.4140    -5.8700 
  117.5000     2.1760    67.0940    16.1400    15.4590     8.4610    23.4940    -6.8160 
  117.6250     2.1960    72.8550    13.2270    12.6900     8.3040    23.6140    -7.7550 
  117.7500     2.2160    84.0770    10.8310    10.2610     7.5250    23.7850    -8.6440 
  117.8750     2.2260    95.2600     9.4010     8.5730     6.2930    24.0120    -9.3880 
  118.0000     2.2220    99.0620     9.1490     7.8000     5.4290    24.2710    -9.9110 
  118.1250     2.2050    91.8830    10.3890     8.1880     5.5980    24.3790   -10.1240 
  118.2500     2.1860    82.2380    13.0280     9.7180     6.9810    24.4090   -10.0920 
  118.3750     2.1780    73.2670    17.1910    12.6440     8.4300    24.4090    -9.8500 
  118.5000     2.1900    65.4400    22.8640    17.2110     9.1380    24.4110    -9.4360 
  118.6250     2.2320    61.2440    29.6770    23.4980     9.6520    24.4150    -8.8960 
  118.7500     2.2900    59.2170    36.1540    30.1630    11.6780    24.4160    -8.2340 
  118.8750     2.3390    56.6720    40.6750    35.5070    18.6130    24.4120    -7.5490 
  119.0000     2.3570    54.3180    41.9610    37.9400    34.6990    24.4020    -6.8800 
  119.1250     2.3240    56.4460    39.4660    36.4520    33.1290    24.3790    -6.3320 
  119.2500     2.2630    60.8690    35.2050    32.7610    18.6510    24.3460    -5.8400 
  119.3750     2.1960    65.2060    30.8560    28.4780    11.9470    24.3110    -5.3790 
  119.5000     2.1450    70.4370    27.5600    24.8410    10.1480    24.2260    -4.9090 
  119.6250     2.1230    73.6700    25.8890    22.5860     9.7230    24.0490    -4.4490 
  119.7500     2.1240    70.3750    25.3220    21.4190     9.2310    23.8200    -4.0250 
  119.8750     2.1390    63.9800    25.4200    21.0300     8.8510    23.6410    -3.6650 
  120.0000     2.1580    61.1700    25.7900    21.0980     8.7540    23.5550    -3.3840 
  120.1250     2.1730    62.8290    26.1470    21.3830     9.0440    23.5070    -3.2410 
  120.2500     2.1820    63.2870    26.3910    21.7040     9.3870    23.4120    -3.1920 
  120.3750     2.1870    62.4710    26.5300    22.0150     9.3660    23.2480    -3.2540 
  120.5000     2.1920    63.1300    26.6170    22.3110     8.6940    23.0440    -3.3910 
  120.6250     2.1950    63.3220    26.7390    22.6200     8.1770    22.9440    -3.5500 
  120.7500     2.1960    62.6260    26.9670    22.9730     8.3160    22.9110    -3.7820 
  120.8750     2.1950    62.8380    27.3080    23.3790     8.4210    22.9160    -4.0920 
  121.0000     2.1920    64.8270    27.6420    23.7760     8.3030    22.9690    -4.5150 
  121.1250     2.1940    65.1590    27.5330    23.8610     8.6200    23.0930    -5.0040 
  121.2500     2.2030    64.3520    26.5300    23.2460     9.3960    23.2680    -5.6300 
  121.3750     2.2220    65.1070    24.3400    21.6180     9.8280    23.4690    -6.3650 
  121.5000     2.2500    68.3690    21.0860    19.0030     9.6410    23.6730    -7.2870 
  121.6250     2.2810    72.9590    17.3620    15.8430     8.7550    23.8890    -8.4170 
  121.7500     2.3050    80.0150    14.0260    12.8970     7.3660    24.0580    -9.6740 
  121.8750     2.3170    88.3190    11.5130    10.5600     6.1270    24.2940   -10.9540 
  122.0000     2.3170    94.2100     9.9230     8.9620     5.8340    24.5950   -12.2140 
  122.1250     2.3080    92.6220     9.2210     8.1330     6.5640    24.7800   -13.4020 
  122.2500     2.2960    87.3890     9.0300     7.8080     7.1710    24.8410   -14.5000 
  122.3750     2.2880    84.4770     9.1350     7.8310     7.0660    24.8490   -15.4600 
  122.5000     2.2870    85.8230     9.3460     8.0360     6.6190    24.8490   -16.2430 
  122.6250     2.2940    87.5150     9.4640     8.2300     7.1760    24.8490   -16.8110 
  122.7500     2.3040    87.9710     9.3900     8.2640     7.8570    24.8490   -17.2050 
  122.8750     2.3130    88.1500     9.1220     8.0970     7.6910    24.8490   -17.4890 
  123.0000     2.3160    88.6320     8.7350     7.7710     7.0420    24.8490   -17.7090 
  123.1250     2.3100    87.8670     8.3690     7.3930     6.5890    24.8490   -17.9220 
  123.2500     2.2980    86.1070     8.1590     7.0990     6.2670    24.8490   -18.1180 
  123.3750     2.2820    85.6630     8.1860     6.9770     6.4550    24.8490   -18.3090 
  123.5000     2.2680    86.3730     8.4700     7.0690     6.6070    24.8490   -18.4540 
  123.6250     2.2660    87.0780     8.9870     7.3890     6.2930    24.8490   -18.5960 
  123.7500     2.2820    86.8500     9.5690     7.8190     6.2520    24.8490   -18.6930 
  123.8750     2.3100    86.7580    10.0650     8.2360     7.1940    24.8490   -18.7840 
  124.0000     2.3350    88.2060    10.3360     8.5100     8.1510    24.8490   -18.8520 
  124.1250     2.3400    88.4850    10.2750     8.5170     8.8870    24.8490   -18.9180 
  124.2500     2.3290    85.6720    10.0100     8.3170     8.6300    24.8410   -18.9040 
  124.3750     2.3190    82.3960     9.7010     8.0250     7.6290    24.7890   -18.8360 
  124.5000     2.3280    81.4450     9.5210     7.7860     6.9710    24.6550   -18.7430 
  124.6250     2.3580    84.3290     9.6240     7.7570     6.8720    24.4930   -18.5860 
  124.7500     2.3880    87.1650     9.9590     7.9400     7.3980    24.4260   -18.4380 
  124.8750     2.3990    87.8100    10.4250     8.2760     8.6590    24.4080   -18.2900 
  125.0000     2.3820    86.5490    10.9020     8.6670     9.6110    24.3410   -18.1460 
  125.1250     2.3440    85.3890    11.2760     9.0050     9.4610    24.1460   -17.8920 
  125.2500     2.3030    85.5890    11.5270     9.2480     8.5000    23.8980   -17.5970 
  125.3750     2.2690    84.9470    11.6460     9.3840     7.2140    23.7850   -17.2550 
  125.5000     2.2480    82.4250    11.6180     9.4030     6.6280    23.7660   -16.8890 
  125.6250     2.2470    80.8250    11.3750     9.2560     6.6290    23.8000   -16.5640 
  125.7500     2.2610    81.8270    10.9280     8.9420     6.6770    23.9450   -16.3040 
  125.8750     2.2860    85.1200    10.3140     8.4760     6.6800    24.2260   -16.0750 
  126.0000     2.3160    90.2960     9.6290     7.9170     6.5870    24.4630   -15.9010 
  126.1250     2.3440    97.3800     9.0250     7.3740     6.8250    24.5450   -15.8190 
  126.2500     2.3640   101.1670     8.5970     6.9460     7.8130    24.5550   -15.8500 
  126.3750     2.3710   100.3020     8.3820     6.6820     8.1850    24.5550   -15.9720 
