~V
VERS. 2.00: Ver 2.00
~W
STRT.M 50.0000:
STOP.M 228.0000:
STEP.M 0.1250:
NULL. -999.2500:
UWI. F10779:
~C
DEPT.M :
GR.API :
RML.OHMM :
RI. :
RXO.OHMM :
CALI.CM :
SP.MV :
DEN.GM/CC :
~A
# ...
   83.7500    74.3000     8.4000     7.7540     9.0360    24.6270   -18.5640     2.2330 
   83.8750    74.6550     8.8300     8.0730     8.8880    24.6360   -18.5110     2.2440 
   84.0000    71.9090     9.5470     8.6080     8.7650    24.7260   -18.4350     2.2870 
   84.1250    66.8620    10.4630     9.3170     9.4550    24.7420   -18.3290     2.3480 
   84.2500    62.8000    11.2540     9.9650    10.0240    24.7420   -18.1770     2.3880 
   84.3750    62.3010    11.6350    10.3230    10.0030    24.6540   -17.9950     2.3870 
   84.5000    65.2360    11.4620    10.2570     9.6570    24.5450   -17.7980     2.3470 
   84.6250    68.3660    10.7900     9.7690     9.2080    24.3660   -17.6120     2.2930 
   84.7500    69.6450     9.9860     9.1290     8.9790    24.2810   -17.4350     2.2470 
   84.8750    71.5130     9.2680     8.5110     8.9170    24.3070   -17.3050     2.2160 
   85.0000    73.7570     8.7320     8.0110     8.8560    24.4130   -17.2220     2.1980 
   85.1250    74.4740     8.3980     7.6740     8.6060    24.5160   -17.2300     2.1950 
   85.2500    74.2880     8.1980     7.4600     8.3710    24.6010   -17.3130     2.2020 
   85.3750    75.2300     8.1120     7.3510     8.1730    24.6010   -17.4660     2.2130 
   85.5000    76.9230     8.1240     7.3260     7.8100    24.6180   -17.6590     2.2260 
   85.6250    75.3820     8.2100     7.3580     8.3190    24.6200   -17.9030     2.2420 
   85.7500    71.2200     8.3010     7.3960     8.4630    24.6270   -18.1480     2.2590 
   85.8750    67.3810     8.3530     7.4160     8.3190    24.6230   -18.3780     2.2690 
   86.0000    64.7000     8.3620     7.4230     8.1910    24.6120   -18.5650     2.2680 
   86.1250    62.3630     8.3980     7.4630     8.1990    24.6090   -18.6760     2.2550 
   86.2500    61.1760     8.5730     7.6080     8.2340    24.5750   -18.7090     2.2370 
   86.3750    61.4280     8.9900     7.9300     8.3710    24.5000   -18.6830     2.2210 
   86.5000    61.3310     9.7380     8.4970     8.5600    24.3520   -18.6170     2.2110 
   86.6250    60.2640    10.9800     9.4480     9.0310    24.1410   -18.5120     2.2240 
   86.7500    59.8510    12.6860    10.7930     9.9560    24.0550   -18.4070     2.2650 
   86.8750    61.2540    14.7300    12.4840    12.3310    24.0520   -18.3110     2.3410 
   87.0000    63.5740    16.7340    14.2680    17.4550    24.2980   -18.2430     2.4420 
   87.1250    63.2230    17.9200    15.5160    26.5800    24.7280   -18.1980     2.5230 
   87.2500    60.3220    17.8900    15.7790    29.0700    24.9590   -18.1930     2.5370 
   87.3750    58.4600    16.7170    15.0160    23.3020    24.9250   -18.2050     2.4800 
   87.5000    59.7920    14.9690    13.6510    13.6970    24.9440   -18.2260     2.3870 
   87.6250    60.4070    13.4400    12.3280    10.2700    25.0070   -18.2590     2.3000 
   87.7500    58.6830    12.5070    11.4220     9.4650    25.0470   -18.3050     2.2380 
   87.8750    58.1650    12.1770    10.9990     9.6430    25.0220   -18.3900     2.2020 
   88.0000    60.6600    12.2700    10.9670     9.8660    25.0440   -18.4970     2.1810 
   88.1250    62.5200    12.5020    11.1480     9.6820    25.0880   -18.6510     2.1640 
   88.2500    61.2970    12.5860    11.2850     9.1840    25.2190   -18.8260     2.1530 
   88.3750    59.0070    12.4370    11.2670     8.7710    25.3840   -19.0290     2.1580 
   88.5000    58.4430    12.1130    11.1010     8.6280    25.4270   -19.2490     2.1790 
   88.6250    59.3310    11.7330    10.8540     8.6050    25.2570   -19.4580     2.2050 
   88.7500    59.1280    11.4010    10.6130     8.5700    25.2800   -19.6330     2.2220 
   88.8750    58.6710    11.1530    10.4140     8.5340    25.3250   -19.7530     2.2260 
   89.0000    59.0620    10.9990    10.2690     8.5180    25.3590   -19.7890     2.2200 
   89.1250    59.8620    10.9450    10.1880     8.5820    25.3770   -19.7050     2.2150 
   89.2500    61.3690    10.9610    10.1570     8.6510    25.3800   -19.5040     2.2140 
   89.3750    63.9810    11.0340    10.1770     8.6330    25.3470   -19.2010     2.2160 
   89.5000    65.2790    11.1580    10.2520     8.6840    25.2800   -18.8250     2.2180 
   89.6250    64.9010    11.3440    10.3990     8.8950    25.1720   -18.3890     2.2210 
   89.7500    66.3040    11.5980    10.6200     9.1810    24.8730   -17.9320     2.2250 
   89.8750    67.8010    11.9360    10.9240     9.2730    24.6300   -17.4720     2.2280 
   90.0000    67.1070    12.3610    11.3170     9.1920    24.5950   -17.0370     2.2270 
   90.1250    64.2990    12.8550    11.7900     9.1610    24.4520   -16.6230     2.2180 
   90.2500    63.1300    13.3340    12.2720     9.2790    24.3820   -16.2320     2.2020 
   90.3750    63.3470    13.6990    12.6770     9.3490    24.3740   -15.8630     2.1810 
   90.5000    63.4940    13.8310    12.8900     9.3920    24.4000   -15.5340     2.1610 
   90.6250    62.7610    13.5580    12.7440     9.4340    24.5400   -15.2860     2.1540 
   90.7500    62.4550    12.8930    12.2400     9.4460    24.5600   -15.0880     2.1680 
   90.8750    64.5320    11.9150    11.4430     9.3790    24.5660   -14.9400     2.2030 
   91.0000    68.9050    10.8020    10.4990     9.1340    24.5740   -14.8270     2.2490 
   91.1250    73.0230     9.8080     9.6090     9.0740    24.6010   -14.7360     2.2830 
   91.2500    76.9330     9.0910     8.9100     8.6420    24.6660   -14.6450     2.2930 
   91.3750    79.3310     8.7160     8.4700     8.3000    24.6880   -14.5330     2.2800 
   91.5000    79.7210     8.6860     8.3140     8.6390    24.7530   -14.3720     2.2580 
   91.6250    78.0580     9.0290     8.4970     8.6860    24.6600   -14.1380     2.2430 
   91.7500    75.6460     9.6820     8.9800     8.7130    24.5420   -13.8370     2.2360 
   91.8750    72.1150    10.6420     9.7660     8.6860    24.4650   -13.4600     2.2320 
   92.0000    67.7820    11.8800    10.8310     9.2320    24.5380   -12.9980     2.2250 
   92.1250    65.3840    13.3140    12.1100    10.3890    24.5970   -12.4660     2.2150 
   92.2500    65.7080    14.7390    13.4110    11.4040    24.7230   -11.9120     2.2020 
   92.3750    65.9420    16.0150    14.5980    11.6190    24.8590   -11.3630     2.1840 
   92.5000    64.0880    17.1030    15.6100    11.6840    24.9850   -10.8340     2.1710 
   92.6250    60.0700    18.0900    16.5010    12.2580    25.0920   -10.3380     2.1920 
   92.7500    56.6970    19.1330    17.4180    12.7460    25.0880    -9.8760     2.2650 
   92.8750    55.8590    20.2520    18.4170    12.3280    24.9550    -9.4570     2.3760 
   93.0000    56.4900    21.3110    19.4260    11.8290    24.5190    -9.0930     2.4660 
   93.1250    57.1210    22.0220    20.2370    12.1420    24.6100    -8.8080     2.4550 
   93.2500    57.2630    22.3340    20.7660    12.8370    24.7140    -8.6240     2.3700 
   93.3750    57.9050    22.3640    21.0680    13.3040    24.7670    -8.5740     2.2640 
   93.5000    59.2600    22.3030    21.2730    13.2820    24.7780    -8.6820     2.1820 
   93.6250    58.9070    22.1880    21.4240    13.2190    24.8700    -8.9970     2.1440 
   93.7500    57.5900    21.7000    21.2640    13.5600    24.7920    -9.4830     2.1310 
   93.8750    56.5190    20.4070    20.2880    14.1790    24.7870   -10.1250     2.1280 
   94.0000    55.7660    18.3560    17.9380    14.0190    24.7970   -10.8980     2.1300 
   94.1250    56.5870    15.5200    14.7390    12.9300    24.8430   -11.7980     2.1470 
   94.2500    61.3370    12.6540    11.6570    11.1540    24.9390   -12.7300     2.1840 
   94.3750    70.2080    10.2450     9.1950     9.0520    25.0580   -13.6230     2.2340 
   94.5000    78.3580     8.5000     7.5310     7.3270    25.1660   -14.4180     2.2790 
   94.6250    80.8250     7.5030     6.6910     7.5930    25.2270   -15.0270     2.3010 
   94.7500    81.2580     7.0140     6.3560     7.8940    25.2350   -15.4370     2.3060 
   94.8750    82.4520     6.8980     6.3670     7.6490    25.2370   -15.6460     2.3060 
