~V
VERS. 2.00: Ver 2.00
~W
STRT.M 50.0000:
STOP.M 239.0000:
STEP.M 0.1250:
NULL. -999.2500:
UWI. F10783:
~C
DEPT.M :
GR.API :
RML.OHMM :
RI. :
RXO.OHMM :
CALI.CM :
SP.MV :
DEN.GM/CC :
~A
# ...
   72.5000    78.6560     6.6110     6.0590     6.1740    23.2460   -31.3980     2.3000 
   72.6250    81.0940     6.4420     5.9390     5.8960    23.5320   -31.3780     2.3120 
   72.7500    84.1300     6.4070     5.8560     5.8050    23.7650   -31.2940     2.2970 
   72.8750    86.6900     6.6410     5.9350     5.8390    23.8020   -31.2740     2.2610 
   73.0000    85.3320     7.2120     6.2610     5.9180    23.6540   -31.2270     2.2160 
   73.1250    78.8090     8.1390     6.9120     6.1790    23.3730   -30.9990     2.1800 
   73.2500    71.7760     9.2090     7.7740     6.6870    23.1710   -30.7380     2.1590 
   73.3750    68.1980    10.1700     8.6830     7.2390    23.0600   -30.5370     2.1520 
   73.5000    68.0690    10.7300     9.3890     7.3830    22.9600   -30.3600     2.1570 
   73.6250    68.4450    10.5650     9.5490     7.2490    22.8630   -30.2290     2.1810 
   73.7500    69.7020     9.8230     9.1660     7.0200    22.8750   -30.1160     2.2260 
   73.8750    73.4290     8.7800     8.4020     6.5830    22.9820   -29.9800     2.2890 
   74.0000    78.1680     7.7930     7.5390     5.8380    23.1160   -29.8660     2.3540 
   74.1250    81.4360     7.2500     6.9120     5.2960    23.1770   -29.8600     2.3900 
   74.2500    83.1250     7.2320     6.6630     5.1240    23.1170   -29.8810     2.3780 
   74.3750    82.6070     7.7220     6.8350     5.4800    23.0120   -29.8610     2.3140 
   74.5000    78.6310     8.6100     7.3940     6.2030    22.9250   -29.7920     2.2170 
   74.6250    72.4990     9.6980     8.2500     6.9100    22.9230   -29.6760     2.1240 
   74.7500    68.5210    10.6830     9.1460     7.1420    22.9360   -29.4930     2.0700 
   74.8750    68.1890    11.3750     9.8810     7.1040    22.9280   -29.2370     2.0670 
   75.0000    69.2520    11.7260    10.3340     6.9980    22.9570   -28.9500     2.1040 
   75.1250    67.6930    11.8800    10.5160     6.9530    23.0340   -28.6370     2.1640 
   75.2500    64.0370    12.2280    10.6990     6.9770    23.1290   -28.3310     2.2210 
   75.3750    61.8900    13.1850    11.1940     7.1800    23.2550   -28.0560     2.2730 
   75.5000    61.7630    15.2090    12.3770     8.2340    23.4510   -27.8390     2.3230 
   75.6250    62.3060    19.0620    14.9750    12.6140    23.6500   -27.6790     2.3830 
   75.7500    63.0740    24.7440    19.2810    23.1610    23.8760   -27.5710     2.4550 
   75.8750    63.8860    31.7900    25.2410    38.4230    24.1540   -27.5080     2.5290 
   76.0000    64.0070    38.5560    31.7070    54.6890    24.3640   -27.4670     2.5860 
   76.1250    63.4980    41.5440    35.6710    58.3250    24.4080   -27.4530     2.5900 
   76.2500    63.5590    39.4240    35.3150    56.0330    24.3470   -27.4400     2.5350 
   76.3750    64.1940    33.1890    30.9230    50.3090    24.1590   -27.3850     2.4350 
   76.5000    66.0100    25.5810    24.6160    35.8260    23.7780   -27.2590     2.3230 
   76.6250    67.7940    19.5040    19.0160    19.7030    23.4570   -27.0870     2.2460 
   76.7500    67.8110    15.5730    15.0970    10.8300    23.2270   -26.9450     2.2150 
   76.8750    67.5600    13.3900    12.7120     7.7960    23.0760   -26.8670     2.2180 
   77.0000    70.6520    12.3590    11.4250     7.0350    22.8940   -26.8690     2.2310 
   77.1250    74.3770    12.0410    10.9100     6.9700    22.7170   -26.9340     2.2270 
   77.2500    73.4930    11.9790    10.7530     6.9260    22.6420   -27.0280     2.2080 
   77.3750    68.6580    11.9960    10.7710     6.9140    22.6120   -27.1570     2.1850 
   77.5000    64.1570    12.0020    10.8450     6.9400    22.6040   -27.3270     2.1760 
   77.6250    61.8800    11.9590    10.9030     6.9700    22.6240   -27.4730     2.1890 
   77.7500    59.4830    11.8770    10.9200     6.9090    22.6210   -27.5310     2.2090 
   77.8750    57.2860    11.7640    10.8890     6.7420    22.5850   -27.4980     2.2200 
   78.0000    57.7590    11.6250    10.8100     6.6130    22.5360   -27.3880     2.2100 
   78.1250    63.3330    11.4660    10.6790     6.6210    22.5220   -27.2550     2.1820 
   78.2500    69.2710    11.3060    10.5160     6.6700    22.5430   -27.1500     2.1590 
   78.3750    71.0570    11.1620    10.3360     6.6600    22.5830   -27.0810     2.1510 
   78.5000    69.2610    11.0460    10.1610     6.6990    22.6240   -27.0640     2.1600 
   78.6250    67.2560    10.9650    10.0130     6.8470    22.6370   -27.1390     2.1730 
   78.7500    66.5820    10.9040     9.8940     6.9050    22.6300   -27.2840     2.1780 
   78.8750    67.2920    10.8450     9.7990     6.8220    22.5980   -27.4610     2.1770 
   79.0000    68.9950    10.7690     9.7120     6.6910    22.5540   -27.6380     2.1770 
   79.1250    69.3380    10.6560     9.6120     6.5990    22.5060   -27.7750     2.1840 
   79.2500    68.0780    10.5080     9.4890     6.4900    22.4710   -27.8730     2.1900 
   79.3750    69.7370    10.3480     9.3480     6.5150    22.4490   -27.9340     2.1910 
   79.5000    73.6240    10.2190     9.2200     6.5160    22.4380   -27.9550     2.1870 
   79.6250    75.3630    10.1880     9.1570     6.4770    22.4290   -27.9420     2.1990 
   79.7500    73.2950    10.2560     9.1770     6.4450    22.4650   -27.8880     2.2430 
   79.8750    69.3120    10.3870     9.2630     6.5970    22.6320   -27.7890     2.3180 
   80.0000    66.3120    10.5100     9.3660     7.0530    22.9040   -27.6560     2.3960 
   80.1250    66.2180    10.5240     9.4000     7.4870    23.0370   -27.5050     2.4240 
   80.2500    70.0000    10.4080     9.3230     7.5310    23.0030   -27.3630     2.3820 
   80.3750    74.7940    10.1910     9.1410     7.2190    22.9250   -27.2440     2.2820 
   80.5000    75.3890     9.9420     8.9020     6.9470    22.8960   -27.1740     2.1580 
   80.6250    70.5900     9.7510     8.6820     6.8400    22.8430   -27.1420     2.0660 
   80.7500    66.0930     9.6480     8.5310     6.9360    22.7490   -27.1560     2.0280 
   80.8750    65.8400     9.6150     8.4570     7.0740    22.6950   -27.2380     2.0430 
   81.0000    66.8870     9.6060     8.4340     7.1120    22.6920   -27.3820     2.0910 
   81.1250    65.6740     9.5550     8.4090     7.0830    22.6830   -27.5590     2.1500 
   81.2500    66.8890     9.4370     8.3410     7.0570    22.6580   -27.7420     2.1970 
   81.3750    71.1410     9.2570     8.2140     7.0390    22.6520   -27.9110     2.2260 
   81.5000    74.1610     9.0410     8.0390     7.0400    22.6690   -28.0470     2.2370 
   81.6250    73.4680     8.8280     7.8430     7.0240    22.6830   -28.1540     2.2300 
   81.7500    72.6780     8.6570     7.6640     6.9090    22.6700   -28.2180     2.2140 
   81.8750    71.9490     8.5460     7.5270     6.8400    22.6500   -28.2540     2.1970 
   82.0000    71.8650     8.5010     7.4440     6.8500    22.6340   -28.2850     2.1890 
   82.1250    73.6110     8.5170     7.4230     6.8720    22.6050   -28.3230     2.1930 
   82.2500    74.3240     8.5600     7.4410     6.8580    22.5560   -28.3640     2.2040 
   82.3750    72.0280     8.6050     7.4810     6.8440    22.5190   -28.4100     2.2110 
   82.5000    68.3810     8.6330     7.5240     6.8480    22.4920   -28.4500     2.2090 
   82.6250    67.2810     8.6250     7.5540     6.8730    22.4470   -28.4940     2.1990 
   82.7500    67.9700     8.5880     7.5630     6.8760    22.3990   -28.5690     2.1920 
   82.8750    69.2260     8.5290     7.5530     6.7420    22.3460   -28.6390     2.1950 
   83.0000    70.2930     8.4640     7.5280     6.5540    22.2980   -28.6630     2.2090 
   83.1250    71.3090     8.4140     7.4950     6.4300    22.2430   -28.6530     2.2280 
   83.2500    73.3790     8.3870     7.4640     6.3550    22.1810   -28.6140     2.2410 
   83.3750    75.6700     8.3850     7.4380     6.3020    22.1210   -28.5400     2.2420 
   83.5000    76.0060     8.3970     7.4160     6.2710    22.0920   -28.4310     2.2340 
   83.6250    73.7970     8.4000     7.3890     6.3660    22.1020   -28.2650     2.2190 
