~V
VERS. 2.00: Ver 2.00
~W
STRT.M 59.0000:
STOP.M 248.0000:
STEP.M 0.1250:
NULL. -999.2500:
UWI. F10727:
~C
DEPT.M :
GR.API :
RML.OHMM :
RI. :
RXO.OHMM :
CALI.CM :
SP.MV :
DEN.GM/CC :
~A
# ...
  205.2500    55.5300    60.6120    51.9300    36.8380    24.4750   -21.7370     2.2150 
  205.3750    53.9890    56.5360    49.0580    34.4670    23.8390   -21.6510     2.2150 
  205.5000    53.8840    52.5870    46.0760    31.9160    23.4330   -21.5710     2.2180 
  205.6250    55.2030    49.3420    43.4300    30.5420    23.4590   -21.5340     2.2240 
  205.7500    57.9170    47.1690    41.4630    30.1830    23.7740   -21.5040     2.2310 
  205.8750    60.3410    46.4320    40.5170    30.5110    24.2100   -21.4960     2.2400 
  206.0000    58.8800    47.3620    40.8640    31.8110    24.5750   -21.5210     2.2490 
  206.1250    54.1640    50.2410    42.8710    34.0290    24.7760   -21.5860     2.2600 
  206.2500    52.2480    54.4580    46.1370    38.0230    24.7530   -21.6880     2.2740 
  206.3750    54.3230    59.3940    50.2130    44.5120    24.5710   -21.8720     2.2920 
  206.5000    58.0310    64.2140    54.4160    45.4210    24.2570   -22.0930     2.3110 
  206.6250    60.0800    67.8590    57.8320    39.8720    23.7330   -22.3170     2.3260 
  206.7500    57.7640    70.0790    60.1000    36.3000    23.2760   -22.5900     2.3310 
  206.8750    52.6270    71.1020    61.2670    35.2140    23.1100   -22.8670     2.3220 
  207.0000    49.5550    71.5740    61.7620    34.0550    23.0830   -23.1480     2.3040 
  207.1250    53.1160    72.3130    62.2450    32.6960    23.0810   -23.4550     2.2820 
  207.2500    57.4280    73.5730    63.1190    33.2090    23.0800   -23.7270     2.2640 
  207.3750    58.2000    75.0160    64.2720    36.1040    23.0910   -23.9930     2.2490 
  207.5000    56.9050    75.9870    65.2600    39.1170    23.1300   -24.2810     2.2390 
  207.6250    57.3360    75.7710    65.4670    40.4730    23.2680   -24.5820     2.2310 
  207.7500    58.0270    74.7080    64.9580    41.6320    23.3730   -24.8880     2.2250 
  207.8750    57.2760    73.5950    64.2430    42.4390    23.4220   -25.2030     2.2200 
  208.0000    55.9820    73.4330    64.1180    41.9220    23.4380   -25.5190     2.2190 
  208.1250    56.4320    75.3580    65.6560    42.5990    23.4450   -25.8190     2.2230 
  208.2500    57.0640    79.2210    68.9670    48.7880    23.3550   -26.1190     2.2350 
  208.3750    55.5850    84.4260    73.7010    55.7070    23.3420   -26.4010     2.2550 
  208.5000    52.8340    89.7630    78.8880    64.1220    23.3170   -26.6890     2.2840 
  208.6250    51.8620    93.1340    82.6590    71.5080    23.6510   -26.9590     2.3240 
  208.7500    52.4240    93.5910    83.8410    74.1070    23.8800   -27.2040     2.3700 
  208.8750    52.2810    91.6810    82.5510    65.1030    24.0110   -27.4490     2.4150 
  209.0000    49.4990    89.3860    80.2980    56.4910    24.1210   -27.7010     2.4510 
  209.1250    46.4740    89.7260    79.6580    50.9890    24.1840   -27.9740     2.4630 
  209.2500    46.5590    94.3350    82.3610    49.9660    24.4670   -28.2280     2.4480 
  209.3750    48.6150   104.2680    89.5820    54.9480    24.7100   -28.4590     2.4060 
  209.5000    49.0540   119.8780   101.8670    70.6170    24.7180   -28.6330     2.3480 
  209.6250    47.8080   141.0580   119.2340    96.1420    24.3130   -28.7700     2.2890 
  209.7500    48.1040   164.4270   138.6300   115.1620    24.0200   -28.8730     2.2420 
  209.8750    50.6530   186.5740   157.0910   118.4050    24.0180   -28.8900     2.2100 
  210.0000    51.9830   204.4150   172.0250   121.3810    24.3530   -28.8330     2.1910 
  210.1250    48.6810   216.0720   181.7570   134.9140    24.7340   -28.6750     2.1810 
  210.2500    44.2560   224.0330   188.1850   147.9730    24.9710   -28.4450     2.1740 
  210.3750    42.2300   230.1440   192.8200   161.6850    25.1980   -28.1630     2.1690 
  210.5000    43.5220   235.4080   196.6180   172.1630    25.3440   -27.8300     2.1670 
  210.6250    44.5790   239.9540   199.9010   183.5820    25.4350   -27.4260     2.1670 
  210.7500    43.7760   243.6690   202.7950   193.1120    25.4830   -26.9690     2.1690 
  210.8750    41.8330   246.2280   205.1950   205.5070    25.4500   -26.4900     2.1710 
  211.0000    40.3120   247.5100   207.0650   211.6090    25.3950   -25.9800     2.1750 
  211.1250    41.9690   247.4870   208.4340   211.0700    25.4780   -25.3980     2.1810 
  211.2500    44.4490   246.1920   209.3190   199.0380    25.6250   -24.8340     2.1930 
  211.3750    45.9020   242.0070   208.7340   183.9060    25.7550   -24.2250     2.2110 
  211.5000    46.0070   231.1740   203.9180   174.4290    25.6900   -23.5790     2.2390 
  211.6250    46.1060   208.2790   189.6530   188.5410    25.0680   -22.9580     2.2750 
  211.7500    46.8320   177.0950   166.7810   203.8120    25.0140   -22.3210     2.3070 
  211.8750    48.5890   143.8170   139.1620   185.2560    25.0850   -21.7170     2.3240 
  212.0000    51.0090   113.8560   111.8450   142.4640    25.1860   -21.1610     2.3220 
  212.1250    52.4580    90.6370    89.2510    93.0220    25.0440   -20.6630     2.3050 
  212.2500    53.1230    73.0720    71.7870    66.0000    25.0840   -20.1960     2.2880 
  212.3750    54.2420    60.1720    58.8530    59.9780    25.2710   -19.7830     2.2770 
  212.5000    55.9300    50.8850    49.4200    51.8970    25.3520   -19.4260     2.2720 
  212.6250    54.8670    44.6730    42.9590    40.7900    25.3320   -19.1200     2.2720 
  212.7500    52.8280    40.3860    38.3940    35.3080    25.1210   -18.8970     2.2810 
  212.8750    52.7920    37.6730    35.3650    34.7480    24.9810   -18.7240     2.3030 
  213.0000    54.2630    36.3580    33.6650    36.9990    24.9910   -18.5820     2.3380 
  213.1250    52.8550    36.4390    33.2840    32.4120    24.9860   -18.5050     2.3850 
  213.2500    49.2190    37.3990    33.7460    29.1530    24.9740   -18.4650     2.4340 
  213.3750    46.8540    38.8500    34.7150    31.6310    24.8920   -18.4620     2.4780 
  213.5000    48.0230    40.3920    35.8580    39.7980    24.8270   -18.5010     2.5120 
  213.6250    54.4120    41.6290    36.8680    42.3830    24.7810   -18.5800     2.5270 
  213.7500    61.4100    42.2970    37.5250    39.8930    24.7100   -18.6710     2.5240 
  213.8750    64.0290    41.9970    37.4890    40.0680    24.8530   -18.7990     2.5050 
  214.0000    62.8450    40.2470    36.2870    42.1350    24.9100   -18.9450     2.4780 
  214.1250    62.4080    36.5400    33.3540    42.8150    24.9460   -19.0850     2.4540 
  214.2500    63.5210    31.5630    29.2040    37.0190    24.9460   -19.2710     2.4380 
  214.3750    67.0370    26.1630    24.5610    25.9990    24.9300   -19.4610     2.4280 
  214.5000    72.5940    21.2390    20.2170    14.0490    24.7020   -19.6390     2.4190 
  214.6250    76.4920    17.4860    16.8090    10.9300    24.9180   -19.7930     2.4050 
  214.7500    77.8500    14.6680    14.2010    10.0900    24.9840   -19.9010     2.3850 
  214.8750    78.2260    12.4810    12.1640    10.1930    25.0010   -19.9720     2.3640 
  215.0000    76.4960    10.6570    10.4670     9.3630    24.9840   -20.0220     2.3500 
  215.1250    70.5590     9.1240     9.0170     6.9020    24.9410   -20.0710     2.3450 
  215.2500    63.7830     7.9030     7.8000     5.3150    24.9300   -20.1190     2.3440 
  215.3750    59.1340     7.0960     6.9040     4.7760    24.8520   -20.1490     2.3400 
  215.5000    57.3070     6.7410     6.3910     4.7370    24.8020   -20.2040     2.3310 
  215.6250    59.6860     6.8230     6.3020     4.8510    24.8440   -20.3070     2.3190 
  215.7500    62.4030     7.1200     6.4700     5.2640    24.8450   -20.4500     2.3150 
  215.8750    63.2360     7.4660     6.7540     5.8230    24.7660   -20.6620     2.3200 
  216.0000    64.9860     7.7260     7.0180     5.8860    24.5850   -20.8920     2.3330 
  216.1250    70.4890     7.8360     7.1670     5.5000    24.7410   -21.1560     2.3450 
  216.2500    76.0380     7.8860     7.2420     5.5600    24.4820   -21.4160     2.3480 
  216.3750    78.2460     7.9700     7.3130     6.2620    24.1390   -21.6350     2.3400 
