~V
VERS. 2.00: Ver 2.00
~W
STRT.M 60.0000:
STOP.M 239.0000:
STEP.M 0.1250:
NULL. -999.2500:
UWI. F10775:
~C
DEPT.M :
DEN.GM/CC :
SP.MV :
GR.API :
RML.OHMM :
RI. :
RXO.OHMM :
CALI.CM :
~A
# ...
  228.7500     2.4710  -999.2500    22.8930     5.0360     4.0450     4.5750    25.3330 
  228.8750     2.4950  -999.2500    22.8930     5.2400     4.1080     4.5350    25.2160 
  229.0000     2.5100  -999.2500    22.8930     5.5180     4.2790     4.6120    25.1790 
  229.1250     2.5190  -999.2500    22.8930     5.9040     4.5980     4.7720    25.1670 
  229.2500     2.5320  -999.2500    22.8930     6.3970     5.0530     5.1100    25.1720 
  229.3750     2.5540  -999.2500    22.8930     6.9700     5.6190     5.9390    25.1550 
  229.5000     2.5830  -999.2500    22.8930     7.5440     6.2200     7.2530    25.1320 
  229.6250     2.6090  -999.2500    22.8930     7.9500     6.7090     7.4610    25.1220 
  229.7500     2.6240  -999.2500    22.8930     8.0740     6.9700     7.5390    25.1280 
  229.8750     2.6280  -999.2500    22.8930     7.8610     6.9450     7.6030    25.1770 
  230.0000     2.6230  -999.2500    22.8930     7.3640     6.6610     6.8390    25.3250 
  230.1250     2.6120  -999.2500    22.8930     6.7300     6.2050     6.1540    25.5090 
  230.2500     2.5910  -999.2500    22.8930     6.1790     5.7350     5.9500    25.5650 
  230.3750     2.5500  -999.2500    22.8930     5.8310     5.3450     5.9130    25.5640 
  230.5000     2.4850  -999.2500    22.8930     5.7240     5.1030     5.8290    25.7820 
  230.6250     2.4130  -999.2500    22.8930     5.8280     5.0600     5.6920    26.4100 
  230.7500     2.3670  -999.2500    22.8930     5.9930     5.1450     5.5630    26.9430 
  230.8750     2.3620  -999.2500    22.8930     6.1030     5.2730     5.5910    26.6230 
  231.0000     2.3910  -999.2500    22.8930     6.0710     5.3400     5.8590    25.7950 
  231.1250     2.4160  -999.2500    22.8930     5.8330     5.2310     5.9930    25.5450 
  231.2500     2.4060  -999.2500    22.8930     5.4570     4.9600     5.6930    26.0820 
  231.3750     2.3600  -999.2500    22.8930     5.0220     4.5840     5.1310    26.6290 
  231.5000     2.2990  -999.2500    22.8930     4.6060     4.1790     4.6450    26.9330 
  231.6250     2.2440  -999.2500    22.8930     4.2730     3.8260     4.4050    27.0820 
  231.7500     2.1970  -999.2500    22.8930     4.0170     3.5560     4.3030    27.2590 
  231.8750     2.1510  -999.2500    22.8930     3.8240     3.3730     4.1870    27.6680 
  232.0000     2.1100  -999.2500    22.8930     3.6810     3.2630     4.0310    28.9240 
  232.1250     2.0970  -999.2500    22.8930     3.5930     3.2120     3.9380    30.4630 
  232.2500     2.1260  -999.2500    22.8930     3.5550     3.1920     3.9460    30.7990 
  232.3750     2.1870  -999.2500    22.8930     3.5680     3.1930     4.1990    29.6060 
  232.5000     2.2450  -999.2500    22.8930     3.6260     3.2070     4.3410    27.9250 
  232.6250     2.2570  -999.2500    22.8930     3.7190     3.2250     4.1440    27.8610 
  232.7500     2.2340  -999.2500    22.8930     3.8200     3.2390     4.0480    28.5730 
  232.8750     2.2080  -999.2500    22.8930     3.9070     3.2450     3.9800    28.9130 
  233.0000     2.2100  -999.2500    22.8930     3.9610     3.2480     3.8420    28.4000 
  233.1250     2.2410  -999.2500    22.8930     3.9700     3.2560     3.9800    27.8980 
  233.2500     2.2610  -999.2500    22.8930     3.9530     3.2690     4.2440    27.8110 
  233.3750     2.2430  -999.2500    22.8930     3.9300     3.2830     4.2420    27.5720 
  233.5000     2.1900  -999.2500    22.8930     3.9160     3.2930     3.9310    27.2840 
  233.6250     2.1350  -999.2500    22.8930     3.9120     3.2960     3.5790    28.2910 
  233.7500     2.1150  -999.2500    22.8930     3.9130     3.2970     3.4890    30.2740 
  233.8750     2.1370  -999.2500    22.8930     3.9130     3.2970     3.7490    31.3730 
  234.0000     2.1840  -999.2500    22.8930     3.9130     3.2970     3.9750    30.9780 
  234.1250     2.2310  -999.2500    22.8930     3.9130     3.2970     4.0370    29.9160 
  234.2500     2.2630  -999.2500    22.8930     3.9130     3.2970     4.2610    29.7170 
  234.3750     2.2850  -999.2500    22.8930     3.9130     3.2970     4.7390    29.7280 
  234.5000     2.3050  -999.2500    22.8930     3.9130     3.2970     5.3170    29.4270 
  234.6250     2.3250  -999.2500    22.8930     3.9130     3.2970     5.4710    29.0790 
  234.7500     2.3340  -999.2500    22.8930     3.9130     3.2970     5.1200    29.2360 
  234.8750     2.3230  -999.2500    22.8930     3.9130     3.2970     4.7470    29.4330 
  235.0000     2.2920  -999.2500    22.8930     3.9130     3.2970     4.6830    29.4980 
  235.1250     2.2570  -999.2500    22.8930     3.9130     3.2970     4.6410    29.7470 
  235.2500     2.2370  -999.2500    22.8930     3.9130     3.2970     4.2690    30.0800 
  235.3750     2.2350  -999.2500    22.8930     3.9130     3.2970     3.8350    30.0280 
  235.5000     2.2460  -999.2500    22.8930     3.9130     3.2970     3.8400    29.2880 
  235.6250     2.2580  -999.2500    22.8930     3.9130     3.2970     3.9500    28.3810 
  235.7500     2.2600  -999.2500    22.8930     3.9130     3.2970     3.7550    27.6850 
  235.8750     2.2510  -999.2500    22.8930     3.9130     3.2970     3.4830    27.4340 
  236.0000     2.2350  -999.2500    22.8930     3.9130     3.2970     3.2820    27.6910 
  236.1250     2.2290  -999.2500    22.8930     3.9130     3.2970     3.4900    27.9990 
  236.2500     2.2450  -999.2500    22.8930     3.9130     3.2970     3.6240    27.6010 
  236.3750     2.2810  -999.2500    22.8930     3.9130     3.2970     3.4880    26.8590 
  236.5000     2.3230  -999.2500    22.8930     3.9130     3.2970     3.2200    26.3280 
  236.6250     2.3400  -999.2500    22.8930     3.9130     3.2970     3.3490    26.3720 
  236.7500     2.3190  -999.2500    22.8930     3.9130     3.2970     3.4770    27.0780 
  236.8750     2.2680  -999.2500    22.8930     3.9130     3.2970     3.4570    28.1890 
  237.0000     2.2080  -999.2500    22.8930     3.9130     3.2970     3.4820    28.9960 
  237.1250     2.1700  -999.2500    22.8930     3.9130     3.2970     3.6420    29.6080 
  237.2500     2.1580  -999.2500    22.8930     3.9130     3.2970     3.9820    30.1230 
  237.3750     2.1630  -999.2500    22.8930     3.9130     3.2970     4.2060    30.3180 
  237.5000     2.1720  -999.2500    22.8930     3.9130     3.2970     4.2010    30.1590 
  237.6250     2.1730  -999.2500    22.8930     3.9130     3.2970     4.0090    29.3510 
  237.7500     2.1700  -999.2500    22.8930     3.9130     3.2970     3.9070    28.9350 
  237.8750     2.1690  -999.2500    22.8930     3.9130     3.2970     3.8800    28.8050 
  238.0000     2.1760  -999.2500    22.8930     3.9130     3.2970     3.8790    28.7890 
  238.1250     2.1880  -999.2500    22.8930     3.9130     3.2970     3.8790    28.7840 
  238.2500     2.2020  -999.2500    22.8930     3.9130     3.2970     3.8780    28.7820 
  238.3750     2.2100  -999.2500    22.8930     3.9130     3.2970     3.8770    28.7820 
  238.5000     2.2130  -999.2500    22.8930     3.9130     3.2970     3.8790    28.7830 
  238.6250     2.2100  -999.2500    22.8930     3.9130     3.2970     3.8810    28.7900 
  238.7500     2.2050  -999.2500    22.8930     3.9130     3.2970     3.8820    28.8000 
  238.8750     2.2010  -999.2500    22.8930     3.9130     3.2970     3.8820    28.8050 
  239.0000     2.2060  -999.2500    22.8930     3.9130     3.2970     3.8810    28.8050 
