~V
VERS. 2.00: Ver 2.00
~W
STRT.M 10.0000:
STOP.M 237.0000:
STEP.M 0.1250:
NULL. -999.2500:
UWI. F10776:
~C
DEPT.M :
DEN.GM/CC :
GR.API :
RML.OHMM :
RI. :
RXO.OHMM :
CALI.CM :
SP.MV :
~A
# ...
  111.2500     2.3290    67.0660     6.3180     5.5230     5.9150    25.0680    -5.1650 
  111.3750     2.3390    68.7370     5.9730     5.2210     5.8030    25.1270    -5.0610 
  111.5000     2.3450    68.7650     5.7010     4.9470     5.6340    25.1850    -4.9680 
  111.6250     2.3390    69.9290     5.5670     4.7680     5.5110    25.2270    -4.8760 
  111.7500     2.3260    72.4690     5.5620     4.6950     5.3480    25.2900    -4.8150 
  111.8750     2.3110    75.2660     5.6700     4.7280     5.2760    25.3630    -4.7760 
  112.0000     2.2920    75.9770     5.8600     4.8470     5.5170    25.3560    -4.7770 
  112.1250     2.2740    72.5680     6.0850     5.0230     6.0840    25.2510    -4.8070 
  112.2500     2.2660    67.8650     6.2910     5.2020     6.4300    25.1350    -4.8590 
  112.3750     2.2650    64.8600     6.4690     5.3630     6.2200    24.9830    -4.9330 
  112.5000     2.2630    65.1960     6.6490     5.5170     5.9860    24.7210    -5.0190 
  112.6250     2.2590    68.2490     6.9100     5.7120     6.1150    24.3710    -5.0940 
  112.7500     2.2510    69.5340     7.3130     6.0030     6.2680    24.0980    -5.1340 
  112.8750     2.2440    65.9570     7.8750     6.4320     6.3250    23.9590    -5.1340 
  113.0000     2.2410    59.2130     8.5370     6.9880     6.5660    23.8610    -5.0660 
  113.1250     2.2470    56.2920     9.1150     7.5600     7.1320    23.8010    -4.9540 
  113.2500     2.2520    57.4100     9.4030     7.9650     7.6360    23.9990    -4.8120 
  113.3750     2.2610    60.3030     9.2830     8.0630     7.9640    24.4560    -4.6600 
  113.5000     2.2870    63.1310     8.7830     7.8170     7.6000    24.8780    -4.5150 
  113.6250     2.3250    65.7130     8.0950     7.3150     6.8020    25.0010    -4.4010 
  113.7500     2.3380    65.7720     7.5020     6.7980     6.5090    24.9350    -4.3210 
  113.8750     2.3120    64.1030     7.1440     6.4060     6.5460    24.8500    -4.2780 
  114.0000     2.2670    63.7860     7.0740     6.2170     6.5750    24.8720    -4.2930 
  114.1250     2.2300    64.1140     7.3390     6.2990     6.5280    24.8670    -4.3440 
  114.2500     2.1930    63.6150     7.8680     6.6060     6.6220    24.6550    -4.4480 
  114.3750     2.1510    62.0610     8.6460     7.1270     6.7610    24.1940    -4.5740 
  114.5000     2.1120    59.8900     9.6590     7.8500     6.9680    23.7150    -4.7060 
  114.6250     2.0930    56.3090    10.9240     8.7930     7.2660    23.4930    -4.8460 
  114.7500     2.0970    52.2670    12.4110     9.9150     7.5850    23.4660    -4.9860 
  114.8750     2.1270    50.1690    14.1770    11.2430     8.2310    23.4920    -5.1350 
  115.0000     2.1750    49.4080    16.3330    12.8470     9.1440    23.5310    -5.3200 
  115.1250     2.2120    47.9690    19.1200    14.9080     9.8630    23.5700    -5.5580 
  115.2500     2.2110    45.9880    22.5220    17.4630    10.4670    23.5900    -5.8200 
  115.3750     2.1650    44.1440    26.3920    20.4770    12.3010    23.5950    -6.0910 
  115.5000     2.0860    43.2380    30.2450    23.6590    15.9960    23.5910    -6.3680 
  115.6250     2.0100    43.4160    33.0250    26.2630    19.0820    23.5900    -6.6450 
  115.7500     1.9840    44.1040    34.2330    27.7600    19.9450    23.5790    -6.9130 
  115.8750     2.0250    45.1980    34.0630    28.0980    18.3530    23.5440    -7.1680 
  116.0000     2.1000    47.7010    33.3390    27.7520    15.9170    23.4710    -7.3910 
  116.1250     2.1540    49.2260    33.1580    27.5460    14.7640    23.4220    -7.5880 
  116.2500     2.1680    48.8280    33.9290    28.0230    15.1240    23.4050    -7.7600 
  116.3750     2.1440    48.2850    35.4700    29.2270    16.7470    23.4030    -7.9180 
  116.5000     2.0920    47.3020    37.1400    30.7850    18.1850    23.4040    -8.0790 
  116.6250     2.0440    44.3670    37.8110    31.8720    18.6920    23.4070    -8.2490 
  116.7500     2.0360    42.2250    37.0430    31.9310    18.7640    23.4070    -8.4260 
  116.8750     2.0650    43.8560    35.1360    30.9710    18.3610    23.4040    -8.6020 
  117.0000     2.1020    46.2730    32.8990    29.5010    16.5420    23.4010    -8.7790 
  117.1250     2.1280    46.3400    31.1770    28.2130    14.6190    23.4020    -8.9100 
  117.2500     2.1560    45.8840    30.1070    27.3940    14.1160    23.4040    -8.9890 
  117.3750     2.1920    46.1190    29.5030    26.9700    14.8710    23.4040    -9.0170 
  117.5000     2.2280    46.0760    29.1310    26.7540    15.6370    23.4050    -8.9840 
  117.6250     2.2490    46.4750    29.0050    26.6880    15.3160    23.4020    -8.9020 
  117.7500     2.2410    48.2680    29.3750    26.9270    14.2850    23.4010    -8.8160 
  117.8750     2.1940    50.4830    30.5810    27.7810    13.5810    23.4020    -8.7250 
  118.0000     2.1210    51.1880    32.7790    29.5090    13.7140    23.4040    -8.6040 
  118.1250     2.0680    47.7800    35.6730    32.1060    15.4780    23.3920    -8.4980 
  118.2500     2.0590    44.0300    38.0200    34.6110    18.4190    23.3600    -8.4020 
  118.3750     2.0900    45.0380    38.5710    35.8440    20.8280    23.3080    -8.3420 
  118.5000     2.1470    50.7690    36.9470    35.0690    20.1190    23.2490    -8.3150 
  118.6250     2.2280    53.7950    34.3350    32.7500    16.9380    23.2160    -8.3190 
  118.7500     2.3000    51.2990    32.7690    30.7500    14.4260    23.1890    -8.3380 
  118.8750     2.3180    47.7690    33.2670    30.2970    13.5670    23.1550    -8.3810 
  119.0000     2.2720    45.4840    36.1570    32.0410    14.2840    23.1120    -8.4530 
  119.1250     2.1950    43.6200    41.4570    36.3290    16.6580    23.1030    -8.5220 
  119.2500     2.1290    42.6050    47.4660    41.7880    19.5480    23.1360    -8.5960 
  119.3750     2.0840    43.6150    51.7750    46.4630    21.5920    23.1910    -8.6430 
  119.5000     2.0580    46.9670    51.9330    48.1000    22.3950    23.1830    -8.6830 
  119.6250     2.0570    49.8180    47.4950    45.4240    20.4420    23.0670    -8.7060 
  119.7500     2.0720    49.7130    42.2270    41.0610    17.7220    22.9690    -8.7430 
  119.8750     2.0870    48.1670    38.5160    37.3080    15.6940    22.9250    -8.7810 
  120.0000     2.0790    47.3700    37.3130    35.4830    14.2110    22.9200    -8.8160 
  120.1250     2.0410    46.4870    39.0100    36.2770    13.9380    22.9780    -8.8810 
  120.2500     2.0010    43.0930    42.6320    38.9700    15.9390    23.1650    -9.0040 
  120.3750     1.9840    40.4420    47.2730    42.8030    21.0470    23.4900    -9.1820 
  120.5000     1.9990    41.5410    51.7070    46.6910    24.3920    23.8100    -9.3870 
  120.6250     2.0420    41.8500    54.5110    49.3550    21.9640    23.9400    -9.6060 
  120.7500     2.0780    40.2110    55.7340    50.6730    19.3820    23.9690    -9.7920 
  120.8750     2.0820    37.6430    56.0280    51.0980    18.8710    23.9690    -9.9320 
  121.0000     2.0570    34.6850    56.0920    51.2280    19.7270    23.9690   -10.0440 
  121.1250     2.0360    32.1660    56.0980    51.2890    21.0810    23.9690   -10.1130 
  121.2500     2.0310    31.3170    55.6150    50.9450    21.2720    23.9690   -10.1140 
  121.3750     2.0310    31.9860    54.2160    49.7460    19.1960    23.9710   -10.0500 
  121.5000     2.0270    31.8680    51.9150    47.5960    16.4670    23.9690    -9.9080 
  121.6250     2.0330    32.0120    49.1400    44.8200    15.3800    23.9570    -9.7050 
  121.7500     2.0570    33.9390    46.3780    42.0100    15.2080    23.9360    -9.4460 
  121.8750     2.0910    38.1830    43.5880    39.3000    14.7730    23.9100    -9.1330 
  122.0000     2.1170    42.1200    40.3770    36.4510    14.3060    23.8630    -8.7590 
  122.1250     2.1290    40.5340    36.2180    32.9830    14.0360    23.7490    -8.2590 
  122.2500     2.1420    36.4530    31.5080    29.0280    13.5020    23.5930    -7.6860 
  122.3750     2.1630    36.3380    27.0320    25.1430    12.7010    23.4170    -7.0540 
