~V
VERS. 2.00: Ver 2.00
~W
STRT.M 59.0000:
STOP.M 239.0000:
STEP.M 0.1250:
NULL. -999.2500:
UWI. F10784:
~C
DEPT.M :
DEN.GM/CC :
GR.API :
RML.OHMM :
RI. :
RXO.OHMM :
CALI.CM :
SP.MV :
~A
# ...
  126.5000     2.3620    96.2300     8.3710     6.5950     7.0640    24.5550   -16.2010 
  126.6250     2.3370    93.0330     8.5670     6.7000     6.6460    24.5550   -16.4840 
  126.7500     2.3070    92.6670     8.9140     6.9540     6.6630    24.5550   -16.7510 
  126.8750     2.2860    94.7530     9.3870     7.3420     6.7300    24.5550   -17.0000 
  127.0000     2.2890    96.1210     9.9400     7.8370     6.9740    24.5550   -17.1730 
  127.1250     2.3200    92.1840    10.4900     8.3800     7.4260    24.5550   -17.2780 
  127.2500     2.3550    86.2920    10.9520     8.8780     8.6910    24.5550   -17.3200 
  127.3750     2.3680    83.3690    11.2710     9.2650    10.7090    24.5550   -17.3380 
  127.5000     2.3450    86.0540    11.4180     9.4960    10.3190    24.5550   -17.2710 
  127.6250     2.2930    91.7960    11.3350     9.5080     8.3690    24.5550   -17.1600 
  127.7500     2.2460    94.2200    11.0210     9.3000     7.4750    24.5550   -16.9850 
  127.8750     2.2270    92.0810    10.4530     8.8570     7.4350    24.5550   -16.7870 
  128.0000     2.2420    88.8850     9.6620     8.2000     7.5660    24.5550   -16.5950 
  128.1250     2.2760    88.6980     8.7810     7.4220     7.0770    24.5550   -16.4610 
  128.2500     2.3040    91.2140     8.0580     6.7170     6.2090    24.5550   -16.3360 
  128.3750     2.3150    93.8420     7.7110     6.2560     5.6290    24.5440   -16.2060 
  128.5000     2.3140    93.7960     7.9020     6.1800     5.4390    24.4800   -16.0580 
  128.6250     2.3070    89.5810     8.7540     6.6470     5.6740    24.3120   -15.8800 
  128.7500     2.2980    84.9480     9.9720     7.5180     6.4590    24.1430   -15.6900 
  128.8750     2.2830    82.3210    11.1630     8.5580     7.6630    24.0870   -15.5040 
  129.0000     2.2600    82.2200    11.8570     9.3920     8.4540    24.1350   -15.3210 
  129.1250     2.2330    83.5250    11.5850     9.5350     8.2070    24.2230   -15.1500 
  129.2500     2.2130    85.1380    10.6100     9.0200     7.5290    24.2880   -14.9920 
  129.3750     2.2050    87.5380     9.3820     8.1230     6.7070    24.3240   -14.8150 
  129.5000     2.2060    90.3560     8.3990     7.2430     5.9990    24.3350   -14.6560 
  129.6250     2.2060    92.5700     8.1330     6.8010     5.9700    24.3350   -14.5010 
  129.7500     2.1970    93.3440     8.6310     6.9260     5.6390    24.3350   -14.3490 
  129.8750     2.1800    91.0470     9.8820     7.6860     5.8830    24.3350   -14.1180 
  130.0000     2.1650    84.8480    11.7100     9.0530     6.7480    24.3350   -13.8460 
  130.1250     2.1620    76.8610    13.6100    10.7850     7.3050    24.3350   -13.5010 
  130.2500     2.1730    73.1370    14.8220    12.2080     7.3990    24.3350   -13.1750 
  130.3750     2.1960    75.8520    14.8300    12.7360     7.4130    24.3350   -12.8890 
  130.5000     2.2260    82.0100    13.6000    12.1280     7.4960    24.3350   -12.6810 
  130.6250     2.2610    88.7460    11.6110    10.6130     7.3030    24.3350   -12.5480 
  130.7500     2.2950    95.4630     9.7330     8.9800     6.5270    24.3350   -12.5380 
  130.8750     2.3220    99.9390     8.3830     7.6510     5.5390    24.3350   -12.6650 
  131.0000     2.3360    99.1740     7.6750     6.7950     5.5260    24.3350   -12.8460 
  131.1250     2.3310    95.1400     7.6550     6.5030     6.4410    24.3350   -13.0140 
  131.2500     2.3180    95.6120     8.1800     6.6710     6.9770    24.3270   -13.0600 
  131.3750     2.3110   101.0380     9.2570     7.3080     6.8280    24.2520   -12.9650 
  131.5000     2.3190   102.9320    10.9080     8.4410     7.0130    24.0550   -12.6890 
  131.6250     2.3390    93.0290    13.1720    10.1770     8.7620    23.7760   -12.1720 
  131.7500     2.3460    79.2100    15.7550    12.3560    12.6730    23.6530   -11.3950 
  131.8750     2.3260    71.4960    18.3060    14.7420    15.9910    23.6240   -10.3620 
  132.0000     2.2760    70.7350    20.4030    16.9450    13.9630    23.6240    -9.1250 
  132.1250     2.2100    69.4410    21.5770    18.4040    10.9580    23.6210    -7.7750 
  132.2500     2.1520    65.3230    22.0060    19.0640     9.5680    23.6240    -6.4800 
  132.3750     2.1140    62.8700    22.1080    19.1710     8.9530    23.6600    -5.3490 
  132.5000     2.1010    64.6630    22.4870    19.2200     8.3700    23.7660    -4.3900 
  132.6250     2.1300    67.9620    23.9240    19.9140     7.9750    23.9330    -3.7140 
  132.7500     2.2010    69.2570    26.5700    21.5830     7.9420    24.0230    -3.2460 
  132.8750     2.3010    67.0610    30.2130    24.2740     9.2820    24.0490    -2.9970 
  133.0000     2.3940    62.3930    34.0680    27.5590    13.9020    24.0510    -2.9200 
  133.1250     2.4340    58.0580    36.4760    30.2030    28.8820    24.0360    -2.9880 
  133.2500     2.4200    56.7110    36.4100    31.0410    31.5610    23.9850    -3.0850 
  133.3750     2.3740    59.3240    33.8130    29.6670    18.6170    23.9020    -3.1720 
  133.5000     2.3240    64.7900    29.6760    26.6380    11.5990    23.8490    -3.2500 
  133.6250     2.2920    68.6510    25.5940    23.1790    10.3640    23.8330    -3.3560 
  133.7500     2.2700    67.9540    22.6430    20.4120     9.9410    23.8330    -3.4790 
  133.8750     2.2450    64.7460    21.0830    18.7170     8.8370    23.8360    -3.5890 
  134.0000     2.2160    62.7740    20.7900    18.1070     8.2790    23.8370    -3.6780 
  134.1250     2.1900    60.2130    21.6040    18.5470     8.3720    23.8370    -3.6910 
  134.2500     2.1790    56.9580    22.9610    19.6130     8.6080    23.8390    -3.6330 
  134.3750     2.1850    56.2740    24.4460    20.9860     8.9470    23.8400    -3.5200 
  134.5000     2.2040    59.0720    25.6550    22.2960     9.3930    23.8390    -3.3980 
  134.6250     2.2220    60.1580    26.2480    23.1540    10.7850    23.8360    -3.2060 
  134.7500     2.2300    58.9370    26.4140    23.5620    12.0540    23.8340    -2.9690 
  134.8750     2.2240    60.1210    26.4890    23.7230    11.2010    23.8350    -2.6760 
  135.0000     2.2120    63.8200    26.8340    23.9430    10.0440    23.8340    -2.3370 
  135.1250     2.2030    64.9580    27.7110    24.5230     9.8870    23.8350    -2.0140 
  135.2500     2.2000    61.8930    28.9150    25.4210    10.0970    23.8340    -1.7270 
  135.3750     2.1990    58.5120    30.1410    26.4470    10.2010    23.8360    -1.4590 
  135.5000     2.1950    59.0890    31.0790    27.3370    10.4320    23.8390    -1.1850 
  135.6250     2.1850    62.5480    31.4950    27.8350    10.7520    23.8390    -0.9540 
  135.7500     2.1760    64.5880    31.5660    28.0100    10.6070    23.8360    -0.8250 
  135.8750     2.1730    64.5420    31.5170    28.0350    10.4720    23.8340    -0.8370 
  136.0000     2.1820    64.0820    31.5380    28.0950    10.5590    23.8340    -1.0270 
  136.1250     2.2090    62.6080    31.6440    28.2750    10.2280    23.8320    -1.4380 
  136.2500     2.2490    59.8940    31.5490    28.3850    10.0160    23.8310    -2.0440 
  136.3750     2.2940    59.4680    30.8340    28.0580    10.4400    23.8310    -2.7730 
  136.5000     2.3330    62.5380    29.1270    26.8930    10.7340    23.8310    -3.6280 
  136.6250     2.3530    65.6770    26.2300    24.5800     9.9660    23.8330    -4.5120 
  136.7500     2.3530    67.6260    22.8250    21.6520     9.8240    23.8680    -5.4380 
  136.8750     2.3340    70.5930    19.6190    18.7320     9.9050    23.9720    -6.3690 
  137.0000     2.3030    73.4800    17.2220    16.3950     9.3280    24.1160    -7.2850 
  137.1250     2.2720    71.3040    16.1310    15.1330     7.8820    24.1810    -8.0220 
  137.2500     2.2470    66.5100    16.0820    14.8160     7.5650    24.1980    -8.5940 
  137.3750     2.2300    63.7920    16.7810    15.2770     8.5200    24.1980    -9.0200 
  137.5000     2.2160    63.7910    17.8370    16.2330     8.7510    24.1980    -9.2810 
  137.6250     2.1970    63.5080    18.7780    17.2840     8.8640    24.1980    -9.3690 
