~V
VERS. 2.00: Ver 2.00
~W
STRT.M 50.0000:
STOP.M 239.0000:
STEP.M 0.1250:
NULL. -999.2500:
UWI. F10783:
~C
DEPT.M :
GR.API :
RML.OHMM :
RI. :
RXO.OHMM :
CALI.CM :
SP.MV :
DEN.GM/CC :
~A
# ...
  151.2500    69.6040    24.2090    22.5750     8.6280    23.0740    -7.6400     2.2060 
  151.3750    68.3020    25.0000    22.9000     9.3850    23.0780    -7.1510     2.2110 
  151.5000    68.3420    26.6100    24.1410    11.3120    23.0600    -6.5990     2.2110 
  151.6250    70.6000    28.4030    25.8300    12.6640    23.0870    -5.9740     2.2030 
  151.7500    73.1510    29.6940    27.2560    12.3600    23.1200    -5.3480     2.1930 
  151.8750    72.2790    30.1620    27.9990    10.6810    23.1290    -4.7130     2.1850 
  152.0000    67.1600    29.8680    27.9840     9.5270    23.1060    -4.0600     2.1840 
  152.1250    64.6520    29.1920    27.4840     9.5620    23.0650    -3.3830     2.1890 
  152.2500    67.0310    28.6530    27.0460     9.8690    23.0490    -2.7230     2.1950 
  152.3750    69.2480    28.4340    26.9200     9.9170    23.0610    -2.1010     2.2000 
  152.5000    67.4680    28.4850    27.1220     9.9160    23.0770    -1.5700     2.1980 
  152.6250    65.5960    28.6590    27.5130    10.1550    23.0890    -1.2510     2.1890 
  152.7500    66.3650    28.8780    27.9330    10.1590    23.0890    -1.1300     2.1770 
  152.8750    66.1240    29.2520    28.4220     9.7870    23.1100    -1.2160     2.1700 
  153.0000    63.2780    29.9210    29.1180     9.1520    23.1370    -1.5030     2.1710 
  153.1250    62.2910    30.8090    30.0720     9.0060    23.1620    -2.0250     2.1810 
  153.2500    65.0000    31.2830    30.7940     9.0940    23.1800    -2.7570     2.1970 
  153.3750    68.3100    30.5160    30.4720     9.5490    23.1780    -3.7180     2.2170 
  153.5000    70.2760    27.9070    28.3750    10.5010    23.1890    -4.8660     2.2460 
  153.6250    74.5980    23.4360    24.2670    11.7190    23.2060    -6.1060     2.2850 
  153.7500    80.9430    18.5240    19.4960    11.6370    23.2390    -7.2830     2.3250 
  153.8750    84.8390    14.3380    15.2220     9.5960    23.2770    -8.2710     2.3530 
  154.0000    84.9050    11.5890    12.1760     7.2380    23.2890    -9.0100     2.3590 
  154.1250    83.6120    10.6910    10.7680     6.2730    23.3010    -9.4270     2.3390 
  154.2500    82.0480    11.2050    10.6460     6.3010    23.3000    -9.5350     2.3030 
  154.3750    78.5330    12.9180    11.7040     7.2920    23.2500    -9.3230     2.2630 
  154.5000    73.7580    15.5410    13.8220     8.8910    23.1750    -8.8640     2.2280 
  154.6250    70.0120    18.5810    16.7560     9.8410    23.1290    -8.2150     2.2080 
  154.7500    69.3320    21.2610    19.7160    10.0310    23.0970    -7.5120     2.1970 
  154.8750    69.6000    23.0930    22.0480     9.7840    23.0540    -6.8490     2.1880 
  155.0000    68.7610    23.9760    23.3980     9.1150    22.9960    -6.2880     2.1760 
  155.1250    68.4820    24.1920    23.8200     8.6160    22.9450    -5.9320     2.1620 
  155.2500    68.8420    24.3740    23.9600     8.5860    22.9400    -5.7570     2.1540 
  155.3750    68.0020    24.8040    24.1730     8.9430    22.9800    -5.6730     2.1570 
  155.5000    65.5470    25.4980    24.5610     9.6660    23.0350    -5.5740     2.1700 
  155.6250    63.7770    26.2480    25.0010    10.2980    23.0590    -5.4040     2.1840 
  155.7500    63.1160    26.7870    25.2780    10.6650    23.0650    -5.1800     2.1920 
  155.8750    63.0580    27.0030    25.2910     9.9320    23.0650    -4.9280     2.1900 
  156.0000    65.4600    26.9650    25.0870     8.9890    23.0710    -4.6950     2.1820 
  156.1250    66.7830    26.9180    24.8860     8.6730    23.0900    -4.4670     2.1760 
  156.2500    65.2460    27.1160    24.9330     8.7090    23.1160    -4.2610     2.1760 
  156.3750    64.9780    27.6310    25.3270     9.0330    23.1270    -4.0920     2.1820 
  156.5000    68.5250    28.3580    26.0040     9.8680    23.1300    -3.9690     2.1940 
  156.6250    71.2920    29.0380    26.7390    11.2310    23.1420    -3.9170     2.2080 
  156.7500    68.7720    29.4490    27.2720    11.8150    23.1650    -3.9200     2.2210 
  156.8750    64.4200    29.5290    27.4860    10.9350    23.1760    -3.9640     2.2320 
  157.0000    63.6390    29.3440    27.4010     9.5620    23.1640    -4.0300     2.2360 
  157.1250    65.7150    29.0330    27.1120     9.0900    23.1680    -4.1040     2.2340 
  157.2500    66.2850    28.7590    26.7950     9.2060    23.1890    -4.1790     2.2250 
  157.3750    65.1680    28.6250    26.5580     9.3010    23.1990    -4.2950     2.2130 
  157.5000    63.1990    28.7310    26.4930     9.1220    23.1990    -4.4750     2.1980 
  157.6250    61.8430    29.2350    26.7350     8.9850    23.1870    -4.7540     2.1900 
  157.7500    61.2350    30.1430    27.3020     9.1540    23.1780    -5.1500     2.2010 
  157.8750    62.4800    31.4370    28.2090     9.9440    23.1910    -5.6410     2.2420 
  158.0000    65.7090    33.0300    29.4180    11.7470    23.2350    -6.1960     2.3090 
  158.1250    67.6760    34.7930    30.8590    14.8670    23.2800    -6.8300     2.3860 
  158.2500    66.9400    36.5640    32.3680    17.8740    23.2600    -7.5570     2.4450 
  158.3750    64.4860    38.2640    33.8570    18.2980    23.2450    -8.3900     2.4740 
  158.5000    63.5760    39.8140    35.2580    18.0840    23.3010    -9.2910     2.4820 
  158.6250    64.9450    40.9960    36.4310    22.3800    23.4520   -10.1650     2.4870 
  158.7500    66.5230    41.6390    37.2510    27.0410    23.5560   -10.9810     2.5050 
  158.8750    66.7970    41.6400    37.6120    30.0910    23.6420   -11.7610     2.5280 
  159.0000    65.9610    41.1170    37.5490    32.3240    23.6710   -12.5070     2.5410 
  159.1250    63.6110    40.4680    37.3280    27.5550    23.4950   -13.2020     2.5290 
  159.2500    61.3190    40.1370    37.3540    23.0120    23.2620   -13.7830     2.4980 
  159.3750    60.9440    40.1760    37.7670    21.1860    23.1550   -14.1950     2.4620 
  159.5000    63.0790    40.2220    38.3350    21.8310    23.2560   -14.4360     2.4340 
  159.6250    65.2320    39.4790    38.3510    24.8280    23.5940   -14.4990     2.4180 
  159.7500    65.6110    37.6080    37.3320    27.9050    23.9240   -14.4420     2.4100 
  159.8750    66.2920    34.6840    35.1720    25.7760    23.9350   -14.2900     2.4090 
  160.0000    67.3720    31.1260    32.1430    18.9800    23.5560   -14.0580     2.4140 
  160.1250    67.3140    27.4730    28.6960    15.2110    23.2720   -13.7650     2.4220 
  160.2500    67.6980    24.1300    25.3350    14.1230    23.1690   -13.4690     2.4210 
  160.3750    70.4020    21.3190    22.3480    14.4520    23.1470   -13.2180     2.3980 
  160.5000    74.1620    19.2650    19.9890    13.5510    23.1000   -13.0630     2.3570 
  160.6250    75.3270    18.4520    18.6980    10.4400    23.0950   -13.0400     2.3190 
  160.7500    72.9870    18.9800    18.5970     9.2260    23.2010   -13.0960     2.3130 
  160.8750    68.7110    20.9590    19.8880    10.3030    23.5070   -13.1940     2.3520 
  161.0000    65.7350    24.2400    22.6440    15.2480    23.9750   -13.3130     2.4260 
  161.1250    67.1290    28.2720    26.6820    27.7560    24.4520   -13.4270     2.5080 
  161.2500    68.0530    31.8890    30.8330    35.4500    24.6720   -13.5420     2.5720 
  161.3750    64.7120    34.2480    34.0020    35.0480    24.6400   -13.6470     2.6100 
  161.5000    60.0480    35.1130    35.5460    33.5330    24.5480   -13.7100     2.6260 
  161.6250    58.6100    35.0220    35.6110    32.0270    24.5470   -13.6820     2.6320 
  161.7500    58.8350    35.1700    35.4910    33.6020    24.5500   -13.5940     2.6360 
  161.8750    58.3830    36.0680    35.9600    34.6750    24.5010   -13.4870     2.6390 
  162.0000    57.1910    37.4380    37.0570    37.9600    24.4350   -13.3920     2.6370 
  162.1250    56.5220    37.9990    37.7580    42.5930    24.4290   -13.3270     2.6230 
  162.2500    55.4990    36.6680    36.8440    47.1700    24.5020   -13.2860     2.5970 
  162.3750    54.0380    33.2590    33.9060    44.8620    24.6150   -13.2810     2.5650 
