~V
VERS. 2.00: Ver 2.00
~W
STRT.M 20.0000:
STOP.M 266.0000:
STEP.M 0.1250:
NULL. -999.2500:
UWI. F10773:
~C
DEPT.M :
DEN.GM/CC :
GR.API :
RML.OHMM :
RI. :
RXO.OHMM :
CALI.CM :
SP.MV :
~A
# ...
  132.5000     2.2600    92.3440     8.1810     7.7110     7.7540    24.8270   -10.4080 
  132.6250     2.2580    92.0760     8.2340     7.7730     7.3750    24.8010   -10.2940 
  132.7500     2.2550    87.6790     8.2780     7.7880     7.2910    24.7620   -10.2740 
  132.8750     2.2530    82.3670     8.2510     7.7430     7.5730    24.6990   -10.3140 
  133.0000     2.2520    80.4330     8.1030     7.6190     7.7510    24.5660   -10.3170 
  133.1250     2.2570    82.0140     7.8170     7.4020     7.3520    24.3810   -10.2280 
  133.2500     2.2610    85.6660     7.4960     7.1580     6.6320    24.3930   -10.0720 
  133.3750     2.2610    92.0610     7.2350     6.9480     6.2170    24.4840    -9.8710 
  133.5000     2.2560    98.0480     7.0930     6.8020     6.0420    24.5200    -9.6510 
  133.6250     2.2510    94.9270     7.0900     6.7010     6.2390    24.5240    -9.4000 
  133.7500     2.2500    86.4640     7.1850     6.6100     6.8100    24.4980    -9.0410 
  133.8750     2.2490    83.6950     7.3960     6.5650     7.2050    24.4350    -8.5360 
  134.0000     2.2420    89.1480     7.7970     6.6730     6.5820    24.3530    -7.8690 
  134.1250     2.2210    92.4110     8.5470     7.1430     5.9050    24.2040    -7.0390 
  134.2500     2.1950    86.1810     9.6730     8.0270     6.6790    24.0110    -6.1540 
  134.3750     2.1720    74.9330    11.1610     9.3060     8.2010    23.8960    -5.3010 
  134.5000     2.1560    65.7690    12.8870    10.8500     9.1900    23.8620    -4.5240 
  134.6250     2.1450    63.1590    14.5670    12.4290     9.1940    23.8590    -3.8150 
  134.7500     2.1300    64.5190    15.9260    13.8360     9.1150    23.8620    -3.1300 
  134.8750     2.1150    66.6600    16.9140    15.0210     9.0990    23.8700    -2.4130 
  135.0000     2.1080    66.5930    17.7230    16.0510     9.2150    23.8980    -1.7290 
  135.1250     2.1180    62.1970    18.6710    17.0120     9.3550    23.9670    -1.1750 
  135.2500     2.1370    57.4150    19.7850    17.9150     9.3570    24.0230    -0.7340 
  135.3750     2.1530    56.1310    20.7910    18.6650     9.2540    24.0240    -0.4170 
  135.5000     2.1620    57.4180    21.3170    19.1600     9.2100    23.9870    -0.2150 
  135.6250     2.1670    57.3500    21.0630    19.3120     9.1270    23.9880    -0.1370 
  135.7500     2.1760    55.8380    20.3590    19.2200     8.9290    23.9900    -0.2240 
  135.8750     2.1910    58.0950    19.5950    18.9630     8.9050    23.9860    -0.5820 
  136.0000     2.2070    63.9590    19.0680    18.6170     9.1030    23.9690    -1.1310 
  136.1250     2.2160    67.2850    18.8850    18.2330     9.1140    23.9490    -1.7400 
  136.2500     2.2200    67.2780    18.8450    17.8270     9.0050    23.9010    -2.3150 
  136.3750     2.2210    66.8730    18.7810    17.3910     8.8370    23.8480    -2.7890 
  136.5000     2.2180    67.5410    18.5960    16.9520     8.7580    23.7770    -3.1630 
  136.6250     2.2100    67.8710    18.3110    16.6600     8.7680    23.7000    -3.4900 
  136.7500     2.2040    67.4400    18.1020    16.6650     8.8220    23.6360    -3.7610 
  136.8750     2.2140    67.1020    18.1350    17.0470     9.0490    23.6140    -3.9830 
  137.0000     2.2500    65.9350    18.4950    17.7450    10.1120    23.6280    -4.1520 
  137.1250     2.3120    64.9790    19.1260    18.5130    14.2570    23.7250    -4.2090 
  137.2500     2.3700    65.3720    19.7090    19.0190    22.5820    23.9300    -4.1580 
  137.3750     2.3980    67.2870    19.9850    19.0860    28.3970    24.1240    -4.0350 
  137.5000     2.3820    69.4700    19.8590    18.7240    23.6350    24.0770    -3.8290 
  137.6250     2.3270    69.2210    19.4650    18.1420    15.0220    23.8670    -3.4430 
  137.7500     2.2670    66.2070    19.1820    17.7080    10.7340    23.6920    -2.8860 
  137.8750     2.2250    61.7370    19.2850    17.6740     9.6090    23.6140    -2.1360 
  138.0000     2.2090    59.3800    19.9140    18.1640     9.7440    23.5800    -1.2710 
  138.1250     2.2100    61.4370    21.0520    19.1620     9.8890    23.5770    -0.5310 
  138.2500     2.2100    65.1360    22.2830    20.2680    10.0580    23.5760    -0.0080 
  138.3750     2.2040    66.7890    23.1840    21.1040    10.1540    23.6020     0.3600 
  138.5000     2.1910    65.7610    23.4250    21.3760     9.9080    23.6060     0.6330 
  138.6250     2.1810    63.1180    22.8150    20.9150     9.5620    23.5000     0.7280 
  138.7500     2.1790    59.7350    21.7090    20.0120     9.3450    23.3410     0.5480 
  138.8750     2.1850    57.4400    20.4280    18.9290     9.1860    23.2370     0.0560 
  139.0000     2.1950    57.2750    19.2560    17.9070     9.0270    23.2720    -0.6490 
  139.1250     2.2020    58.0500    18.4250    17.1570     9.2500    23.3560    -1.3080 
  139.2500     2.2030    58.2100    17.9290    16.7070     9.5960    23.4960    -1.7990 
  139.3750     2.1980    57.3140    17.7320    16.5550     9.5910    23.7440    -2.1530 
  139.5000     2.1950    55.7000    17.8260    16.7020     9.3400    24.2040    -2.4610 
  139.6250     2.2100    54.4350    18.3920    17.2820     9.2950    24.5730    -2.7350 
  139.7500     2.2540    55.0780    19.6070    18.4320     9.4850    24.6710    -2.8890 
  139.8750     2.3300    55.5140    21.7330    20.4010     9.6920    24.5740    -2.8690 
  140.0000     2.4210    53.3150    24.8970    23.3370    11.2650    24.4390    -2.6690 
  140.1250     2.4910    50.0000    28.6970    26.9720    19.5060    24.4390    -2.3900 
  140.2500     2.5130    49.5860    31.6350    30.0570    41.5440    24.5880    -2.1440 
  140.3750     2.4850    52.8280    32.2980    31.2970    59.5350    24.7240    -1.9720 
  140.5000     2.4250    56.3790    30.2480    30.0100    40.6720    24.7720    -1.9060 
  140.6250     2.3640    57.0840    26.4380    26.5540    19.6830    24.6800    -1.9270 
  140.7500     2.3210    56.1050    22.8820    22.7850    12.3090    24.4760    -1.9240 
  140.8750     2.2920    54.3890    20.4420    19.8300     9.5830    24.2610    -1.8890 
  141.0000     2.2710    52.6210    19.1890    18.1420     8.7270    24.1660    -1.9180 
  141.1250     2.2540    51.7660    18.8820    17.7390     8.6650    24.1790    -2.0490 
  141.2500     2.2450    53.2630    18.9410    17.9590     8.8320    24.1880    -2.2450 
  141.3750     2.2500    57.2830    19.0530    18.3440     9.1760    24.1750    -2.5320 
  141.5000     2.2670    60.5370    19.0240    18.5330     9.6670    24.1160    -2.8520 
  141.6250     2.2900    62.0860    18.7460    18.2790    10.2180    24.0210    -3.1100 
  141.7500     2.3100    63.0150    18.2560    17.6820    10.6810    23.9420    -3.3800 
  141.8750     2.3220    63.9900    17.5510    16.8600    11.0000    23.9600    -3.7190 
  142.0000     2.3240    64.5440    16.6070    15.8980    10.4740    23.9990    -4.1220 
  142.1250     2.3190    63.1300    15.4000    14.7990     9.8040    24.0110    -4.5880 
  142.2500     2.3110    60.5450    14.1110    13.6100     9.3220    24.0620    -5.0740 
  142.3750     2.2990    59.9060    12.9840    12.4440     8.9600    24.1100    -5.4490 
  142.5000     2.2780    62.6400    12.2770    11.4930     8.4420    24.1210    -5.6900 
  142.6250     2.2480    66.1960    12.2740    11.0820     7.7780    24.0730    -5.8240 
  142.7500     2.2180    65.6140    12.8960    11.2990     8.0150    24.0070    -5.8400 
  142.8750     2.1970    61.8190    14.0290    12.1510     8.3080    24.0500    -5.7130 
  143.0000     2.1920    59.0930    15.4860    13.5100     8.6010    24.2860    -5.4220 
  143.1250     2.2030    59.0060    17.0400    15.1470     8.9270    24.5760    -4.9070 
  143.2500     2.2200    58.6060    18.4820    16.7330     9.5800    24.6700    -4.2340 
  143.3750     2.2350    56.7090    19.7140    18.0900    10.4370    24.6050    -3.5840 
  143.5000     2.2440    55.3380    20.6760    19.1240    10.8840    24.5210    -3.0600 
  143.6250     2.2440    55.8030    21.2020    19.6740    10.4930    24.5240    -2.6260 
