~V
VERS. 2.00: Ver 2.00
~W
STRT.M 45.0000:
STOP.M 272.0000:
STEP.M 0.1250:
NULL. -999.2500:
UWI. F10774:
~C
DEPT.M :
DEN.GM/CC :
SP.MV :
GR.API :
RML.OHMM :
RI. :
RXO.OHMM :
CALI.CM :
~A
# ...
   90.0000     2.2540   -20.2140    81.9560     6.8200     5.2610     4.1690    25.2070 
   90.1250     2.2800   -19.9720    85.5670     6.8320     5.2210     4.1290    25.2140 
   90.2500     2.2970   -19.7770    84.6220     6.9440     5.2660     4.1870    25.2030 
   90.3750     2.3030   -19.6200    81.4200     7.1000     5.3540     4.3730    25.2160 
   90.5000     2.2990   -19.4920    80.3840     7.2690     5.4620     4.6520    25.2550 
   90.6250     2.2890   -19.3890    82.6420     7.4130     5.5670     4.9930    25.2970 
   90.7500     2.2820   -19.2890    84.2760     7.4870     5.6390     5.2170    25.3140 
   90.8750     2.2740   -19.2020    82.8330     7.4670     5.6560     5.1280    25.3180 
   91.0000     2.2610   -19.1490    78.9730     7.3580     5.6160     4.8380    25.3190 
   91.1250     2.2420   -19.1180    76.1360     7.2100     5.5420     4.6750    25.3200 
   91.2500     2.2310   -19.0970    77.0180     7.0980     5.4740     4.5790    25.3190 
   91.3750     2.2300   -19.0730    78.1770     7.0830     5.4520     4.3760    25.3170 
   91.5000     2.2320   -19.0120    76.4640     7.1770     5.4880     4.3460    25.3100 
   91.6250     2.2290   -18.9070    74.2060     7.3300     5.5620     4.6200    25.2980 
   91.7500     2.2240   -18.7770    74.7260     7.4330     5.6150     4.8450    25.2910 
   91.8750     2.2320   -18.6430    75.5200     7.3770     5.5840     4.8760    25.3020 
   92.0000     2.2520   -18.5070    75.1540     7.1190     5.4390     4.7020    25.3020 
   92.1250     2.2750   -18.3760    75.7740     6.7070     5.1960     4.3540    25.2860 
   92.2500     2.2950   -18.2420    79.1620     6.2760     4.9200     3.9500    25.2930 
   92.3750     2.3070   -18.0970    82.1860     5.9830     4.7070     3.6940    25.3960 
   92.5000     2.3120   -17.9470    82.6470     5.9200     4.6230     3.6020    25.5730 
   92.6250     2.3120   -17.8120    82.4200     6.1280     4.7060     3.6430    25.6590 
   92.7500     2.3110   -17.7100    83.4160     6.5850     4.9610     3.9700    25.5150 
   92.8750     2.3120   -17.6390    86.0150     7.1360     5.3030     4.5870    25.2820 
   93.0000     2.3060   -17.5990    87.5810     7.6120     5.6280     5.2310    25.0880 
   93.1250     2.2880   -17.5780    85.7550     7.8260     5.8170     5.3790    24.9270 
   93.2500     2.2620   -17.5830    83.6740     7.6580     5.7810     4.9470    24.7760 
   93.3750     2.2470   -17.6020    87.1150     7.2320     5.5750     4.4120    24.6600 
   93.5000     2.2470   -17.6320    93.5590     6.7220     5.2930     4.0540    24.5990 
   93.6250     2.2570   -17.6570    96.0830     6.3100     5.0400     3.9170    24.5590 
   93.7500     2.2630   -17.6870    92.8300     6.1420     4.9130     3.9320    24.5090 
   93.8750     2.2530   -17.7140    90.1740     6.2380     4.9420     3.9830    24.4630 
   94.0000     2.2270   -17.7400    89.0370     6.5880     5.1420     4.1210    24.4410 
   94.1250     2.1880   -17.7870    86.2580     7.1490     5.5070     4.4290    24.4990 
   94.2500     2.1470   -17.8620    80.4750     7.8480     6.0140     4.9150    24.6690 
   94.3750     2.1240   -17.9780    73.7570     8.5480     6.5740     5.3690    24.8670 
   94.5000     2.1260   -18.1360    67.9990     9.1160     7.0910     5.5750    24.9940 
   94.6250     2.1460   -18.3090    65.1520     9.4110     7.4490     5.4510    24.9490 
   94.7500     2.1670   -18.4440    66.8450     9.3410     7.5450     5.1200    24.7370 
   94.8750     2.1800   -18.5250    71.1900     9.0310     7.4250     4.8690    24.5620 
   95.0000     2.1810   -18.5460    75.4820     8.6390     7.1750     4.7950    24.5330 
   95.1250     2.1750   -18.5060    77.8580     8.2990     6.8890     4.7760    24.6290 
   95.2500     2.1680   -18.4070    76.7480     8.0590     6.6260     4.6970    24.8270 
   95.3750     2.1660   -18.2710    74.7090     7.8400     6.3730     4.7060    25.0610 
   95.5000     2.1690   -18.1200    75.2430     7.5460     6.0870     4.8670    25.2410 
   95.6250     2.1770   -17.9600    79.5250     7.1350     5.7450     4.8480    25.2810 
   95.7500     2.1930   -17.7880    83.8450     6.7300     5.4130     4.5740    25.2010 
   95.8750     2.2130   -17.5790    86.0040     6.6180     5.2580     4.3720    25.1690 
   96.0000     2.2330   -17.3130    86.1590     7.0870     5.4530     4.4310    25.1750 
   96.1250     2.2510   -16.9810    83.1030     8.4400     6.1950     5.2630    25.1290 
   96.2500     2.2670   -16.5760    75.2900    10.9660     7.7250     8.9470    24.9550 
   96.3750     2.2700   -16.1070    63.9950    14.4400    10.0130    16.2950    24.7910 
   96.5000     2.2460   -15.5740    53.9990    18.2850    12.8270    19.9770    24.7410 
   96.6250     2.1940   -14.9780    50.0570    21.3570    15.4870    14.3690    24.7690 
   96.7500     2.1420   -14.3430    52.9090    22.5180    17.0900    10.5950    24.7140 
   96.8750     2.1090   -13.7360    56.9680    22.2450    17.5930     9.2160    24.5490 
   97.0000     2.0980   -13.1870    56.6370    21.5630    17.5240     8.8620    24.4380 
   97.1250     2.1000   -12.7090    52.2740    21.2660    17.4510     8.7090    24.5200 
   97.2500     2.1090   -12.3020    49.6700    21.5500    17.6230     8.7840    24.6700 
   97.3750     2.1200   -11.9460    52.0010    22.0620    17.9090     8.9410    24.7660 
   97.5000     2.1260   -11.6430    55.0610    22.5620    18.1760     8.8910    24.8030 
   97.6250     2.1240   -11.4140    53.7900    22.9970    18.4100     8.7230    24.8170 
   97.7500     2.1200   -11.2750    50.2320    23.4680    18.7100     8.8400    24.8360 
   97.8750     2.1210   -11.1990    49.7590    24.0790    19.1540     9.3450    24.8710 
   98.0000     2.1290   -11.1860    52.9210    24.8120    19.7320    10.1910    24.9170 
   98.1250     2.1390   -11.2130    56.4060    25.5050    20.3210    11.3340    24.9680 
   98.2500     2.1460   -11.2880    55.3010    25.8850    20.7090    12.4830    25.0050 
   98.3750     2.1470   -11.4000    49.9480    25.8040    20.7580    12.4590    25.0090 
   98.5000     2.1390   -11.5550    45.1710    25.2870    20.4630    11.0470    24.9760 
   98.6250     2.1270   -11.7620    44.6980    24.5320    19.9510     9.4130    24.9160 
   98.7500     2.1170   -12.0170    46.3530    23.7990    19.4060     8.5600    24.8700 
   98.8750     2.1160   -12.3160    47.1200    23.2100    18.9420     8.0620    24.8110 
   99.0000     2.1210   -12.6390    47.8520    22.6770    18.5210     7.7060    24.7010 
   99.1250     2.1290   -12.9870    48.8050    21.9580    17.9850     7.3750    24.5670 
   99.2500     2.1360   -13.3480    48.8130    20.7800    17.1300     6.9980    24.4530 
   99.3750     2.1430   -13.7070    49.3390    19.1840    15.9670     6.5710    24.3770 
   99.5000     2.1490   -14.0490    52.7510    17.3940    14.6400     6.1030    24.3110 
   99.6250     2.1540   -14.3760    57.2230    15.7060    13.3570     5.6870    24.2420 
   99.7500     2.1560   -14.6810    59.3600    14.3720    12.3020     5.6140    24.1490 
   99.8750     2.1550   -14.9440    60.2120    13.4480    11.5250     6.0610    24.0560 
  100.0000     2.1460   -15.1630    60.8910    12.9400    11.0430     6.7190    23.9760 
  100.1250     2.1320   -15.3600    61.1130    12.8370    10.8580     7.0700    23.8550 
  100.2500     2.1150   -15.5610    60.6480    13.1520    10.9840     6.6150    23.6680 
  100.3750     2.0990   -15.7640    59.4260    13.7940    11.3690     6.2870    23.5440 
  100.5000     2.0960   -15.9460    57.0150    14.6660    11.9640     6.2540    23.5740 
  100.6250     2.1170   -16.0740    54.1580    15.5450    12.6390     6.2680    23.7340 
  100.7500     2.1630   -16.1500    52.7290    16.0470    13.1320     6.1990    23.9380 
  100.8750     2.2130   -16.2060    52.1270    15.9020    13.2000     6.1250    24.1160 
  101.0000     2.2550   -16.2520    52.5350    15.1130    12.7770     6.1290    24.2300 
  101.1250     2.2900   -16.2890    56.2870    14.0140    12.0480     6.1870    24.2730 
