~V
VERS. 2.00: Ver 2.00
~W
STRT.M 40.0000:
STOP.M 236.0000:
STEP.M 0.1250:
NULL. -999.2500:
UWI. F10781:
~C
DEPT.M :
GR.API :
RML.OHMM :
RI. :
RXO.OHMM :
CALI.CM :
SP.MV :
DEN.GM/CC :
~A
# ...
  163.7500    46.0730    38.4410    33.6070    39.6700    25.0780    -2.9010     2.6340 
  163.8750    46.8370    36.4730    31.9630    32.2730    25.0900    -2.9520     2.6610 
  164.0000    47.8210    33.8850    29.7500    24.2840    25.0920    -2.9840     2.6820 
  164.1250    47.7610    31.4710    27.6200    25.2720    25.1160    -2.9870     2.6940 
  164.2500    47.8220    29.7600    26.0260    23.9020    25.1320    -2.9660     2.7060 
  164.3750    48.1130    28.8410    25.0780    22.8770    25.1520    -2.9260     2.7150 
  164.5000    49.5260    28.4840    24.6390    23.0950    25.1690    -2.8730     2.7170 
  164.6250    51.6950    28.3080    24.4450    24.4380    25.1800    -2.8220     2.7040 
  164.7500    52.0630    28.0040    24.2190    24.4600    25.1640    -2.7690     2.6810 
  164.8750    50.0930    27.5380    23.8830    23.4060    25.1330    -2.7100     2.6590 
  165.0000    47.8220    26.9990    23.4610    21.5740    25.0900    -2.6560     2.6460 
  165.1250    48.3360    26.5150    23.0210    19.7220    25.0430    -2.6270     2.6480 
  165.2500    50.6330    26.1250    22.6200    18.2250    24.9920    -2.6200     2.6540 
  165.3750    52.9380    25.7890    22.2660    18.4540    24.9450    -2.6230     2.6560 
  165.5000    52.9420    25.4490    21.9360    19.2920    24.9020    -2.6180     2.6500 
  165.6250    51.2470    25.1050    21.6270    19.4740    24.8780    -2.5910     2.6380 
  165.7500    50.4260    24.8630    21.3840    19.9520    24.8690    -2.5320     2.6250 
  165.8750    50.3640    24.8430    21.2830    21.1350    24.8750    -2.4360     2.6150 
  166.0000    49.4280    25.1180    21.3960    22.0500    24.8950    -2.3050     2.6050 
  166.1250    49.2870    25.6880    21.7710    24.1920    24.9270    -2.1540     2.5950 
  166.2500    51.1390    26.3110    22.2410    26.3370    24.9670    -2.0200     2.5860 
  166.3750    51.8160    26.7240    22.5970    26.5570    25.0060    -1.9280     2.5880 
  166.5000    49.9350    26.6910    22.6280    25.4110    25.0480    -1.8950     2.6050 
  166.6250    48.1000    26.0210    22.1550    25.1910    25.0790    -1.9270     2.6390 
  166.7500    49.0790    24.9250    21.3440    24.4920    25.0930    -2.0110     2.6720 
  166.8750    50.5370    23.6550    20.4020    22.0910    25.1010    -2.1400     2.6900 
  167.0000    49.1110    22.4430    19.5160    20.2590    25.1140    -2.2920     2.6810 
  167.1250    46.4970    21.3970    18.7680    19.1290    25.1280    -2.4530     2.6490 
  167.2500    47.1260    20.3990    18.0630    18.8370    25.0870    -2.6120     2.6110 
  167.3750    50.1380    19.2920    17.2660    19.0100    25.0650    -2.7750     2.5800 
  167.5000    52.0910    17.9690    16.2740    18.5150    25.1250    -2.9490     2.5580 
  167.6250    52.2020    16.4880    15.1000    15.7440    25.2130    -3.1310     2.5410 
  167.7500    52.1140    15.1330    13.9610    12.5910    25.3060    -3.2920     2.5230 
  167.8750    53.0590    14.1540    13.0620    10.4620    25.3940    -3.4090     2.5080 
  168.0000    53.7370    13.7080    12.5540     9.6850    25.4770    -3.4650     2.4990 
  168.1250    53.4900    13.8890    12.5660    10.1420    25.5590    -3.4420     2.5040 
  168.2500    53.9700    14.4520    12.9430    11.2590    25.6310    -3.3580     2.5180 
  168.3750    56.1450    15.2010    13.5340    12.5670    25.6850    -3.2420     2.5320 
  168.5000    57.8000    15.9880    14.1980    13.3190    25.7210    -3.1240     2.5420 
  168.6250    55.2430    16.8020    14.8830    13.6430    25.7510    -3.0460     2.5460 
  168.7500    50.8280    17.7390    15.6410    13.6160    25.7740    -3.0190     2.5490 
  168.8750    48.5770    18.8510    16.5280    14.5420    25.7560    -3.0390     2.5510 
  169.0000    49.5940    20.0260    17.4860    17.7270    25.6650    -3.0900     2.5540 
  169.1250    51.3400    20.8550    18.2130    23.6450    25.4940    -3.1460     2.5550 
  169.2500    52.7700    21.0010    18.4150    25.9220    25.3060    -3.1970     2.5530 
  169.3750    54.2280    20.3550    17.9670    24.6380    25.1650    -3.2300     2.5460 
  169.5000    54.7120    19.1310    17.0130    20.7780    25.1070    -3.2500     2.5340 
  169.6250    52.5180    17.8150    15.9130    15.7860    25.1380    -3.2710     2.5210 
  169.7500    49.9710    16.8390    15.0250    14.2900    25.2040    -3.3110     2.5080 
  169.8750    49.1290    16.3240    14.4620    14.7010    25.2790    -3.3780     2.4980 
  170.0000    48.7090    16.1800    14.1860    14.9510    25.3540    -3.4630     2.4920 
  170.1250    48.4310    16.2030    14.0940    14.9650    25.4220    -3.5630     2.4890 
  170.2500    49.7070    16.1800    14.0320    14.6300    25.4810    -3.6580     2.4910 
  170.3750    51.8440    16.0880    13.9680    13.8800    25.5290    -3.7370     2.4960 
  170.5000    53.2050    16.0240    13.9450    13.4060    25.5600    -3.7970     2.5030 
  170.6250    55.0540    16.1150    14.0400    13.8920    25.5570    -3.8270     2.5070 
  170.7500    58.1030    16.3290    14.2310    15.7390    25.5160    -3.8290     2.5090 
  170.8750    59.9460    16.6110    14.4810    16.2480    25.4360    -3.8140     2.5090 
  171.0000    58.0380    16.9620    14.7850    16.5980    25.3250    -3.7940     2.5080 
  171.1250    54.9370    17.5230    15.2250    16.0140    25.1990    -3.7840     2.5050 
  171.2500    55.2610    18.4030    15.8780    16.6910    25.0770    -3.7780     2.5040 
  171.3750    58.4800    19.6240    16.7830    18.3110    24.9710    -3.7700     2.5070 
  171.5000    61.1730    21.0370    17.8690    21.3570    24.8900    -3.7530     2.5130 
  171.6250    61.6780    22.2550    18.8690    25.3280    24.8540    -3.7190     2.5180 
  171.7500    61.2260    22.8890    19.4590    27.0970    24.8680    -3.6810     2.5180 
  171.8750    60.4730    22.7120    19.4240    25.3930    24.9360    -3.6400     2.5110 
  172.0000    59.6800    21.7720    18.7610    21.5840    25.0470    -3.6100     2.5020 
  172.1250    58.7810    20.3820    17.6730    20.1830    25.1830    -3.5880     2.4990 
  172.2500    58.1730    19.0500    16.5690    20.7770    25.3210    -3.5730     2.5080 
  172.3750    57.1130    18.0360    15.6700    19.0540    25.4500    -3.5590     2.5200 
  172.5000    54.4230    17.4720    15.1090    16.9040    25.5600    -3.5230     2.5330 
  172.6250    50.5810    17.4650    15.0000    15.9040    25.6330    -3.4440     2.5410 
  172.7500    48.6180    17.8740    15.2410    16.6170    25.6630    -3.3350     2.5440 
  172.8750    48.7950    18.5630    15.7300    17.4380    25.6460    -3.2070     2.5440 
  173.0000    48.7800    19.3290    16.3140    18.2810    25.5960    -3.0740     2.5390 
  173.1250    48.0990    19.8650    16.7710    18.7430    25.5310    -2.9680     2.5310 
  173.2500    49.3120    20.0340    16.9760    17.8220    25.4640    -2.9060     2.5240 
  173.3750    52.2610    19.8940    16.9400    16.5020    25.3940    -2.8930     2.5200 
  173.5000    54.7690    19.6300    16.7750    16.0840    25.3170    -2.9340     2.5190 
  173.6250    56.1350    19.4890    16.6410    16.5510    25.2370    -3.0190     2.5130 
  173.7500    57.2390    19.6030    16.6590    17.1930    25.1720    -3.1250     2.4950 
  173.8750    58.0690    20.0340    16.8990    17.4910    25.1470    -3.2460     2.4700 
  174.0000    57.4210    20.8130    17.4010    17.7340    25.1750    -3.3800     2.4480 
  174.1250    55.7440    21.9470    18.1990    20.4100    25.2580    -3.5210     2.4420 
  174.2500    55.7130    23.1800    19.1090    24.8270    25.3690    -3.6540     2.4500 
  174.3750    56.1840    24.1520    19.8600    24.8060    25.4830    -3.7690     2.4640 
  174.5000    55.7940    24.4440    20.1170    23.7380    25.5780    -3.8610     2.4750 
  174.6250    55.3130    23.6880    19.5670    22.8830    25.6340    -3.9150     2.4810 
  174.7500    55.6160    22.2780    18.4940    20.9020    25.6490    -3.9240     2.4900 
  174.8750    54.7130    20.7340    17.2760    16.3780    25.6200    -3.8900     2.5030 
