~V
VERS. 2.00: Ver 2.00
~W
STRT.M 40.0000:
STOP.M 236.0000:
STEP.M 0.1250:
NULL. -999.2500:
UWI. F10781:
~C
DEPT.M :
GR.API :
RML.OHMM :
RI. :
RXO.OHMM :
CALI.CM :
SP.MV :
DEN.GM/CC :
~A
# ...
  220.0000    48.3310   180.7550   172.6960   158.6690    25.5110   -12.4030     2.2160 
  220.1250    49.0860   180.0210   172.1030   133.5940    25.4670   -12.4410     2.2150 
  220.2500    49.8840   178.6410   171.0260   149.7020    25.4220   -12.4350     2.2070 
  220.3750    51.6280   175.4690   168.3950   180.7040    25.3700   -12.4080     2.1930 
  220.5000    55.2650   169.5990   163.2460   184.2770    25.3200   -12.4000     2.1900 
  220.6250    57.8130   160.7360   155.0760   154.4270    25.2630   -12.3820     2.2300 
  220.7500    57.2900   150.5440   145.4000   134.9230    25.2190   -12.3600     2.3250 
  220.8750    56.5120   140.2920   135.5180   127.9590    25.1810   -12.3570     2.4610 
  221.0000    57.5470   130.7130   126.2770   127.4020    25.1560   -12.3720     2.5920 
  221.1250    58.4890   121.9350   117.9140   121.7820    25.1340   -12.3600     2.6600 
  221.2500    58.8330   113.4950   109.9550   113.4180    25.1210   -12.3230     2.6730 
  221.3750    58.6130   105.2680   102.2180   102.7930    25.1070   -12.2840     2.6560 
  221.5000    57.4350    97.4370    94.8420    89.2740    25.1070   -12.2310     2.6240 
  221.6250    56.4340    90.5200    88.3270    78.2410    25.1180   -12.1730     2.5790 
  221.7500    57.2970    84.7010    82.8830    73.9670    25.1370   -12.1100     2.5340 
  221.8750    59.0420    80.1260    78.6550    73.3990    25.1560   -12.0260     2.5020 
  222.0000    59.3370    76.8160    75.6600    77.4090    25.1750   -11.9140     2.4870 
  222.1250    57.2060    74.6950    73.8380    77.9660    25.1890   -11.7430     2.4860 
  222.2500    55.1520    73.0830    72.5170    71.1410    25.1950   -11.5400     2.4860 
  222.3750    56.0870    71.5110    71.2170    65.8550    25.1980   -11.2800     2.4820 
  222.5000    59.1560    69.6370    69.5810    69.3100    25.1890   -10.9770     2.4740 
  222.6250    60.1540    67.1670    67.2950    72.8950    25.1800   -10.6290     2.4690 
  222.7500    58.6010    64.2080    64.4420    68.3960    25.1700   -10.2360     2.4620 
  222.8750    56.4250    61.0090    61.2430    60.2020    25.1610    -9.8270     2.4450 
  223.0000    55.5130    57.9190    58.0380    55.7440    25.1500    -9.4200     2.4160 
  223.1250    55.9070    55.3930    55.2660    52.9550    25.1440    -9.0460     2.3860 
  223.2500    55.7720    53.7080    53.2250    48.8170    25.1300    -8.7180     2.3710 
  223.3750    54.4240    53.2020    52.2400    46.6230    25.1210    -8.4780     2.3730 
  223.5000    54.0940    54.2460    52.6480    49.6870    25.1110    -8.3280     2.3920 
  223.6250    54.0940    57.7130    55.2090    54.2320    25.1390    -8.2500     2.4100 
  223.7500    54.0940    63.8480    60.1510    53.7070    25.1630    -8.2040     2.4130 
  223.8750    54.0940    72.9160    67.7370    55.4240    25.2070    -8.1690     2.3910 
  224.0000    54.0940    84.3240    77.3960    67.7990    25.2450    -8.1120     2.3490 
  224.1250    54.0940    95.5000    86.7820   101.9390    25.2870    -8.0100     2.3020 
  224.2500    54.0940   102.5420    92.5980   142.8130    25.2990    -7.8300     2.2700 
  224.3750    54.0940   103.0350    92.9060   154.0560    25.2980    -7.5910     2.2700 
  224.5000    54.0940    97.6930    88.2240   125.3560    25.2650    -7.3170     2.3140 
  224.6250    54.0940    89.9960    81.2730    83.3280    25.2190    -7.0120     2.3980 
  224.7500    54.0940    83.7190    75.3950    62.0090    25.1570    -6.6850     2.4870 
  224.8750    54.0940    79.9870    71.7870    63.0230    25.1120    -6.3170     2.5540 
  225.0000    54.0940    78.6980    70.5080    76.6350    25.0630    -5.9400     2.5950 
  225.1250    54.0940    79.5180    71.3220    83.9900    25.0360    -5.5590     2.6250 
  225.2500    54.0940    81.4550    73.2430    81.1650    25.0150    -5.1880     2.6610 
  225.3750    54.0940    83.8680    75.5730    84.0330    25.0080    -4.8610     2.6990 
  225.5000    54.0940    85.6190    77.2010    99.7510    24.9950    -4.7980     2.7210 
  225.6250    54.0940    83.2540    75.1930   136.4060    24.9920    -4.3180     2.7070 
  225.7500    54.0940    74.1160    67.3490   153.0100    24.9940    -4.0240     2.6760 
  225.8750    54.0940    58.5170    53.7730   118.7850    25.0010    -3.7310     2.6540 
  226.0000    54.0940    40.7080    38.0720    59.0650    24.9990    -3.4430     2.6490 
  226.1250    54.0940    26.2370    25.2270    24.8730    25.0010    -3.1560     2.6450 
  226.2500    54.0940    16.3710    16.4010    11.1940    25.0070    -2.9030     2.6120 
  226.3750    54.0940    10.4140    10.9290     6.0270    25.0200    -2.6830     2.5910 
  226.5000    54.0940     7.1550     7.7550     4.6140    25.0360    -2.5200     2.4680 
  226.6250    54.0940     5.7160     6.1950     4.5920    25.0510    -2.4350     2.4200 
  226.7500    54.0940     5.1230     5.4630     4.5830    25.0580    -2.4040     2.4150 
  226.8750    54.0940     5.0050     5.2460     4.5550    25.0570    -2.3900     2.4380 
  227.0000    54.0940     5.1040     5.2910     4.6630    25.0540    -2.3810     2.4590 
  227.1250    54.0940     5.2200     5.3850     4.7020    25.0380    -2.3780     2.4530 
  227.2500    54.0940     5.2450     5.4080     4.6240    25.0020    -2.3630     2.4310 
  227.3750    54.0940     5.1780     5.3630     4.8000    24.9630    -2.3350     2.4080 
  227.5000    54.0940     5.0790     5.3060     5.4100    24.9180    -2.3000     2.3950 
  227.6250    54.0940     5.0550     5.3030     5.6940    24.9130    -2.2460     2.3890 
  227.7500    54.0940     5.1250     5.3590     5.4690    24.9130    -2.1800     2.3870 
  227.8750    54.0940     5.2370     5.4450     5.1620    24.9330    -2.1250     2.3870 
  228.0000    54.0940     5.3290     5.5270     4.9610    24.9780    -2.0810     2.3900 
  228.1250    54.0940     5.3740     5.5750     5.1010    25.0130    -2.0460     2.3950 
  228.2500    54.0940     5.3900     5.5950     5.5100    25.0370    -2.0170     2.3960 
  228.3750    54.0940     5.3930     5.6000     5.9890    25.0420    -2.0000     2.3920 
  228.5000    54.0940     5.3960     5.6010     5.7100    25.0600    -2.0030     2.3870 
  228.6250    54.0940     5.4010     5.6020     5.4980    25.0720    -2.0410     2.3890 
  228.7500    54.0940     5.4340     5.6050     6.0140    25.1000    -2.0770     2.3960 
  228.8750    54.0940     5.4740     5.6080     6.5720    25.0870    -2.0910     2.4050 
  229.0000    54.0940     5.5020     5.6120     6.8380    25.0600    -2.0930     2.4100 
  229.1250    54.0940     5.4960     5.6180     6.9860    25.0420    -2.0940     2.4030 
  229.2500    54.0940     5.4510     5.6220     6.9650    25.0320    -2.0920     2.3870 
  229.3750    54.0940     5.4510     5.6220     6.7650    25.0310    -2.0810     2.3690 
  229.5000    54.0940     5.4510     5.6220     5.8100    25.0370    -2.0430     2.3590 
  229.6250    54.0940     5.4510     5.6220     5.3710    25.0490    -2.0050     2.3710 
  229.7500    54.0940     5.4510     5.6220     5.2250    25.0690    -1.9650     2.4040 
  229.8750    54.0940     5.4510     5.6220     5.8520    25.0790    -1.9440     2.4500 
  230.0000    54.0940     5.4510     5.6220     7.9140    25.0810    -1.9210     2.4940 
  230.1250    54.0940     5.4510     5.6220     9.3170    25.1060    -1.9040     2.5090 
  230.2500    54.0940     5.4510     5.6220     7.3870    25.1510    -1.8860     2.4920 
  230.3750    54.0940     5.4510     5.6220     5.8570    25.2000    -1.8860     2.4530 
  230.5000    54.0940     5.4510     5.6220     5.2920    25.2390    -1.8860     2.4100 
  230.6250    54.0940     5.4510     5.6220     5.3170    25.2510  -999.2500     2.3790 
  230.7500    54.0940     5.4510     5.6220     5.5550    25.2290  -999.2500     2.3660 
  230.8750    54.0940     5.4510     5.6220     5.6720    25.1830  -999.2500     2.3710 
  231.0000    54.0940     5.4510     5.6220     5.6790    25.1340  -999.2500     2.3890 
  231.1250    54.0940     5.4510     5.6220     5.4830    25.0890  -999.2500     2.4120 
