~V
VERS. 2.00: Ver 2.00
~W
STRT.M 59.0000:
STOP.M 239.0000:
STEP.M 0.1250:
NULL. -999.2500:
UWI. F10784:
~C
DEPT.M :
DEN.GM/CC :
GR.API :
RML.OHMM :
RI. :
RXO.OHMM :
CALI.CM :
SP.MV :
~A
# ...
  104.0000     2.2530    90.4660     6.1250     5.9810     6.4680    24.8490   -16.7520 
  104.1250     2.2500    94.5330     5.6450     5.4470     6.5990    24.8490   -16.8340 
  104.2500     2.2580    97.9090     5.3170     5.0410     6.1180    24.8490   -17.0370 
  104.3750     2.2750   100.3370     5.1990     4.7960     5.3300    24.8490   -17.3180 
  104.5000     2.2950   102.3090     5.3740     4.7680     4.5150    24.8490   -17.6440 
  104.6250     2.3100   103.3830     5.9360     5.0540     4.7140    24.8280   -17.9900 
  104.7500     2.3160   101.9600     6.7260     5.5820     5.8200    24.7760   -18.3220 
  104.8750     2.3110    96.3630     7.5200     6.2210     7.1880    24.4470   -18.6280 
  105.0000     2.3010    87.4060     8.0570     6.7740     7.7410    24.3160   -18.8540 
  105.1250     2.2900    80.6730     8.1050     7.0060     7.9240    24.4260   -18.9900 
  105.2500     2.2820    81.9760     7.8160     6.9370     7.4910    24.5160   -19.0190 
  105.3750     2.2760    90.9210     7.4180     6.6980     6.0980    24.5320   -19.0070 
  105.5000     2.2710    98.8130     7.1240     6.4580     5.3570    24.5330   -18.9460 
  105.6250     2.2670    97.9870     7.0580     6.3510     5.7020    24.5350   -18.8520 
  105.7500     2.2710    94.5750     7.1330     6.3590     6.0580    24.5570   -18.6570 
  105.8750     2.2850    95.2130     7.2610     6.4280     6.0600    24.6750   -18.3890 
  106.0000     2.3010    99.1000     7.3770     6.5030     5.9880    24.9900   -18.0560 
  106.1250     2.3050   100.9520     7.4590     6.5570     5.8880    24.9960   -17.7190 
  106.2500     2.2920    99.4680     7.5200     6.5940     5.7470    24.8670   -17.3730 
  106.3750     2.2690    96.9210     7.5590     6.6140     5.8060    24.7230   -17.0360 
  106.5000     2.2480    93.7880     7.5490     6.6000     6.1700    24.6730   -16.7080 
  106.6250     2.2430    89.8850     7.4640     6.5290     6.4540    24.6650   -16.4150 
  106.7500     2.2520    88.4240     7.3480     6.4230     6.2320    24.6530   -16.1990 
  106.8750     2.2700    89.1960     7.2710     6.3310     5.9210    24.5770   -16.0690 
  107.0000     2.2920    88.8890     7.2950     6.3020     5.8610    24.5470   -16.0440 
  107.1250     2.3150    85.8780     7.4490     6.3730     6.4730    24.5790   -16.0960 
  107.2500     2.3320    83.1880     7.6480     6.5010     7.6540    24.6630   -16.1820 
  107.3750     2.3390    84.4420     7.7960     6.6220     8.7170    24.7370   -16.2670 
  107.5000     2.3300    87.7780     7.8170     6.6720     7.3380    24.6740   -16.3190 
  107.6250     2.3060    89.8030     7.6710     6.5950     6.3100    24.6170   -16.3100 
  107.7500     2.2810    89.2750     7.4310     6.4240     5.9610    24.4810   -16.2890 
  107.8750     2.2630    87.2910     7.1650     6.2040     5.9960    24.4120   -16.2500 
  108.0000     2.2580    88.4570     6.9300     5.9850     5.8390    24.4000   -16.2100 
  108.1250     2.2610    90.6290     6.7780     5.8220     5.5850    24.4000   -16.1220 
  108.2500     2.2640    88.8090     6.7250     5.7390     5.3900    24.4070   -16.0490 
  108.3750     2.2640    85.4650     6.7840     5.7530     5.3390    24.4350   -15.9850 
  108.5000     2.2620    85.1940     6.9400     5.8610     5.4800    24.6240   -16.0100 
  108.6250     2.2620    88.6710     7.1280     6.0300     5.8610    24.6550   -16.0760 
  108.7500     2.2670    89.7220     7.2360     6.1740     6.0130    24.6490   -16.1810 
  108.8750     2.2780    88.6700     7.1890     6.2200     6.0070    24.5600   -16.2780 
  109.0000     2.2900    90.6380     6.9740     6.1350     5.8960    24.4280   -16.3460 
  109.1250     2.2940    95.5400     6.6460     5.9270     5.6370    24.3950   -16.3830 
  109.2500     2.2900    96.2810     6.3380     5.6930     5.4120    24.3330   -16.3900 
  109.3750     2.2810    90.9790     6.1270     5.4990     5.5210    24.2770   -16.3550 
  109.5000     2.2740    85.4700     6.0340     5.3840     5.5820    24.2670   -16.2620 
  109.6250     2.2760    87.8370     6.0280     5.3510     5.5820    24.2670   -16.1540 
  109.7500     2.2880    91.6470     6.0150     5.3350     5.5490    24.2670   -16.0090 
  109.8750     2.3060    91.9260     5.9260     5.2790     5.5510    24.2620   -15.8600 
  110.0000     2.3230    91.0540     5.7360     5.1420     5.3400    24.2460   -15.7260 
  110.1250     2.3390    92.8610     5.4680     4.9250     5.1490    24.1510   -15.6480 
  110.2500     2.3550    94.9230     5.2260     4.7010     4.9330    24.1470   -15.6160 
  110.3750     2.3690    94.1910     5.1050     4.5470     4.6680    24.4550   -15.6170 
  110.5000     2.3780    90.9910     5.1810     4.5320     4.5530    24.5550   -15.6110 
  110.6250     2.3700    89.7220     5.5340     4.7350     5.0810    24.5550   -15.6190 
  110.7500     2.3440    93.2620     6.1020     5.1320     5.7720    24.5550   -15.6540 
  110.8750     2.3080    98.6350     6.8140     5.6840     6.3620    24.5560   -15.7400 
  111.0000     2.2770    98.1550     7.5590     6.3180     6.9310    24.5570   -15.8010 
  111.1250     2.2660    88.7060     8.1680     6.9050     7.1850    24.5590   -15.8410 
  111.2500     2.2720    80.7550     8.5440     7.3370     7.3720    24.5580   -15.8170 
  111.3750     2.2820    79.4570     8.6640     7.5620     7.7530    24.5600   -15.8010 
  111.5000     2.2820    82.1840     8.5900     7.5970     8.2050    24.5510   -15.8140 
  111.6250     2.2610    83.6430     8.4640     7.5250     7.6730    24.5160   -15.8830 
  111.7500     2.2260    84.9840     8.4590     7.4940     7.0840    24.4340   -15.9180 
  111.8750     2.1880    86.6820     8.6820     7.6050     6.7360    24.3090   -15.8890 
  112.0000     2.1600    85.6520     9.1680     7.9230     6.7020    24.1380   -15.8510 
  112.1250     2.1510    81.0560     9.8900     8.4800     6.7790    24.0260   -15.7570 
  112.2500     2.1600    77.7020    10.6440     9.1530     6.8180    23.9860   -15.6230 
  112.3750     2.1850    77.2630    11.2340     9.7910     6.8520    23.9790   -15.4020 
  112.5000     2.2240    80.1280    11.4900    10.2220     6.7670    23.9780   -15.1440 
  112.6250     2.2690    85.8350    11.2790    10.2760     6.7590    23.9800   -14.8130 
  112.7500     2.3060    90.2790    10.7560    10.0180     6.8170    23.9800   -14.5280 
  112.8750     2.3250    92.5140    10.0680     9.5470     6.8980    23.9790   -14.2800 
  113.0000     2.3220    94.7260     9.3460     8.9700     7.0420    23.9780   -14.0590 
  113.1250     2.3060    95.7290     8.6750     8.3710     6.8960    23.9800   -13.8500 
  113.2500     2.2870    93.5970     8.0760     7.7950     6.6640    23.9800   -13.6810 
  113.3750     2.2700    90.5310     7.5730     7.2720     6.2790    23.9790   -13.5350 
  113.5000     2.2520    91.7450     7.2200     6.8480     5.6610    23.9770   -13.3820 
  113.6250     2.2300    94.6130     7.1630     6.6360     5.1820    23.9770   -13.1430 
  113.7500     2.2080    96.0600     7.4810     6.7050     5.3970    23.9780   -12.8090 
  113.8750     2.1920    95.5330     8.2670     7.1440     5.9040    23.9790   -12.3380 
  114.0000     2.1850    92.1470     9.5690     8.0220     6.4300    23.9820   -11.6990 
  114.1250     2.1850    84.6060    11.4190     9.4390     7.3180    23.9810   -10.8790 
  114.2500     2.1860    76.2170    13.5630    11.2340     7.5850    23.9810    -9.8560 
  114.3750     2.1880    69.0920    15.7640    13.2290     7.5330    23.9930    -8.6770 
  114.5000     2.1950    63.7180    17.7850    15.1940     7.3800    24.0600    -7.3350 
  114.6250     2.2120    60.1380    19.3950    16.8610     7.5510    24.2160    -5.9940 
  114.7500     2.2350    59.1280    20.6170    18.1730     8.6540    24.3330    -4.6440 
  114.8750     2.2560    60.8500    21.4970    19.1390    11.3190    24.2730    -3.3900 
  115.0000     2.2660    62.1700    22.0880    19.8030    14.9610    24.0060    -2.2950 
  115.1250     2.2640    61.3780    22.3870    20.1500    12.4730    23.7430    -1.4470 
