~V
VERS. 2.00: Ver 2.00
~W
STRT.M 45.0000:
STOP.M 272.0000:
STEP.M 0.1250:
NULL. -999.2500:
UWI. F10774:
~C
DEPT.M :
DEN.GM/CC :
SP.MV :
GR.API :
RML.OHMM :
RI. :
RXO.OHMM :
CALI.CM :
~A
# ...
  168.7500     2.5280   -25.3150    51.8410    32.5110    29.0910    24.0560    25.1730 
  168.8750     2.5280   -25.2960    53.6630    31.6010    28.3410    22.2280    25.1890 
  169.0000     2.5390   -25.2780    51.8830    31.1480    27.9030    22.3940    25.1810 
  169.1250     2.5570   -25.2480    49.0120    31.1460    27.8130    23.4960    25.1120 
  169.2500     2.5720   -25.2090    47.7620    31.3270    27.9060    23.4670    24.9700 
  169.3750     2.5720   -25.1610    47.3060    31.1860    27.7760    22.8290    24.8480 
  169.5000     2.5630   -25.0940    47.3910    30.3740    27.1040    23.2100    24.8450 
  169.6250     2.5460   -25.0330    48.4190    28.8690    25.8340    23.4340    24.9030 
  169.7500     2.5180   -24.9920    48.7840    27.0940    24.2870    20.7100    24.9400 
  169.8750     2.4850   -24.9900    46.4200    25.7460    23.0350    16.4020    24.9710 
  170.0000     2.4630   -25.0370    44.0890    25.2600    22.4420    14.6590    25.0240 
  170.1250     2.4680   -25.1270    44.6980    25.8180    22.6940    15.8060    25.0750 
  170.2500     2.5050   -25.2420    46.0430    27.3530    23.8180    18.9780    25.1190 
  170.3750     2.5500   -25.3620    46.7750    29.2840    25.4100    21.3530    25.1430 
  170.5000     2.5820   -25.4940    48.2250    31.0050    26.9790    23.2600    25.1420 
  170.6250     2.5910   -25.6370    50.3540    31.9060    27.9390    24.6890    25.1030 
  170.7500     2.5850   -25.8020    50.1470    31.6110    27.8550    24.9110    25.0360 
  170.8750     2.5760   -25.9740    48.1410    30.4460    26.9440    23.2140    25.0050 
  171.0000     2.5690   -26.1500    47.3470    28.7830    25.5200    21.4760    25.0340 
  171.1250     2.5660   -26.3440    48.4480    27.0020    23.9270    19.9120    25.0550 
  171.2500     2.5630   -26.5740    48.9730    25.4570    22.4790    18.4450    25.0190 
  171.3750     2.5590   -26.8420    47.1560    24.3620    21.3750    17.1770    24.9240 
  171.5000     2.5540   -27.1280    44.3740    23.8400    20.7150    15.8420    24.8150 
  171.6250     2.5530   -27.3930    43.3600    23.9380    20.5360    15.3200    24.7690 
  171.7500     2.5590   -27.5920    45.0150    24.6310    20.8210    16.1560    24.8270 
  171.8750     2.5770   -27.7070    46.7730    25.6690    21.4020    17.8920    24.8890 
  172.0000     2.6000   -27.7310    46.9800    26.8150    22.1370    19.1520    24.9230 
  172.1250     2.6190   -27.6500    45.6570    27.7300    22.8040    19.4800    24.9400 
  172.2500     2.6270   -27.4610    44.5140    27.9800    23.0790    19.6380    24.9560 
  172.3750     2.6220   -27.1940    45.9960    27.4330    22.7870    20.1090    24.9620 
  172.5000     2.6060   -26.8640    48.6400    26.2150    21.9590    20.3310    24.9290 
  172.6250     2.5790   -26.5010    49.3210    24.7390    20.8620    18.8910    24.8780 
  172.7500     2.5430   -26.1370    47.2620    23.5650    19.8890    16.2090    24.8520 
  172.8750     2.5110   -25.8070    44.7070    23.0000    19.3060    14.0600    24.8910 
  173.0000     2.4980   -25.5220    42.6320    23.0380    19.1650    14.2430    24.9580 
  173.1250     2.5080   -25.2980    40.6010    23.4160    19.3520    16.1040    25.0160 
  173.2500     2.5270   -25.1100    39.9340    23.7060    19.6280    18.4250    25.0100 
  173.3750     2.5250   -24.9340    41.5640    23.5890    19.7360    18.8070    24.9940 
  173.5000     2.4960   -24.7760    43.3660    23.0400    19.5890    17.1170    25.0090 
  173.6250     2.4540   -24.6310    43.6070    22.2670    19.2440    15.3930    25.0700 
  173.7500     2.4180   -24.5050    43.2310    21.5390    18.8300    15.3090    25.1240 
  173.8750     2.3930   -24.4100    44.6260    20.9770    18.4460    15.6520    25.1640 
  174.0000     2.3770   -24.3520    46.9790    20.5760    18.1210    15.4000    25.1780 
  174.1250     2.3720   -24.3330    48.3650    20.3150    17.8760    14.5690    25.1000 
  174.2500     2.3780   -24.3610    48.4350    20.2290    17.7570    13.3060    24.9090 
  174.3750     2.3900   -24.4180    46.9450    20.3270    17.7790    12.7790    24.8150 
  174.5000     2.4010   -24.4790    43.7910    20.5500    17.9110    13.7810    24.7930 
  174.6250     2.4070   -24.5250    41.1200    20.7190    18.0360    15.6470    24.8570 
  174.7500     2.4090   -24.5510    41.0610    20.6060    17.9850    15.8340    24.9880 
  174.8750     2.4110   -24.5420    42.9170    20.1860    17.7080    14.7660    25.0930 
  175.0000     2.4160   -24.4880    45.2380    19.6200    17.2940    13.2350    25.1030 
  175.1250     2.4280   -24.3870    46.6510    19.2110    16.9510    11.9560    25.0380 
  175.2500     2.4400   -24.2520    47.0140    19.2720    16.9230    11.9540    24.9440 
  175.3750     2.4450   -24.1120    46.9620    19.7840    17.2500    12.8530    24.8610 
  175.5000     2.4410   -24.0010    47.0070    20.5200    17.8030    14.1460    24.8040 
  175.6250     2.4310   -23.9480    47.6700    21.0610    18.2750    15.4030    24.7660 
  175.7500     2.4200   -23.9460    49.1800    20.9440    18.2690    15.9910    24.7400 
  175.8750     2.4110   -23.9780    50.2480    20.1380    17.6970    15.2060    24.7390 
  176.0000     2.4010   -24.0300    49.1860    18.9100    16.7360    13.4600    24.7330 
  176.1250     2.3880   -24.0820    47.0930    17.7000    15.7230    11.4880    24.6960 
  176.2500     2.3750   -24.1320    46.0580    16.8970    14.9690    10.6160    24.6760 
  176.3750     2.3700   -24.1660    45.2310    16.5460    14.5480    11.0260    24.7510 
  176.5000     2.3740   -24.1740    44.7480    16.5330    14.4100    12.2310    24.9250 
  176.6250     2.3830   -24.1610    46.2480    16.6770    14.4420    13.0520    25.0830 
  176.7500     2.3890   -24.1500    50.0800    16.8460    14.5420    12.4600    25.1430 
  176.8750     2.3900   -24.1540    53.0150    17.0670    14.6990    11.5680    25.1520 
  177.0000     2.3880   -24.1850    52.7500    17.4670    14.9940    11.4150    25.1320 
  177.1250     2.3900   -24.2490    50.0930    18.1200    15.4950    12.0870    25.1110 
  177.2500     2.4000   -24.3410    47.8500    18.9210    16.1550    13.2600    25.1240 
  177.3750     2.4170   -24.4540    47.8130    19.5570    16.7460    14.8230    25.1540 
  177.5000     2.4370   -24.5750    50.0740    19.7800    17.0500    16.3340    25.1630 
  177.6250     2.4540   -24.6790    51.8730    19.5440    16.9780    15.7520    25.1290 
  177.7500     2.4630   -24.7480    51.6670    19.1130    16.6750    13.7550    25.0730 
  177.8750     2.4630   -24.7990    51.0130    18.9400    16.4800    12.1680    25.0110 
  178.0000     2.4570   -24.8330    51.0050    19.2720    16.6070    11.9220    24.9370 
  178.1250     2.4480   -24.8490    50.1310    20.0990    17.1130    13.0800    24.8740 
  178.2500     2.4400   -24.8570    47.5050    21.1060    17.8410    14.9810    24.8820 
  178.3750     2.4310   -24.8700    46.1770    21.7330    18.3790    15.7870    24.9210 
  178.5000     2.4230   -24.8950    47.0490    21.5950    18.3870    15.1730    24.9900 
  178.6250     2.4170   -24.9500    47.8510    20.6480    17.7530    13.5890    25.0740 
  178.7500     2.4170   -25.0360    47.0810    19.2660    16.7010    11.7600    25.1230 
  178.8750     2.4190   -25.1280    47.4760    18.0840    15.7180    10.5100    25.1260 
  179.0000     2.4160   -25.2170    50.4190    17.4740    15.1070    10.1410    25.1030 
  179.1250     2.4080   -25.2910    53.5690    17.6170    15.0390    10.4450    25.0780 
  179.2500     2.4010   -25.3350    53.6610    18.5250    15.5820    11.3910    25.0500 
  179.3750     2.3940   -25.3550    50.4950    19.8730    16.5400    12.6830    25.0220 
  179.5000     2.3870   -25.3560    45.3770    21.3170    17.6870    13.9320    24.9960 
  179.6250     2.3860   -25.3350    40.5260    22.4340    18.6970    14.7020    24.9710 
  179.7500     2.3910   -25.3040    38.7880    22.8240    19.2150    15.0260    24.9400 
  179.8750     2.3990   -25.2950    39.7720    22.5300    19.1870    14.5480    24.9090 
