~V
VERS. 2.00: Ver 2.00
~W
STRT.M 51.0000:
STOP.M 263.0000:
STEP.M 0.1250:
NULL. -999.2500:
UWI. F10758:
~C
DEPT.M :
DEN.GM/CC :
GR.API :
RML.OHMM :
RI. :
RXO.OHMM :
CALI.CM :
SP.MV :
~A
# ...
  253.5000     2.2960    78.1560     5.7100     5.1910     5.3150    22.7810   -25.4090 
  253.6250     2.2840    78.1560     5.6940     5.1770     5.4580    22.7420   -25.4050 
  253.7500     2.2640    78.1560     5.8260     5.2960     6.0710    22.6020   -25.4640 
  253.8750     2.2430    78.1560     6.0260     5.4780     7.0320    22.3130   -25.4730 
  254.0000     2.2320    78.1560     6.1900     5.6270     7.3780    22.1890   -25.4340 
  254.1250     2.2390    78.1560     6.2090     5.6440     6.5410    22.4040   -25.3790 
  254.2500     2.2610    78.1560     6.1100     5.5540     5.8920    22.5000   -25.3060 
  254.3750     2.2900    78.1560     5.9670     5.4250     5.5470    22.4500   -25.1870 
  254.5000     2.3120    78.1560     5.8640     5.3310     5.4320    22.3600   -25.0370 
  254.6250     2.3130    78.1560     5.8720     5.3380     5.6470    22.2040   -24.8420 
  254.7500     2.2980    78.1560     5.9720     5.4290     6.1240    22.1970   -24.5920 
  254.8750     2.2780    78.1560     6.1120     5.5560     6.5010    22.4180   -24.3550 
  255.0000     2.2670    78.1560     6.2180     5.6530     6.2810    22.7290   -24.1760 
  255.1250     2.2790    78.1560     6.2130     5.6490     6.1670    22.8360   -24.0380 
  255.2500     2.3050    78.1560     6.1070     5.5520     6.0020    22.7430   -23.8500 
  255.3750     2.3290    78.1560     5.9380     5.3980     5.8780    22.5220   -23.6490 
  255.5000     2.3390    78.1560     5.7590     5.2350     5.6730    22.3510   -23.4070 
  255.6250     2.3260    78.1560     5.6180     5.1070     5.5110    22.2180   -23.1110 
  255.7500     2.3020    78.1560     5.5190     5.0180     5.4020    22.1910   -22.8950 
  255.8750     2.2770    78.1560     5.4530     4.9570     5.2480    22.1510   -22.8020 
  256.0000     2.2630    78.1560     5.4100     4.9180     5.1840    22.1280   -22.7970 
  256.1250     2.2670    78.1560     5.3840     4.8940     5.2930    22.1810   -22.8180 
  256.2500     2.2820    78.1560     5.3600     4.8720     5.5970    22.1680   -22.8610 
  256.3750     2.2970    78.1560     5.3320     4.8470     5.9820    22.0630   -22.8630 
  256.5000     2.3020    78.1560     5.3060     4.8240     6.2680    21.9530   -22.8150 
  256.6250     2.2910    78.1560     5.2990     4.8170     6.1390    21.8820   -22.7860 
  256.7500     2.2760    78.1560     5.3090     4.8260     5.7920    21.8020   -22.7970 
  256.8750     2.2670    78.1560     5.3280     4.8430     5.4010    21.7620   -22.8170 
  257.0000     2.2710    78.1560     5.3400     4.8550     5.1340    21.7150   -22.8520 
  257.1250     2.2900    78.1560     5.3360     4.8510     4.9350    21.7460   -22.8640 
  257.2500     2.3080    78.1560     5.3250     4.8400     4.9450    21.6710   -22.8730 
  257.3750     2.3160    78.1560     5.3170     4.8340     5.1110    21.3600   -22.9010 
  257.5000     2.3100    78.1560     5.3170     4.8340     5.3700    21.1200   -22.9310 
  257.6250     2.2940    78.1560     5.3200     4.8360     5.4990    21.0070   -22.9740 
  257.7500     2.2850    78.1560     5.3210     4.8370     5.2840    20.9250   -23.0350 
  257.8750     2.2880    78.1560     5.3210     4.8370     4.9730    20.7910   -23.0930 
  258.0000     2.3000    78.1560     5.3210     4.8370     4.9720    20.7300   -23.1470 
  258.1250     2.3130    78.1560     5.3210     4.8370     5.3060    20.6790   -23.2000 
  258.2500     2.3180    78.1560     5.3210     4.8370     5.6030    20.5760   -23.2490 
  258.3750     2.3130    78.1560     5.3210     4.8370     5.8350    20.3770   -23.3190 
  258.5000     2.2990    78.1560     5.3210     4.8370     6.0420    20.2120   -23.3890 
  258.6250     2.2810    78.1560     5.3210     4.8370     6.1640    20.0390   -23.4010 
  258.7500     2.2650    78.1560     5.3210     4.8370     6.1830    19.8380   -23.4010 
  258.8750     2.2560    78.1560     5.3210     4.8370     6.0520    19.7360  -999.2500 
  259.0000     2.2560    78.1560     5.3210     4.8370     5.8060    19.6690  -999.2500 
  259.1250     2.2660    78.1560     5.3210     4.8370     5.5690    19.5060  -999.2500 
  259.2500     2.2780    78.1560     5.3210     4.8370     5.5680    19.2340  -999.2500 
  259.3750     2.2850    78.1560     5.3210     4.8370     5.6730    19.0010  -999.2500 
  259.5000     2.2840    78.1560     5.3210     4.8370     5.7580    18.8790  -999.2500 
  259.6250     2.2790    78.1560     5.3210     4.8370     5.9030    18.7190  -999.2500 
  259.7500     2.2780    78.1560     5.3210     4.8370     5.9350    18.4680  -999.2500 
  259.8750     2.2850    78.1560     5.3210     4.8370     5.6100    18.3030  -999.2500 
  260.0000     2.2980    78.1560     5.3210     4.8370     5.2340    17.9790  -999.2500 
  260.1250     2.3000    78.1560     5.3210     4.8370     5.1260    17.5100  -999.2500 
  260.2500     2.2770    78.1560     5.3210     4.8370     5.1830    16.9510  -999.2500 
  260.3750     2.2210    78.1560     5.3210     4.8370     5.2030    16.2330  -999.2500 
  260.5000     2.1410    78.1560     5.3210     4.8370     5.0810    15.4270  -999.2500 
  260.6250     2.0550    78.1560     5.3210     4.8370     4.8550    13.7280  -999.2500 
  260.7500     1.9860    78.1560     5.3210     4.8370     4.7240    12.5040  -999.2500 
  260.8750     1.9420    78.1560     5.3210     4.8370     4.6830    12.2470  -999.2500 
  261.0000     1.9220    78.1560     5.3210     4.8370     4.6790    12.1990  -999.2500 
  261.1250     1.9180    78.1560     5.3210     4.8370     4.6790    12.1900  -999.2500 
  261.2500     1.9170    78.1560     5.3210     4.8370     4.6800    12.1940  -999.2500 
  261.3750     1.9180    78.1560     5.3210     4.8370     4.6810    12.1890  -999.2500 
  261.5000     1.9190    78.1560     5.3210     4.8370     4.6820    12.1870  -999.2500 
  261.6250     1.9200    78.1560     5.3210     4.8370     4.6830    12.1910  -999.2500 
  261.7500     1.9220    78.1560     5.3210     4.8370     4.6800    12.1860  -999.2500 
  261.8750     1.9230    78.1560     5.3210     4.8370     4.6790    12.1860  -999.2500 
  262.0000     1.9240    78.1560     5.3210     4.8370     4.6800    12.1930  -999.2500 
  262.1250     1.9240    78.1560     5.3210     4.8370     4.6780    12.1850  -999.2500 
  262.2500     1.9230    78.1560     5.3210     4.8370     4.6750    12.1800  -999.2500 
  262.3750     1.9210    78.1560     5.3210     4.8370     4.6740    12.1740  -999.2500 
  262.5000     1.9170    78.1560     5.3210     4.8370     4.6760    12.1650  -999.2500 
  262.6250     1.9140    78.1560     5.3210     4.8370     4.6760    12.1640  -999.2500 
  262.7500     1.9140  -999.2500  -999.2500  -999.2500  -999.2500  -999.2500  -999.2500 
  262.8750     1.9160  -999.2500  -999.2500  -999.2500  -999.2500  -999.2500  -999.2500 
  263.0000     1.9210  -999.2500  -999.2500  -999.2500  -999.2500  -999.2500  -999.2500 
