~V
VERS. 2.00: Ver 2.00
~W
STRT.M 60.0000:
STOP.M 239.0000:
STEP.M 0.1250:
NULL. -999.2500:
UWI. F10775:
~C
DEPT.M :
DEN.GM/CC :
SP.MV :
GR.API :
RML.OHMM :
RI. :
RXO.OHMM :
CALI.CM :
~A
# ...
  116.2500     2.2850    -0.2190    63.5730     8.6120     6.9210     6.6130    27.0960 
  116.3750     2.2710    -0.5260    60.9270     9.2900     7.2580     6.9840    27.0040 
  116.5000     2.2670    -0.8850    56.5430    10.3150     7.8840     8.3100    26.8800 
  116.6250     2.2740    -1.2730    53.6270    11.7340     8.8220    10.2380    26.8200 
  116.7500     2.2840    -1.6450    51.9980    13.5610    10.0370    11.2150    26.8890 
  116.8750     2.2890    -1.9890    51.7700    15.9810    11.6280    11.4380    27.0780 
  117.0000     2.2810    -2.2430    53.6280    19.2780    13.8060    12.6740    27.3960 
  117.1250     2.2570    -2.3560    54.0940    23.9910    17.1130    16.7890    27.7880 
  117.2500     2.2270    -2.3830    50.0720    30.0290    21.7530    23.5180    28.1730 
  117.3750     2.1990    -2.2600    44.3670    36.9950    27.7090    33.3360    28.5150 
  117.5000     2.1820    -2.0620    41.6390    43.8720    34.2740    40.6740    28.8080 
  117.6250     2.1780    -1.9050    42.5470    48.8220    39.6420    42.3800    29.0100 
  117.7500     2.1860    -1.8070    43.5940    51.1010    42.5970    41.4900    29.1370 
  117.8750     2.1980    -1.8160    43.3160    50.9220    43.1280    40.2610    29.2010 
  118.0000     2.2060    -1.9190    42.5240    49.3080    42.1640    37.8060    29.2320 
  118.1250     2.1960    -2.0850    42.1150    47.4670    40.8830    36.1610    29.2410 
  118.2500     2.1710    -2.2640    42.2740    46.0430    40.0110    34.7670    29.2420 
  118.3750     2.1440    -2.4480    43.3420    44.9510    39.5970    33.8680    29.2370 
  118.5000     2.1420    -2.6720    44.6260    43.7630    39.3780    33.6460    29.2280 
  118.6250     2.1900    -2.9100    45.1910    41.7330    38.7160    35.7860    29.2170 
  118.7500     2.2690    -3.2010    44.7380    38.5420    36.9800    35.8730    29.1940 
  118.8750     2.3390    -3.5160    44.6280    34.2390    33.8490    29.8800    29.1110 
  119.0000     2.3630    -3.7800    46.1160    29.3190    29.6280    23.7840    28.9910 
  119.1250     2.3160    -4.1730    47.8450    24.6770    25.2210    20.3760    28.8970 
  119.2500     2.2340    -4.6240    48.9890    20.9740    21.5230    16.5080    28.6670 
  119.3750     2.1540    -5.2060    49.8130    18.4500    18.8840    12.3850    28.2250 
  119.5000     2.1040    -5.8910    50.5110    17.0120    17.3050    10.2460    27.9160 
  119.6250     2.0980    -6.4510    50.9800    16.4250    16.6200    10.4980    27.7100 
  119.7500     2.1210    -6.8870    50.4480    16.1670    16.3080    11.6340    27.6890 
  119.8750     2.1610    -7.1170    49.9060    16.0040    16.0940    12.0820    27.7810 
  120.0000     2.2080    -7.1800    49.4910    15.8910    15.8620    11.3410    27.9840 
  120.1250     2.2510    -6.9630    48.4860    16.0840    15.7440    10.3560    28.3060 
  120.2500     2.2830    -6.4600    49.1240    16.9240    16.0420    10.1880    28.7070 
  120.3750     2.3030    -5.7380    51.7800    18.7820    17.1240    11.5540    29.3350 
  120.5000     2.3110    -4.8320    53.2270    21.9670    19.3650    15.5150    30.3530 
  120.6250     2.3060    -3.9470    48.6920    26.9400    23.3810    22.4530    31.3100 
  120.7500     2.2930    -3.1550    40.9390    33.4260    29.1460    27.6390    31.9180 
  120.8750     2.2730    -2.4750    35.2140    41.0930    36.5230    35.8000    32.2320 
  121.0000     2.2520    -2.0000    33.6640    49.2110    44.8210    44.3580    32.3770 
  121.1250     2.2300    -1.7790    35.7470    56.3780    52.5140    51.0760    32.4670 
  121.2500     2.2080    -1.7070    38.7430    61.4640    58.1980    53.1700    32.5370 
  121.3750     2.1870    -1.7150    40.4650    63.8990    61.1420    52.3990    32.5650 
  121.5000     2.1690    -1.7510    39.8490    63.8710    61.4320    50.2130    32.5660 
  121.6250     2.1600    -1.8020    37.2370    62.0040    59.7490    48.7140    32.5520 
  121.7500     2.1610    -1.8260    35.3090    59.4330    57.4520    46.4750    32.5300 
  121.8750     2.1670    -1.8400    34.7440    56.4980    54.9230    43.5920    32.5110 
  122.0000     2.1760    -1.8320    34.4920    53.2550    52.1040    41.6910    32.5030 
  122.1250     2.1810    -1.6640    34.8290    49.8460    48.9430    41.6090    32.4850 
  122.2500     2.1830    -1.4830    35.9910    46.8380    45.9070    40.6130    32.4170 
  122.3750     2.1850    -1.2790    37.7910    44.9580    43.6870    36.0350    32.2810 
  122.5000     2.1910    -1.0600    39.9390    44.9010    43.0610    29.1510    32.1390 
  122.6250     2.2000    -0.8540    41.6440    47.3500    45.1180    28.0140    32.0780 
  122.7500     2.2090    -0.5960    41.8120    51.2770    49.4790    35.1330    32.0810 
  122.8750     2.2110    -0.3380    40.1570    54.8710    54.8130    46.2950    32.1020 
  123.0000     2.2070    -0.0570    38.0650    55.6410    58.2570    54.9660    32.1100 
  123.1250     2.1970     0.1990    37.7460    51.0480    55.3850    56.9890    32.0760 
  123.2500     2.1910     0.3850    39.8680    42.8250    47.0480    53.8090    31.9410 
  123.3750     2.1930     0.5460    43.8290    33.7040    36.8440    43.1090    31.6570 
  123.5000     2.2040     0.6460    47.8490    26.2720    28.3390    28.2460    31.3430 
  123.6250     2.2180     0.6880    47.7680    22.3000    23.4890    18.2260    31.1750 
  123.7500     2.2260     0.6770    43.6450    21.2160    21.5100    16.6960    31.3130 
  123.8750     2.2250     0.6060    39.8710    22.5760    21.9790    17.8230    31.4950 
  124.0000     2.2210     0.5400    39.8640    25.9110    24.6990    23.1930    31.5780 
  124.1250     2.2230     0.4450    42.6000    30.7420    29.7000    29.2830    31.5830 
  124.2500     2.2320     0.3530    42.1540    35.8820    35.8000    32.2230    31.5740 
  124.3750     2.2410     0.2900    38.4170    40.3340    41.6870    34.6080    31.5460 
  124.5000     2.2420     0.2350    35.9310    43.2240    46.0290    39.4720    31.4900 
  124.6250     2.2300     0.1530    38.9190    43.6680    47.5010    40.8600    31.3360 
  124.7500     2.2150     0.0360    44.3910    42.0520    46.3600    32.2360    31.1030 
  124.8750     2.2050    -0.1370    47.2960    38.8610    43.0450    23.6410    30.8970 
  125.0000     2.2030    -0.3560    45.4100    34.8740    38.4100    24.7340    30.7870 
  125.1250     2.2100    -0.6350    41.9150    31.1500    33.7060    28.6310    30.7260 
  125.2500     2.2200    -0.8920    40.7630    28.5210    30.0410    25.6510    30.6710 
  125.3750     2.2330    -1.1770    41.3750    27.4220    27.9450    21.2220    30.6340 
  125.5000     2.2470    -1.5080    41.3130    27.9440    27.5750    20.0630    30.6180 
  125.6250     2.2600    -1.7200    41.1370    29.9910    29.0440    23.5630    30.6160 
  125.7500     2.2650    -1.8970    40.7380    32.6520    31.6070    30.0950    30.6150 
  125.8750     2.2590    -1.9910    38.5770    35.1110    34.4620    38.3020    30.6030 
  126.0000     2.2440    -2.0000    35.5050    36.6400    36.6030    47.0020    30.5640 
  126.1250     2.2270    -1.9860    35.2040    36.7370    37.1110    38.6410    30.4630 
  126.2500     2.2170    -1.9530    37.9260    35.9790    36.4920    31.6460    30.3250 
  126.3750     2.2160    -1.9390    41.1210    34.9890    35.4890    28.2100    30.1970 
  126.5000     2.2220    -1.8880    42.4640    34.2940    34.7110    28.0280    30.1090 
  126.6250     2.2290    -1.8260    39.9470    34.2440    34.5380    29.9950    30.0630 
  126.7500     2.2330    -1.7730    35.8870    34.7160    34.9090    33.0000    30.0040 
  126.8750     2.2330    -1.6730    35.3520    35.5370    35.7200    35.9460    29.9350 
  127.0000     2.2310    -1.6140    39.4260    36.4540    36.7710    35.7960    29.8820 
  127.1250     2.2300    -1.5360    44.2260    37.0520    37.6990    32.7490    29.8410 
  127.2500     2.2350    -1.4430    44.6990    36.9770    38.0750    35.7550    29.7900 
  127.3750     2.2480    -1.3630    40.5750    35.9670    37.4890    42.8000    29.7110 
