~V
VERS. 2.00: Ver 2.00
~W
STRT.M 59.0000:
STOP.M 248.0000:
STEP.M 0.1250:
NULL. -999.2500:
UWI. F10727:
~C
DEPT.M :
GR.API :
RML.OHMM :
RI. :
RXO.OHMM :
CALI.CM :
SP.MV :
DEN.GM/CC :
~A
# ...
  182.7500    56.8160    38.3770    34.7560    28.4300    24.7680   -16.5360     2.2290 
  182.8750    53.3450    38.6190    35.1520    29.1300    24.8510   -16.7370     2.2330 
  183.0000    48.9540    38.6670    35.0570    30.9110    24.5160   -16.9600     2.2540 
  183.1250    47.4740    39.1890    35.1530    29.1420    24.3010   -17.1960     2.2790 
  183.2500    49.9840    40.2820    35.6530    28.0280    24.0920   -17.3890     2.2890 
  183.3750    54.8410    42.0660    36.6950    28.1720    23.9230   -17.6050     2.2750 
  183.5000    58.7270    44.7170    38.4810    29.3860    23.8740   -17.8310     2.2440 
  183.6250    57.9610    48.4700    41.3270    31.5840    23.8220   -17.9920     2.2120 
  183.7500    55.9050    52.9350    44.9890    34.0510    23.7000   -18.1600     2.1910 
  183.8750    55.0580    57.5520    49.0430    38.0670    23.8750   -18.3180     2.1820 
  184.0000    54.5360    61.5270    52.8070    43.6190    24.1940   -18.4580     2.1800 
  184.1250    54.5020    63.7810    55.2970    48.0370    24.4440   -18.6150     2.1800 
  184.2500    56.4420    64.2270    56.2510    49.7410    24.5700   -18.7350     2.1810 
  184.3750    57.9700    63.1730    55.7920    49.9950    24.7410   -18.8140     2.1820 
  184.5000    57.0270    61.3210    54.4420    48.8330    24.8130   -18.9020     2.1850 
  184.6250    55.2310    59.5290    52.9190    46.2290    24.8480   -18.9670     2.1910 
  184.7500    55.4670    58.2990    51.7670    45.2190    24.7700   -18.9870     2.1970 
  184.8750    56.5240    57.6800    51.1010    46.1590    24.6210   -19.0200     2.2020 
  185.0000    56.7390    57.4550    50.7980    48.4390    24.5630   -19.0100     2.2040 
  185.1250    56.0390    57.2120    50.5940    48.8010    24.4910   -18.9570     2.2020 
  185.2500    55.3160    56.5900    50.2150    48.3710    24.4610   -18.9210     2.1960 
  185.3750    54.4820    55.4920    49.5680    48.2460    24.3560   -18.8440     2.1860 
  185.5000    52.6250    54.0650    48.7010    47.3360    24.2810   -18.7340     2.1740 
  185.6250    50.7020    52.6010    47.7370    45.4670    24.1840   -18.6160     2.1620 
  185.7500    51.8720    51.2490    46.7690    42.6380    24.0400   -18.4620     2.1520 
  185.8750    53.2300    49.8000    45.6730    41.7960    23.7870   -18.2660     2.1450 
  186.0000    50.2380    47.7890    44.1230    41.6330    23.7580   -18.0490     2.1410 
  186.1250    45.3120    44.5830    41.5850    40.1680    23.9470   -17.7890     2.1450 
  186.2500    42.8000    40.3950    38.1410    38.3630    24.3870   -17.5360     2.1540 
  186.3750    42.8550    35.7790    34.1730    35.1960    24.8090   -17.2960     2.1670 
  186.5000    44.4700    31.4700    30.2810    29.3260    24.9110   -17.0400     2.1830 
  186.6250    47.5390    28.2770    27.1820    22.5560    24.5860   -16.8360     2.1980 
  186.7500    52.0350    26.3380    25.0840    19.6490    24.2220   -16.6550     2.2080 
  186.8750    55.0220    25.6470    24.0320    19.7030    23.9980   -16.4700     2.2150 
  187.0000    55.5040    26.0230    23.9370    20.5870    23.8130   -16.3060     2.2180 
  187.1250    53.8440    27.1830    24.6760    21.3310    23.7870   -16.1670     2.2230 
  187.2500    50.9700    28.4710    25.7210    22.1040    23.7690   -16.0430     2.2340 
  187.3750    48.8990    29.3840    26.6100    23.3800    23.7480   -15.9100     2.2540 
  187.5000    47.0720    29.5800    26.9410    24.9830    23.7600   -15.7920     2.2840 
  187.6250    45.6800    28.8950    26.4430    24.8110    23.7320   -15.6650     2.3220 
  187.7500    46.6880    27.7370    25.4220    22.5950    23.5810   -15.5110     2.3570 
  187.8750    49.5020    26.4750    24.2180    19.7810    23.5980   -15.3470     2.3800 
  188.0000    53.0310    25.4230    23.1510    19.0670    23.9960   -15.1930     2.3820 
  188.1250    54.0930    24.7980    22.4580    20.3230    24.6250   -15.0290     2.3570 
  188.2500    52.7150    24.4760    22.0620    21.4260    24.9680   -14.8100     2.3200 
  188.3750    51.0380    24.2900    21.8450    21.7120    25.1170   -14.6050     2.2820 
  188.5000    50.5660    24.0790    21.6880    21.3930    25.1750   -14.3790     2.2540 
  188.6250    52.0500    23.7480    21.5320    21.0960    25.2280   -14.0830     2.2390 
  188.7500    52.5460    23.3870    21.4090    21.1450    25.3290   -13.8290     2.2340 
  188.8750    52.9140    23.1160    21.3830    21.5730    25.4680   -13.5660     2.2360 
  189.0000    54.4610    22.9480    21.4510    22.3440    25.4950   -13.2730     2.2420 
  189.1250    55.4280    22.6210    21.4030    21.8730    25.3720   -13.0070     2.2470 
  189.2500    54.7600    21.7170    20.8710    20.6770    25.3050   -12.7350     2.2490 
  189.3750    55.0270    19.9140    19.5280    19.8390    25.0970   -12.4580     2.2470 
  189.5000    56.3120    17.2320    17.3260    19.4220    24.9580   -12.2220     2.2460 
  189.6250    56.5730    15.5400    14.5960    17.1680    24.9390   -12.0240     2.2520 
  189.7500    57.6780    12.4780    12.0120    13.2120    24.9930   -11.8480     2.2680 
  189.8750    62.0010    10.1970     9.9450     9.7130    24.9970   -11.7370     2.2940 
  190.0000    67.1790     8.7990     8.5360     8.1000    24.8870   -11.6520     2.3240 
  190.1250    68.9430     8.2470     7.8340     7.8200    24.8450   -11.6200     2.3540 
  190.2500    67.8330     8.1450     7.5820     7.8570    24.8750   -11.6420     2.3750 
  190.3750    65.8010     8.2330     7.6010     7.9780    24.8910   -11.6700     2.3900 
  190.5000    65.6440     8.2920     7.7040     8.2960    24.8370   -11.7120     2.3980 
  190.6250    68.6830     8.1820     7.7160     8.3470    24.8290   -11.8030     2.4050 
  190.7500    71.9310     7.9640     7.6000     7.7140    24.8300   -11.8790     2.4100 
  190.8750    73.5800     7.7320     7.4100     7.3280    24.7550   -11.9500     2.4110 
  191.0000    74.2850     7.5680     7.2320     7.2120    24.5110   -12.0090     2.4070 
  191.1250    75.2190     7.5680     7.1870     7.2740    24.7130   -12.0320     2.4010 
  191.2500    75.2630     7.7760     7.3340     7.4490    24.8790   -12.0850     2.3970 
  191.3750    73.8330     8.2310     7.7000     7.7000    24.9130   -12.1330     2.3970 
  191.5000    71.8420     8.9310     8.2620     8.1580    24.9000   -12.1850     2.4030 
  191.6250    69.5350     9.7800     8.9540     9.2370    24.8360   -12.2550     2.4140 
  191.7500    65.6870    10.5280     9.6120    10.6810    24.8260   -12.3370     2.4290 
  191.8750    60.3330    10.9520    10.0780    11.5180    24.8240   -12.4740     2.4450 
  192.0000    57.0340    10.9450    10.2330    11.5190    24.8180   -12.6780     2.4570 
  192.1250    59.5520    10.5650    10.0470    10.7390    24.7800   -12.9170     2.4560 
  192.2500    64.4340    10.1260     9.7270    10.1400    24.6910   -13.1740     2.4430 
  192.3750    67.6340     9.8290     9.4430     9.7300    24.6550   -13.4680     2.4230 
  192.5000    69.2840     9.7680     9.3050     9.4710    24.6870   -13.7810     2.4040 
  192.6250    71.2280     9.9370     9.3570     9.6550    24.3700   -14.1220     2.3920 
  192.7500    71.5600    10.1650     9.4790    10.0450    24.2220   -14.4640     2.3850 
  192.8750    69.1570    10.3060     9.5420    10.2140    24.0760   -14.7640     2.3800 
  193.0000    66.7130    10.2650     9.4470     9.7880    23.9770   -15.0610     2.3730 
  193.1250    67.5120    10.0250     9.1610     9.3170    23.9760   -15.3250     2.3630 
  193.2500    68.6810     9.7500     8.8230     8.9320    23.9970   -15.5640     2.3540 
  193.3750    66.8700     9.6350     8.5830     8.7050    23.9490   -15.7800     2.3500 
  193.5000    63.4620     9.8990     8.5990     8.7460    23.8350   -15.9750     2.3550 
  193.6250    60.8590    10.8910     9.1120     9.4530    23.2920   -16.1780     2.3740 
  193.7500    59.0750    12.7410    10.2110    10.7610    22.8580   -16.4050     2.4020 
  193.8750    56.6260    15.6420    12.0460    13.4890    22.7560   -16.6680     2.4330 
