~V
VERS. 2.00: Ver 2.00
~W
STRT.M 50.0000:
STOP.M 230.0000:
STEP.M 0.1250:
NULL. -999.2500:
UWI. F10780:
~C
DEPT.M :
DEN.GM/CC :
GR.API :
RML.OHMM :
RI. :
RXO.OHMM :
CALI.CM :
SP.MV :
~A
# ...
  173.7500     2.4600    61.8280    18.6860    16.9300    15.7070    24.0530   -13.9630 
  173.8750     2.4790    58.8460    18.3300    16.5820    15.5620    24.0870   -13.8680 
  174.0000     2.5010    58.6680    17.8250    16.0500    13.6960    24.1600   -13.8590 
  174.1250     2.5230    60.5370    17.4220    15.5460    12.5480    24.2850   -13.9320 
  174.2500     2.5350    59.6980    17.3160    15.2810    11.9070    24.4350   -14.0090 
  174.3750     2.5340    56.6780    17.5720    15.3570    12.9950    24.5030   -14.0390 
  174.5000     2.5250    55.5980    18.1270    15.7710    14.8900    24.5180   -14.0540 
  174.6250     2.5150    59.2660    18.8450    16.4390    15.0160    24.5340   -14.1090 
  174.7500     2.5100    63.9790    19.5550    17.1680    13.8580    24.5540   -14.2620 
  174.8750     2.5100    65.2530    20.1890    17.8530    13.4690    24.5630   -14.4650 
  175.0000     2.5110    62.5170    20.7230    18.4430    14.1530    24.5950   -14.6530 
  175.1250     2.5120    61.4950    21.0620    18.8630    14.7320    24.6500   -14.8010 
  175.2500     2.5220    64.8530    21.0760    19.0200    14.8290    24.6290   -14.9360 
  175.3750     2.5450    67.9240    20.6090    18.7690    16.6840    24.5810   -15.1000 
  175.5000     2.5800    67.7170    19.6200    18.0330    18.9850    24.4860   -15.2870 
  175.6250     2.6090    65.7750    18.2570    16.8840    18.8510    24.4530   -15.4460 
  175.7500     2.6150    64.5300    16.9470    15.6940    15.1820    24.4410   -15.4950 
  175.8750     2.5950    62.4000    15.9880    14.7420    12.6970    24.4550   -15.4380 
  176.0000     2.5540    59.3400    15.5090    14.1860    10.6400    24.4890   -15.3180 
  176.1250     2.5120    58.5830    15.4910    14.0780    11.6870    24.4380   -15.1520 
  176.2500     2.4790    60.2030    15.6350    14.1950    13.9370    24.2940   -14.9460 
  176.3750     2.4570    62.9110    15.7260    14.3480    16.1920    24.0950   -14.7030 
  176.5000     2.4400    65.4590    15.6410    14.3890    14.9540    23.9360   -14.4570 
  176.6250     2.4230    68.4770    15.3900    14.2610    11.8420    23.8330   -14.2650 
  176.7500     2.4070    68.9600    15.1410    14.0820    10.9730    23.7580   -14.0940 
  176.8750     2.3980    66.0540    15.0140    13.9700    10.9140    23.6780   -13.9190 
  177.0000     2.3990    63.4690    15.0610    13.9990    11.0880    23.5810   -13.7610 
  177.1250     2.4070    63.9670    15.2630    14.1940    11.2870    23.4520   -13.6490 
  177.2500     2.4160    64.9730    15.5130    14.4700    11.2830    23.3330   -13.5810 
  177.3750     2.4240    65.4300    15.7380    14.7580    11.1520    23.2600   -13.5050 
  177.5000     2.4280    66.6550    15.8690    14.9870    11.3750    23.2090   -13.3710 
  177.6250     2.4290    67.2530    15.8080    15.0580    11.7350    23.1330   -13.1660 
  177.7500     2.4280    65.6270    15.5370    14.9340    11.7510    23.0300   -12.9560 
  177.8750     2.4240    64.4680    15.0550    14.5940    11.7040    23.0000   -12.8180 
  178.0000     2.4180    66.8890    14.4040    14.0610    11.3720    23.1870   -12.7420 
  178.1250     2.4160    68.4250    13.6690    13.3900    10.7740    23.6750   -12.6800 
  178.2500     2.4210    65.6020    12.9780    12.7090    10.9110    24.1430   -12.6140 
  178.3750     2.4320    61.4510    12.4200    12.1130    11.6620    24.4190   -12.5620 
  178.5000     2.4440    60.5030    12.0380    11.6620    11.6980    24.4620   -12.5220 
  178.6250     2.4540    61.8520    11.8390    11.3880    11.1140    24.3820   -12.5210 
  178.7500     2.4620    62.5960    11.7270    11.2140    12.5520    24.2740   -12.5440 
  178.8750     2.4680    62.6810    11.6400    11.0810    12.4020    24.2790   -12.5670 
  179.0000     2.4720    63.5090    11.5600    10.9620    11.0090    24.3640   -12.6140 
  179.1250     2.4730    63.6390    11.5630    10.9010     9.5500    24.3260   -12.6900 
  179.2500     2.4710    62.9000    11.7680    10.9860     9.2260    24.2110   -12.7600 
  179.3750     2.4680    61.7180    12.2900    11.3220     9.3400    24.1250   -12.8220 
  179.5000     2.4640    61.5210    13.1870    11.9900     9.9580    24.1240   -12.9010 
  179.6250     2.4580    62.8830    14.4310    13.0360    11.6230    24.2710   -13.0180 
  179.7500     2.4520    64.9390    15.7400    14.2540    14.2070    24.3810   -13.1970 
  179.8750     2.4450    67.0700    16.8470    15.4050    15.9220    24.4460   -13.4120 
  180.0000     2.4400    68.5510    17.5470    16.2510    18.3770    24.3750   -13.6150 
  180.1250     2.4400    70.5280    17.7390    16.6010    16.7430    24.1750   -13.7540 
  180.2500     2.4410    73.0210    17.6760    16.6230    15.0960    23.9740   -13.8680 
  180.3750     2.4430    74.4490    17.6080    16.5290    13.7620    23.9210   -13.9960 
  180.5000     2.4430    73.6800    17.7430    16.5390    13.6650    24.0410   -14.1700 
  180.6250     2.4430    73.1010    18.2220    16.8410    14.6490    24.2480   -14.3600 
  180.7500     2.4420    74.3680    18.9170    17.3920    16.0500    24.4010   -14.4880 
  180.8750     2.4400    74.3200    19.6520    18.0690    16.7460    24.4660   -14.5380 
  181.0000     2.4360    71.4890    20.2240    18.6870    16.9900    24.4690   -14.5240 
  181.1250     2.4300    70.3510    20.4060    19.0040    17.7120    24.4500   -14.5060 
  181.2500     2.4240    73.9780    20.2270    18.9790    18.1270    24.4610   -14.5120 
  181.3750     2.4190    79.3820    19.8000    18.6720    17.2280    24.4740   -14.5180 
  181.5000     2.4130    81.8400    19.3150    18.2380    16.2040    24.3810   -14.4820 
  181.6250     2.4060    78.3330    19.0270    17.9010    15.9450    24.3270   -14.4070 
  181.7500     2.3980    72.7090    19.0600    17.8130    16.0730    24.4190   -14.3440 
  181.8750     2.3960    69.4320    19.4350    18.0320    16.1720    24.5540   -14.2910 
  182.0000     2.4020    69.5450    20.0710    18.5230    17.2500    24.6420   -14.2010 
  182.1250     2.4150    71.2680    20.8110    19.1720    19.0420    24.6180   -14.1020 
  182.2500     2.4230    72.0540    21.4720    19.7930    20.3540    24.4810   -14.0390 
  182.3750     2.4210    72.8680    21.9720    20.2890    21.2090    24.3140   -14.0130 
  182.5000     2.4060    74.4860    22.3140    20.6320    19.7180    24.2700   -14.0540 
  182.6250     2.3860    75.1720    22.5590    20.8560    19.2290    24.1830   -14.1230 
  182.7500     2.3690    73.5380    22.7910    21.0490    18.7630    24.0220   -14.1430 
  182.8750     2.3580    71.6110    23.0150    21.2310    19.2560    23.9030   -14.1400 
  183.0000     2.3550    71.9470    23.1720    21.3680    19.7100    23.9690   -14.1950 
  183.1250     2.3640    74.9660    23.1570    21.3640    20.8740    24.1320   -14.3140 
  183.2500     2.3850    77.2810    22.9770    21.2030    20.9050    24.2620   -14.4050 
  183.3750     2.4160    77.4110    22.6990    20.9290    21.0120    24.3150   -14.4370 
  183.5000     2.4480    75.3690    22.4380    20.6340    21.0190    24.3120   -14.3960 
  183.6250     2.4650    71.6110    22.3260    20.4460    19.2590    24.4220   -14.2990 
  183.7500     2.4630    70.7550    22.3800    20.4070    18.4350    24.5690   -14.2310 
  183.8750     2.4450    73.2650    22.5550    20.4980    18.0220    24.6120   -14.2190 
  184.0000     2.4220    75.2140    22.7640    20.6550    18.5090    24.5900   -14.2250 
  184.1250     2.4020    73.0100    22.8920    20.7860    18.4780    24.5900   -14.2420 
  184.2500     2.3910    69.8580    22.8760    20.8230    17.8310    24.6240   -14.2710 
  184.3750     2.3860    68.2190    22.6840    20.7270    17.0560    24.6360   -14.3140 
  184.5000     2.3860    68.1790    22.3090    20.4760    16.8490    24.6010   -14.3470 
  184.6250     2.3860    69.4380    21.7390    20.0420    16.7490    24.5870   -14.3600 
  184.7500     2.3870    71.1980    21.0520    19.4770    17.2100    24.5370   -14.3500 
  184.8750     2.3880    72.5760    20.3210    18.8350    18.3570    24.4990   -14.3280 
