~V
VERS. 2.00: Ver 2.00
~W
STRT.M 50.0000:
STOP.M 239.0000:
STEP.M 0.1250:
NULL. -999.2500:
UWI. F10783:
~C
DEPT.M :
GR.API :
RML.OHMM :
RI. :
RXO.OHMM :
CALI.CM :
SP.MV :
DEN.GM/CC :
~A
# ...
  196.2500    79.7010    11.9490    10.8140    12.1770    24.7550   -15.5440     2.3370 
  196.3750    79.0630    12.2010    11.0950    12.4870    24.8660   -15.5190     2.3200 
  196.5000    76.5060    12.4970    11.3430    12.7370    24.9200   -15.5040     2.2960 
  196.6250    76.8330    13.0130    11.7240    12.8410    24.8940   -15.4460     2.2760 
  196.7500    79.5330    13.7690    12.3090    13.2630    24.8750   -15.3640     2.2790 
  196.8750    79.3730    14.7100    13.1000    14.3590    24.9010   -15.2630     2.3110 
  197.0000    75.7120    15.7140    14.0200    15.2100    25.0250   -15.1320     2.3660 
  197.1250    73.6770    16.5890    14.9140    15.2560    25.0680   -14.9560     2.4130 
  197.2500    73.0790    17.2120    15.6310    15.1100    25.1370   -14.7380     2.4240 
  197.3750    72.0120    17.5250    16.0740    15.7170    25.1480   -14.4830     2.3940 
  197.5000    71.3200    17.5320    16.2100    16.4370    25.0750   -14.2280     2.3360 
  197.6250    74.5910    17.2540    16.0220    16.9340    24.9480   -14.0390     2.2800 
  197.7500    79.8650    16.8300    15.6350    16.6080    24.8430   -13.8990     2.2440 
  197.8750    82.6530    16.3640    15.1390    15.6560    24.7570   -13.7950     2.2340 
  198.0000    80.8470    15.9770    14.6440    14.5760    24.6760   -13.7400     2.2460 
  198.1250    75.7050    15.8490    14.3040    13.8880    24.6310   -13.7160     2.2740 
  198.2500    72.3220    16.0620    14.2170    13.8860    24.6080   -13.7370     2.3070 
  198.3750    72.2910    16.6630    14.4630    14.8030    24.5960   -13.8000     2.3360 
  198.5000    73.4110    17.6430    15.0770    16.0140    24.5820   -13.8380     2.3540 
  198.6250    72.1190    18.9690    16.0970    17.2190    24.5800   -13.8320     2.3560 
  198.7500    69.7910    20.4640    17.3790    19.2710    24.5820   -13.7860     2.3480 
  198.8750    69.0610    22.0080    18.8040    21.0740    24.5910   -13.7040     2.3330 
  199.0000    69.5610    23.5230    20.2580    22.3380    24.5970   -13.6060     2.3140 
  199.1250    70.1730    25.0060    21.6810    23.0840    24.5800   -13.5270     2.2990 
  199.2500    69.6850    26.5330    23.1090    23.7410    24.5110   -13.4780     2.3000 
  199.3750    66.9000    28.1530    24.5980    24.0000    24.3720   -13.4880     2.3300 
  199.5000    61.9300    29.8260    26.1560    24.9900    24.2090   -13.5940     2.3890 
  199.6250    58.9200    31.3170    27.6380    29.3410    24.2460   -13.7680     2.4580 
  199.7500    59.4010    32.3640    28.8150    33.2430    24.3850   -13.9780     2.5000 
  199.8750    60.8990    32.7930    29.4970    32.9160    24.5740   -14.2210     2.4920 
  200.0000    60.8230    32.6240    29.6380    28.8340    24.7820   -14.4730     2.4390 
  200.1250    57.3240    32.0440    29.3300    27.7450    25.0180   -14.7290     2.3670 
  200.2500    54.4570    31.4150    28.8900    27.9540    25.0200   -14.9490     2.3110 
  200.3750    54.9650    30.8960    28.4910    29.3250    24.8480   -15.0910     2.2800 
  200.5000    57.9840    30.5160    28.1980    29.3750    24.6000   -15.1620     2.2670 
  200.6250    62.6080    30.2410    28.0140    28.7770    24.4510   -15.2000     2.2580 
  200.7500    66.7270    30.0430    27.9040    27.4770    24.4080   -15.2420     2.2460 
  200.8750    68.2620    29.9690    27.8970    26.7410    24.4180   -15.2780     2.2380 
  201.0000    66.7580    30.0790    28.0390    26.5260    24.4540   -15.2780     2.2440 
  201.1250    65.0700    30.4070    28.3810    27.2980    24.5400   -15.2250     2.2680 
  201.2500    64.5200    30.8250    28.8400    28.0340    24.6950   -15.1410     2.2960 
  201.3750    63.8010    31.1900    29.3070    28.6210    24.8150   -15.0660     2.3130 
  201.5000    63.6300    31.3700    29.6560    28.5550    24.8430   -14.9910     2.3120 
  201.6250    64.4040    31.2570    29.7570    28.6010    24.8650   -14.9030     2.2980 
  201.7500    65.3850    30.9330    29.6400    29.6360    24.9360   -14.7900     2.2860 
  201.8750    67.7300    30.4970    29.3760    31.2090    24.9040   -14.6630     2.2850 
  202.0000    70.3130    30.0450    29.0520    31.7900    24.7540   -14.5580     2.2930 
  202.1250    68.8480    29.6310    28.7320    27.7100    24.6450   -14.4860     2.3010 
  202.2500    64.3490    29.2460    28.4300    25.1760    24.6410   -14.4420     2.3040 
  202.3750    60.7350    28.8780    28.1420    25.0140    24.7680   -14.4120     2.3050 
  202.5000    60.8530    28.5400    27.8760    26.2360    24.8200   -14.3750     2.3100 
  202.6250    62.9470    28.2910    27.6820    26.9950    24.8260   -14.2820     2.3220 
  202.7500    65.0200    28.1580    27.6030    25.2600    24.8100   -14.1310     2.3360 
  202.8750    65.8200    28.3440    27.6810    25.5140    24.7450   -13.9340     2.3420 
  203.0000    64.5370    29.0300    27.9310    26.7240    24.6280   -13.7340     2.3370 
  203.1250    63.1760    30.0190    28.3370    28.5100    24.5520   -13.5540     2.3230 
  203.2500    61.9900    30.7610    28.7820    28.1740    24.6390   -13.3920     2.3110 
  203.3750    60.5270    31.0850    29.1640    27.9910    24.8190   -13.2350     2.3060 
  203.5000    59.0250    31.1430    29.4120    28.3960    24.9740   -13.0810     2.3030 
  203.6250    59.3000    31.0620    29.4890    29.5080    25.1100   -12.9850     2.2910 
  203.7500    61.3220    30.9000    29.4780    30.1100    25.1580   -12.9620     2.2690 
  203.8750    62.8750    30.7350    29.4420    29.8970    25.1390   -13.0030     2.2470 
  204.0000    63.9720    30.6100    29.4250    28.8250    25.0640   -13.0320     2.2420 
  204.1250    63.6400    30.5340    29.4290    27.7130    24.9370   -13.0110     2.2690 
  204.2500    62.5830    30.4650    29.4150    28.7380    24.7350   -12.9560     2.3130 
  204.3750    61.3640    30.3680    29.3500    31.4420    24.6290   -12.8920     2.3540 
  204.5000    59.0720    30.2340    29.2210    30.8350    24.6320   -12.8430     2.3750 
  204.6250    58.4530    30.0930    29.0550    29.2490    24.7300   -12.8020     2.3640 
  204.7500    60.8570    29.9920    28.9060    28.7220    24.7770   -12.7330     2.3330 
  204.8750    63.8280    29.9440    28.8020    29.4790    24.8270   -12.6370     2.2910 
  205.0000    64.9020    29.9180    28.7290    30.3030    24.8680   -12.5680     2.2510 
  205.1250    64.6940    29.8210    28.6170    30.4420    24.8820   -12.5610     2.2220 
  205.2500    65.3970    29.5780    28.3910    30.2290    24.8360   -12.5960     2.2080 
  205.3750    65.9640    29.1580    28.0030    29.6280    24.7070   -12.6580     2.2060 
  205.5000    66.0740    28.5960    27.4570    28.2590    24.5830   -12.7330     2.2110 
  205.6250    65.8690    27.9900    26.8170    26.4350    24.5080   -12.8050     2.2160 
  205.7500    65.7310    27.4850    26.2100    25.6840    24.5480   -12.8920     2.2180 
  205.8750    68.0770    27.1640    25.7300    25.4370    24.6960   -12.9790     2.2190 
  206.0000    70.5150    26.8800    25.4290    25.3120    24.7980   -13.0750     2.2190 
  206.1250    68.1340    26.4460    25.3340    25.2940    24.8740   -13.2140     2.2170 
  206.2500    63.3360    26.0550    25.3680    25.4530    24.9670   -13.3980     2.2160 
  206.3750    61.3390    25.9660    25.4920    25.7220    25.0530   -13.5970     2.2160 
  206.5000    64.3300    26.1950    25.6850    25.7490    25.0980   -13.7890     2.2200 
  206.6250    69.2270    26.5710    25.9720    25.8050    25.1240   -13.9520     2.2280 
  206.7500    72.0970    27.0390    26.3620    26.2800    25.1370   -14.0970     2.2360 
  206.8750    72.4690    27.6420    26.8600    27.7430    25.1670   -14.2510     2.2420 
  207.0000    71.1110    28.3480    27.4450    29.5420    25.2000   -14.3870     2.2450 
  207.1250    69.0610    29.1060    28.0620    30.1560    25.1700   -14.4500     2.2490 
  207.2500    66.6660    29.8460    28.6390    30.0460    25.0950   -14.4300     2.2530 
  207.3750    64.8390    30.5490    29.1410    30.0640    25.0560   -14.3600     2.2550 
