~V
VERS. 2.00: Ver 2.00
~W
STRT.M 50.0000:
STOP.M 228.0000:
STEP.M 0.1250:
NULL. -999.2500:
UWI. F10779:
~C
DEPT.M :
GR.API :
RML.OHMM :
RI. :
RXO.OHMM :
CALI.CM :
SP.MV :
DEN.GM/CC :
~A
# ...
  162.5000    46.1060    17.9170    16.6900    15.3740    25.4710   -13.5210     2.5380 
  162.6250    47.3680    16.5970    15.5330    14.8510    25.4550   -13.5790     2.5190 
  162.7500    48.4150    15.4240    14.5140    13.1360    25.4640   -13.6180     2.4930 
  162.8750    48.2690    14.6390    13.8170    10.7420    25.5210   -13.6290     2.4650 
  163.0000    47.7110    14.4390    13.5990     9.9710    25.5350   -13.5970     2.4450 
  163.1250    46.4150    14.9830    14.0190    11.3040    25.4950   -13.5270     2.4470 
  163.2500    44.8620    16.0140    14.9040    13.7080    25.3760   -13.4380     2.4680 
  163.3750    45.4520    17.2470    16.0420    14.7440    25.3450   -13.3460     2.4980 
  163.5000    49.7700    18.3370    17.1300    14.7760    25.3440   -13.2590     2.5200 
  163.6250    53.3880    18.9250    17.7900    15.8370    25.3550   -13.1950     2.5250 
  163.7500    54.6250    19.0350    17.9700    17.3210    25.3570   -13.1520     2.5220 
  163.8750    55.2410    18.7890    17.7590    16.9090    25.3610   -13.1230     2.5180 
  164.0000    54.9360    18.3090    17.2940    16.0420    25.3620   -13.1050     2.5180 
  164.1250    52.8810    17.6290    16.6470    14.4700    25.3620   -13.0930     2.5190 
  164.2500    50.5380    16.8240    15.9070    13.7570    25.3620   -13.0780     2.5130 
  164.3750    49.2640    15.9810    15.1420    13.2600    25.3690   -13.0490     2.4960 
  164.5000    48.5470    15.2220    14.4420    11.7490    25.4540   -13.0230     2.4720 
  164.6250    48.7900    14.7230    13.9520    10.5810    25.4660   -12.9720     2.4540 
  164.7500    50.2410    14.5350    13.7370    10.3510    25.4470   -12.9330     2.4480 
  164.8750    50.1170    14.6740    13.8260    11.0080    25.4120   -12.8910     2.4560 
  165.0000    47.4250    15.1020    14.1930    10.8600    25.3310   -12.8720     2.4740 
  165.1250    46.2760    15.7000    14.7360    11.5380    25.3490   -12.8900     2.4950 
  165.2500    48.3580    16.2150    15.2220    12.3950    25.3230   -12.9590     2.5100 
  165.3750    50.1140    16.4590    15.4750    12.6460    25.2910   -13.0700     2.5150 
  165.5000    49.2580    16.3670    15.4280    12.4850    25.2410   -13.2010     2.5100 
  165.6250    50.0910    15.9850    15.1040    11.9780    25.2980   -13.3440     2.4930 
  165.7500    55.2200    15.5290    14.6790    11.6730    25.3200   -13.4880     2.4700 
  165.8750    60.9540    15.1430    14.2660    11.2310    25.3500   -13.6220     2.4390 
  166.0000    62.9490    14.9230    13.9560    11.6340    25.3700   -13.7390     2.4050 
  166.1250    61.0080    15.0010    13.8800    11.5860    25.4080   -13.8370     2.3750 
  166.2500    59.3580    15.4890    14.1420    10.8600    25.3580   -13.9410     2.3580 
  166.3750    60.8820    16.5670    14.8890    10.8030    25.1910   -14.0540     2.3610 
  166.5000    64.2040    18.3610    16.2400    11.8910    24.9170   -14.1470     2.3850 
  166.6250    64.2140    20.8800    18.2810    13.7670    24.8140   -14.1900     2.4220 
  166.7500    60.5050    23.5600    20.6140    16.7590    24.6550   -14.1750     2.4530 
  166.8750    57.1060    25.7420    22.7040    21.0000    24.5620   -14.1090     2.4710 
  167.0000    57.6250    26.8350    23.9680    23.3520    24.5270   -14.0120     2.4740 
  167.1250    60.2660    26.5190    23.9720    21.9090    24.4920   -13.8680     2.4670 
  167.2500    60.5720    25.4730    23.2110    19.8860    24.4810   -13.7150     2.4580 
  167.3750    59.6380    24.2740    22.1850    19.5120    24.4790   -13.5760     2.4520 
  167.5000    60.2590    23.2700    21.2510    21.3800    24.4400   -13.4950     2.4510 
  167.6250    62.4240    22.5010    20.5170    20.7920    24.4260   -13.4500     2.4530 
  167.7500    62.3470    21.7720    19.8490    18.7800    24.4330   -13.4330     2.4520 
  167.8750    59.8510    21.0290    19.1840    18.0470    24.5250   -13.4360     2.4460 
  168.0000    57.0370    20.3750    18.5790    18.8270    24.6040   -13.4420     2.4370 
  168.1250    54.6320    20.1340    18.2890    17.1750    24.5950   -13.4560     2.4350 
  168.2500    53.5860    20.4780    18.4780    14.9660    24.5170   -13.4610     2.4430 
  168.3750    54.4890    21.4060    19.1830    14.6210    24.4550   -13.4630     2.4580 
  168.5000    56.1870    22.6870    20.2490    16.2940    24.4780   -13.4460     2.4680 
  168.6250    58.5060    23.8070    21.2770    22.2440    24.4800   -13.4320     2.4610 
  168.7500    61.1770    24.2860    21.8180    25.8050    24.4590   -13.4070     2.4480 
  168.8750    63.1510    23.9820    21.6860    21.3710    24.4300   -13.3850     2.4410 
  169.0000    62.7020    23.1860    21.0640    16.0940    24.4330   -13.3860     2.4450 
  169.1250    58.8720    22.5330    20.4350    14.6680    24.4430   -13.3920     2.4530 
  169.2500    55.1750    22.4530    20.2020    15.1370    24.4990   -13.4210     2.4580 
  169.3750    53.7170    23.0250    20.5060    17.5090    24.5280   -13.4710     2.4580 
  169.5000    54.4610    24.0580    21.2710    20.3250    24.5100   -13.5740     2.4610 
  169.6250    56.3620    25.1470    22.2210    20.4120    24.5370   -13.7060     2.4740 
  169.7500    56.2440    25.9080    22.9760    19.6570    24.6240   -13.8620     2.4890 
  169.8750    55.4940    26.1650    23.3210    19.7460    24.6600   -14.0170     2.4940 
  170.0000    57.1220    25.8830    23.1790    20.3500    24.6790   -14.1640     2.4840 
  170.1250    61.0440    25.2010    22.6390    19.9060    24.7790   -14.3210     2.4590 
  170.2500    63.1640    24.6120    22.1250    18.5490    24.9770   -14.4510     2.4340 
  170.3750    62.7360    24.5240    21.9810    17.0080    24.8860   -14.5510     2.4170 
  170.5000    62.7770    25.1670    22.4130    15.8080    24.7130   -14.6160     2.4180 
  170.6250    64.8880    26.5600    23.4980    17.1040    24.6970   -14.6620     2.4430 
  170.7500    65.4120    28.1160    24.8210    23.2170    24.7710   -14.7240     2.4780 
  170.8750    64.8400    29.2010    25.8890    30.6400    24.9840   -14.7820     2.5070 
  171.0000    64.0520    29.3160    26.2460    29.1710    25.2310   -14.8490     2.5170 
  171.1250    63.6830    28.3510    25.6980    22.9580    25.4530   -14.9210     2.5050 
  171.2500    64.5460    27.0510    24.7880    18.3120    25.5190   -15.0170     2.4850 
  171.3750    65.0500    25.9420    23.9380    17.3670    25.4790   -15.1170     2.4710 
  171.5000    63.1190    25.1640    23.3040    18.1040    25.3430   -15.2090     2.4690 
  171.6250    58.3060    24.3600    22.6360    18.7790    25.3550   -15.3110     2.4820 
  171.7500    55.6140    23.0800    21.5710    18.4770    25.3620   -15.4080     2.5020 
  171.8750    57.3440    21.2870    20.0610    19.2380    25.3790   -15.5230     2.5230 
  172.0000    60.2340    19.3680    18.4110    19.1270    25.3570   -15.6530     2.5390 
  172.1250    61.6700    18.0260    17.1800    15.2170    25.3610   -15.7480     2.5420 
  172.2500    62.9280    17.5520    16.6320    10.9880    25.3570   -15.8160     2.5310 
  172.3750    64.5960    17.9050    16.7930    10.8340    25.3610   -15.8210     2.5090 
  172.5000    64.5170    18.7510    17.4650    14.7280    25.3590   -15.7730     2.4810 
  172.6250    62.4370    19.4820    18.2050    18.7220    25.3480   -15.6230     2.4540 
  172.7500    61.7520    19.5980    18.5070    17.9360    25.3640   -15.4110     2.4340 
  172.8750    62.5050    19.0130    18.1950    14.8360    25.4450   -15.1760     2.4220 
  173.0000    62.1610    18.0510    17.4700    13.0010    25.4710   -14.9420     2.4160 
  173.1250    59.2450    17.2940    16.8000    12.2730    25.4750   -14.7640     2.4180 
  173.2500    57.5440    17.0570    16.5110    12.6260    25.4510   -14.6150     2.4280 
  173.3750    59.2450    17.3640    16.6730    13.4370    25.4180   -14.5110     2.4430 
  173.5000    61.3830    18.1010    17.2250    14.0270    25.3650   -14.4400     2.4550 
  173.6250    61.8140    19.1470    18.0720    14.6470    25.3510   -14.3990     2.4530 
