~V
VERS. 2.00: Ver 2.00
~W
STRT.M 40.0000:
STOP.M 236.0000:
STEP.M 0.1250:
NULL. -999.2500:
UWI. F10781:
~C
DEPT.M :
GR.API :
RML.OHMM :
RI. :
RXO.OHMM :
CALI.CM :
SP.MV :
DEN.GM/CC :
~A
# ...
  175.0000    51.2180    19.5600    16.2830    14.1630    25.5460    -3.8290     2.5180 
  175.1250    49.0340    19.1760    15.8230    14.3070    25.4330    -3.7450     2.5260 
  175.2500    49.7070    19.4990    15.8660    15.2010    25.3100    -3.6650     2.5280 
  175.3750    51.2840    20.3610    16.3250    16.5680    25.1990    -3.6040     2.5280 
  175.5000    52.4360    21.4720    17.0290    18.1350    25.1200    -3.5650     2.5310 
  175.6250    53.0170    22.5340    17.7700    18.1720    25.0810    -3.5650     2.5420 
  175.7500    53.4850    23.4990    18.4610    18.5990    25.0670    -3.5990     2.5550 
  175.8750    54.3400    24.4860    19.1450    19.9680    25.0640    -3.6580     2.5590 
  176.0000    55.9280    25.5450    19.8560    20.2710    25.0650    -3.7350     2.5470 
  176.1250    57.3440    26.5010    20.5170    20.8650    25.0710    -3.8310     2.5210 
  176.2500    58.8090    27.0460    20.9590    23.9560    25.0870    -3.9360     2.4940 
  176.3750    60.7620    26.9120    20.9950    26.2960    25.1130    -4.0540     2.4750 
  176.5000    62.6990    26.0480    20.5370    24.1060    25.1430    -4.1900     2.4670 
  176.6250    64.1600    24.6840    19.6670    20.5790    25.1630    -4.3570     2.4680 
  176.7500    65.6120    23.3590    18.7420    19.8880    25.1650    -4.5480     2.4710 
  176.8750    66.2470    22.4170    18.0120    20.6020    25.1470    -4.7500     2.4710 
  177.0000    65.7600    22.0110    17.6220    20.2020    25.1140    -4.9540     2.4680 
  177.1250    64.2720    22.0690    17.5930    19.1390    25.0730    -5.1280     2.4650 
  177.2500    63.2230    22.1150    17.6540    18.5520    25.0310    -5.2590     2.4660 
  177.3750    61.7880    21.7070    17.5010    19.1450    24.9930    -5.3430     2.4780 
  177.5000    60.0720    20.5120    16.8360    17.8350    24.9620    -5.3900     2.4960 
  177.6250    59.3000    18.3570    15.4130    15.5340    24.9460    -5.4010     2.5080 
  177.7500    61.4010    15.7390    13.5260    13.9530    24.9500    -5.3830     2.5000 
  177.8750    66.7370    13.1290    11.5300    12.5990    24.9690    -5.3390     2.4740 
  178.0000    72.3130    10.9100     9.7520     9.8050    24.9880    -5.2610     2.4410 
  178.1250    74.2260     9.3770     8.4570     6.7470    24.9810    -5.1180     2.4200 
  178.2500    72.8940     8.4060     7.5900     5.6070    24.9420    -4.9170     2.4140 
  178.3750    68.1170     7.8540     7.0600     5.3690    24.7870    -4.6760     2.4170 
  178.5000    60.3370     7.5530     6.7540     5.2360    24.7500    -4.4220     2.4190 
  178.6250    52.5610     7.3600     6.5760     4.9980    24.7530    -4.2000     2.4140 
  178.7500    47.2840     7.1640     6.4360     4.7990    24.7550    -4.0330     2.4090 
  178.8750    43.9830     6.9630     6.3190     4.6530    24.7420    -3.9250     2.4070 
  179.0000    42.0020     6.8040     6.2430     4.5850    24.7200    -3.8740     2.4110 
  179.1250    41.3570     6.7390     6.2430     4.7230    24.6960    -3.8900     2.4180 
  179.2500    40.5500     6.7460     6.3090     4.9230    24.6790    -3.9470     2.4220 
  179.3750    38.4130     6.7930     6.4220     5.2910    24.6650    -4.0270     2.4240 
  179.5000    37.8630     6.8610     6.5550     5.9490    24.6530    -4.1210     2.4260 
  179.6250    42.7000     6.9440     6.6770     6.7000    24.6460    -4.2320     2.4290 
  179.7500    50.2230     7.0370     6.7740     7.4320    24.6500    -4.3560     2.4330 
  179.8750    58.3970     7.1330     6.8400     8.2900    24.6700    -4.4970     2.4370 
  180.0000    66.3770     7.2160     6.8690     8.6250    24.7140    -4.6560     2.4370 
  180.1250    74.1220     7.2670     6.8500     8.5010    24.7920    -4.8320     2.4330 
  180.2500    79.8270     7.2750     6.7790     7.8520    24.8920    -5.0220     2.4270 
  180.3750    81.2340     7.2150     6.6420     6.7790    24.9950    -5.2250     2.4200 
  180.5000    78.9160     7.0680     6.4340     6.1050    25.0970    -5.4420     2.4100 
  180.6250    74.7960     6.8270     6.1690     5.8180    25.1790    -5.6740     2.3960 
  180.7500    73.9360     6.5690     5.9060     5.6870    25.2410    -5.9120     2.3830 
  180.8750    76.6440     6.4290     5.7280     5.6460    25.2720    -6.1450     2.3780 
  181.0000    78.2560     6.5800     5.7380     6.0610    25.2820    -6.3700     2.3830 
  181.1250    76.6870     7.2410     6.0770     6.9220    25.2690    -6.5900     2.3990 
  181.2500    76.3650     8.3330     6.7040     7.6860    25.2390    -6.8030     2.4130 
  181.3750    77.3630     9.6270     7.4990     8.6770    25.1750    -6.9850     2.4130 
  181.5000    75.6040    10.6920     8.2110    11.3840    25.0850    -7.1200     2.3990 
  181.6250    71.1570    10.9710     8.4920    12.3070    24.9800    -7.1820     2.3770 
  181.7500    69.8210    10.6320     8.3810    11.2080    24.9040    -7.1900     2.3620 
  181.8750    71.0440    10.2120     8.1450     9.3580    24.8620    -7.1490     2.3610 
  182.0000    70.7040    10.3980     8.1760     8.2470    24.8650    -7.0730     2.3750 
  182.1250    69.4580    12.0990     9.0350     9.9530    24.9170    -6.9770     2.3970 
  182.2500    69.3540    15.5520    10.9820    15.5330    25.0030    -6.8840     2.4080 
  182.3750    69.0140    20.8000    14.2270    22.8770    25.1020    -6.8140     2.3980 
  182.5000    68.9300    27.3150    18.6780    29.9270    25.1930    -6.7680     2.3650 
  182.6250    71.5000    33.4830    23.5430    40.3920    25.2440    -6.7450     2.3230 
  182.7500    76.9150    37.4860    27.3340    42.8850    25.2650    -6.7320     2.2850 
  182.8750    81.0600    38.6240    29.1870    39.0780    25.2620    -6.7190     2.2550 
  183.0000    81.8560    37.3720    29.1010    33.6200    25.2510    -6.7080     2.2370 
  183.1250    79.9990    34.5000    27.4290    33.1990    25.2280    -6.7040     2.2410 
  183.2500    77.2080    31.0550    25.0400    35.3900    25.2120    -6.7050     2.2660 
  183.3750    75.8180    27.5640    22.4340    33.8960    25.2000    -6.7040     2.3060 
  183.5000    76.7080    24.3820    19.9750    27.7110    25.2060    -6.6970     2.3440 
  183.6250    78.0900    21.7590    17.9250    20.5850    25.2210    -6.6920     2.3540 
  183.7500    76.5690    19.6080    16.2510    18.6770    25.2400    -6.6930     2.3400 
  183.8750    73.5920    17.8250    14.8750    17.9840    25.2580    -6.7110     2.3150 
  184.0000    73.1640    16.2800    13.6890    16.8580    25.2860    -6.7370     2.2970 
  184.1250    75.0940    14.8760    12.6260    14.5420    25.2900    -6.7460     2.2970 
  184.2500    76.8500    13.5920    11.6660    12.3600    25.2820    -6.7310     2.3070 
  184.3750    77.8550    12.5240    10.8650    11.0940    25.2650    -6.6860     2.3180 
  184.5000    77.5730    11.7660    10.2760    10.5890    25.2540    -6.6090     2.3220 
  184.6250    75.5130    11.3650     9.9380    10.2450    25.2320    -6.4860     2.3160 
  184.7500    73.9130    11.1510     9.7580    10.0470    25.2200    -6.3250     2.3080 
  184.8750    74.1450    11.0130     9.6660     9.6750    25.2110    -6.1410     2.3040 
  185.0000    75.9680    10.8850     9.6090     9.3140    25.2130    -5.9570     2.3060 
  185.1250    78.0890    10.7570     9.5570     9.1170    25.2070    -5.8100     2.3090 
  185.2500    78.3810    10.6340     9.4890     9.1390    25.2070    -5.7170     2.3100 
  185.3750    74.9490    10.4880     9.3840     9.2800    25.2020    -5.6790     2.3150 
  185.5000    68.7490    10.2690     9.2180     9.5250    25.2070    -5.6800     2.3280 
  185.6250    65.2910     9.9220     8.9650     9.2050    25.2060    -5.7060     2.3500 
  185.7500    66.9150     9.4980     8.6590     8.5610    25.2050    -5.7510     2.3690 
  185.8750    71.3720     9.0910     8.3530     7.9180    25.1950    -5.8040     2.3820 
  186.0000    75.9420     8.8150     8.1110     7.4900    25.1890    -5.8520     2.3860 
  186.1250    77.8490     8.7730     7.9950     7.3940    25.1770    -5.8860     2.3870 
