~V
VERS. 2.00: Ver 2.00
~W
STRT.M 50.0000:
STOP.M 229.0000:
STEP.M 0.1250:
NULL. -999.2500:
UWI. F10777:
~C
DEPT.M :
DEN.GM/CC :
GR.API :
RML.OHMM :
RI. :
RXO.OHMM :
CALI.CM :
SP.MV :
~A
   50.0000     2.3410    36.8070    15.3670     1.0760     0.4910    24.4660    48.0720 
   50.1250     2.3410    36.7980    11.2380     1.0860     0.4930    24.6610    48.3490 
   50.2500     2.2390    37.8320     7.6430     1.0830     0.5450    25.0110    48.5980 
   50.3750     2.1550    38.5530     5.3760     1.0680     0.6820    25.3930    48.7940 
   50.5000     2.1010    38.0970     4.2030     1.0480     0.8770    25.6130    48.9050 
   50.6250     2.0820    35.9320     3.7470     1.0400     1.0320    25.6660    48.8800 
   50.7500     2.0860    33.7190     3.5920     1.0510     1.1730    25.6680    48.7180 
   50.8750     2.0890    33.3250     3.5800     1.0790     1.3320    25.6610    48.4120 
   51.0000     2.0810    35.0740     3.6250     1.1140     1.4100    25.6380    47.9690 
   51.1250     2.0590    36.6730     3.6690     1.1400     1.2890    25.6200    47.4210 
   51.2500     2.0260    36.8700     3.6690     1.1550     1.1840    25.6100    46.8710 
   51.3750     1.9800    36.6610     3.5990     1.1630     1.3420    25.6070    46.4000 
   51.5000     1.9100    36.9460     3.4550     1.1720     1.5920    25.6070    46.0730 
   51.6250     1.8070    36.9070     3.2600     1.1830     1.6740    25.6110    45.9420 
   51.7500     1.6980    36.0220     3.0830     1.1940     1.5850    25.6120    45.9580 
   51.8750     1.6740    33.7730     2.9770     1.2060     1.6020    25.6100    46.0700 
   52.0000     1.8250    31.3920     2.9630     1.2170     1.5340    25.6070    46.2260 
   52.1250     2.1070    31.0330     3.0130     1.2240     1.1580    25.6040    46.3830 
   52.2500     2.2970    32.3140     3.0590     1.2250     0.8630    25.6030    46.5280 
   52.3750     2.3080    34.9000     3.0540     1.2170     1.0110    25.6050    46.6670 
   52.5000     2.2100    38.5710     2.9860     1.2030     1.3460    25.6110    46.8190 
   52.6250     2.0930    43.0080     2.8900     1.1850     1.3340    25.6040    47.0040 
   52.7500     2.0190    47.0810     2.8210     1.1690     1.3550    25.5840    47.2230 
   52.8750     1.9940    50.7620     2.7860     1.1540     1.4950    25.5610    47.4740 
   53.0000     2.0000    53.6110     2.7480     1.1350     1.4530    25.5480    47.7550 
   53.1250     2.0150    54.3710     2.6650     1.1120     1.2120    25.5450    48.0630 
   53.2500     2.0270    54.4270     2.5600     1.0930     0.9560    25.5320    48.3700 
   53.3750     2.0370    55.9730     2.4820     1.0860     0.7830    25.5010    48.6470 
   53.5000     2.0480    57.9850     2.4840     1.0930     0.7120    25.4680    48.8660 
   53.6250     2.0600    57.5930     2.5770     1.1130     0.7020    25.4410    48.9940 
   53.7500     2.0690    56.6810     2.6790     1.1320     0.7250    25.4340    49.0360 
   53.8750     2.0760    57.0040     2.7150     1.1410     0.7900    25.4470    48.9940 
   54.0000     2.0840    57.8670     2.6730     1.1370     0.9630    25.4810    48.8680 
   54.1250     2.1000    58.4960     2.6100     1.1200     1.3440    25.4920    48.6370 
   54.2500     2.1290    59.1760     2.5680     1.0910     1.6470    25.4640    48.3150 
   54.3750     2.1650    57.2180     2.5250     1.0570     1.5580    25.4280    47.8900 
   54.5000     2.2050    51.0670     2.4350     1.0210     1.3490    25.4290    47.3570 
   54.6250     2.2410    46.1330     2.2840     0.9930     1.3410    25.2060    46.7230 
   54.7500     2.2610    45.5530     2.1410     0.9800     1.5960    25.0430    46.0550 
   54.8750     2.2590    46.0940     2.0720     0.9860     1.9860    24.9030    45.4130 
   55.0000     2.2330    44.9890     2.1100     1.0090     2.2200    24.8220    44.8370 
   55.1250     2.1890    44.8270     2.2650     1.0420     2.0430    24.8380    44.3060 
   55.2500     2.1420    45.7260     2.4780     1.0670     1.6270    24.9060    43.7080 
   55.3750     2.1030    46.3120     2.6960     1.0740     1.2640    24.9740    42.9320 
   55.5000     2.0760    45.0870     2.8680     1.0590     1.0570    25.0500    41.8920 
   55.6250     2.0560    41.5970     2.9370     1.0290     1.0290    25.2020    40.5120 
   55.7500     2.0420    39.1560     2.8990     1.0020     1.0040    25.3980    38.8710 
   55.8750     2.0330    39.0280     2.7510     0.9860     0.7900    25.5480    37.0290 
   56.0000     2.0270    40.3550     2.5260     0.9850     0.5350    25.6070    35.0620 
   56.1250     2.0220    40.6940     2.3200     0.9990     0.4590    25.6090    33.0790 
   56.2500     2.0120    40.9830     2.2100     1.0230     0.5020    25.6040    31.2190 
   56.3750     2.0000    42.5740     2.1910     1.0490     0.5660    25.6040    29.6030 
   56.5000     1.9930    43.3670     2.2010     1.0730     0.5580    25.6100    28.3130 
   56.6250     2.0000    41.4550     2.1620     1.0930     0.5260    25.6120    27.4230 
   56.7500     2.0280    40.4350     2.0710     1.1120     0.6240    25.6070    26.8210 
   56.8750     2.0680    41.6870     1.9900     1.1340     0.7350    25.5880    26.4210 
   57.0000     2.1050    43.0270     1.9750     1.1610     0.7180    25.5680    26.1300 
   57.1250     2.1230    40.8380     2.0480     1.1910     0.7160    25.5520    25.8530 
   57.2500     2.1160    38.6730     2.1580     1.2160     0.7840    25.5470    25.4880 
   57.3750     2.0970    38.7880     2.2730     1.2320     0.8470    25.5470    24.9550 
   57.5000     2.0800    39.7200     2.3890     1.2390     0.8840    25.5490    24.2030 
   57.6250     2.0730    38.3740     2.5110     1.2430     0.8720    25.5520    23.2010 
   57.7500     2.0730    36.7210     2.6240     1.2480     0.8840    25.5520    22.0710 
   57.8750     2.0670    37.8820     2.7120     1.2540     0.9120    25.5500    20.9210 
   58.0000     2.0520    40.6040     2.7750     1.2620     0.9350    25.5470    19.8550 
   58.1250     2.0330    40.3100     2.8320     1.2700     0.8990    25.5450    18.9580 
   58.2500     2.0190    37.6470     2.8660     1.2780     0.9040    25.5400    18.1920 
   58.3750     2.0110    35.3150     2.8020     1.2820     0.9740    25.5290    17.5110 
   58.5000     2.0090    33.4530     2.5720     1.2740     1.0190    25.5110    16.8640 
   58.6250     2.0110    30.5620     2.2260     1.2440     0.9880    25.4940    16.2120 
   58.7500     2.0180    28.4180     1.9430     1.1930     0.9920    25.4810    15.5370 
   58.8750     2.0290    27.8510     1.7760     1.1160     1.0510    25.4620    14.8090 
   59.0000     2.0420    29.1270     1.6590     0.9950     1.1060    25.4320    13.9680 
   59.1250     2.0530    32.2340     1.4160     0.8040     1.0930    25.4150    12.8780 
   59.2500     2.0690    34.5830     1.0050     0.5730     1.0040    25.4020    11.4670 
   59.3750     2.1210    36.1080     0.5680     0.3510     0.8330    25.3790     9.6660 
   59.5000     2.2480    38.4620     0.2460     0.1820     0.6430    25.3730     7.4420 
   59.6250     2.4450    41.5050     0.0870     0.0910     0.5200    25.3410     4.7330 
   59.7500     2.6090    43.5910     0.0310     0.0550     0.4760    25.2390     1.6630 
   59.8750     2.6410    44.9920     0.0650     0.0720     0.5480    24.9390    -1.6870 
   60.0000     2.5600    47.1930     0.2100     0.1700     0.9880    25.0170    -5.2090 
   60.1250     2.4120    48.2410     0.5840     0.4670     2.3410    25.6960    -8.7490 
   60.2500     2.2570    47.9870     1.3050     1.0960     4.3430    26.4840   -12.0870 
   60.3750     2.1540    48.5980     2.4900     2.2130     7.8160    27.0130   -14.9900 
   60.5000     2.1340    50.0450     3.9890     3.8040     8.1800    27.2820   -17.2170 
   60.6250     2.1900    53.1860     5.0530     5.3260     7.2240    27.5170   -18.4400 
   60.7500     2.2720    58.0280     5.3320     6.2190     6.7070    27.7560   -18.8280 
   60.8750     2.3210    62.8500     5.2110     6.5370     6.0990    27.7720   -18.6170 
   61.0000     2.3210    65.6060     5.1430     6.6140     5.8750    27.4170   -18.1540 
   61.1250     2.2840    67.1710     5.3440     6.7430     6.3770    26.7890   -17.8300 
