~V
VERS. 2.00: Ver 2.00
~W
STRT.M 45.0000:
STOP.M 272.0000:
STEP.M 0.1250:
NULL. -999.2500:
UWI. F10774:
~C
DEPT.M :
DEN.GM/CC :
SP.MV :
GR.API :
RML.OHMM :
RI. :
RXO.OHMM :
CALI.CM :
~A
# ...
  213.7500     2.2020   -30.1450    59.1370    18.0180    14.9860    12.8370    24.9390 
  213.8750     2.1870   -30.6020    57.7030    18.6330    15.4410    13.3100    24.9570 
  214.0000     2.1790   -31.0530    57.4190    19.3300    16.0060    14.2570    24.9320 
  214.1250     2.1810   -31.4830    56.8790    19.8970    16.5370    14.9360    24.9000 
  214.2500     2.1880   -31.8750    53.6880    20.1850    16.9100    14.8310    24.8850 
  214.3750     2.1950   -32.2300    50.7980    20.3610    17.1840    14.1320    24.8670 
  214.5000     2.2050   -32.5240    50.1390    20.7490    17.5480    13.6850    24.7940 
  214.6250     2.2320   -32.7610    50.6970    21.6730    18.2420    13.9420    24.7040 
  214.7500     2.2830   -32.9550    50.2670    23.2650    19.4180    15.0000    24.7210 
  214.8750     2.3520   -33.1240    47.8230    25.1260    20.8620    16.7690    24.7760 
  215.0000     2.4220   -33.2740    43.6830    26.6490    22.1510    19.6290    24.8020 
  215.1250     2.4620   -33.4040    41.6350    27.1280    22.7120    22.3160    24.8140 
  215.2500     2.4420   -33.5250    46.5920    26.2110    22.1760    21.0220    24.8280 
  215.3750     2.3740   -33.6500    54.7270    24.6920    21.0440    17.2920    24.8150 
  215.5000     2.2940   -33.7990    59.1650    23.5460    20.0050    14.6710    24.7650 
  215.6250     2.2350   -33.9770    57.3250    23.6900    19.7490    14.0500    24.6960 
  215.7500     2.2090   -34.1930    53.2990    25.9080    20.9120    15.0650    24.6380 
  215.8750     2.1980   -34.4320    51.2620    30.3140    23.7220    18.9520    24.6190 
  216.0000     2.1900   -34.6870    50.0630    37.0500    28.4190    27.3650    24.6910 
  216.1250     2.1770   -34.9530    48.9880    46.0020    35.0450    38.0520    24.8590 
  216.2500     2.1650   -35.2120    49.5390    56.4810    43.1670    46.9770    25.0620 
  216.3750     2.1560   -35.4430    49.9500    66.6740    51.3640    50.4130    25.1840 
  216.5000     2.1540   -35.6340    49.2630    74.9430    58.3350    51.2530    25.2160 
  216.6250     2.1580   -35.7830    48.8440    80.3760    63.2400    53.7190    25.1980 
  216.7500     2.1690   -35.8880    49.5400    83.2260    66.0290    58.0070    25.1540 
  216.8750     2.1860   -35.9440    49.0240    84.9480    67.6690    61.1640    25.1060 
  217.0000     2.2020   -35.9570    47.0300    86.3140    68.7470    60.1950    25.0810 
  217.1250     2.2080   -35.9320    46.3960    87.7300    69.6810    57.6500    25.0780 
  217.2500     2.2070   -35.8700    47.7560    89.2620    70.7250    62.3260    25.0760 
  217.3750     2.2050   -35.7880    49.6470    90.5150    71.8310    71.3670    25.0830 
  217.5000     2.2060   -35.6970    51.6390    90.8380    72.7140    76.1480    25.1060 
  217.6250     2.2020   -35.5870    53.2690    89.5430    72.9360    73.6840    25.1110 
  217.7500     2.1950   -35.4520    53.8150    86.3490    72.1260    70.1610    25.0970 
  217.8750     2.1900   -35.3040    54.1460    82.2530    70.5920    70.4910    25.0960 
  218.0000     2.1920   -35.1390    55.1760    78.3970    68.9190    66.2040    25.1410 
  218.1250     2.2060   -34.9390    56.5200    75.6190    67.7000    58.3690    25.2170 
  218.2500     2.2410   -34.6990    55.9490    73.7880    66.9610    51.4330    25.2690 
  218.3750     2.3020   -34.3960    53.2770    71.3150    65.6540    51.7520    25.1780 
  218.5000     2.3830   -34.0150    49.8750    66.2700    62.2100    58.1850    24.9300 
  218.6250     2.4600   -33.5440    46.9110    57.0650    54.9030    62.5120    24.6670 
  218.7500     2.5000   -32.9710    45.2320    43.9660    43.3040    51.6760    24.5310 
  218.8750     2.4990   -32.3120    45.5710    30.5280    30.7140    33.9540    24.5110 
  219.0000     2.4680   -31.5730    47.4870    19.4530    20.1040    20.2260    24.5590 
  219.1250     2.4220   -30.7820    49.4110    11.8810    12.7740    12.0590    24.5950 
  219.2500     2.3710   -29.9750    50.7440     7.6900     8.5830     6.9780    24.6330 
  219.3750     2.3190   -29.2220    52.2330     5.5360     6.2740     4.2630    24.7150 
  219.5000     2.2720   -28.5850    54.4170     4.7230     5.2480     3.3500    24.8120 
  219.6250     2.2470   -28.1050    57.2250     4.8260     5.1570     3.5710    24.8880 
  219.7500     2.2540   -27.8210    60.4450     5.6430     5.8520     4.9400    24.9460 
  219.8750     2.2800   -27.6970    63.6810     6.8560     7.0550     7.2650    24.9140 
  220.0000     2.3080   -27.7180    66.5740     8.1350     8.4810     9.2430    24.7160 
  220.1250     2.3240   -27.8510    68.7710     9.0600     9.6990     9.0210    24.4180 
  220.2500     2.3250   -28.0780    70.6960     9.3380    10.3030     7.1170    24.2170 
  220.3750     2.3210   -28.3710    73.1530     9.1880    10.3810     6.4480    24.2640 
  220.5000     2.3130   -28.6860    75.1540     8.9100    10.1870     6.8000    24.4950 
  220.6250     2.3030   -29.0020    74.3430     8.7390     9.9710     7.5890    24.7350 
  220.7500     2.2920   -29.2890    71.7640     8.7960     9.8700     8.0540    24.8780 
  220.8750     2.2820   -29.5500    72.2440     9.0620     9.8940     8.1930    24.9470 
  221.0000     2.2730   -29.7980    76.7080     9.5580    10.0550     8.1660    24.9840 
  221.1250     2.2660   -30.0510    80.9420    10.3390    10.4030     8.2680    24.9710 
  221.2500     2.2590   -30.3050    81.2650    11.4730    11.0160     9.0390    24.8790 
  221.3750     2.2560   -30.5410    79.7570    12.8760    11.8750    10.5840    24.7740 
  221.5000     2.2520   -30.7460    79.1500    14.4440    12.9320    12.4510    24.7180 
  221.6250     2.2430   -30.9240    77.9560    16.0570    14.1100    13.8970    24.7560 
  221.7500     2.2360   -31.0920    73.3950    17.6580    15.3560    14.9280    24.8290 
  221.8750     2.2440   -31.2650    67.1300    19.3030    16.6610    15.8220    24.8990 
  222.0000     2.2700   -31.4460    63.3340    21.1290    18.0910    16.7850    24.9280 
  222.1250     2.3090   -31.6280    61.8550    23.3120    19.7620    18.6710    24.8950 
  222.2500     2.3530   -31.8090    58.4260    26.0370    21.8310    22.1960    24.8010 
  222.3750     2.3860   -31.9900    54.3120    29.2920    24.3330    24.7890    24.6720 
  222.5000     2.3990   -32.1860    53.5610    33.0530    27.2810    25.1420    24.5880 
  222.6250     2.3900   -32.3990    55.5010    37.2650    30.6550    26.3560    24.6060 
  222.7500     2.3690   -32.6210    55.2030    41.7990    34.3920    31.8620    24.6240 
  222.8750     2.3370   -32.8470    51.3390    46.2970    38.2270    38.9540    24.5540 
  223.0000     2.2930   -33.0840    47.7700    50.3200    41.8250    42.9930    24.4400 
  223.1250     2.2440   -33.3360    48.5060    53.3560    44.7520    43.5910    24.3710 
  223.2500     2.2070   -33.6090    53.7760    54.9850    46.5910    43.3500    24.3900 
  223.3750     2.1850   -33.8980    56.8940    55.4370    47.4310    42.4540    24.4530 
  223.5000     2.1760   -34.1980    55.4390    55.0010    47.4690    38.3010    24.5120 
  223.6250     2.1800   -34.5020    53.4610    53.9960    46.9600    33.3480    24.5510 
  223.7500     2.1900   -34.8010    54.2140    52.7340    46.1700    34.1700    24.6400 
  223.8750     2.1950   -35.1030    54.5090    51.6530    45.4710    39.0300    24.8340 
  224.0000     2.1970   -35.4020    53.1390    51.2130    45.2480    41.9350    25.0740 
  224.1250     2.1970   -35.7070    52.2590    51.9260    45.9580    40.0920    25.2030 
  224.2500     2.1960   -36.0260    53.7430    54.2400    48.0500    37.8670    25.1650 
  224.3750     2.1910   -36.3580    56.5030    57.8370    51.3610    39.3720    25.0610 
  224.5000     2.1840   -36.6980    57.8360    62.0030    55.3780    45.6700    25.0200 
  224.6250     2.1770   -37.0620    55.7030    65.3190    58.9350    53.8180    25.0930 
  224.7500     2.1750   -37.4770    51.2050    65.9080    60.3430    58.9340    25.1860 
  224.8750     2.1760   -37.9470    49.0070    63.3610    58.9610    57.3520    25.2220 
