~V
VERS. 2.00: Ver 2.00
~W
STRT.M 59.0000:
STOP.M 239.0000:
STEP.M 0.1250:
NULL. -999.2500:
UWI. F10784:
~C
DEPT.M :
DEN.GM/CC :
GR.API :
RML.OHMM :
RI. :
RXO.OHMM :
CALI.CM :
SP.MV :
~A
# ...
  205.2500     2.2970    68.1890    34.2750    33.5570    25.7410    24.5930   -19.6280 
  205.3750     2.2770    65.2480    33.9470    33.4580    28.5130    24.7510   -19.5930 
  205.5000     2.2650    63.2950    33.3730    33.0960    30.6840    24.8820   -19.4570 
  205.6250     2.2580    63.4840    32.5860    32.4440    30.4190    24.9970   -19.3080 
  205.7500     2.2500    65.3300    31.7860    31.6780    29.0000    25.0460   -19.2380 
  205.8750     2.2410    68.9960    31.1580    30.9700    27.9500    25.0600   -19.2320 
  206.0000     2.2330    73.0180    30.8520    30.4920    27.9230    25.0600   -19.1900 
  206.1250     2.2310    72.4380    30.9880    30.4040    28.5140    25.0600   -19.0980 
  206.2500     2.2340    69.4100    31.4070    30.6170    29.4140    25.0600   -19.0710 
  206.3750     2.2390    69.1690    31.9390    30.9920    30.6440    25.0600   -19.1030 
  206.5000     2.2440    71.7040    32.4070    31.3560    31.5780    25.0600   -19.1660 
  206.6250     2.2500    72.1300    32.6640    31.5510    31.4210    25.0600   -19.2240 
  206.7500     2.2590    70.5440    32.7150    31.5530    30.4220    25.0600   -19.2890 
  206.8750     2.2740    69.6880    32.6030    31.3850    28.0900    25.0600   -19.3800 
  207.0000     2.2910    69.4400    32.4230    31.1180    24.9310    25.0600   -19.4660 
  207.1250     2.3020    68.2760    32.3820    30.9160    27.2130    25.0600   -19.5200 
  207.2500     2.3050    68.4450    32.7140    30.9930    26.8430    25.0600   -19.5430 
  207.3750     2.2990    70.5300    33.6740    31.5890    22.5890    25.0600   -19.5610 
  207.5000     2.2890    72.7070    35.4900    32.9460    24.7790    25.0600   -19.5460 
  207.6250     2.2760    72.3110    38.3780    35.3630    33.3460    25.0610   -19.4670 
  207.7500     2.2620    69.1120    41.8480    38.5140    40.8780    25.0630   -19.3790 
  207.8750     2.2480    65.1800    45.1260    41.7760    42.7200    25.0650   -19.2720 
  208.0000     2.2370    64.3770    47.0980    44.1110    44.7980    25.0700   -19.1570 
  208.1250     2.2340    67.8320    46.3190    43.9920    48.0770    25.0770   -19.0530 
  208.2500     2.2370    71.8880    43.1510    41.4500    46.1500    25.0820   -18.9370 
  208.3750     2.2440    73.6140    38.6640    37.2980    36.2000    25.0830   -18.8580 
  208.5000     2.2460    73.5030    34.3920    32.9190    25.9510    25.0800   -18.8890 
  208.6250     2.2350    74.1840    32.0530    29.9190    20.9660    25.0840   -19.0070 
  208.7500     2.2100    75.0160    32.1050    28.8920    19.5520    25.0980   -19.1030 
  208.8750     2.1810    73.3310    34.6350    30.0530    21.7020    25.1110   -19.2220 
  209.0000     2.1590    68.4850    39.3300    33.3010    27.0990    25.1150   -19.4510 
  209.1250     2.1580    63.7200    45.4720    38.2530    38.2860    25.1100   -19.7830 
  209.2500     2.1730    62.7020    51.4310    43.4940    48.3880    25.0830   -20.1110 
  209.3750     2.1940    64.2920    55.9890    47.8910    50.8180    25.0250   -20.3750 
  209.5000     2.2110    66.4240    58.5960    50.7980    50.5920    24.9820   -20.6300 
  209.6250     2.2170    65.8760    59.5460    52.3000    48.2090    24.9680   -20.9480 
  209.7500     2.2140    63.0980    60.1470    53.4680    50.6760    24.9680   -21.2750 
  209.8750     2.2050    62.4220    60.8920    54.8000    55.2670    24.9680   -21.5370 
  210.0000     2.2010    64.9280    61.4080    56.0670    61.7220    24.9540   -21.7600 
  210.1250     2.2260    66.0860    60.2680    56.0200    69.3140    24.8790   -22.0090 
  210.2500     2.2960    63.1330    56.7510    53.8030    70.3230    24.7500   -22.2920 
  210.3750     2.4090    58.6000    51.0030    49.3110    59.2500    24.6540   -22.5700 
  210.5000     2.5390    56.0440    44.0000    43.2840    47.1070    24.6220   -22.7740 
  210.6250     2.6360    55.8190    36.9280    36.7590    38.5620    24.6250   -22.8520 
  210.7500     2.6700    58.9410    30.2910    30.3980    32.7020    24.6280   -22.7930 
  210.8750     2.6370    63.9270    24.0400    24.2930    32.1230    24.6170   -22.5140 
  211.0000     2.5550    67.5060    18.2100    18.5860    37.0550    24.5770   -21.9390 
  211.1250     2.4610    70.2140    13.3290    13.8060    33.2850    24.4650   -21.0740 
  211.2500     2.3930    75.9470     9.6930    10.1810    19.5420    24.4120   -20.0990 
  211.3750     2.3710    84.1510     7.3870     7.7600     9.8250    24.3960   -19.1060 
  211.5000     2.3900    90.2740     6.2040     6.3780     6.2230    24.3980   -18.0770 
  211.6250     2.4300    91.4460     5.8880     5.8750     6.4240    24.3990   -16.9870 
  211.7500     2.4610    91.6290     5.9880     5.8710     6.4980    24.4000   -15.9680 
  211.8750     2.4700    93.8880     6.2990     6.1770     6.2640    24.4000   -15.1780 
  212.0000     2.4610    97.5500     6.6570     6.6200     5.9490    24.4000   -14.6660 
  212.1250     2.4460    99.5590     6.9240     7.0290     5.7110    24.4320   -14.3800 
  212.2500     2.4340    99.9900     7.0700     7.3140     5.6030    24.5070   -14.1500 
  212.3750     2.4250   100.0180     7.1160     7.4590     5.7440    24.5790   -13.9290 
  212.5000     2.4170   100.4750     7.0960     7.4850     6.0510    24.6060   -13.7880 
  212.6250     2.4070   104.7830     7.0370     7.4120     6.4240    24.6050   -13.7950 
  212.7500     2.3980   114.1680     6.9750     7.2910     6.4950    24.6050   -13.8860 
  212.8750     2.3880   125.2890     6.9360     7.1510     6.3350    24.6070   -13.9990 
  213.0000     2.3810   133.7980     6.9460     7.0240     6.0180    24.6140   -14.1000 
  213.1250     2.3780   139.0700     7.0320     6.9440     6.0050    24.6380   -14.2070 
  213.2500     2.3790   143.7640     7.2020     6.9360     6.2700    24.6630   -14.3660 
  213.3750     2.3880   147.2020     7.4820     7.0380     6.7330    24.6730   -14.5480 
  213.5000     2.4060   148.5220     7.9140     7.2940     7.2910    24.6750   -14.7110 
  213.6250     2.4370   146.5390     8.5920     7.7960     7.9020    24.6750   -14.8560 
  213.7500     2.4730   140.6460     9.5150     8.5460     8.8090    24.6750   -15.0170 
  213.8750     2.5050   130.1280    10.6530     9.5330    10.1970    24.6750   -15.2050 
  214.0000     2.5200   116.5070    11.9040    10.6860    12.4740    24.6750   -15.4200 
  214.1250     2.5090   106.2060    13.0780    11.8480    13.7220    24.6750   -15.6350 
  214.2500     2.4770   102.4850    14.0230    12.8360    14.9850    24.6750   -15.8420 
  214.3750     2.4320   103.7540    14.6850    13.5490    14.9980    24.6750   -16.0890 
  214.5000     2.3860   105.9980    15.1050    13.9750    14.6030    24.6750   -16.3790 
  214.6250     2.3500   108.7990    15.3820    14.1680    14.5670    24.6750   -16.6680 
  214.7500     2.3270   110.4260    15.6630    14.2800    15.0080    24.6750   -16.9110 
  214.8750     2.3160   110.2960    16.0580    14.4150    15.5220    24.6750   -17.1210 
  215.0000     2.3170   109.7120    16.7210    14.6940    15.9610    24.6750   -17.3320 
  215.1250     2.3210   110.3300    18.0700    15.3930    16.3550    24.6750   -17.5930 
  215.2500     2.3210   108.3590    20.4980    16.8180    16.5300    24.6750   -17.9120 
  215.3750     2.3100   101.2940    24.5240    19.4550    17.7580    24.6750   -18.2640 
  215.5000     2.2840    91.3980    30.5640    23.8750    21.9160    24.6750   -18.6150 
  215.6250     2.2500    81.6880    38.7940    30.7590    31.6280    24.6750   -18.9690 
  215.7500     2.2190    73.2380    47.6170    39.0370    53.3840    24.6750   -19.3510 
  215.8750     2.2020    68.7960    54.9230    46.8740    82.8600    24.6710   -19.7550 
  216.0000     2.2000    69.4480    58.7090    52.0790    88.1130    24.6490   -20.1660 
  216.1250     2.2110    74.3340    57.9520    52.9270    66.4550    24.5750   -20.5480 
  216.2500     2.2240    77.5440    55.2210    51.1960    46.6030    24.4760   -20.8900 
  216.3750     2.2310    77.8540    52.9350    49.0370    37.4930    24.4050   -21.1860 
