~V
VERS. 2.00: Ver 2.00
~W
STRT.M 50.0000:
STOP.M 239.0000:
STEP.M 0.1250:
NULL. -999.2500:
UWI. F10783:
~C
DEPT.M :
GR.API :
RML.OHMM :
RI. :
RXO.OHMM :
CALI.CM :
SP.MV :
DEN.GM/CC :
~A
# ...
  185.0000    75.5620    14.6240    13.8850    12.7760    23.8330   -14.4670     2.4890 
  185.1250    75.1110    14.2610    13.5940    13.2870    23.7640   -14.4650     2.4970 
  185.2500    75.2670    13.7790    13.1340    12.8060    23.7760   -14.4670     2.5040 
  185.3750    75.0150    13.3070    12.6360    11.7030    23.8670   -14.5090     2.5080 
  185.5000    74.2300    12.9440    12.2040    11.1130    23.9840   -14.6070     2.5070 
  185.6250    72.4330    12.7740    11.9330    10.8820    24.1330   -14.7460     2.5020 
  185.7500    71.2730    12.7720    11.8240    10.7640    24.2840   -14.8940     2.4960 
  185.8750    71.4370    12.9020    11.8600    11.0670    24.3870   -15.0510     2.4930 
  186.0000    71.2580    13.1010    11.9920    11.8610    24.4590   -15.2050     2.4950 
  186.1250    71.0080    13.2860    12.1490    12.6780    24.5650   -15.3390     2.5020 
  186.2500    71.0130    13.4020    12.2690    13.1450    24.6590   -15.4000     2.5070 
  186.3750    72.2710    13.4370    12.3280    13.2150    24.7630   -15.3790     2.5060 
  186.5000    73.0750    13.3980    12.3290    12.8620    24.8060   -15.2840     2.4990 
  186.6250    72.4290    13.2920    12.2750    12.6130    24.7970   -15.1270     2.4920 
  186.7500    72.2670    13.1360    12.1790    12.6550    24.7470   -14.9430     2.4880 
  186.8750    73.1320    12.9400    12.0480    13.1100    24.6800   -14.7440     2.4870 
  187.0000    72.5080    12.7400    11.9050    13.5750    24.6590   -14.5820     2.4880 
  187.1250    67.7390    12.6240    11.8190    13.2350    24.7230   -14.5150     2.4870 
  187.2500    64.5840    12.6470    11.8440    12.2030    24.8080   -14.5520     2.4860 
  187.3750    67.1090    12.8010    11.9900    11.6700    24.8300   -14.6890     2.4850 
  187.5000    72.9470    12.9820    12.1890    12.0890    24.7770   -14.9240     2.4850 
  187.6250    76.6170    12.9580    12.2390    13.0480    24.6710   -15.2690     2.4830 
  187.7500    77.2300    12.5960    11.9810    13.4060    24.6160   -15.6660     2.4740 
  187.8750    77.4280    11.9010    11.3770    13.7640    24.6080   -16.0900     2.4560 
  188.0000    79.1760    11.0220    10.5390    14.4950    24.6810   -16.4930     2.4320 
  188.1250    82.4890    10.1920     9.6780    11.6300    24.7860   -16.8260     2.4080 
  188.2500    84.8230     9.5500     8.9550     9.3710    24.8500   -17.1000     2.3870 
  188.3750    85.5980     9.1290     8.4190     8.6830    24.8680   -17.3290     2.3710 
  188.5000    86.6850     8.9280     8.0750     9.8310    24.8630   -17.5240     2.3570 
  188.6250    88.2590     9.0400     7.9910    11.0580    24.8530   -17.7110     2.3510 
  188.7500    88.6770     9.5260     8.2110     9.8860    24.8380   -17.9090     2.3560 
  188.8750    86.9850    10.4690     8.8190     8.7040    24.7940   -18.0980     2.3720 
  189.0000    84.3340    11.8570     9.8560    10.0190    24.6720   -18.2750     2.3910 
  189.1250    83.5730    13.5030    11.2820    15.4940    24.5660   -18.4400     2.3960 
  189.2500    84.2380    14.9520    12.7440    21.4490    24.6280   -18.5800     2.3780 
  189.3750    84.1170    15.8190    13.8660    22.5390    24.7770   -18.6840     2.3450 
  189.5000    82.1070    15.9100    14.3590    18.5150    24.8780   -18.7450     2.3080 
  189.6250    81.7280    15.2710    14.1050    15.4870    24.9560   -18.7330     2.2830 
  189.7500    84.2270    14.3810    13.4780    15.7760    25.0500   -18.6570     2.2730 
  189.8750    87.0630    13.5180    12.7490    15.4620    25.1620   -18.5440     2.2740 
  190.0000    88.4840    12.7860    12.0700    13.7390    25.2170   -18.3910     2.2800 
  190.1250    88.2060    12.1490    11.4620    13.0000    25.2140   -18.2080     2.2880 
  190.2500    85.3910    11.5020    10.8550    12.4790    25.2070   -18.0280     2.2950 
  190.3750    81.4190    10.8030    10.2090    11.6230    25.2040   -17.8620     2.3020 
  190.5000    80.2530    10.0610     9.5180    10.7280    25.1720   -17.7010     2.3080 
  190.6250    83.6620     9.3170     8.8080    10.5080    25.1290   -17.5320     2.3160 
  190.7500    86.3370     8.6210     8.1250     9.2550    25.1730   -17.3440     2.3250 
  190.8750    86.9730     8.0160     7.5090     7.9970    25.1730   -17.1380     2.3350 
  191.0000    87.6310     7.5250     6.9930     7.1980    25.0360   -16.9510     2.3450 
  191.1250    87.1890     7.1670     6.6030     6.8290    24.8620   -16.7570     2.3540 
  191.2500    84.7070     6.9020     6.3080     6.6550    24.7810   -16.5450     2.3620 
  191.3750    82.7840     6.7200     6.0930     6.5940    24.7780   -16.3140     2.3700 
  191.5000    85.3590     6.6320     5.9580     6.5860    24.7980   -16.0840     2.3760 
  191.6250    91.9840     6.7210     5.9600     6.5720    24.8450   -15.8840     2.3740 
  191.7500    93.9560     7.0360     6.1510     6.6340    24.8470   -15.7270     2.3630 
  191.8750    89.8660     7.6030     6.5780     6.8270    24.7850   -15.6160     2.3510 
  192.0000    84.8830     8.3720     7.2330     7.4270    24.6220   -15.5410     2.3500 
  192.1250    83.7490     9.1620     8.0030     9.7460    24.4930   -15.5330     2.3710 
  192.2500    81.8510     9.7280     8.6430    13.6060    24.4570   -15.5560     2.4050 
  192.3750    77.9780     9.9130     8.9610    14.6920    24.5970   -15.5740     2.4370 
  192.5000    75.5590     9.7120     8.8910    11.2710    24.7870   -15.5770     2.4480 
  192.6250    75.4390     9.2700     8.5070     8.6930    24.8670   -15.5610     2.4290 
  192.7500    76.5530     8.8530     8.0700     8.0140    24.9080   -15.5350     2.3950 
  192.8750    79.3160     8.5930     7.7280     8.4190    24.9540   -15.4860     2.3620 
  193.0000    82.6810     8.5130     7.5460     9.0050    25.0010   -15.4000     2.3390 
  193.1250    84.4420     8.5750     7.5300     9.4510    25.0080   -15.3030     2.3340 
  193.2500    83.9710     8.6940     7.6070     9.3520    24.9700   -15.2360     2.3420 
  193.3750    82.0900     8.8530     7.7470     8.8310    24.9060   -15.2370     2.3580 
  193.5000    79.6080     9.0720     7.9500     8.7930    24.8590   -15.2900     2.3740 
  193.6250    78.3470     9.3750     8.2370     9.2740    24.8340   -15.4030     2.3790 
  193.7500    78.2080     9.7170     8.5820    10.0640    24.8490   -15.5500     2.3730 
  193.8750    77.2040    10.0220     8.9360    10.7110    24.8570   -15.7190     2.3600 
  194.0000    76.0730    10.2030     9.2200    10.8500    24.8200   -15.9010     2.3440 
  194.1250    77.2880    10.1700     9.3250    10.7650    24.7580   -16.0460     2.3320 
  194.2500    81.0270     9.9720     9.2510    10.3850    24.7910   -16.1390     2.3270 
  194.3750    84.8230     9.6900     9.0460    10.1830    24.8710   -16.1720     2.3310 
  194.5000    85.6250     9.4160     8.7940     9.7590    24.8890   -16.1760     2.3460 
  194.6250    84.4180     9.2290     8.5860     9.4810    24.8730   -16.1650     2.3660 
  194.7500    84.9940     9.1080     8.4390     9.3010    24.9210   -16.1300     2.3810 
  194.8750    86.6170     8.9960     8.3190     9.1840    25.0170   -16.0760     2.3860 
  195.0000    87.3310     8.8340     8.1750     8.7540    25.1550   -16.0290     2.3790 
  195.1250    87.0990     8.6030     7.9680     8.8190    25.2330   -16.0020     2.3690 
  195.2500    87.9690     8.3840     7.7440     8.6330    25.2850   -15.9890     2.3620 
  195.3750    87.9790     8.2820     7.5860     7.9720    25.2960   -15.9770     2.3590 
  195.5000    84.7820     8.4020     7.5880     7.7120    25.2220   -15.9500     2.3560 
  195.6250    80.4610     8.8390     7.8630     8.3150    25.0470   -15.8840     2.3520 
  195.7500    79.1930     9.5080     8.3780     9.5790    24.8670   -15.8000     2.3480 
  195.8750    80.0020    10.2930     9.0600    10.9210    24.7380   -15.7160     2.3460 
  196.0000    79.8070    11.0430     9.7870    11.8780    24.6660   -15.6380     2.3460 
  196.1250    79.0550    11.5940    10.3910    12.0870    24.6910   -15.5820     2.3450 
