~V
VERS. 2.00: Ver 2.00
~W
STRT.M 50.0000:
STOP.M 239.0000:
STEP.M 0.1250:
NULL. -999.2500:
UWI. F10783:
~C
DEPT.M :
GR.API :
RML.OHMM :
RI. :
RXO.OHMM :
CALI.CM :
SP.MV :
DEN.GM/CC :
~A
# ...
  173.7500    63.3690    14.5950    14.3500    13.2760    24.5760   -13.2400     2.5250 
  173.8750    65.3610    14.4660    14.3360    13.4860    24.5180   -13.1890     2.5220 
  174.0000    64.4000    14.1920    14.1460    13.5710    24.4670   -13.1240     2.5150 
  174.1250    63.1310    13.8870    13.8530    12.9420    24.4520   -13.0410     2.5080 
  174.2500    63.0940    13.6840    13.6040    12.1130    24.4880   -12.9680     2.5040 
  174.3750    62.0370    13.6340    13.4780    11.9000    24.5320   -12.9040     2.5060 
  174.5000    58.6630    13.6970    13.4710    12.1210    24.5500   -12.8610     2.5110 
  174.6250    55.6300    13.7460    13.4970    13.1620    24.5940   -12.8510     2.5160 
  174.7500    55.9990    13.6520    13.4230    13.7750    24.6870   -12.8610     2.5150 
  174.8750    58.4720    13.3780    13.1830    13.0100    24.7700   -12.8770     2.5080 
  175.0000    60.5010    12.9890    12.8030    11.2970    24.7960   -12.8980     2.4960 
  175.1250    60.4460    12.6570    12.4150    10.7650    24.7430   -12.9240     2.4830 
  175.2500    60.5970    12.5240    12.1740    10.9380    24.7250   -12.9770     2.4740 
  175.3750    62.4990    12.6350    12.1550    11.2290    24.7130   -13.0670     2.4710 
  175.5000    64.9510    12.9300    12.3440    12.2400    24.7190   -13.1730     2.4750 
  175.6250    63.6340    13.2610    12.6360    14.1380    24.7280   -13.2700     2.4850 
  175.7500    59.9450    13.4750    12.8670    15.6210    24.7590   -13.3620     2.4920 
  175.8750    59.2870    13.5250    12.9600    14.6710    24.7900   -13.4580     2.4930 
  176.0000    63.1000    13.4560    12.9210    13.0110    24.7650   -13.5630     2.4870 
  176.1250    66.8350    13.3740    12.8170    11.8020    24.6860   -13.7020     2.4790 
  176.2500    67.2220    13.3800    12.7510    11.9830    24.5670   -13.8320     2.4720 
  176.3750    67.6790    13.5290    12.7870    12.7930    24.4310   -13.9160     2.4700 
  176.5000    70.6540    13.8610    12.9780    13.9460    24.3120   -13.9540     2.4690 
  176.6250    71.5760    14.4450    13.4120    13.5840    24.2500   -13.9650     2.4690 
  176.7500    69.1330    15.2350    14.0740    13.0490    24.2280   -13.9540     2.4740 
  176.8750    68.1150    16.1360    14.9080    13.8710    24.2610   -13.9480     2.4890 
  177.0000    71.4840    16.9720    15.7650    16.3260    24.3440   -13.9480     2.5120 
  177.1250    75.8620    17.4650    16.3770    19.8640    24.4150   -13.9110     2.5360 
  177.2500    76.3370    17.5270    16.5860    20.8880    24.4640   -13.8560     2.5490 
  177.3750    73.4050    17.1890    16.3580    17.4130    24.4540   -13.8330     2.5500 
  177.5000    69.8900    16.6090    15.7980    14.3990    24.4370   -13.8440     2.5460 
  177.6250    69.4340    15.9910    15.1000    14.6030    24.4600   -13.8500     2.5530 
  177.7500    71.6060    15.4640    14.4580    15.4570    24.4980   -13.8410     2.5720 
  177.8750    72.5330    15.0310    13.9310    14.9940    24.5330   -13.8090     2.5940 
  178.0000    69.8430    14.6490    13.5120    13.4660    24.5600   -13.7770     2.6010 
  178.1250    64.5970    14.3040    13.1870    12.7550    24.5760   -13.7660     2.5820 
  178.2500    60.4230    14.0540    12.9500    12.4600    24.5380   -13.7740     2.5470 
  178.3750    59.6460    14.0190    12.8660    11.9410    24.4690   -13.7720     2.5100 
  178.5000    62.4190    14.3280    13.0260    11.5310    24.4490   -13.7710     2.4870 
  178.6250    65.1240    15.1370    13.5740    11.9540    24.5330   -13.8030     2.4880 
  178.7500    63.1060    16.3350    14.4760    13.2170    24.6110   -13.8350     2.5070 
  178.8750    58.4310    17.7510    15.6480    16.1080    24.6780   -13.8440     2.5350 
  179.0000    57.1770    19.1000    16.8940    20.6580    24.7200   -13.8260     2.5630 
  179.1250    60.7000    19.9450    17.8480    23.8740    24.6760   -13.7860     2.5860 
  179.2500    64.4340    20.1390    18.2800    22.9080    24.5930   -13.7430     2.6020 
  179.3750    64.8410    19.7520    18.1530    20.0480    24.5080   -13.6910     2.6110 
  179.5000    62.1550    19.0850    17.6540    17.2750    24.5030   -13.5880     2.6070 
  179.6250    60.3040    18.6040    17.1530    16.1950    24.5730   -13.4260     2.5880 
  179.7500    62.2430    18.5650    16.9530    15.9920    24.5930   -13.2640     2.5590 
  179.8750    66.8540    18.9380    17.1180    15.5710    24.5870   -13.1250     2.5300 
  180.0000    70.7010    19.4470    17.4910    16.1770    24.6100   -13.0020     2.5090 
  180.1250    71.7550    19.6000    17.6850    19.3200    24.6050   -12.8720     2.5010 
  180.2500    70.8030    19.1480    17.4120    21.3910    24.6100   -12.7300     2.5010 
  180.3750    67.4970    18.1520    16.6400    19.2720    24.6450   -12.5650     2.5060 
  180.5000    62.8140    16.9650    15.6020    14.8290    24.6870   -12.4160     2.5140 
  180.6250    61.5230    16.1950    14.7630    12.4640    24.7040   -12.3200     2.5240 
  180.7500    64.0860    16.1980    14.4830    12.6340    24.6650   -12.2850     2.5350 
  180.8750    67.7470    17.0700    14.9370    14.6860    24.6420   -12.2910     2.5450 
  181.0000    68.6070    18.6290    16.1020    16.9970    24.6100   -12.3300     2.5540 
  181.1250    65.0010    20.3780    17.7100    19.5920    24.5780   -12.4200     2.5690 
  181.2500    61.3790    21.6020    19.1000    23.0170    24.5500   -12.5590     2.5920 
  181.3750    61.5370    21.8200    19.7280    24.7010    24.5550   -12.7620     2.6160 
  181.5000    65.0900    20.9150    19.3320    20.8120    24.5470   -13.0140     2.6310 
  181.6250    67.2950    19.1570    18.0110    17.3190    24.5420   -13.2820     2.6190 
  181.7500    67.2220    17.3270    16.4600    16.0530    24.5270   -13.5140     2.5840 
  181.8750    66.0770    15.9150    15.1460    14.3380    24.4920   -13.7140     2.5360 
  182.0000    66.2080    15.1760    14.3470    13.1350    24.4980   -13.8870     2.4930 
  182.1250    67.6490    15.2270    14.2400    13.2150    24.5060   -14.0380     2.4720 
  182.2500    68.9530    15.7510    14.6260    14.5220    24.4820   -14.1610     2.4720 
  182.3750    69.5500    16.4560    15.2950    16.0840    24.4230   -14.2250     2.4860 
  182.5000    69.8770    17.0040    15.9580    18.7020    24.3990   -14.2410     2.5030 
  182.6250    70.3880    17.0020    16.2140    19.3630    24.3990   -14.2060     2.5120 
  182.7500    70.5470    16.4270    15.9340    18.6830    24.3920   -14.1490     2.5110 
  182.8750    70.3500    15.4270    15.1780    16.3440    24.3620   -14.0970     2.5010 
  183.0000    69.3450    14.2770    14.1670    14.2340    24.3300   -14.0510     2.4880 
  183.1250    66.3710    13.3000    13.1940    11.8690    24.3520   -13.9840     2.4780 
  183.2500    63.8410    12.6310    12.4440    11.1380    24.3110   -13.8960     2.4730 
  183.3750    61.8050    12.2750    11.9670    10.9260    24.1900   -13.8260     2.4710 
  183.5000    59.2860    12.1520    11.7310    10.7310    24.0100   -13.7890     2.4690 
  183.6250    57.5940    12.1430    11.6570    11.0640    23.9050   -13.7940     2.4650 
  183.7500    58.6880    12.1140    11.6060    11.1470    23.8870   -13.8230     2.4580 
  183.8750    62.0120    12.0300    11.5200    11.6400    23.9610   -13.8560     2.4490 
  184.0000    64.3480    11.9310    11.4040    11.9970    24.0650   -13.8930     2.4390 
  184.1250    62.9790    11.9410    11.3490    10.8650    24.2160   -13.9690     2.4310 
  184.2500    61.0390    12.1480    11.4490     9.9840    24.3350   -14.0820     2.4280 
  184.3750    62.3840    12.5850    11.7580    10.4370    24.4300   -14.1990     2.4310 
  184.5000    67.9600    13.2070    12.2700    12.2280    24.4930   -14.2900     2.4400 
  184.6250    73.5130    13.8820    12.9070    14.1230    24.4620   -14.3410     2.4520 
  184.7500    75.8900    14.4180    13.4820    14.1840    24.2920   -14.3870     2.4650 
  184.8750    76.1010    14.6830    13.8390    13.0560    24.0240   -14.4330     2.4770 
