~V
VERS. 2.00: Ver 2.00
~W
STRT.M 20.0000:
STOP.M 266.0000:
STEP.M 0.1250:
NULL. -999.2500:
UWI. F10773:
~C
DEPT.M :
DEN.GM/CC :
GR.API :
RML.OHMM :
RI. :
RXO.OHMM :
CALI.CM :
SP.MV :
~A
# ...
   53.7500     2.1240  -999.2500  -999.2500  -999.2500  -999.2500  -999.2500    76.3290 
   53.8750     2.1380  -999.2500  -999.2500  -999.2500  -999.2500  -999.2500    74.9600 
   54.0000     2.1560  -999.2500  -999.2500  -999.2500  -999.2500  -999.2500    72.9170 
   54.1250     2.1690  -999.2500  -999.2500  -999.2500  -999.2500  -999.2500    81.0510 
   54.2500     2.1730  -999.2500  -999.2500  -999.2500  -999.2500  -999.2500    83.6190 
   54.3750     2.1730  -999.2500  -999.2500  -999.2500  -999.2500  -999.2500    85.7390 
   54.5000     2.1700    39.8080     1.1240     0.1860 11276.9180    25.6880    87.4190 
   54.6250     2.1660    39.8080     1.1240     0.1860 11276.9180    25.6880    88.4090 
   54.7500     2.1590    40.2030     1.1500     0.1860 11276.9180    25.6880    88.6640 
   54.8750     2.1520    40.7080     1.2040     0.1910 11276.9180    25.6880    88.2320 
   55.0000     2.1460    39.7590     1.2450     0.1970 11276.9180    25.6900    87.1440 
   55.1250     2.1390    39.8120     1.2850     0.1910 11276.9180    25.6910    85.3690 
   55.2500     2.1300    42.5280     1.3170     0.1800 11276.9180    25.6960    83.3690 
   55.3750     2.1180    44.2900     1.3190     0.1790 11276.9180    25.7100    81.4010 
   55.5000     2.1030    42.2970     1.2760     0.2030 11276.9180    25.7380    79.4110 
   55.6250     2.0880    40.0430     1.2100     0.2520 11276.9180    25.7500    77.4170 
   55.7500     2.0740    40.6850     1.1730     0.3020 11276.9180    25.7580    75.4990 
   55.8750     2.0610    41.9260     1.1950     0.3360 11276.9180    25.7590    73.6450 
   56.0000     2.0490    41.8620     1.2670     0.3490 11276.9180    25.7580    71.9160 
   56.1250     2.0380    42.0710     1.3310     0.3460 11276.9180    25.7590    70.4010 
   56.2500     2.0300    43.1350     1.3300     0.3360 11276.9180    25.7590    68.8430 
   56.3750     2.0260    43.5310     1.2510     0.3190 11276.9180    25.7620    67.1520 
   56.5000     2.0260    42.4620     1.1200     0.2930     7.1530    25.7550    65.4520 
   56.6250     2.0320    42.4810     0.9920     0.2580     1.8160    25.6520    63.8170 
   56.7500     2.0380    45.4830     0.9110     0.2210     1.2310    25.3870    62.1560 
   56.8750     2.0460    49.3420     0.8860     0.1850     1.0950    25.0410    60.4820 
   57.0000     2.0620    51.3870     0.8980     0.1550     1.1790    24.8150    58.8120 
   57.1250     2.0930    49.1740     0.9130     0.1440     1.2170    24.7320    57.2710 
   57.2500     2.1400    44.7430     0.9060     0.1610     1.2810    24.7210    56.0560 
   57.3750     2.1990    41.7920     0.8690     0.2100     1.3090    24.7250    55.2670 
   57.5000     2.2670    42.0610     0.8130     0.2810     1.3050    24.7280    54.8570 
   57.6250     2.3400    43.6040     0.7640     0.3440     1.2860    24.7100    54.9880 
   57.7500     2.4160    44.4170     0.7430     0.3730     1.2920    24.6140    55.2720 
   57.8750     2.4920    45.3710     0.7510     0.3590     1.2910    24.3470    55.7250 
   58.0000     2.5660    47.0280     0.7720     0.3060     1.2440    23.8960    56.6140 
   58.1250     2.6320    49.3930     0.7780     0.2300     1.1610    23.5100    57.4630 
   58.2500     2.6900    52.6500     0.7620     0.1540     1.2050    23.2690    57.7680 
   58.3750     2.7370    55.6020     0.7370     0.0900     1.5990    23.2590    57.1530 
   58.5000     2.7720    57.1780     0.7240     0.0440     2.2320    23.7430    55.4000 
   58.6250     2.7850    59.6380     0.7330     0.0170     3.5530    25.4340    51.9700 
   58.7500     2.7680    67.2320     0.7530     0.0140     4.2040    28.1550    47.1200 
   58.8750     2.7130    79.7320     0.7850     0.0530     4.4350    30.6810    41.0950 
   59.0000     2.6190    89.6320     0.8700     0.1760     4.1420    31.2440    34.0990 
   59.1250     2.5010    91.4580     1.1230     0.4820     4.2590    28.4570    26.4920 
   59.2500     2.3950    88.0020     1.6120     1.0420     4.8470    25.8760    18.9710 
   59.3750     2.3350    84.0430     2.3660     1.9420     5.3850    24.5560    11.8800 
   59.5000     2.3370    80.0320     3.3730     3.2280     5.6710    24.2280     5.4300 
   59.6250     2.3920    74.2730     4.6650     4.8350     7.2170    24.2340     0.0090 
   59.7500     2.4460    70.1360     6.1310     6.3920    10.4330    24.1760    -4.5760 
   59.8750     2.4570    68.4310     7.4870     7.5300    13.3300    23.9900    -8.4110 
   60.0000     2.4040    66.2430     8.2620     8.0090    11.5430    23.7340   -11.4640 
   60.1250     2.2950    61.7060     8.0310     7.7830     8.7890    23.6480   -13.9390 
   60.2500     2.1770    58.7120     7.3230     7.2630     7.5840    23.7060   -16.1420 
   60.3750     2.0850    59.7080     6.7140     6.7440     7.2160    23.8550   -18.1440 
   60.5000     2.0360    59.4980     6.4300     6.3970     7.0880    24.0270   -19.8810 
   60.6250     2.0360    54.5430     6.3500     6.2600     7.0980    24.0880   -21.2770 
   60.7500     2.0590    49.3310     6.2900     6.2090     7.0890    24.1000   -22.4410 
   60.8750     2.0890    47.8070     6.2500     6.1560     7.0840    24.1240   -23.3770 
   61.0000     2.1100    50.6450     6.2350     6.0560     7.1170    24.1650   -24.1650 
   61.1250     2.1160    54.6960     6.2370     5.9160     7.1420    24.2170   -24.7650 
   61.2500     2.1180    57.4260     6.2800     5.8270     7.1410    24.2790   -25.1820 
   61.3750     2.1320    59.3430     6.4290     5.9220     7.1740    24.3810   -25.3560 
   61.5000     2.1790    61.2540     6.8110     6.3690     7.2120    24.5490   -25.3800 
   61.6250     2.2820    61.6910     7.6690     7.4280     7.3950    24.7050   -25.2080 
   61.7500     2.4210    61.4180     9.0360     9.0420     8.2870    24.7030   -24.8400 
   61.8750     2.5620    62.3110    10.7310    10.9320    11.5850    24.4970   -24.3810 
   62.0000     2.6550    63.6410    12.1420    12.4690    21.5120    24.2710   -23.9760 
   62.1250     2.6390    65.3950    12.2450    12.7010    25.8460    24.0460   -23.7240 
   62.2500     2.5310    70.5080    11.0620    11.6470    19.9340    23.8910   -23.6680 
   62.3750     2.3760    78.8400     9.2210     9.8330    11.8600    23.8010   -23.7900 
   62.5000     2.2340    85.4560     7.5140     7.9900     8.0690    23.8340   -23.9520 
   62.6250     2.1640    91.3310     6.4940     6.7220     6.9940    24.0420   -24.1260 
   62.7500     2.1580   103.9910     6.0650     6.0410     6.8440    24.1490   -24.3820 
   62.8750     2.1870   117.6120     6.0420     5.8110     6.9870    24.1700   -24.6750 
   63.0000     2.2160   119.2350     6.1960     5.8530     6.8440    24.1870   -24.8490 
   63.1250     2.2240   103.4590     6.3550     6.0020     6.8780    24.1990   -24.7850 
   63.2500     2.2190    86.6630     6.4770     6.1240     6.9920    24.2060   -24.5900 
   63.3750     2.2160    79.0640     6.5540     6.1710     7.0010    24.2100   -24.3390 
   63.5000     2.2230    80.2350     6.5570     6.1450     6.7420    24.2150   -24.1290 
   63.6250     2.2380    85.6270     6.4790     6.0880     6.4780    24.2080   -24.0490 
   63.7500     2.2440    88.2720     6.4080     6.0600     6.3870    24.1970   -24.0650 
   63.8750     2.2270    85.0340     6.4180     6.0880     6.3550    24.1690   -24.2770 
   64.0000     2.1880    78.0320     6.5310     6.1610     6.7390    24.1320   -24.7700 
   64.1250     2.1410    72.1440     6.6740     6.2480     7.2950    24.1040   -25.4640 
   64.2500     2.1050    69.3400     6.7470     6.3180     7.3830    24.1030   -26.1640 
   64.3750     2.0870    70.0960     6.7500     6.3640     7.2340    24.0930   -26.8050 
   64.5000     2.0830    72.1230     6.7550     6.3800     7.1520    24.0560   -27.4310 
   64.6250     2.0860    71.0490     6.8250     6.3520     7.1850    24.0400   -28.0430 
   64.7500     2.0920    67.4680     6.9360     6.2970     7.2660    24.0960   -28.6240 
   64.8750     2.1020    65.4280     7.0490     6.2600     7.2880    24.1640   -29.0540 
