~V
VERS. 2.00: Ver 2.00
~W
STRT.M 50.0000:
STOP.M 228.0000:
STEP.M 0.1250:
NULL. -999.2500:
UWI. F10779:
~C
DEPT.M :
GR.API :
RML.OHMM :
RI. :
RXO.OHMM :
CALI.CM :
SP.MV :
DEN.GM/CC :
~A
   50.0000    41.6600     6.6810     1.1410     3.6950    25.6670    73.6370     2.6650 
   50.1250    43.4060     6.7710     1.1490     3.9020    25.6670    73.0550     2.6620 
   50.2500    43.3430     6.6310     1.1730     4.0070    25.6670    72.6140     2.6450 
   50.3750    41.8670     6.1840     1.2100     4.6260    25.6670    72.2930     2.6080 
   50.5000    40.0500     5.6090     1.2540     5.0050    25.6670    72.0680     2.5560 
   50.6250    38.4870     5.3590     1.2930     5.4530    25.6670    71.9230     2.4990 
   50.7500    37.8420     5.5460     1.3200     6.0920    25.6670    71.8440     2.4510 
   50.8750    38.6440     6.0200     1.3300     6.8020    25.6670    71.8560     2.4170 
   51.0000    39.0550     6.5150     1.3250     7.0870    25.6670    72.0080     2.3890 
   51.1250    37.0560     6.8080     1.3160     6.2610    25.6670    72.3310     2.3600 
   51.2500    34.6400     7.1010     1.3150     3.9880    25.6670    72.8280     2.3510 
   51.3750    32.4520     7.6310     1.3250     2.1520    25.6670    73.5070     2.4060 
   51.5000    30.9400     8.3210     1.3450     1.6980    25.6670    74.3350     2.5420 
   51.6250    31.2720     8.4190     1.3710     1.6890    25.6670    75.2850     2.6840 
   51.7500    32.6820     7.6490     1.3890     1.5960    25.6670    76.2320     2.7440 
   51.8750    33.6030     6.7040     1.3850     1.2540    25.6670    77.0950     2.7170 
   52.0000    33.4480     6.1770     1.3520     0.8760    25.6670    77.8140     2.6480 
   52.1250    34.2910     6.1460     1.2920     0.8670    25.6670    78.3410     2.5900 
   52.2500    36.5750     6.2510     1.2310     0.8990    25.6670    78.7590     2.5670 
   52.3750    38.0180     6.2420     1.1910     0.9100    25.6670    79.0990     2.5780 
   52.5000    38.2110     6.0610     1.1870     0.9000    25.6670    79.3920     2.6140 
   52.6250    38.9550     5.8390     1.2230     0.8360    25.6670    79.6490     2.6640 
   52.7500    41.2590     5.7010     1.2730     0.7800    25.6670    79.8500     2.7050 
   52.8750    45.0150     5.6710     1.3140     0.8020    25.6670    80.0100     2.7120 
   53.0000    49.4050     5.7430     1.3240     0.8320    25.6670    80.1460     2.6730 
   53.1250    52.0390     5.9490     1.2870     0.7900    25.6670    80.2700     2.6020 
   53.2500    51.1620     6.2810     1.2230     0.7320    25.6670    80.3990     2.5330 
   53.3750    48.3490     6.7140     1.1530     0.7160    25.6670    80.5640     2.4840 
   53.5000    46.7140     7.1500     1.0970     0.7400    25.6670    80.8340     2.4560 
   53.6250    46.2300     7.3480     1.0670     0.7520    25.6670    81.3160     2.4480 
   53.7500    44.5090     7.2540     1.0530     0.8040    25.6670    82.0150     2.4470 
   53.8750    42.7710     6.9640     1.0480     0.8260    25.6670    82.8840     2.4540 
   54.0000    41.7410     6.5530     1.0420     0.7800    25.6670    83.8630     2.4700 
   54.1250    41.4290     6.0750     1.0370     0.7840    25.6670    84.9130     2.4950 
   54.2500    42.6170     5.5740     1.0360     0.8500    25.6670    85.9720     2.5160 
   54.3750    44.6060     5.0470     1.0380     0.8420    25.6670    86.9930     2.5260 
   54.5000    45.2410     4.5370     1.0400     0.7440    25.6670    87.9110     2.5230 
   54.6250    43.7960     4.1740     1.0390     0.7730    25.6670    88.6210     2.5120 
   54.7500    41.9430     3.9570     1.0400     0.8870    25.6670    89.0890     2.4990 
   54.8750    39.5170     3.8340     1.0500     0.9420    25.6670    89.2800     2.4850 
   55.0000    37.6680     3.8050     1.0730     0.9380    25.6670    89.1350     2.4740 
   55.1250    39.9500     3.9030     1.1070     0.8920    25.6670    88.5580     2.4670 
   55.2500    42.6460     4.0850     1.1410     0.8920    25.6670    87.5940     2.4610 
   55.3750    42.9120     4.3310     1.1590     0.9650    25.6670    86.2780     2.4470 
   55.5000    42.0050     4.5700     1.1500     1.0600    25.6670    84.6640     2.4160 
   55.6250    41.7670     4.6650     1.1150     1.0320    25.6670    82.8960     2.3610 
   55.7500    40.6780     4.7010     1.0720     0.9760    25.6670    81.1650     2.2950 
   55.8750    37.7600     4.8260     1.0380     0.9920    25.6670    79.6410     2.2380 
   56.0000    35.1080     5.0410     1.0210     1.1120    25.6670    78.4640     2.2110 
   56.1250    34.5830     5.0980     1.0300     1.2020    25.6670    77.8170     2.2370 
   56.2500    34.2480     4.8740     1.0600     1.1850    25.6670    77.6400     2.2990 
   56.3750    32.6110     4.5560     1.1020     1.1470    25.6670    77.8770     2.3800 
   56.5000    30.3730     4.4780     1.1500     1.1420    25.6670    78.4430     2.4600 
   56.6250    31.2080     4.9230     1.1960     1.1250    25.6670    79.2160     2.5210 
   56.7500    34.2530     5.6580     1.2420     1.1120    25.6670    80.0460     2.5600 
   56.8750    37.1670     6.0430     1.2880     1.0980    25.6670    80.8410     2.5800 
   57.0000    38.4160     5.5840     1.3330     1.0290    25.6670    81.5120     2.5810 
   57.1250    37.4050     4.8320     1.3650     0.9480    25.6670    81.9040     2.5510 
   57.2500    36.7300     4.4990     1.3730     0.9600    25.6670    81.9960     2.4960 
   57.3750    37.3930     4.6230     1.3550     1.0050    25.6670    81.8130     2.4300 
   57.5000    37.1590     5.0550     1.3160     1.0350    25.6670    81.4110     2.3760 
   57.6250    35.2090     5.5670     1.2710     1.0420    25.6670    80.8540     2.3600 
   57.7500    34.5850     5.9790     1.2340     1.0960    25.6670    80.2590     2.3760 
   57.8750    36.4670     6.1040     1.2170     1.1340    25.6670    79.6720     2.4050 
   58.0000    38.5110     5.6560     1.2260     1.1170    25.6670    79.1060     2.4300 
   58.1250    39.0630     4.9170     1.2460     1.1310    25.6670    78.5790     2.4390 
   58.2500    38.9070     4.6850     1.2590     1.2000    25.6670    78.0230     2.4430 
   58.3750    38.4170     5.4660     1.2600     1.3030    25.6670    77.3560     2.4500 
   58.5000    37.2380     8.0440     1.2540     1.4130    25.6670    76.4550     2.4670 
   58.6250    36.3300    16.8620     1.2530     1.4490    25.6670    75.1980     2.5010 
   58.7500    36.0310    50.7290     1.2560     1.5150    25.6670    73.5060     2.5460 
   58.8750    36.2380   189.8590     1.2420     1.6050    25.6670    71.2520     2.6020 
   59.0000    37.4310   100.5680     1.1590     1.7710    25.6670    68.2460     2.6590 
   59.1250    38.7490    22.6530     0.9390     2.0440    25.6670    64.1430     2.6990 
   59.2500    38.2530     6.3880     0.6500     2.5260    25.6670    58.9460     2.7140 
   59.3750    37.5150     1.9930     0.3920     3.3400    25.6670    52.6560     2.7020 
   59.5000    39.7580     0.6370     0.2130     4.1870    25.6670    45.3550     2.6750 
   59.6250    44.0110     0.2880     0.1230     3.5520    25.6670    37.2000     2.6320 
   59.7500    45.7080     0.2040     0.0960     2.7130    25.6670    28.8150     2.5480 
   59.8750    47.0690     0.2450     0.1340     2.7690    25.6670    20.7330     2.4100 
   60.0000    51.6950     0.3980     0.2600     4.1500    25.6670    13.4080     2.2430 
   60.1250    55.5610     0.7520     0.5700     4.9820    25.6680     7.3640     2.0850 
   60.2500    54.1390     1.3600     1.1500     5.4090    25.6680     2.5480     1.9610 
   60.3750    50.2330     2.2790     2.1030     5.9090    25.6320    -1.0750     1.8820 
   60.5000    48.0400     3.4690     3.4380     6.5430    25.6020    -3.6570     1.8550 
   60.6250    48.3920     4.7540     5.0060     7.0510    25.5430    -5.3320     1.8790 
   60.7500    49.9530     5.9330     6.5120     7.6580    25.4970    -6.5950     1.9330 
   60.8750    52.1720     6.9440     7.8140     8.6390    25.3730    -7.6400     2.0070 
   61.0000    53.4140     7.7630     8.8540     9.9300    25.1530    -8.5620     2.0870 
   61.1250    52.3720     8.3120     9.5720    10.3770    24.8540    -9.3390     2.1460 
