~V
VERS. 2.00: Ver 2.00
~W
STRT.M 59.0000:
STOP.M 239.0000:
STEP.M 0.1250:
NULL. -999.2500:
UWI. F10784:
~C
DEPT.M :
DEN.GM/CC :
GR.API :
RML.OHMM :
RI. :
RXO.OHMM :
CALI.CM :
SP.MV :
~A
# ...
  160.2500     2.4540    79.6220    11.5370    12.6240    12.3090    24.8490   -15.9790 
  160.3750     2.3960    83.4910     9.5890    10.1020     7.0420    24.8490   -16.0340 
  160.5000     2.3610    83.0300     9.5230     9.3280     5.9140    24.8490   -16.0980 
  160.6250     2.3550    80.0280    11.3740    10.4130     7.7590    24.8510   -16.1940 
  160.7500     2.3620    75.1340    14.6720    13.0800    12.5980    24.8750   -16.3120 
  160.8750     2.3690    68.5650    19.0300    17.2060    20.3820    24.9550   -16.4250 
  161.0000     2.3760    63.5580    23.6810    22.2250    26.4550    25.0980   -16.5450 
  161.1250     2.3870    62.9630    27.3710    26.8600    24.6340    25.1730   -16.6490 
  161.2500     2.4100    63.2980    29.4400    29.9640    20.8070    25.2010   -16.7370 
  161.3750     2.4420    61.8960    29.7490    31.0560    20.2280    25.2020   -16.7940 
  161.5000     2.4730    57.8580    28.5570    30.2500    24.3870    25.2000   -16.8140 
  161.6250     2.4880    53.4420    26.2550    27.9040    28.3280    25.1980   -16.7870 
  161.7500     2.4920    51.5900    23.6920    25.0230    28.0450    25.2150   -16.7560 
  161.8750     2.4960    53.3880    21.5500    22.3350    23.2650    25.2630   -16.7490 
  162.0000     2.5150    57.0320    20.4530    20.4780    18.1660    25.3470   -16.7420 
  162.1250     2.5490    60.5870    21.0770    20.1300    16.6520    25.3880   -16.7220 
  162.2500     2.5770    61.9110    23.1990    21.2460    21.6970    25.4040   -16.6840 
  162.3750     2.5810    59.7490    26.4580    23.7000    26.6360    25.4060   -16.6420 
  162.5000     2.5580    56.4400    30.1870    27.0650    29.9190    25.4050   -16.6140 
  162.6250     2.5200    56.2580    33.3310    30.4580    29.5900    25.3990   -16.6180 
  162.7500     2.4890    57.4520    35.1750    32.8930    28.9170    25.3240   -16.6270 
  162.8750     2.4700    57.5220    35.5190    33.8870    29.9460    25.1180   -16.6230 
  163.0000     2.4590    55.3140    34.7010    33.5520    30.6310    24.8520   -16.6150 
  163.1250     2.4480    53.6940    33.3980    32.4290    30.0030    24.7320   -16.6200 
  163.2500     2.4410    54.9310    32.3860    31.3450    27.8510    24.7030   -16.6520 
  163.3750     2.4410    58.2820    32.0530    30.7320    23.6280    24.7020   -16.7210 
  163.5000     2.4500    60.7930    32.5500    30.8130    23.1070    24.7020   -16.8050 
  163.6250     2.4630    60.7040    33.8910    31.7210    28.6870    24.6910   -16.8790 
  163.7500     2.4690    59.3210    35.6300    33.1360    33.4750    24.6570   -16.9370 
  163.8750     2.4690    57.8610    37.3840    34.7470    31.6930    24.5920   -16.9720 
  164.0000     2.4610    56.5060    38.7850    36.2040    28.2770    24.4900   -16.9710 
  164.1250     2.4500    54.1600    39.4380    37.0900    27.7350    24.4000   -16.9500 
  164.2500     2.4390    51.2810    39.3630    37.3140    30.8140    24.3650   -16.9410 
  164.3750     2.4300    50.0530    38.6630    36.9000    32.3530    24.3600   -16.9230 
  164.5000     2.4290    50.9980    37.5640    36.0050    32.8930    24.3630   -16.8870 
  164.6250     2.4390    52.6210    36.4100    34.9010    28.2430    24.3640   -16.7890 
  164.7500     2.4530    53.9290    35.5780    33.9690    26.0840    24.3610   -16.6760 
  164.8750     2.4640    55.9930    35.3150    33.4780    25.5480    24.3600   -16.5730 
  165.0000     2.4710    58.7680    35.7200    33.5850    25.6280    24.3700   -16.4970 
  165.1250     2.4790    61.1910    36.7800    34.3590    27.5500    24.4220   -16.4860 
  165.2500     2.4940    62.1260    38.1220    35.4900    29.7670    24.5090   -16.5000 
  165.3750     2.5110    59.7410    39.4540    36.7100    31.3310    24.6220   -16.5050 
  165.5000     2.5230    55.6760    40.5690    37.7870    34.0300    24.7140   -16.4730 
  165.6250     2.5240    53.7460    41.3740    38.5730    35.1110    24.7990   -16.4900 
  165.7500     2.5220    55.2730    42.0560    39.1860    34.1310    24.8320   -16.5200 
  165.8750     2.5250    57.4750    42.8140    39.7960    33.0170    24.8400   -16.5580 
  166.0000     2.5360    58.2230    43.7910    40.5640    34.0130    24.8400   -16.5660 
  166.1250     2.5530    59.0320    44.9710    41.5570    33.5970    24.8400   -16.5100 
  166.2500     2.5740    60.5510    46.0160    42.5340    32.7740    24.8400   -16.3800 
  166.3750     2.5960    61.1350    46.4890    43.1230    35.9390    24.8400   -16.2550 
  166.5000     2.6150    59.4590    45.9740    42.9140    42.0440    24.8400   -16.1520 
  166.6250     2.6200    57.6270    44.1100    41.4850    42.3520    24.8400   -16.0790 
  166.7500     2.6050    57.6540    41.3630    39.1600    40.4280    24.8400   -15.9930 
  166.8750     2.5710    58.9320    38.2650    36.3740    35.1270    24.8400   -15.8990 
  167.0000     2.5310    60.4140    35.3900    33.6500    30.9940    24.8400   -15.7920 
  167.1250     2.5050    60.0250    33.3460    31.5630    28.0430    24.8400   -15.6900 
  167.2500     2.4960    57.9590    32.2380    30.2880    27.1720    24.8400   -15.5880 
  167.3750     2.5040    55.0620    32.0320    29.8570    27.1000    24.8400   -15.4910 
  167.5000     2.5240    52.6380    32.5330    30.1540    25.5150    24.8400   -15.3780 
  167.6250     2.5510    51.5380    33.4370    30.9730    26.9870    24.8400   -15.2350 
  167.7500     2.5760    52.1520    34.2520    31.8630    29.5270    24.8400   -15.0740 
  167.8750     2.5920    55.2260    34.6220    32.4670    30.6200    24.8400   -14.9170 
  168.0000     2.5930    58.4340    34.2980    32.4900    29.6040    24.8400   -14.7750 
  168.1250     2.5780    59.1240    33.0880    31.6580    29.1980    24.8400   -14.6550 
  168.2500     2.5560    58.1990    31.2730    30.1660    29.5260    24.8400   -14.5530 
  168.3750     2.5350    58.1960    29.1140    28.2330    27.9100    24.8400   -14.4510 
  168.5000     2.5190    58.9790    26.9010    26.1360    24.6810    24.8400   -14.3490 
  168.6250     2.5080    58.3380    24.9830    24.2100    20.8630    24.8400   -14.2410 
  168.7500     2.4960    58.4880    23.5450    22.6730    19.1880    24.8400   -14.1390 
  168.8750     2.4870    60.0390    22.6940    21.6440    18.5830    24.8400   -14.0320 
  169.0000     2.4840    60.9530    22.4350    21.1540    17.6510    24.8220   -13.9470 
  169.1250     2.4890    58.5710    22.7350    21.2060    18.2880    24.7490   -13.8420 
  169.2500     2.4980    55.2210    23.3190    21.5750    20.5590    24.6190   -13.7150 
  169.3750     2.5070    53.1180    23.9820    22.0920    23.6930    24.5000   -13.5710 
  169.5000     2.5170    53.2270    24.5430    22.5860    24.3440    24.4200   -13.4530 
  169.6250     2.5300    56.5050    24.8610    22.8960    21.9270    24.3600   -13.3730 
  169.7500     2.5480    59.7540    24.9900    23.0260    21.2900    24.2950   -13.3590 
  169.8750     2.5650    60.8000    25.0270    23.0460    23.1200    24.2560   -13.3730 
  170.0000     2.5790    61.2830    25.0770    23.0570    23.4510    24.2420   -13.4050 
  170.1250     2.5860    62.1850    25.2100    23.1410    21.3500    24.2420   -13.4640 
  170.2500     2.5890    61.2750    25.3990    23.2940    21.6870    24.2390   -13.5430 
  170.3750     2.5900    57.5190    25.5750    23.4660    22.6150    24.2430   -13.6040 
  170.5000     2.5950    54.3720    25.6280    23.5720    22.2410    24.2440   -13.6380 
  170.6250     2.6080    55.4210    25.3230    23.4100    20.7300    24.2290   -13.6310 
  170.7500     2.6260    58.0020    24.5290    22.8320    19.0790    24.2060   -13.5870 
  170.8750     2.6440    60.5150    23.1920    21.7450    18.1680    24.2140   -13.5240 
  171.0000     2.6530    62.4380    21.4200    20.2060    17.8010    24.2880   -13.4620 
  171.1250     2.6450    62.3630    19.4680    18.4150    16.0750    24.4820   -13.4000 
  171.2500     2.6280    59.5440    17.6610    16.6890    14.3450    24.6860   -13.3340 
  171.3750     2.6110    56.1710    16.1660    15.2110    13.6850    24.8050   -13.2960 
