~V
VERS. 2.00: Ver 2.00
~W
STRT.M 50.0000:
STOP.M 226.0000:
STEP.M 0.1250:
NULL. -999.2500:
UWI. F10778:
~C
DEPT.M :
DEN.GM/CC :
GR.API :
RML.OHMM :
RI. :
RXO.OHMM :
CALI.CM :
SP.MV :
~A
# ...
  106.2500     2.1840    79.8320     8.8710     7.6890     6.8140    24.1120   -13.2810 
  106.3750     2.1710    76.6250     9.4620     8.1940     6.7260    24.0530   -13.0040 
  106.5000     2.1660    79.5310    10.0610     8.7560     7.1280    24.0460   -12.7020 
  106.6250     2.1690    81.9670    10.4700     9.2050     7.4050    24.0830   -12.3380 
  106.7500     2.1790    80.9250    10.5750     9.4040     7.5060    24.1240   -11.9710 
  106.8750     2.1920    79.4600    10.3530     9.2880     7.5200    24.1580   -11.6770 
  107.0000     2.2060    77.4870     9.8960     8.9030     7.5870    24.2340   -11.4410 
  107.1250     2.2140    76.6640     9.4250     8.4080     7.5740    24.4160   -11.2180 
  107.2500     2.2210    81.6630     9.1980     8.0380     7.3450    24.5890   -10.9870 
  107.3750     2.2320    89.8830     9.4040     7.9600     7.0350    24.6720   -10.7320 
  107.5000     2.2460    93.2350    10.1980     8.3060     6.7590    24.6540   -10.4350 
  107.6250     2.2530    87.5870    11.8820     9.3160     7.4870    24.5320   -10.1030 
  107.7500     2.2520    80.7050    14.5410    11.0860     8.2810    24.3120    -9.6890 
  107.8750     2.2580    75.1990    18.3710    13.8490     9.0620    24.1120    -9.2140 
  108.0000     2.2980    69.4450    23.4500    17.8250    10.6740    24.0140    -8.7220 
  108.1250     2.3920    62.9350    29.5070    23.0920    16.3960    23.9800    -8.2130 
  108.2500     2.5080    56.9160    35.1500    28.5650    30.5920    23.9360    -7.7100 
  108.3750     2.6010    53.2050    38.7260    32.7510    51.1060    23.8910    -7.2200 
  108.5000     2.6240    54.4400    38.9370    34.2060    55.0960    23.8670    -6.7530 
  108.6250     2.5520    60.5490    35.4240    32.0930    36.6600    23.8640    -6.2560 
  108.7500     2.4270    65.3270    30.4660    28.1730    21.2300    23.9470    -5.7620 
  108.8750     2.2930    66.2680    25.8110    24.0380    14.8670    24.2090    -5.2860 
  109.0000     2.1860    65.7430    22.4460    20.7650    12.7760    24.4810    -4.8440 
  109.1250     2.1290    67.2010    20.6840    18.8530    11.6290    24.6020    -4.4740 
  109.2500     2.1060    68.7890    19.8820    17.8760    11.0910    24.6050    -4.1890 
  109.3750     2.1010    67.5100    19.6270    17.5150    11.0900    24.5850    -4.0370 
  109.5000     2.1040    63.9420    19.5970    17.4790    10.7370    24.5680    -3.9850 
  109.6250     2.1130    61.5840    19.5870    17.5580    10.4230    24.5480    -4.0090 
  109.7500     2.1260    62.2130    19.5250    17.6180    10.2410    24.5240    -4.1300 
  109.8750     2.1430    64.8080    19.4240    17.6380    10.1460    24.5160    -4.3280 
  110.0000     2.1580    67.3270    19.3110    17.6240     9.9890    24.5210    -4.5180 
  110.1250     2.1660    68.4230    19.2050    17.5840     9.8750    24.5090    -4.6710 
  110.2500     2.1660    68.1160    19.1040    17.5220     9.9590    24.4970    -4.8300 
  110.3750     2.1610    67.6790    19.0060    17.4330    10.0580    24.4400    -5.0120 
  110.5000     2.1550    67.6500    18.9150    17.3220    10.0520    24.2980    -5.2160 
  110.6250     2.1520    67.8160    18.8510    17.2150     9.8400    24.0930    -5.4500 
  110.7500     2.1530    68.3610    18.8340    17.1530     9.7530    24.0390    -5.6990 
  110.8750     2.1530    68.3970    18.8840    17.1690     9.7800    24.0630    -5.9160 
  111.0000     2.1500    68.0840    19.0180    17.2890     9.9000    24.0920    -6.0780 
  111.1250     2.1420    69.6730    19.2450    17.5310     9.9160    24.0290    -6.2470 
  111.2500     2.1310    71.7640    19.5190    17.8500     9.8710    23.9010    -6.4910 
  111.3750     2.1230    71.0340    19.7850    18.1980     9.8660    23.8290    -6.7170 
  111.5000     2.1210    66.9150    19.9670    18.5050     9.9480    23.9030    -6.8800 
  111.6250     2.1250    63.9050    19.9300    18.6410    10.0440    24.1140    -7.0360 
  111.7500     2.1300    63.3230    19.6110    18.5220    10.0730    24.3240    -7.2190 
  111.8750     2.1320    65.0990    18.9730    18.0860    10.0400    24.4180    -7.4720 
  112.0000     2.1300    68.1260    18.0490    17.3390     9.8960    24.4270    -7.8150 
  112.1250     2.1300    71.0930    16.9370    16.3480     9.6100    24.4040    -8.1850 
  112.2500     2.1360    72.7840    15.8380    15.3040     9.1560    24.3930    -8.5270 
  112.3750     2.1480    74.3780    14.9060    14.3530     8.6100    24.4660    -8.8240 
  112.5000     2.1610    77.2410    14.2670    13.6230     8.2470    24.4960    -9.0010 
  112.6250     2.1680    80.3800    14.0870    13.2830     8.1040    24.3510    -9.0290 
  112.7500     2.1670    81.3460    14.3550    13.3520     8.0860    24.0900    -8.9230 
  112.8750     2.1610    80.9900    15.0730    13.8560     8.1530    23.8780    -8.6150 
  113.0000     2.1560    80.4130    16.1840    14.7770     8.4300    23.8380    -8.0940 
  113.1250     2.1570    79.2770    17.5770    16.0580     9.3070    23.9560    -7.4230 
  113.2500     2.1610    76.8530    18.9810    17.4490    10.0600    24.1360    -6.7180 
  113.3750     2.1670    74.3690    20.1860    18.7320    10.5430    24.2810    -6.0320 
  113.5000     2.1690    72.3610    21.0540    19.7250    10.5470    24.2230    -5.4160 
  113.6250     2.1670    70.8310    21.5420    20.3040    10.6010    24.0100    -4.9220 
  113.7500     2.1580    70.3780    21.9150    20.6450    10.4780    23.8410    -4.5870 
  113.8750     2.1430    71.0410    22.5160    21.0040    10.3930    23.7950    -4.4260 
  114.0000     2.1240    71.4450    23.7770    21.7530    10.5550    23.7890    -4.4540 
  114.1250     2.1160    70.9080    26.2350    23.4780    11.3320    23.7330    -4.7200 
  114.2500     2.1410    67.9530    29.5220    26.1570    12.4900    23.6230    -5.1470 
  114.3750     2.2180    61.9180    32.6000    29.1370    14.4860    23.6030    -5.6990 
  114.5000     2.3420    56.9170    33.8150    30.9900    20.3210    23.7000    -6.3840 
  114.6250     2.4700    58.5370    31.2770    29.6930    43.6540    23.8980    -7.1960 
  114.7500     2.5460    64.2020    26.0080    25.6330    55.5310    24.0920    -8.0240 
  114.8750     2.5410    70.9570    19.8470    20.2630    30.0610    24.1560    -8.8740 
  115.0000     2.4660    78.1100    14.6080    15.3050    11.8770    24.0760    -9.7000 
  115.1250     2.3620    84.6910    11.4030    11.9780     8.1670    24.1920   -10.4180 
  115.2500     2.2820    86.9400     9.6800    10.0020     7.4430    24.5510   -11.0470 
  115.3750     2.2420    84.5390     8.8960     8.9760     7.7210    25.0050   -11.6080 
  115.5000     2.2310    81.4660     8.5800     8.5070     7.8260    25.3780   -12.0640 
  115.6250     2.2320    80.9570     8.4030     8.2940     7.6110    25.6160   -12.3740 
  115.7500     2.2320    80.3950     8.2000     8.1120     7.3590    25.6740   -12.6020 
  115.8750     2.2330    80.0040     8.0170     7.9460     7.3250    25.5230   -12.6970 
  116.0000     2.2370    83.0580     7.9920     7.8900     7.2280    25.2030   -12.7310 
  116.1250     2.2420    88.6300     8.3310     8.1330     6.9080    24.8470   -12.7150 
  116.2500     2.2380    89.2430     9.0180     8.7090     6.9690    24.4470   -12.5370 
  116.3750     2.2200    86.2230     9.9180     9.5410     8.0270    24.0730   -12.2030 
  116.5000     2.1950    83.9770    10.7510    10.3960     9.1330    23.8880   -11.8730 
  116.6250     2.1810    82.0240    11.0950    10.8490     9.1680    23.8710   -11.6850 
  116.7500     2.1870    79.2100    10.8560    10.7240     8.7380    23.9490   -11.6080 
  116.8750     2.2090    78.4540    10.1760    10.0960     8.1560    24.1360   -11.6410 
  117.0000     2.2360    80.4310     9.3770     9.2580     7.2370    24.4590   -11.7340 
  117.1250     2.2490    83.0360     8.8430     8.5900     7.2710    24.8400   -11.8950 
  117.2500     2.2490    86.4340     8.6700     8.2470     7.5350    25.2450   -12.1320 
  117.3750     2.2440    89.0430     8.7810     8.2010     7.8800    25.4130   -12.3870 
