~V
VERS. 2.00: Ver 2.00
~W
STRT.M 20.0000:
STOP.M 266.0000:
STEP.M 0.1250:
NULL. -999.2500:
UWI. F10773:
~C
DEPT.M :
DEN.GM/CC :
GR.API :
RML.OHMM :
RI. :
RXO.OHMM :
CALI.CM :
SP.MV :
~A
# ...
  200.0000     2.3590    65.7950    15.6570    13.6900    14.8170    24.7600    -5.3730 
  200.1250     2.3350    66.8570    16.3920    14.0600    15.0860    24.7820    -5.3730 
  200.2500     2.3090    64.9670    17.1990    14.7150    15.3970    24.7830    -5.4700 
  200.3750     2.2870    63.0960    18.1070    15.6140    16.2010    24.7870    -5.6780 
  200.5000     2.2710    63.1510    19.2090    16.7180    17.5220    24.8040    -5.9220 
  200.6250     2.2610    62.7000    20.6270    18.0070    19.4020    24.8000    -6.0640 
  200.7500     2.2530    60.0450    22.2290    19.3660    21.3050    24.7960    -6.1660 
  200.8750     2.2470    57.9110    23.7740    20.6610    22.9900    24.7900    -6.2680 
  201.0000     2.2430    59.6520    24.9260    21.7350    24.4400    24.7990    -6.3490 
  201.1250     2.2420    60.8390    25.2360    22.3740    24.9650    24.8590    -6.4150 
  201.2500     2.2390    59.1280    24.8800    22.5800    24.5570    24.8550    -6.4590 
  201.3750     2.2350    57.6740    24.2210    22.3980    23.8910    24.7930    -6.4670 
  201.5000     2.2290    57.3650    23.5790    21.9570    23.9210    24.7530    -6.4710 
  201.6250     2.2200    56.6720    23.0890    21.4740    23.2500    24.7600    -6.5570 
  201.7500     2.2120    56.0720    22.7730    21.1620    22.1250    24.7660    -6.6940 
  201.8750     2.2060    57.5010    22.7240    21.1180    21.0490    24.7510    -6.8820 
  202.0000     2.2020    60.2510    22.9380    21.3220    21.0540    24.7150    -7.0880 
  202.1250     2.2010    60.7330    23.2920    21.6590    21.9770    24.6480    -7.2530 
  202.2500     2.2020    58.8780    23.5960    21.9480    22.5980    24.5090    -7.4080 
  202.3750     2.2050    56.9850    23.7550    22.1000    22.5710    24.3120    -7.5550 
  202.5000     2.2080    57.3750    23.7660    22.1110    22.0400    24.1280    -7.6370 
  202.6250     2.2140    59.0660    23.6830    22.0310    21.1050    23.9850    -7.6620 
  202.7500     2.2230    59.8220    23.5420    21.8970    20.0550    23.8860    -7.6980 
  202.8750     2.2340    60.2850    23.2220    21.5920    19.1040    23.8360    -7.7530 
  203.0000     2.2440    61.8140    22.4650    20.8700    18.8440    23.8170    -7.8390 
  203.1250     2.2520    64.1550    20.8870    19.3670    18.2000    23.7760    -7.9300 
  203.2500     2.2620    66.5150    18.6350    17.2200    17.3690    23.7390    -7.9700 
  203.3750     2.2790    67.7410    16.0500    14.7560    15.0770    23.7050    -7.9770 
  203.5000     2.3050    67.6110    13.5890    12.4110    11.2950    23.6590    -8.0160 
  203.6250     2.3330    67.5430    11.7090    10.6180     8.1640    23.6260    -8.0350 
  203.7500     2.3520    69.0210    10.4250     9.3950     7.2550    23.6500    -7.9580 
  203.8750     2.3590    71.3050     9.6430     8.6490     7.1970    23.7220    -7.8430 
  204.0000     2.3600    73.4680     9.2040     8.2320     7.3640    23.8080    -7.7230 
  204.1250     2.3640    75.8130     8.9870     8.0250     7.3690    23.8560    -7.5840 
  204.2500     2.3750    77.3340     8.8620     7.9060     7.2010    23.8930    -7.4420 
  204.3750     2.3890    76.7810     8.7920     7.8390     6.9590    23.9430    -7.2950 
  204.5000     2.4010    74.7120     8.7670     7.8150     6.8300    24.0440    -7.1370 
  204.6250     2.4090    73.8520     8.7900     7.8360     6.9420    24.2120    -7.0480 
  204.7500     2.4160    74.8930     8.8330     7.8780     7.0350    24.3550    -7.0510 
  204.8750     2.4240    76.4950     8.8680     7.9110     7.0910    24.3990    -7.0820 
  205.0000     2.4340    77.1130     8.8710     7.9120     7.2190    24.3500    -7.1000 
  205.1250     2.4420    75.4980     8.8200     7.8650     7.4720    24.2490    -7.1120 
  205.2500     2.4480    73.9290     8.6990     7.7910     7.6480    24.2980    -7.1490 
  205.3750     2.4510    72.9390     8.5200     7.7110     7.7920    24.5340    -7.2040 
  205.5000     2.4550    71.3560     8.3530     7.6430     8.1070    24.7320    -7.2710 
  205.6250     2.4600    67.2900     8.3330     7.6140     8.1640    24.7600    -7.3500 
  205.7500     2.4710    63.5380     8.4950     7.6650     8.1590    24.7160    -7.4200 
  205.8750     2.4850    63.2890     8.7930     7.8370     8.6070    24.6940    -7.4170 
  206.0000     2.4990    65.9950     9.1210     8.1280     9.0520    24.6750    -7.3630 
  206.1250     2.5080    68.0090     9.3330     8.4450     9.3310    24.6360    -7.3110 
  206.2500     2.5110    69.3380     9.4010     8.6510     9.0340    24.5980    -7.2590 
  206.3750     2.5080    69.7880     9.3860     8.6830     8.3920    24.5700    -7.1890 
  206.5000     2.5020    69.5090     9.3830     8.5780     8.0860    24.5040    -7.1120 
  206.6250     2.4900    69.1510     9.4560     8.4410     8.5200    24.5570    -7.0620 
  206.7500     2.4740    70.0330     9.5660     8.3620     8.6960    24.6080    -7.1030 
  206.8750     2.4570    71.4450     9.6730     8.3580     8.9030    24.6790    -7.2630 
  207.0000     2.4440    71.3120     9.7920     8.4260     9.2730    24.7030    -7.4600 
  207.1250     2.4430    70.7250    10.0620     8.6160     9.7930    24.7010    -7.6390 
  207.2500     2.4490    70.5680    10.6310     9.0210    10.2230    24.7040    -7.7870 
  207.3750     2.4540    69.5010    11.6740     9.8050    10.6920    24.7530    -7.9070 
  207.5000     2.4430    67.0050    13.3960    11.1920    11.7970    24.7930    -8.0160 
  207.6250     2.4030    65.1030    16.2540    13.6160    16.2500    24.8150    -8.0860 
  207.7500     2.3490    63.1960    20.3300    17.1150    23.7650    24.8560    -8.0640 
  207.8750     2.3020    58.5320    25.5390    21.5790    28.2180    24.9030    -7.9840 
  208.0000     2.2850    51.6870    31.2800    26.5140    29.2550    24.7700    -7.9610 
  208.1250     2.3130    47.0560    36.2050    30.9230    32.2220    24.5630    -8.0490 
  208.2500     2.3620    45.7680    39.3370    34.0450    35.8700    24.3060    -8.2170 
  208.3750     2.4100    46.3670    40.4370    35.6130    36.2830    24.2330    -8.4580 
  208.5000     2.4400    48.4860    39.9250    35.8160    33.8800    24.3740    -8.7420 
  208.6250     2.4460    50.3150    38.4290    34.9920    31.4620    24.6000    -9.0390 
  208.7500     2.4360    50.8680    36.6720    33.7250    31.7500    24.6790    -9.3520 
  208.8750     2.4200    50.5810    34.8950    32.2440    32.3310    24.6910    -9.6970 
  209.0000     2.4050    50.3650    33.1460    30.6640    30.8270    24.6450   -10.0110 
  209.1250     2.3970    50.4540    31.4070    29.0590    27.6820    24.4000   -10.1900 
  209.2500     2.3960    50.7370    29.7630    27.5460    24.4370    23.9800   -10.2650 
  209.3750     2.3980    51.1830    28.4250    26.2640    21.8590    23.5920   -10.2750 
  209.5000     2.3940    51.8500    27.6220    25.3500    20.9130    23.3730   -10.2370 
  209.6250     2.3780    52.3430    27.5490    24.9870    21.8810    23.5290   -10.2020 
  209.7500     2.3530    52.9820    27.9710    25.1420    23.8490    23.7380   -10.1670 
  209.8750     2.3300    54.6210    28.6550    25.7870    26.5670    23.8970   -10.0910 
  210.0000     2.3170    57.4100    29.3810    26.8160    28.7820    23.9620    -9.9810 
  210.1250     2.3250    59.7890    30.0060    28.0440    29.8050    23.9640    -9.8700 
  210.2500     2.3430    59.9250    30.5300    29.2130    30.5880    23.9720    -9.7700 
  210.3750     2.3580    58.5010    30.9250    30.1480    31.5060    24.0120    -9.6800 
  210.5000     2.3560    56.6310    31.0120    30.6650    31.6650    24.0440    -9.6210 
  210.6250     2.3370    54.5360    30.2150    30.3220    30.0800    24.0460    -9.5570 
  210.7500     2.3150    53.3680    28.2000    28.8810    28.1630    24.0220    -9.4800 
  210.8750     2.3070    54.9820    24.9640    26.2500    27.7890    24.0000    -9.3860 
  211.0000     2.3200    58.9340    21.0290    22.7490    28.3860    23.9800    -9.2480 
  211.1250     2.3490    62.3100    17.3430    19.1190    24.4440    23.9580    -9.1170 
