~V
VERS. 2.00: Ver 2.00
~W
STRT.M 50.0000:
STOP.M 226.0000:
STEP.M 0.1250:
NULL. -999.2500:
UWI. F10778:
~C
DEPT.M :
DEN.GM/CC :
GR.API :
RML.OHMM :
RI. :
RXO.OHMM :
CALI.CM :
SP.MV :
~A
# ...
  185.0000     2.3190    60.8620    27.8690    22.8940    19.7450    22.7050   -10.1870 
  185.1250     2.3200    56.3600    28.0250    23.5730    18.0810    22.8470   -10.3220 
  185.2500     2.3190    55.6960    27.3730    23.3710    17.6420    23.0530   -10.4050 
  185.3750     2.3070    58.7320    26.4570    22.7450    18.3940    23.1340   -10.4870 
  185.5000     2.2850    62.5720    25.6770    22.0960    19.9890    23.0320   -10.5800 
  185.6250     2.2650    64.7650    25.2640    21.6890    21.2110    22.9070   -10.6170 
  185.7500     2.2520    65.9180    25.1490    21.5290    21.4920    22.8070   -10.6080 
  185.8750     2.2450    66.7930    25.2360    21.5610    21.9060    22.7650   -10.6080 
  186.0000     2.2430    67.4390    25.4130    21.6950    21.9950    22.8380   -10.6550 
  186.1250     2.2430    66.1230    25.5910    21.8490    21.4890    23.1250   -10.6660 
  186.2500     2.2450    63.3390    25.7590    21.9950    20.6200    23.5650   -10.6160 
  186.3750     2.2480    61.6410    25.9780    22.1710    20.9640    24.0120   -10.5570 
  186.5000     2.2490    61.6860    26.3440    22.4450    21.5180    24.3830   -10.4790 
  186.6250     2.2490    62.6230    27.0060    22.9330    21.5260    24.5560   -10.3380 
  186.7500     2.2530    62.3740    27.9780    23.6650    22.5020    24.7170   -10.2300 
  186.8750     2.2710    60.6280    29.2300    24.6420    24.5740    24.9520   -10.1410 
  187.0000     2.3040    58.6960    30.6560    25.8040    26.7410    25.1810    -9.9870 
  187.1250     2.3460    58.6130    32.0550    27.0210    28.7150    25.3300    -9.8490 
  187.2500     2.3790    60.4580    33.2220    28.1160    30.9040    25.3510    -9.8110 
  187.3750     2.3900    61.0070    34.0270    28.9630    31.5800    25.2610    -9.7590 
  187.5000     2.3760    60.0650    34.4420    29.5020    30.4580    25.0710    -9.6960 
  187.6250     2.3420    59.5460    34.4990    29.7100    29.6510    24.9630    -9.7410 
  187.7500     2.3070    59.7760    34.3900    29.7240    29.9690    24.9900    -9.7850 
  187.8750     2.2790    61.3330    34.2270    29.6340    29.8360    25.0700    -9.7840 
  188.0000     2.2610    63.0860    34.0760    29.5120    28.9920    25.1210    -9.8260 
  188.1250     2.2510    63.1900    33.9770    29.4060    27.7550    25.1650    -9.9060 
  188.2500     2.2470    61.6320    33.9390    29.3460    26.2000    25.2520    -9.9700 
  188.3750     2.2490    60.3760    33.9850    29.3660    25.1680    25.2010   -10.0530 
  188.5000     2.2540    60.6630    34.1310    29.5000    25.4360    24.9720   -10.1330 
  188.6250     2.2530    61.5440    34.3610    29.7680    26.5250    24.7190   -10.1320 
  188.7500     2.2400    63.0470    34.5800    30.0940    27.5060    24.5320   -10.0670 
  188.8750     2.2190    65.4060    34.7120    30.3930    27.5380    24.4210   -10.0430 
  189.0000     2.1990    66.2210    34.6340    30.5890    26.8480    24.3800   -10.0490 
  189.1250     2.1930    65.2830    34.4820    30.6250    26.9290    24.5780    -9.9960 
  189.2500     2.2010    64.8230    34.7870    30.5400    27.2200    24.7260    -9.9400 
  189.3750     2.2150    64.7870    35.5580    30.3740    26.7930    24.7020    -9.9620 
  189.5000     2.2260    64.3940    36.2160    30.1740    26.4580    24.5700   -10.0020 
  189.6250     2.2280    63.1570    36.2390    29.9970    25.6750    24.4370   -10.0680 
  189.7500     2.2230    63.3900    36.0510    29.9030    26.2760    24.4210   -10.2410 
  189.8750     2.2160    65.1420    36.0610    29.9390    26.7650    24.5590   -10.4140 
  190.0000     2.2140    65.9500    36.2630    30.1300    27.0780    24.7440   -10.5230 
  190.1250     2.2220    63.6500    36.5820    30.4720    28.1330    24.8460   -10.6900 
  190.2500     2.2380    61.1690    36.8720    30.8560    29.8730    24.8740   -10.8470 
  190.3750     2.2550    60.6080    37.0000    31.1680    31.0170    24.9050   -10.9270 
  190.5000     2.2670    61.4990    36.8700    31.3000    31.4720    24.9630   -11.0130 
  190.6250     2.2680    61.7980    36.4290    31.1580    30.2610    24.9280   -11.1300 
  190.7500     2.2590    62.5410    35.8260    30.8250    28.8830    24.7930   -11.2120 
  190.8750     2.2440    63.3710    35.2140    30.4170    28.0520    24.7890   -11.3270 
  191.0000     2.2260    62.3510    34.7400    30.0710    27.9770    25.0250   -11.4850 
  191.1250     2.2090    58.5160    34.5360    29.9320    27.8440    25.2870   -11.5590 
  191.2500     2.1960    55.1040    34.5550    30.0030    27.9330    25.3650   -11.5930 
  191.3750     2.1900    55.4280    34.7050    30.2370    28.2540    25.2330   -11.6590 
  191.5000     2.1890    59.3120    34.8520    30.5280    28.4630    25.0130   -11.7550 
  191.6250     2.1910    62.5320    34.8240    30.7140    28.8360    24.8050   -11.8000 
  191.7500     2.1930    62.9250    34.5740    30.7020    28.0310    24.6310   -11.8080 
  191.8750     2.1940    61.8460    34.1310    30.4830    27.9730    24.5280   -11.8030 
  192.0000     2.1990    61.8740    33.6020    30.1280    28.5770    24.5300   -11.7630 
  192.1250     2.2110    63.0880    33.1610    29.7820    28.4220    24.6030   -11.7090 
  192.2500     2.2260    62.9570    32.9200    29.5770    27.2250    24.5970   -11.7030 
  192.3750     2.2400    61.2010    32.9100    29.5670    27.2480    24.4820   -11.7020 
  192.5000     2.2430    59.6070    33.0960    29.7350    29.0200    24.4690   -11.6250 
  192.6250     2.2310    59.8370    33.4190    30.0310    29.4910    24.5470   -11.5630 
  192.7500     2.2160    60.0050    33.7960    30.3720    29.8490    24.7140   -11.5100 
  192.8750     2.2110    59.8860    34.2110    30.7390    29.7310    24.9550   -11.4200 
  193.0000     2.2200    61.4450    34.6690    31.1400    28.7970    25.1510   -11.3580 
  193.1250     2.2400    63.5460    35.1710    31.5990    28.9760    25.1060   -11.3530 
  193.2500     2.2540    64.0930    35.6640    32.0920    30.4680    24.9290   -11.2800 
  193.3750     2.2550    64.0810    36.0710    32.5670    31.7640    24.7750   -11.1430 
  193.5000     2.2460    63.7270    36.3150    32.9510    31.1150    24.7400   -11.0370 
  193.6250     2.2390    60.7280    36.3110    33.1480    30.3180    24.6680   -10.9160 
  193.7500     2.2390    57.6640    36.1240    33.1680    30.5630    24.4810   -10.8420 
  193.8750     2.2460    59.3220    35.8520    33.0600    31.3200    24.2300   -10.8550 
  194.0000     2.2540    65.5850    35.6340    32.9210    31.4340    24.0450   -10.8680 
  194.1250     2.2540    68.7900    35.6650    32.8970    30.5790    23.9530   -10.9030 
  194.2500     2.2440    66.3030    36.0080    33.0750    30.1790    23.9080   -11.0670 
  194.3750     2.2260    63.1560    36.6600    33.4810    30.7350    23.9100   -11.2850 
  194.5000     2.2060    63.0020    37.5040    34.0490    31.3290    24.0350   -11.4490 
  194.6250     2.1950    64.5700    38.2410    34.5630    31.8280    24.4070   -11.6510 
  194.7500     2.1980    64.7820    38.5390    34.7370    32.7760    24.8130   -11.8260 
  194.8750     2.2170    63.9010    38.1820    34.3610    32.5350    24.9930   -11.8950 
  195.0000     2.2440    63.3440    37.1940    33.4070    31.6900    24.8980   -11.9450 
  195.1250     2.2740    63.9380    35.9500    32.1230    29.3080    24.6070   -12.0850 
  195.2500     2.3000    67.0680    35.2010    31.1090    27.6110    24.2340   -12.2030 
  195.3750     2.3190    71.9320    35.6080    30.9160    27.2130    23.9520   -12.3120 
  195.5000     2.3310    74.5260    37.2700    32.0450    28.2010    23.8360   -12.5270 
  195.6250     2.3330    72.2170    40.3470    35.2180    33.6800    23.7670   -12.7410 
  195.7500     2.3250    68.0250    45.0820    40.2740    42.6560    23.6430   -12.9550 
  195.8750     2.3070    64.6990    51.6640    46.8280    51.7160    23.5600   -13.2700 
  196.0000     2.2840    64.1280    59.1570    53.9150    57.9530    23.5960   -13.5910 
  196.1250     2.2620    65.0930    65.3510    59.8480    62.6370    23.6210   -13.8020 
