~V
VERS. 2.00: Ver 2.00
~W
STRT.M 51.0000:
STOP.M 263.0000:
STEP.M 0.1250:
NULL. -999.2500:
UWI. F10758:
~C
DEPT.M :
DEN.GM/CC :
GR.API :
RML.OHMM :
RI. :
RXO.OHMM :
CALI.CM :
SP.MV :
~A
# ...
  141.0000     2.2690    66.5290    31.2490    27.3040    16.6540    22.5080   -12.1770 
  141.1250     2.1870    63.8900    29.2030    25.6730    18.3160    22.5510   -11.9360 
  141.2500     2.1300    63.0850    26.8480    23.6830    19.9560    22.6270   -11.7650 
  141.3750     2.1000    63.3530    24.5900    21.7710    18.9320    22.7480   -11.6810 
  141.5000     2.0910    62.4030    22.6650    20.1380    17.5510    22.8660   -11.6520 
  141.6250     2.0930    62.8040    21.3790    18.9630    19.2830    22.8750   -11.6950 
  141.7500     2.0980    64.6370    20.8260    18.3060    21.4340    22.9150   -11.7920 
  141.8750     2.1030    64.4210    21.0630    18.2500    20.0020    22.9380   -11.9360 
  142.0000     2.1060    62.4690    22.0510    18.8420    18.2930    22.9240   -12.1590 
  142.1250     2.1030    61.1280    23.6800    20.1390    19.1030    22.8940   -12.3850 
  142.2500     2.0970    58.7650    25.4370    21.7640    18.8920    22.9370   -12.6380 
  142.3750     2.0930    54.7720    26.7680    23.2280    16.3900    22.9210   -12.8910 
  142.5000     2.0970    53.2340    27.0930    23.9430    13.8000    22.8200   -13.1600 
  142.6250     2.1110    55.0690    25.8120    23.2500    12.4470    22.7310   -13.4280 
  142.7500     2.1280    55.5670    23.4080    21.4810    11.5500    22.7480   -13.6690 
  142.8750     2.1440    54.5000    20.5450    19.2410    10.9020    22.7960   -13.8600 
  143.0000     2.1530    54.5690    17.8980    17.1540    10.4350    22.8190   -13.9710 
  143.1250     2.1570    57.8120    16.0760    15.6570    10.1220    22.8730   -14.0370 
  143.2500     2.1590    63.5870    15.1800    14.7220    10.3080    22.8720   -14.0630 
  143.3750     2.1620    68.6280    15.1830    14.3050    11.3150    22.7970   -14.0940 
  143.5000     2.1650    68.2280    15.8880    14.3390    12.2190    22.6720   -14.1000 
  143.6250     2.1640    63.5420    17.0560    14.8170    11.3340    22.5850   -14.1160 
  143.7500     2.1550    61.2540    18.4270    15.6490     9.8280    22.3290   -14.0940 
  143.8750     2.1410    62.4320    19.9480    16.8070     9.1560    22.0210   -14.0610 
  144.0000     2.1270    65.2090    21.5200    18.1700     9.4890    21.8490   -14.0200 
  144.1250     2.1250    66.2410    22.7390    19.4000    10.7950    21.8710   -14.0200 
  144.2500     2.1390    64.7740    23.1810    20.0940    12.9270    22.0510   -14.0840 
  144.3750     2.1650    61.8210    22.6220    19.9810    14.9410    22.2540   -14.1670 
  144.5000     2.1970    60.6600    21.2450    19.0800    15.3580    22.5450   -14.2710 
  144.6250     2.2270    63.2790    19.6450    17.7550    11.8240    22.7370   -14.3320 
  144.7500     2.2500    64.0490    18.4590    16.5910    10.2710    22.7790   -14.3930 
  144.8750     2.2660    60.5530    17.8950    15.8540     9.7760    22.8100   -14.4310 
  145.0000     2.2710    55.4470    17.9240    15.6120     9.7020    22.8080   -14.4540 
  145.1250     2.2640    54.9350    18.4730    15.8820     9.8660    22.8030   -14.4080 
  145.2500     2.2460    58.2830    19.2890    16.4720    10.5230    22.8060   -14.2950 
  145.3750     2.2220    60.4260    20.1790    17.2330    11.3630    22.7790   -14.1590 
  145.5000     2.1960    59.3180    20.8930    17.9510    11.1760    22.7230   -14.0020 
  145.6250     2.1760    58.2500    21.0340    18.2730    11.2100    22.6790   -13.8510 
  145.7500     2.1630    60.4220    20.4900    18.0340    11.0970    22.6150   -13.7270 
  145.8750     2.1570    63.4220    19.3540    17.2420    10.6150    22.5260   -13.6540 
  146.0000     2.1570    63.9270    17.9630    16.1260     9.6930    22.3880   -13.5870 
  146.1250     2.1580    63.7170    16.8410    15.0690     8.7680    22.2120   -13.5620 
  146.2500     2.1560    67.1080    16.3180    14.3770     8.3450    22.0010   -13.5010 
  146.3750     2.1520    71.1410    16.5220    14.2030     8.5620    22.0610   -13.3760 
  146.5000     2.1460    69.9450    17.4120    14.5930     9.1430    22.3630   -13.1960 
  146.6250     2.1400    62.8790    18.8700    15.5630     9.8110    22.6910   -12.9110 
  146.7500     2.1300    57.7330    20.4880    16.8340    10.4540    22.7240   -12.5580 
  146.8750     2.1160    56.1650    21.9250    18.1280    10.9330    22.7570   -12.1460 
  147.0000     2.1020    56.7570    22.9170    19.1690    11.1730    22.7800   -11.7250 
  147.1250     2.0970    57.7960    23.3930    19.7440    11.2180    22.7790   -11.2780 
  147.2500     2.1070    58.2630    23.7590    20.0510    11.2720    22.7620   -10.8250 
  147.3750     2.1330    59.0470    24.3600    20.3590    11.8020    22.7690   -10.3860 
  147.5000     2.1660    60.4380    25.3920    20.9090    13.5500    22.7750    -9.9370 
  147.6250     2.1920    61.4460    26.8420    21.8390    16.3380    22.9070    -9.5420 
  147.7500     2.2000    60.3390    28.3450    22.9420    17.4770    22.9530    -9.1530 
  147.8750     2.1920    57.7550    29.5860    23.9670    17.5540    22.9720    -8.7730 
  148.0000     2.1740    55.7150    30.4240    24.7220    16.8320    22.9580    -8.3810 
  148.1250     2.1560    54.5720    31.0350    25.2240    15.2890    22.9770    -8.0050 
  148.2500     2.1430    55.5650    31.8760    25.8180    14.5740    23.0260    -7.6600 
  148.3750     2.1340    58.2830    33.2650    26.8010    16.1600    23.0530    -7.3520 
  148.5000     2.1280    60.4200    35.2750    28.3150    20.4260    23.1110    -7.0810 
  148.6250     2.1230    60.2940    37.5780    30.2720    24.7280    23.1590    -6.8780 
  148.7500     2.1190    59.5540    39.4580    32.1440    25.8770    23.1720    -6.7570 
  148.8750     2.1180    59.1140    40.3740    33.4280    25.3840    23.1050    -6.6820 
  149.0000     2.1170    57.5770    40.1280    33.8060    24.2470    22.9810    -6.6900 
  149.1250     2.1160    55.4500    38.8240    33.1980    22.9860    22.9900    -6.7330 
  149.2500     2.1140    54.9550    37.0720    32.0810    22.0030    23.0780    -6.8520 
  149.3750     2.1100    55.7270    35.2400    30.7670    21.0450    23.2000    -7.0070 
  149.5000     2.1050    55.4490    33.6250    29.5100    19.7620    23.2640    -7.1900 
  149.6250     2.0990    54.4470    32.5680    28.5930    18.0400    23.0730    -7.3990 
  149.7500     2.0930    55.1910    32.0250    28.0700    16.6340    22.8810    -7.6180 
  149.8750     2.0900    57.4800    31.7050    27.8030    15.3830    22.5660    -7.9050 
  150.0000     2.0910    59.8520    31.0770    27.4070    14.7630    22.2460    -8.2340 
  150.1250     2.0970    60.9440    29.3960    26.2230    15.8050    21.9310    -8.6780 
  150.2500     2.1070    62.0110    26.6710    24.1590    17.2440    21.7440    -9.1740 
  150.3750     2.1190    65.5640    23.3820    21.5790    16.3400    21.7600    -9.7480 
  150.5000     2.1330    70.8450    20.3070    19.1110    13.1630    22.0130   -10.3640 
  150.6250     2.1510    72.4290    18.3000    17.4070    10.8200    22.4960   -10.9780 
  150.7500     2.1740    70.4350    17.4470    16.5240    10.7640    22.6460   -11.5700 
  150.8750     2.2020    67.0370    17.5710    16.3510    12.9090    22.7850   -12.0750 
  151.0000     2.2250    63.8660    18.2620    16.6460    16.0330    22.9740   -12.5000 
  151.1250     2.2300    61.8230    18.9150    17.0630    17.0810    22.9060   -12.7680 
  151.2500     2.2150    60.5780    19.0900    17.2580    13.6520    22.7890   -12.9280 
  151.3750     2.1900    60.2240    18.7770    17.1360    11.2910    22.6980   -12.9550 
  151.5000     2.1660    60.6240    18.2710    16.8210    10.4270    22.6670   -12.9030 
  151.6250     2.1550    62.3430    18.0680    16.6280    10.4010    22.6370   -12.7450 
  151.7500     2.1560    64.6850    18.4390    16.8100    10.4080    22.7840   -12.5250 
  151.8750     2.1630    66.3030    19.4620    17.5120    10.7640    22.8360   -12.2550 
  152.0000     2.1730    66.3990    21.0410    18.7550    12.6570    22.7450   -11.9150 
  152.1250     2.1760    63.3300    22.9170    20.4440    17.3860    22.9200   -11.5680 
