~V
VERS. 2.00: Ver 2.00
~W
STRT.M 50.0000:
STOP.M 261.0000:
STEP.M 0.1250:
NULL. -999.2500:
UWI. F10772:
~C
DEPT.M :
GR.API :
RML.OHMM :
RI. :
RXO.OHMM :
CALI.CM :
SP.MV :
DEN.GM/CC :
~A
# ...
  252.5000    44.9830     9.0060     8.0120     9.2340    24.8000    -5.9310     2.3640 
  252.6250    44.9830     9.2030     8.1730     9.2420    24.7390    -6.3830     2.3660 
  252.7500    44.9830     9.4240     8.3910     9.7100    24.7070    -6.7530     2.3820 
  252.8750    44.9830     9.5820     8.6580    10.0510    24.6920    -7.0850     2.3900 
  253.0000    44.9830     9.5670     8.8300    10.7240    24.7260    -7.4330     2.4250 
  253.1250    44.9830     9.3290     8.7590    11.1490    24.7530    -7.6440     2.4330 
  253.2500    44.9830     8.9220     8.4060    10.2300    24.7260    -7.7850     2.4280 
  253.3750    44.9830     8.5270     7.9170     8.3590    24.7180    -8.1280     2.4150 
  253.5000    44.9830     8.3310     7.5640     6.6770    24.7490    -8.6730     2.4040 
  253.6250    44.9830     8.4040     7.4940     6.7790    24.7920    -9.1770     2.4100 
  253.7500    44.9830     8.6920     7.7220     8.3800    24.7710    -9.5430     2.4330 
  253.8750    44.9830     9.0040     8.1130    11.6830    24.7590    -9.5870     2.4600 
  254.0000    44.9830     9.1320     8.3740    15.0970    24.7440    -9.8020     2.4770 
  254.1250    44.9830     8.9930     8.3280    15.1120    24.7550    -9.9770     2.4640 
  254.2500    44.9830     8.6420     7.9940    11.6840    24.7730   -10.2640     2.4290 
  254.3750    44.9830     8.2470     7.5810     9.1880    24.7960   -10.5950     2.3810 
  254.5000    44.9830     7.9830     7.3060     9.0930    24.7940   -10.7890     2.3350 
  254.6250    44.9830     7.9090     7.2270     9.5900    24.7950   -10.8270     2.3010 
  254.7500    44.9830     7.9950     7.3080    10.3830    24.8130   -10.8070     2.2800 
  254.8750    44.9830     8.1620     7.4590    10.1430    24.8510   -10.7220     2.2720 
  255.0000    44.9830     8.3160     7.5870    10.5430    24.8410   -10.4720     2.2790 
  255.1250    44.9830     8.4200     7.6690    11.1220    24.7930   -10.1350     2.3000 
  255.2500    44.9830     8.4740     7.7150    11.9920    24.7420    -9.6110     2.3240 
  255.3750    44.9830     8.4940     7.7410     9.6200    24.7510    -8.8650     2.3440 
  255.5000    44.9830     8.5050     7.7530     8.3220    24.7720    -8.0060     2.3550 
  255.6250    44.9830     8.5150     7.7560     7.5810    24.7700    -7.0790     2.3540 
  255.7500    44.9830     8.5220     7.7570     7.3370    24.7670    -6.2430     2.3480 
  255.8750    44.9830     8.5250     7.7570     7.3710    24.7800    -5.6140     2.3460 
  256.0000    44.9830     8.5250     7.7570     7.3850    24.7910    -5.1720     2.3510 
  256.1250    44.9830     8.5250     7.7570     7.1360    24.8080    -4.8480     2.3650 
  256.2500    44.9830     8.5250     7.7570     6.9030    24.8820    -4.7600     2.3820 
  256.3750    44.9830     8.5250     7.7570     6.8310    24.8950    -4.7170     2.3980 
  256.5000    44.9830     8.5250     7.7570     6.5670    24.9070    -4.6930     2.4060 
  256.6250    44.9830     8.5250     7.7570     6.2700    24.9280    -4.7280     2.3990 
  256.7500    44.9830     8.5250     7.7570     6.2160    24.9400    -4.7360     2.3810 
  256.8750    44.9830     8.5250     7.7570     6.5380    24.9150    -4.6480     2.3590 
  257.0000    44.9830     8.5250     7.7570     7.0230    24.8760    -4.5590     2.3420 
  257.1250    44.9830     8.5250     7.7570     7.4390    24.8540    -4.4660     2.3410 
  257.2500    44.9830     8.5250     7.7570     7.3030    24.8260    -4.3460     2.3510 
  257.3750    44.9830     8.5250     7.7570     6.8240    24.7990    -4.2650     2.3650 
  257.5000    44.9830     8.5250     7.7570     6.6050    24.7930    -4.2210     2.3750 
  257.6250    44.9830     8.5250     7.7570     6.5060    24.8050    -4.1490     2.3790 
  257.7500    44.9830     8.5250     7.7570     6.3770    24.8160    -4.0900     2.3840 
  257.8750    44.9830     8.5250     7.7570     6.4770    24.8210    -4.0780     2.3960 
  258.0000    44.9830     8.5250     7.7570     6.5900    24.8210    -4.0570     2.4130 
  258.1250    44.9830     8.5250     7.7570     6.5890    24.8160    -4.0490     2.4330 
  258.2500    44.9830     8.5250     7.7570     6.5430    24.8090    -4.0420     2.4490 
  258.3750    44.9830     8.5250     7.7570     6.5610    24.8000  -999.2500     2.4600 
  258.5000    44.9830     8.5250     7.7570     6.4200    24.8160  -999.2500     2.4640 
  258.6250    44.9830     8.5250     7.7570     6.2170    24.8340  -999.2500     2.4580 
  258.7500    44.9830     8.5250     7.7570     6.3870    24.8500  -999.2500     2.4450 
  258.8750    44.9830     8.5250     7.7570     6.9670    24.8340  -999.2500     2.4260 
  259.0000    44.9830     8.5250     7.7570     7.7020    24.8160  -999.2500     2.4080 
  259.1250    44.9830     8.5250     7.7570     8.4630    24.7990  -999.2500     2.3950 
  259.2500    44.9830     8.5250     7.7570     9.2500    24.8140  -999.2500     2.3830 
  259.3750    44.9830     8.5250     7.7570    10.2200    24.6770  -999.2500     2.3660 
  259.5000    44.9830     8.5250     7.7570    10.5200    23.1360  -999.2500     2.3330 
  259.6250    44.9830     8.5250     7.7570     9.8330    19.2170  -999.2500     2.2780 
  259.7500    44.9830     8.5250     7.7570     8.9500    15.2410  -999.2500     2.2110 
  259.8750    44.9830     8.5250     7.7570     8.6220    13.6580  -999.2500     2.1460 
  260.0000    44.9830     8.5250     7.7570     8.5620    13.3990  -999.2500     2.0930 
  260.1250    44.9830     8.5250     7.7570     8.5650    13.3920  -999.2500     2.0610 
  260.2500    44.9830     8.5250     7.7570     8.5670    13.3870  -999.2500     2.0430 
  260.3750    44.9830     8.5250     7.7570     8.5680    13.3860  -999.2500     2.0340 
  260.5000    44.9830     8.5250     7.7570     8.5660    13.3860  -999.2500     2.0250 
  260.6250    44.9830     8.5250     7.7570     8.5660    13.3860  -999.2500     2.0220 
  260.7500    44.9830     8.5250     7.7570     8.5660    13.3860  -999.2500     2.0340 
  260.8750  -999.2500  -999.2500  -999.2500  -999.2500  -999.2500  -999.2500     2.0480 
  261.0000  -999.2500  -999.2500  -999.2500  -999.2500  -999.2500  -999.2500  -999.2500 
