~V
VERS. 2.00: Ver 2.00
~W
STRT.M 45.0000:
STOP.M 272.0000:
STEP.M 0.1250:
NULL. -999.2500:
UWI. F10774:
~C
DEPT.M :
DEN.GM/CC :
SP.MV :
GR.API :
RML.OHMM :
RI. :
RXO.OHMM :
CALI.CM :
~A
# ...
  247.5000     2.3760   -30.0450    65.6830    13.5600    13.1110    15.4550    25.0680 
  247.6250     2.3290   -29.5070    70.3480    10.8110    10.5210    11.1990    25.0350 
  247.7500     2.2830   -29.0110    73.2760     9.1070     8.7730     9.5720    25.0630 
  247.8750     2.2440   -28.5530    72.0940     8.1610     7.6950     8.4370    25.1610 
  248.0000     2.2180   -28.1180    67.8400     7.7640     7.1470     6.9430    25.2260 
  248.1250     2.2080   -27.7120    65.0280     7.6970     6.9590     6.4410    25.2240 
  248.2500     2.2070   -27.3250    66.5130     7.7240     6.9430     7.2350    25.1870 
  248.3750     2.2080   -26.9380    69.2560     7.6290     6.8970     8.0220    25.1520 
  248.5000     2.2080   -26.5470    71.9210     7.3360     6.7370     7.7430    25.1140 
  248.6250     2.2070   -26.1740    73.5150     6.8900     6.4660     6.1980    25.0250 
  248.7500     2.2080   -25.8180    71.6530     6.4280     6.1510     5.3050    24.8290 
  248.8750     2.2150   -25.4720    67.8600     6.0810     5.8850     4.8830    24.6070 
  249.0000     2.2250   -25.1330    65.8840     5.8860     5.7120     4.6740    24.5400 
  249.1250     2.2330   -24.7900    67.0440     5.8150     5.6320     4.5280    24.6270 
  249.2500     2.2380   -24.4390    67.4610     5.7960     5.6110     4.5040    24.7810 
  249.3750     2.2460   -24.0920    65.9780     5.7550     5.5870     4.5600    24.9230 
  249.5000     2.2580   -23.7450    63.7630     5.6560     5.5240     4.5960    25.0770 
  249.6250     2.2720   -23.3770    59.9040     5.4830     5.3920     4.5240    25.2380 
  249.7500     2.2820   -22.9740    53.2700     5.2420     5.1800     4.2890    25.3220 
  249.8750     2.2770   -22.5310    45.5600     4.9770     4.9240     4.0500    25.3370 
  250.0000     2.2610   -22.0490    38.6990     4.7320     4.6620     3.7330    25.3210 
  250.1250     2.2400   -21.5380    33.4310     4.5380     4.4370     3.4000    25.3370 
  250.2500     2.2240   -21.0160    29.7490     4.4100     4.2730     3.1790    25.4400 
  250.3750     2.2160   -20.5130    27.5170     4.3280     4.1600     3.0760    25.5890 
  250.5000     2.2090   -20.0480    26.7810     4.2680     4.0820     3.0660    25.6940 
  250.6250     2.1960   -19.6500    27.3090     4.2100     4.0200     3.1030    25.8730 
  250.7500     2.1760   -19.3490    28.8810     4.1490     3.9580     3.1150    26.1170 
  250.8750     2.1640   -19.1480    31.9420     4.1000     3.9010     3.0360    26.1410 
  251.0000     2.1700   -19.0480    36.7410     4.0900     3.8670     2.9550    25.8600 
  251.1250     2.1880   -19.0360    41.7920     4.1380     3.8800     2.9910    25.4990 
  251.2500     2.2050   -19.0970    44.3650     4.2510     3.9560     3.1480    25.4580 
  251.3750     2.2120   -19.1910    43.4730     4.3940     4.0730     3.3840    25.6330 
  251.5000     2.2160   -19.2870    40.1170     4.5290     4.1970     3.6790    25.7570 
  251.6250     2.2250   -19.3430    35.4720     4.6170     4.2880     3.9370    25.6230 
  251.7500     2.2350   -19.3360    30.5620     4.6270     4.3140     3.8920    25.4110 
  251.8750     2.2330   -19.2740    27.1440     4.5830     4.2880     3.6710    25.4120 
  252.0000     2.2200   -19.1740    26.5170     4.5170     4.2350     3.4370    25.6410 
  252.1250     2.2160   -19.0430    27.7430     4.4660     4.1860     3.2330    25.8190 
  252.2500     2.2310   -18.8920    27.8590     4.4540     4.1630     3.1480    25.8510 
  252.3750     2.2480   -18.7270    26.6530     4.4700     4.1610     3.2090    25.9480 
  252.5000     2.2480   -18.5710    26.0210     4.4880     4.1610     3.3180    26.1820 
  252.6250     2.2230   -18.4520    26.2830     4.4790     4.1420     3.3640    26.6040 
  252.7500     2.1770   -18.3750    25.9910     4.4180     4.0890     3.3770    27.2510 
  252.8750     2.1190   -18.3270    25.4240     4.3220     4.0160     3.3750    28.2900 
  253.0000     2.0610   -18.2900    25.9560     4.2230     3.9420     3.3540    29.8920 
  253.1250     2.0280   -18.2740    27.3250     4.1610     3.8920     3.2960    31.5580 
  253.2500     2.0390   -18.2800    28.9410     4.1650     3.8840     3.2280    32.1350 
  253.3750     2.0800   -18.3290    31.2100     4.2220     3.9140     3.2150    31.6660 
  253.5000     2.1260   -18.4020    33.3840     4.3220     3.9820     3.2950    30.8800 
  253.6250     2.1560   -18.4760    34.7620     4.4630     4.0950     3.4660    30.1810 
  253.7500     2.1680   -18.5420    35.8320     4.6540     4.2540     3.6270    29.3590 
  253.8750     2.1810   -18.6010    36.3380     4.8760     4.4410     3.6780    28.2430 
  254.0000     2.2010   -18.6470    35.7660     5.0800     4.6160     3.7170    26.9340 
  254.1250     2.2180   -18.6620    35.4330     5.1890     4.7220     3.9150    25.9580 
  254.2500     2.2050   -18.6370    35.9620     5.1320     4.6980     4.2380    25.8000 
  254.3750     2.1520   -18.5750    34.5180     4.9390     4.5530     4.4800    26.5300 
  254.5000     2.0910   -18.4930    30.4600     4.6820     4.3340     4.3920    27.7510 
  254.6250     2.0620   -18.4100    27.0000     4.4410     4.1070     3.9470    28.8090 
  254.7500     2.0730   -18.3330    26.2140     4.2850     3.9410     3.3650    29.3040 
  254.8750     2.1010   -18.2760    26.2440     4.2190     3.8570     3.1150    29.4620 
  255.0000     2.1280   -18.2500    25.5000     4.2310     3.8470     3.1080    29.6710 
  255.1250     2.1420   -18.2610    24.0690     4.2870     3.8900     3.2440    30.1920 
  255.2500     2.1380   -18.2900    23.1230     4.3530     3.9580     3.3750    30.8900 
  255.3750     2.1260   -18.3320    23.4560     4.4010     4.0260     3.3840    31.5370 
  255.5000     2.1130   -18.3770    24.5020     4.4240     4.0850     3.2640    31.8140 
  255.6250     2.1030   -18.4260    25.4470     4.4230     4.1320     3.2090    31.6350 
  255.7500     2.1070   -18.4790    26.1330     4.3930     4.1610     3.3170    31.3180 
  255.8750     2.1110   -18.5120    26.9490     4.3430     4.1700     3.4330    31.0190 
  256.0000     2.1010   -18.5200    27.5770     4.2820     4.1530     3.3850    30.8790 
  256.1250     2.0810   -18.5020    27.3520     4.2260     4.1110     3.3170    30.8070 
  256.2500     2.0730   -18.4810    26.1360     4.1890     4.0500     3.3480    30.7150 
  256.3750     2.0800   -18.4670    24.5580     4.1650     3.9890     3.4320    30.3790 
  256.5000     2.0950   -18.4590    23.3730     4.1430     3.9360     3.4930    29.8690 
  256.6250     2.1160   -18.4580    22.8920     4.1200     3.9000     3.5190    29.7770 
  256.7500     2.1330   -18.4720    22.6870     4.0950     3.8810     3.5080    30.0680 
  256.8750     2.1270   -18.5170    21.9110     4.0670     3.8750     3.4250    30.1730 
  257.0000     2.1000   -18.5740    20.9260     4.0400     3.8770     3.2740    30.0520 
  257.1250     2.0860   -18.6350    20.6980     4.0230     3.8820     3.1580    30.0250 
  257.2500     2.1120   -18.6960    21.5230     4.0310     3.8900     3.1250    30.0630 
  257.3750     2.1650   -18.7360    21.9620     4.0650     3.9010     3.1610    29.9070 
  257.5000     2.2140   -18.7550    21.6470     4.1170     3.9190     3.1850    29.4890 
  257.6250     2.2370   -18.7570    21.2050     4.1660     3.9420     3.2290    29.1180 
  257.7500     2.2230   -18.7310    21.4320     4.1930     3.9670     3.3410    29.4630 
  257.8750     2.1870   -18.6960    22.8630     4.1940     3.9830     3.4780    30.1020 
  258.0000     2.1450   -18.6600    24.7030     4.1730     3.9860     3.5800    30.8430 
  258.1250     2.1060   -18.6260    25.4310     4.1330     3.9720     3.5850    31.6040 
  258.2500     2.0710   -18.5920    24.6590     4.0880     3.9510     3.5190    32.0600 
  258.3750     2.0430   -18.5870    24.6130     4.0600     3.9410     3.4610    32.1100 
  258.5000     2.0150   -18.6010    25.4320     4.0690     3.9600     3.4160    31.9270 
  258.6250     2.0510   -18.6460    25.3040     4.1350     4.0250     3.3510    31.2950 
