~V
VERS. 2.00: Ver 2.00
~W
STRT.M 50.0000:
STOP.M 228.0000:
STEP.M 0.1250:
NULL. -999.2500:
UWI. F10779:
~C
DEPT.M :
GR.API :
RML.OHMM :
RI. :
RXO.OHMM :
CALI.CM :
SP.MV :
DEN.GM/CC :
~A
# ...
  207.5000    63.9140    48.7200    44.8490    30.5290    25.2240   -19.8220     2.2540 
  207.6250    63.0580    47.9260    44.4220    31.8230    25.2160   -19.7820     2.2620 
  207.7500    63.2840    49.6750    46.4710    38.9400    25.2140   -19.7770     2.2600 
  207.8750    63.0630    53.7250    50.7170    47.9270    25.2130   -19.8050     2.2520 
  208.0000    61.4560    59.7550    56.8440    52.2300    25.2180   -19.8650     2.2450 
  208.1250    59.0760    67.6040    64.7280    51.3540    25.2160   -19.9560     2.2380 
  208.2500    57.5090    76.5510    73.7020    55.9230    25.2180   -20.0490     2.2310 
  208.3750    57.1130    86.0080    83.1960    74.4280    25.2150   -20.1320     2.2220 
  208.5000    56.3170    94.9590    92.2230   102.8890    25.2090   -20.2320     2.2160 
  208.6250    54.3620   101.6410    99.0730   110.5110    25.2110   -20.3150     2.2180 
  208.7500    53.0170   105.7130   103.4950    97.6710    25.2090   -20.3740     2.2250 
  208.8750    53.7740   108.1950   106.6710    81.8550    25.2160   -20.4470     2.2300 
  209.0000    54.4450   111.5770   111.1310    72.2580    25.2180   -20.5050     2.2210 
  209.1250    52.0980   120.8640   120.1410    77.9860    25.2150   -20.5300     2.1990 
  209.2500    48.0890   137.5580   135.9860    93.2300    25.2090   -20.5750     2.1870 
  209.3750    45.3350   161.7730   159.6450   120.5480    25.2010   -20.6270     2.2190 
  209.5000    45.7530   191.4800   188.7160   133.4470    25.1570   -20.6600     2.3130 
  209.6250    48.4240   219.4520   215.9930   152.4890    25.1270   -20.7020     2.4350 
  209.7500    50.8920   236.6110   233.1770   221.2810    25.1850   -20.7720     2.4970 
  209.8750    51.9080   239.2620   236.6020   278.4450    25.2150   -20.8370     2.4660 
  210.0000    51.2870   231.2050   229.0090   220.8720    25.2140   -20.8850     2.3770 
  210.1250    49.8140   220.3480   217.3890   180.3410    25.2080   -20.9470     2.2910 
  210.2500    48.9040   213.0830   208.7240   174.2630    25.2050   -20.9610     2.2380 
  210.3750    49.0870   211.3760   205.5460   177.6030    25.2100   -20.9130     2.2170 
  210.5000    51.2340   215.5770   208.0890   181.8900    25.2170   -20.8220     2.2160 
  210.6250    55.1560   225.6850   215.0340   194.6250    25.2160   -20.7080     2.2220 
  210.7500    56.6670   237.5300   222.3740   214.5510    25.2180   -20.5810     2.2260 
  210.8750    55.2310   246.1100   227.0090   233.6080    25.2140   -20.4750     2.2240 
  211.0000    53.6840   246.4930   226.7720   239.6880    25.2040   -20.4080     2.2140 
  211.1250    53.9310   235.4030   220.0120   239.8370    25.2080   -20.3710     2.2000 
  211.2500    53.9160   217.8970   208.5080   223.4510    25.1920   -20.3370     2.1960 
  211.3750    53.3620   198.4500   193.8670   191.2490    25.1670   -20.3200     2.2110 
  211.5000    52.4750   180.2760   178.0770   160.5520    25.1470   -20.2870     2.2430 
  211.6250    50.0420   165.6380   163.8430   143.1390    25.0950   -20.1560     2.2780 
  211.7500    48.1130   155.1250   153.2210   141.5320    25.0570   -19.9520     2.2970 
  211.8750    47.8390   149.9220   147.6700   136.2570    25.1000   -19.7200     2.2910 
  212.0000    47.9320   150.9200   148.1250   122.4350    25.1390   -19.4550     2.2640 
  212.1250    48.0870   157.8280   154.4830   124.8990    25.1430   -19.1460     2.2340 
  212.2500    49.1140   163.4850   160.2950   160.5450    25.1500   -18.8150     2.2260 
  212.3750    50.4110   157.3810   156.5600   208.6100    25.1500   -18.4740     2.2580 
  212.5000    50.0570   132.1310   135.9600   236.0890    25.1550   -18.1260     2.3400 
  212.6250    48.0090    95.4070    98.6540   224.9670    25.1270   -17.8370     2.4660 
  212.7500    46.0150    65.1530    59.7460   153.0230    25.0480   -17.5950     2.5870 
  212.8750    43.5470    39.2360    35.7530    70.4710    25.0410   -17.3960     2.6520 
  213.0000    40.8580    23.3610    21.0540    28.6320    25.0090   -17.2620     2.6430 
  213.1250    39.5160    15.3090    13.4210    18.5580    24.9620   -17.2300     2.5730 
  213.2500    40.4440    10.8730     9.2890    11.9250    25.1020   -17.2710     2.4870 
  213.3750    43.0170     8.5670     7.2960     7.8740    25.1470   -17.3780     2.4100 
  213.5000    44.9410     7.5850     6.5850     5.7050    25.1540   -17.5440     2.3580 
  213.6250    45.7150     7.5240     6.6750     5.0120    25.3040   -17.7600     2.3370 
  213.7500    46.3510     7.8330     7.0160     5.6410    25.3940   -17.9490     2.3310 
  213.8750    47.0880     8.1660     7.2870     7.3870    25.4830   -18.1010     2.3270 
  214.0000    47.1230     8.2570     7.2730     8.4090    25.5570   -18.2280     2.3240 
  214.1250    45.6970     7.9860     6.9340     6.8940    25.6020   -18.3520     2.3250 
  214.2500    44.3660     7.5660     6.5190     5.7110    25.5990   -18.4970     2.3330 
  214.3750    43.5980     7.1910     6.2160     5.3310    25.5570   -18.6660     2.3450 
  214.5000    43.2150     6.9870     6.1300     5.3630    25.4900   -18.9090     2.3540 
  214.6250    43.2010     7.0330     6.3250     5.7070    25.1470   -19.2960     2.3550 
  214.7500    43.2650     7.2590     6.7180     6.0660    25.1430   -19.8020     2.3470 
  214.8750    42.8740     7.6040     7.2420     6.0480    25.1450   -20.3750     2.3340 
  215.0000    42.4550     7.9950     7.8080     6.4680    25.1390   -20.9330     2.3190 
  215.1250    43.1740     8.3330     8.2870     7.1770    25.1460   -21.4130     2.3080 
  215.2500    43.8900     8.5800     8.5540     7.7520    25.1530   -21.8070     2.3000 
  215.3750    43.9680     8.6800     8.5940     7.8970    25.1500   -22.1100     2.2950 
  215.5000    43.9680     8.5980     8.5020     7.8770    25.1470   -22.3200     2.2910 
  215.6250    43.9680     8.4610     8.3530     7.8360    25.1380   -22.4520     2.2890 
  215.7500    43.9680     8.4280     8.2840     7.9260    25.1300   -22.5280     2.2920 
  215.8750    43.9680     8.6040     8.3900     7.8760    25.1100   -22.5680     2.3060 
  216.0000    43.9680     9.0230     8.7190     7.7670    25.1070   -22.5990     2.3330 
  216.1250    43.9680     9.6200     9.2520     8.3800    25.0960   -22.6040     2.3680 
  216.2500    43.9680    10.1630     9.8050     9.7160    25.0910   -22.5460     2.3930 
  216.3750    43.9680    10.4370    10.1810    11.3780    25.0920   -22.3840     2.3960 
  216.5000    43.9680    10.2980    10.2130    11.8170    25.0840   -22.0740     2.3790 
  216.6250    43.9680     9.7030     9.7940    11.2910    25.0800   -21.5200     2.3550 
  216.7500    43.9680     8.8940     9.1110     9.3140    25.0800   -20.7990     2.3380 
  216.8750    43.9680     8.0410     8.3170     7.3770    25.0810   -19.9360     2.3320 
  217.0000    43.9680     7.2460     7.5320     6.0460    25.0750   -18.9700     2.3310 
  217.1250    43.9680     6.5680     6.8350     5.2800    25.0870   -18.0040     2.3270 
  217.2500    43.9680     6.0060     6.2380     5.0400    25.0840   -17.1870     2.3200 
  217.3750    43.9680     5.5710     5.7510     4.7170    25.0820   -16.6010     2.3160 
  217.5000    43.9680     5.2730     5.3830     4.2800    25.0830   -16.3120     2.3250 
  217.6250    43.9680     5.1410     5.1700     4.1490    25.0820   -16.3690     2.3440 
  217.7500    43.9680     5.1490     5.1000     4.1710    25.0810   -16.6590     2.3600 
  217.8750    43.9680     5.3080     5.1860     4.3240    25.0870   -17.1420     2.3670 
  218.0000    43.9680     5.6430     5.4520     4.7740    25.0850   -17.7880     2.3670 
  218.1250    43.9680     6.2280     5.9570     5.2750    25.0890   -18.5730     2.3640 
  218.2500    43.9680     7.0360     6.6720     6.1030    25.0860   -19.4450     2.3660 
  218.3750    43.9680     8.0230     7.5610     7.4040    25.0760   -20.4100     2.3710 
  218.5000    43.9680     9.0860     8.5310     9.7620    25.0810   -21.4260     2.3720 
  218.6250    43.9680    10.0390     9.4150    10.8470    25.0760   -22.4580     2.3620 
