~V
VERS. 2.00: Ver 2.00
~W
STRT.M 50.0000:
STOP.M 261.0000:
STEP.M 0.1250:
NULL. -999.2500:
UWI. F10772:
~C
DEPT.M :
GR.API :
RML.OHMM :
RI. :
RXO.OHMM :
CALI.CM :
SP.MV :
DEN.GM/CC :
~A
# ...
   95.0000    60.4450     8.4070     7.7500     6.7920    24.7310    -4.5770     2.2650 
   95.1250    63.1500     7.8440     7.1150     6.4430    24.7360    -4.4290     2.2980 
   95.2500    67.6780     7.4250     6.5990     6.4770    24.7430    -4.2390     2.3140 
   95.3750    71.8220     7.2080     6.2840     6.4430    24.7540    -4.1440     2.3170 
   95.5000    72.7990     7.1940     6.1750     6.1780    24.7730    -4.2540     2.3140 
   95.6250    69.5740     7.3650     6.2530     6.1980    24.7810    -4.3630     2.3120 
   95.7500    67.2020     7.6310     6.4380     7.0900    24.8080    -4.4500     2.3130 
   95.8750    67.4430     7.9300     6.6830     7.9330    24.8670    -4.6600     2.3170 
   96.0000    67.2180     8.2080     6.9510     7.6460    24.9470    -4.9810     2.3290 
   96.1250    64.5720     8.4240     7.2200     7.5340    24.9620    -5.4400     2.3510 
   96.2500    61.9290     8.5830     7.4710     9.0680    24.9150    -5.8690     2.3750 
   96.3750    61.1140     8.6970     7.6880    10.8080    24.8130    -6.0550     2.3880 
   96.5000    62.1470     8.7810     7.8660     9.1720    24.7030    -6.0680     2.3810 
   96.6250    63.3740     8.8280     7.9900     8.2050    24.5960    -6.0890     2.3540 
   96.7500    62.9870     8.8350     8.0450     7.9310    24.5490    -6.0770     2.3230 
   96.8750    60.4340     8.7950     8.0160     7.8760    24.5980    -6.0010     2.3040 
   97.0000    59.6220     8.7120     7.9200     7.9250    24.7200    -5.8730     2.3010 
   97.1250    62.3660     8.5930     7.7810     7.7700    24.8280    -5.5690     2.3100 
   97.2500    65.2480     8.4540     7.6230     7.6330    24.8820    -5.2230     2.3170 
   97.3750    66.4260     8.2940     7.4530     7.3880    24.8920    -4.9960     2.3150 
   97.5000    65.8410     8.1010     7.2720     7.1370    24.8770    -4.7870     2.3050 
   97.6250    64.9460     7.8480     7.0580     7.1190    24.8470    -4.6680     2.2920 
   97.7500    64.6650     7.5550     6.8070     7.1230    24.8080    -4.6740     2.2880 
   97.8750    66.5540     7.2780     6.5500     6.9550    24.7760    -4.7170     2.2940 
   98.0000    69.0880     7.1310     6.3550     6.4580    24.7400    -4.8060     2.3070 
   98.1250    70.2630     7.3350     6.3740     6.3450    24.6680    -5.0490     2.3150 
   98.2500    71.0070     7.9920     6.7250     6.4540    24.5420    -5.3770     2.3080 
   98.3750    70.1680     9.1350     7.5410     7.0470    24.3880    -5.6910     2.2830 
   98.5000    65.9900    10.6130     8.8990     7.7780    24.2600    -6.0210     2.2520 
   98.6250    60.5640    11.9550    10.6700     8.7750    24.2360    -6.2680     2.2430 
   98.7500    58.5040    12.5880    12.1050    10.4240    24.2740    -6.3050     2.2730 
   98.8750    59.3560    12.1600    12.3300    12.6120    24.3500    -6.1810     2.3350 
   99.0000    60.5280    10.7150    10.9980    12.7320    24.3700    -5.9910     2.4090 
   99.1250    63.2450     8.7080     8.7350     9.1980    24.3010    -5.7240     2.4590 
   99.2500    69.0440     6.8870     6.6730     5.7320    24.2120    -5.4570     2.4730 
   99.3750    74.1340     5.6340     5.2120     4.3570    23.9600    -5.3180     2.4560 
   99.5000    74.5340     5.0510     4.3910     4.1050    23.6190    -5.2340     2.4250 
   99.6250    72.5040     5.1450     4.1920     4.4230    23.2660    -5.1230     2.3940 
   99.7500    71.4190     5.6930     4.4240     4.9580    23.0220    -5.1370     2.3650 
   99.8750    69.7580     6.6310     5.0400     5.7900    22.8600    -5.2380     2.3370 
  100.0000    65.4240     7.9320     6.0200     6.5380    22.8640    -5.3020     2.3140 
  100.1250    60.5200     9.6300     7.4280     7.3210    23.0830    -5.3890     2.3100 
  100.2500    57.5960    11.5920     9.1950     8.3940    23.4600    -5.4980     2.3300 
  100.3750    56.9080    13.6510    11.2450    10.2030    23.8660    -5.4870     2.3620 
  100.5000    58.3380    15.5590    13.3660    12.8530    24.1700    -5.3940     2.3870 
  100.6250    59.5490    16.9490    15.1070    13.0150    24.3390    -5.3390     2.3790 
  100.7500    58.4320    17.7560    16.1940    12.7240    24.3950    -5.2170     2.3450 
  100.8750    55.7540    18.0850    16.6250    12.5010    24.3830    -5.0680     2.3000 
  101.0000    53.6070    18.2050    16.6740    12.4840    24.3920    -5.0100     2.2630 
  101.1250    52.6420    18.4920    16.7860    12.2780    24.3910    -4.9260     2.2430 
  101.2500    52.8140    19.0990    17.2750    11.9850    24.3530    -4.6780     2.2320 
  101.3750    55.0850    19.8810    18.1890    11.9820    24.3320    -4.3920     2.2230 
  101.5000    57.2860    20.4040    19.2470    12.5160    24.3870    -4.1680     2.2120 
  101.6250    56.5630    19.8660    19.4950    13.1030    24.4390    -3.9460     2.1980 
  101.7500    55.4350    18.0320    18.1080    13.0430    24.4390    -3.8450     2.1850 
  101.8750    57.4300    15.0960    15.0950    12.2730    24.4260    -3.8950     2.1840 
  102.0000    63.0140    11.6970    11.4430    10.1730    24.4330    -3.9310     2.2040 
  102.1250    68.8200     8.7470     8.4130     7.4000    24.4830    -3.9750     2.2470 
  102.2500    74.5800     6.6990     6.3570     5.1490    24.5510    -4.2390     2.2960 
  102.3750    81.4560     5.6130     5.1970     4.3950    24.5830    -4.6180     2.3320 
  102.5000    88.5170     5.3240     4.7540     4.6900    24.5280    -5.0050     2.3460 
  102.6250    89.9550     5.6610     4.9410     5.6340    24.4860    -5.4820     2.3360 
  102.7500    84.2470     6.2900     5.5160     6.1500    24.4840    -5.8780     2.3170 
  102.8750    76.5740     7.0280     6.3330     6.2560    24.5180    -6.1240     2.2950 
  103.0000    71.3020     7.7160     7.2200     6.1950    24.5770    -6.3550     2.2700 
  103.1250    68.5730     8.1790     7.9700     6.5350    24.6210    -6.5590     2.2470 
  103.2500    67.0100     8.3570     8.4440     7.0120    24.6220    -6.5530     2.2340 
  103.3750    66.6300     8.2210     8.5390     7.3730    24.6530    -6.3600     2.2360 
  103.5000    65.3700     7.8010     8.2180     7.3220    24.7820    -6.0870     2.2550 
  103.6250    61.9970     7.1710     7.5340     6.7900    24.8960    -5.6920     2.2870 
  103.7500    60.6250     6.5110     6.7420     6.0860    24.9940    -5.2510     2.3200 
  103.8750    64.4550     5.9500     6.0180     5.3730    25.0600    -4.8510     2.3480 
  104.0000    70.9780     5.5790     5.4820     5.0170    25.0730    -4.4700     2.3680 
  104.1250    74.1660     5.4800     5.2230     5.1610    25.0500    -4.1370     2.3790 
  104.2500    74.8490     5.6090     5.1870     5.4440    25.0040    -3.9910     2.3830 
  104.3750    75.7670     5.9360     5.3330     5.6520    24.9710    -4.0730     2.3780 
  104.5000    76.9580     6.4280     5.6160     5.9690    24.9150    -4.2380     2.3640 
  104.6250    75.0690     7.0860     6.0190     6.5690    24.7820    -4.4900     2.3390 
  104.7500    72.0050     7.8880     6.5300     6.9950    24.6380    -4.9530     2.3090 
  104.8750    70.1700     8.8410     7.1920     7.1290    24.5550    -5.5020     2.2770 
  105.0000    68.0680     9.9300     8.0350     7.4710    24.5530    -6.0330     2.2450 
  105.1250    64.4560    11.0880     9.0510     8.6100    24.5840    -6.5580     2.2110 
  105.2500    60.7450    12.1890    10.0970    10.2010    24.6530    -7.0100     2.1760 
  105.3750    57.6360    13.1710    11.0330    11.2450    24.7420    -7.3290     2.1390 
  105.5000    56.3660    14.0820    11.7940    11.1110    24.8350    -7.5530     2.1080 
  105.6250    58.3760    15.1410    12.5250    10.3290    24.9650    -7.7500     2.1000 
  105.7500    61.0500    16.5690    13.5540    10.1520    25.0840    -7.7700     2.1310 
  105.8750    60.4970    18.4400    15.1270    10.9650    25.1200    -7.6070     2.2120 
  106.0000    55.7040    20.5840    17.2960    13.2790    25.0090    -7.3590     2.3380 
  106.1250    50.1010    22.4410    19.7320    17.6730    24.7860    -6.9300     2.4700 
