~V
VERS. 2.00: Ver 2.00
~W
STRT.M 50.0000:
STOP.M 230.0000:
STEP.M 0.1250:
NULL. -999.2500:
UWI. F10780:
~C
DEPT.M :
DEN.GM/CC :
GR.API :
RML.OHMM :
RI. :
RXO.OHMM :
CALI.CM :
SP.MV :
~A
   50.0000  -999.2500  -999.2500  -999.2500  -999.2500  -999.2500  -999.2500  -999.2500 
   50.1250  -999.2500  -999.2500  -999.2500  -999.2500  -999.2500  -999.2500  -999.2500 
   50.2500  -999.2500  -999.2500  -999.2500  -999.2500  -999.2500  -999.2500  -999.2500 
   50.3750  -999.2500  -999.2500  -999.2500  -999.2500  -999.2500  -999.2500  -999.2500 
   50.5000  -999.2500  -999.2500  -999.2500  -999.2500  -999.2500  -999.2500  -999.2500 
   50.6250  -999.2500  -999.2500  -999.2500  -999.2500  -999.2500  -999.2500  -999.2500 
   50.7500  -999.2500  -999.2500  -999.2500  -999.2500  -999.2500  -999.2500  -999.2500 
   50.8750  -999.2500  -999.2500  -999.2500  -999.2500  -999.2500  -999.2500  -999.2500 
   51.0000  -999.2500  -999.2500  -999.2500  -999.2500  -999.2500  -999.2500  -999.2500 
   51.1250  -999.2500  -999.2500  -999.2500  -999.2500  -999.2500  -999.2500  -999.2500 
   51.2500  -999.2500  -999.2500  -999.2500  -999.2500  -999.2500  -999.2500  -999.2500 
   51.3750  -999.2500  -999.2500  -999.2500  -999.2500  -999.2500  -999.2500  -999.2500 
   51.5000  -999.2500  -999.2500  -999.2500  -999.2500  -999.2500  -999.2500  -999.2500 
   51.6250  -999.2500  -999.2500  -999.2500  -999.2500  -999.2500  -999.2500  -999.2500 
   51.7500  -999.2500  -999.2500  -999.2500  -999.2500  -999.2500  -999.2500  -999.2500 
   51.8750  -999.2500  -999.2500  -999.2500  -999.2500  -999.2500  -999.2500  -999.2500 
   52.0000  -999.2500  -999.2500  -999.2500  -999.2500  -999.2500  -999.2500  -999.2500 
   52.1250  -999.2500  -999.2500  -999.2500  -999.2500  -999.2500  -999.2500  -999.2500 
   52.2500  -999.2500  -999.2500  -999.2500  -999.2500  -999.2500  -999.2500  -999.2500 
   52.3750  -999.2500  -999.2500  -999.2500  -999.2500  -999.2500  -999.2500  -999.2500 
   52.5000  -999.2500  -999.2500  -999.2500  -999.2500  -999.2500  -999.2500  -999.2500 
   52.6250  -999.2500  -999.2500  -999.2500  -999.2500  -999.2500  -999.2500  -999.2500 
   52.7500  -999.2500  -999.2500  -999.2500  -999.2500  -999.2500  -999.2500  -999.2500 
   52.8750  -999.2500  -999.2500  -999.2500  -999.2500  -999.2500  -999.2500  -999.2500 
   53.0000  -999.2500  -999.2500  -999.2500  -999.2500  -999.2500  -999.2500  -999.2500 
   53.1250  -999.2500  -999.2500  -999.2500  -999.2500  -999.2500  -999.2500  -999.2500 
   53.2500  -999.2500  -999.2500  -999.2500  -999.2500  -999.2500  -999.2500  -999.2500 
   53.3750  -999.2500  -999.2500  -999.2500  -999.2500  -999.2500  -999.2500  -999.2500 
   53.5000  -999.2500  -999.2500  -999.2500  -999.2500  -999.2500  -999.2500  -999.2500 
   53.6250  -999.2500  -999.2500  -999.2500  -999.2500  -999.2500  -999.2500  -999.2500 
   53.7500  -999.2500  -999.2500  -999.2500  -999.2500  -999.2500  -999.2500  -999.2500 
   53.8750  -999.2500  -999.2500  -999.2500  -999.2500  -999.2500  -999.2500  -999.2500 
   54.0000  -999.2500  -999.2500  -999.2500  -999.2500  -999.2500  -999.2500  -999.2500 
   54.1250  -999.2500  -999.2500  -999.2500  -999.2500  -999.2500  -999.2500  -999.2500 
   54.2500  -999.2500  -999.2500  -999.2500  -999.2500  -999.2500  -999.2500  -999.2500 
   54.3750  -999.2500  -999.2500  -999.2500  -999.2500  -999.2500  -999.2500  -999.2500 
   54.5000  -999.2500  -999.2500  -999.2500  -999.2500  -999.2500  -999.2500  -999.2500 
   54.6250  -999.2500  -999.2500  -999.2500  -999.2500  -999.2500  -999.2500  -999.2500 
   54.7500  -999.2500  -999.2500  -999.2500  -999.2500  -999.2500  -999.2500  -999.2500 
   54.8750  -999.2500  -999.2500  -999.2500  -999.2500  -999.2500  -999.2500  -999.2500 
   55.0000  -999.2500    39.0260 990779.8130     0.2550     3.1210    25.9020     0.0000 
   55.1250  -999.2500    39.0260 990779.8130     0.2550     3.1210    25.9020     0.0000 
   55.2500  -999.2500    39.0260 990779.8130     0.2550     3.1210    25.9020     0.0000 
   55.3750  -999.2500    39.0260 990779.8130     0.2550     3.1210    25.9020     0.0000 
   55.5000  -999.2500    37.0750 990779.8130     0.2550     3.1070    25.9020     0.0000 
   55.6250  -999.2500    40.3650 990779.8130     0.2550     3.1620    25.9000    47.5150 
   55.7500  -999.2500    40.2860 990779.8130     0.2550     3.1560    25.9070   189.8390 
   55.8750  -999.2500    39.2300 990779.8130     0.2550     3.1220    25.9030   189.4040 
   56.0000  -999.2500    42.6390 987251.1250     0.2540     3.0690    25.9050   189.0700 
   56.1250  -999.2500    44.6430 1005707.7500     0.2530     3.0110    25.9070   188.6780 
   56.2500  -999.2500    43.2200 961182.7500     0.2520     2.9350    25.9040   188.2190 
   56.3750  -999.2500    42.6610 723811.1250     0.2520     2.8630    25.8900   187.6310 
   56.5000  -999.2500    46.0920 336372.0940     0.2520     2.7480    25.8580   186.8000 
   56.6250  -999.2500    49.0930 58542.8670     0.2550     2.6130    25.8430   185.5570 
   56.7500     2.1050    46.6320  -999.2500     0.2570     2.5360    25.8350   183.7720 
   56.8750     2.1050    41.9890  -360.5040     0.2570     2.4960    25.8290   181.3830 
   57.0000     2.1100    42.2920   280.4530     0.2560     2.4480    25.8150   178.5230 
   57.1250     2.1150    50.0760   194.5710     0.2520     2.3760    25.7850   175.1500 
   57.2500     2.1170    57.3410   126.1850     0.2490     2.3090    25.7710   171.3060 
   57.3750     2.1160    59.9830    71.9600     0.2460     2.2690    25.7620   166.9720 
   57.5000     2.1150    59.5720    40.9800     0.2470     2.1920    25.7490   162.1290 
   57.6250     2.1160    59.8620    28.9730     0.2500     2.0150    25.7110   156.9580 
   57.7500     2.1220    60.7670    22.9480     0.2550     1.8500    25.6650   151.7320 
   57.8750     2.1340    61.9470    19.1290     0.2610     1.8210    25.6460   146.2910 
   58.0000     2.1490    62.5490    16.1010     0.2670     1.9050    25.6640   140.4620 
   58.1250     2.1560    60.6000    13.6450     0.2690     1.9350    25.6720   134.4620 
   58.2500     2.1470    58.4110    11.9780     0.2690     1.8470    25.6530   128.6330 
   58.3750     2.1200    57.7460    11.2540     0.2680     1.6790    25.6260   123.0970 
   58.5000     2.0810    56.9630    11.2890     0.2670     1.5080    25.6000   117.8060 
   58.6250     2.0450    52.4950    11.7110     0.2670     1.3550    25.5590   112.5080 
   58.7500     2.0180    48.0330    12.2390     0.2680     1.2410    25.5090   107.0940 
   58.8750     2.0000    46.7300    13.2330     0.2690     1.1700    25.4600   101.7120 
   59.0000     1.9850    47.2460    15.3200     0.2650     1.1220    25.4050    96.3700 
   59.1250     1.9690    47.2210    17.3060     0.2540     1.0450    25.3400    90.7180 
   59.2500     1.9530    47.5710    16.1690     0.2320     0.9510    25.2520    84.4990 
   59.3750     1.9510    50.1040    11.2260     0.1990     0.8710    25.1670    77.7850 
   59.5000     1.9840    53.2640     5.1410     0.1610     0.8320    25.0930    71.0040 
   59.6250     2.0780    53.2050     1.6040     0.1250     0.8210    25.0520    64.5310 
   59.7500     2.2100    51.3030     0.3580     0.0980     0.8210    25.0110    58.2540 
   59.8750     2.3340    50.0430     0.0320     0.0850     0.8270    24.9570    51.9580 
   60.0000     2.3910    50.9090    -0.0260     0.0880     0.8500    24.9080    45.5580 
   60.1250     2.3290    51.8270     0.0700     0.1250     1.1550    25.0160    39.2370 
   60.2500     2.1820    51.9380     0.3030     0.2200     2.0440    25.7390    33.1230 
   60.3750     2.0040    51.8030     0.7310     0.4180     3.3940    27.5240    27.2330 
   60.5000     1.8530    51.2500     1.4200     0.7860     4.5080    30.1810    21.5350 
   60.6250     1.7790    52.2770     2.4240     1.4390     4.9700    33.1890    16.0710 
   60.7500     1.7780    54.3580     3.5980     2.3720     5.4960    35.5540    10.9730 
   60.8750     1.8380    56.7030     4.7950     3.5430     5.6470    36.0490     6.4470 
   61.0000     1.9330    58.6470     5.9060     4.8570     5.2420    34.1740     2.6570 
   61.1250     2.0300    60.1780     6.8880     6.2010     5.1720    29.8370    -0.2890 
