~V
VERS. 2.00: Ver 2.00
~W
STRT.M 50.0000:
STOP.M 240.0000:
STEP.M 0.1250:
NULL. -999.2500:
UWI. F10736:
~C
DEPT.M :
DEN.GM/CC :
GR.API :
RML.OHMM :
RI. :
RXO.OHMM :
CALI.CM :
SP.MV :
~A
# ...
  117.5000     2.3690    73.6330     8.6850     7.0700     7.2230    24.8330   -11.2990 
  117.6250     2.3700    76.6590     8.1510     6.7890     6.1680    24.7550   -11.2240 
  117.7500     2.3610    75.8600     7.4530     6.3450     5.2680    24.7250   -11.1200 
  117.8750     2.3410    75.6010     6.8800     5.9290     4.9930    24.7450   -11.0010 
  118.0000     2.3180    76.2430     6.5750     5.6600     5.2130    24.7820   -11.0560 
  118.1250     2.3020    74.3400     6.6040     5.6200     5.7190    24.8250   -11.1350 
  118.2500     2.2960    70.8110     6.8810     5.7750     6.1930    24.8570   -11.2070 
  118.3750     2.2950    68.5580     7.3500     6.0960     6.4590    24.9220   -11.2880 
  118.5000     2.2970    67.7630     7.9510     6.5370     6.5830    25.0490   -11.3780 
  118.6250     2.3090    67.1710     8.6180     7.0550     7.6900    25.2620   -11.4670 
  118.7500     2.3410    66.2390     9.2180     7.5600    10.1460    25.4710   -11.5490 
  118.8750     2.3730    65.1350     9.5960     7.9470    11.3500    25.5770   -11.6230 
  119.0000     2.3790    64.0410     9.6380     8.1220     8.7620    25.4960   -11.6890 
  119.1250     2.3550    63.0800     9.3100     8.0160     7.3700    25.3070   -11.7610 
  119.2500     2.3330    62.3960     8.7960     7.7310     6.9680    25.2080   -11.8550 
  119.3750     2.3310    62.5750     8.2300     7.3620     6.7990    25.2450   -11.9720 
  119.5000     2.3410    65.5280     7.7270     7.0010     6.5650    25.3640   -12.1000 
  119.6250     2.3530    70.8050     7.3780     6.7270     6.4760    25.4860   -12.2340 
  119.7500     2.3650    74.0300     7.1910     6.5510     6.3650    25.5470   -12.3820 
  119.8750     2.3810    72.7140     7.1800     6.4870     5.9630    25.5670   -12.5550 
  120.0000     2.3990    69.6620     7.3250     6.5310     5.6550    25.6110   -12.7510 
  120.1250     2.4110    70.4780     7.5360     6.6370     5.7160    25.6370   -12.9550 
  120.2500     2.4130    72.6420     7.6650     6.7100     6.0500    25.6480   -13.1460 
  120.3750     2.4100    71.7930     7.6160     6.6810     6.3770    25.6480   -13.3290 
  120.5000     2.4020    68.9240     7.3860     6.5350     6.3010    25.6480   -13.5210 
  120.6250     2.3880    68.4160     7.1110     6.3460     5.9340    25.6440   -13.7340 
  120.7500     2.3640    69.5430     7.0340     6.2700     5.7260    25.5950   -13.9520 
  120.8750     2.3310    70.7560     7.3540     6.4460     6.1420    25.4240   -14.1570 
  121.0000     2.2820    69.2350     8.2200     7.0000     7.3110    25.1130   -14.3450 
  121.1250     2.2110    64.3720     9.8280     8.1250     9.4280    24.8480   -14.5300 
  121.2500     2.1240    59.7080    12.0570     9.7990    11.4610    24.7430   -14.7350 
  121.3750     2.0520    55.4840    14.7800    11.9950    12.8530    24.7640   -14.9690 
  121.5000     2.0180    49.5150    17.7560    14.5900    13.9170    24.8430   -15.2310 
  121.6250     2.0300    42.2280    20.6180    17.3410    15.3060    24.9490   -15.5170 
  121.7500     2.0760    39.8940    23.0630    19.8960    16.7510    25.0510   -15.8130 
  121.8750     2.1200    42.6800    24.9350    22.0090    17.7590    25.1120   -16.0970 
  122.0000     2.1460    45.4080    26.2180    23.5520    17.8300    25.1300   -16.3490 
  122.1250     2.1540    45.3880    26.9520    24.4560    17.8660    25.1280   -16.5640 
  122.2500     2.1510    43.6330    27.4160    24.9610    18.6950    25.1230   -16.7540 
  122.3750     2.1480    41.5370    27.7660    25.2280    19.5870    25.1160   -16.9180 
  122.5000     2.1430    41.3450    28.0970    25.3900    19.9890    25.1070   -17.0480 
  122.6250     2.1330    43.4600    28.4580    25.5560    19.6380    25.1090   -17.1300 
  122.7500     2.1250    44.3020    28.8900    25.8200    19.1550    25.1200   -17.1680 
  122.8750     2.1270    42.0600    29.4460    26.2580    18.7720    25.1310   -17.1720 
  123.0000     2.1270    39.6190    30.1700    26.9240    18.6450    25.1360   -17.1600 
  123.1250     2.1100    41.1920    31.0690    27.8570    19.3620    25.1370   -17.1580 
  123.2500     2.0800    44.0170    31.9690    28.9020    20.3380    25.1370   -17.1680 
  123.3750     2.0700    45.4960    32.6520    29.8450    20.6990    25.1380   -17.1810 
  123.5000     2.0870    44.7430    32.9480    30.4810    20.3100    25.1480   -17.1820 
  123.6250     2.1230    42.9480    32.8410    30.7180    19.2060    25.1730   -17.1630 
  123.7500     2.1670    42.2980    32.6450    30.8090    17.5950    25.1890   -17.1240 
  123.8750     2.2160    43.4770    32.6410    31.0120    16.1720    25.1610   -17.0680 
  124.0000     2.2600    46.0570    33.0070    31.5370    15.8580    25.0830   -16.9940 
  124.1250     2.2860    47.9160    33.6910    32.4340    18.2950    25.0280   -16.9030 
  124.2500     2.2930    49.3570    34.2110    33.3020    21.1040    25.0280   -16.8030 
  124.3750     2.2880    51.8650    34.0850    33.6550    22.4070    25.0750   -16.7020 
  124.5000     2.2700    53.2510    33.0510    33.1270    22.1780    25.1180   -16.6070 
  124.6250     2.2360    50.0760    31.1870    31.6000    19.0580    25.1160   -16.5210 
  124.7500     2.1930    45.9350    29.1420    29.6660    15.7920    25.0680   -16.4440 
  124.8750     2.1540    44.8210    27.3670    27.8130    13.2020    24.9850   -16.3870 
  125.0000     2.1300    45.6820    26.1000    26.3600    12.3040    24.8710   -16.3580 
  125.1250     2.1220    44.2770    25.4330    25.4730    12.3660    24.7860   -16.3460 
  125.2500     2.1240    42.0580    25.2440    25.0670    12.4040    24.8430   -16.3220 
  125.3750     2.1270    41.7150    25.6650    25.2610    12.4910    25.0020   -16.2840 
  125.5000     2.1310    42.9930    27.0390    26.3650    12.6080    25.1360   -16.2450 
  125.6250     2.1420    45.2410    30.1460    29.1420    12.8370    25.2300   -16.2210 
  125.7500     2.1770    47.4780    35.1220    33.7800    14.1590    25.2820   -16.2130 
  125.8750     2.2490    47.8230    41.6850    40.0640    19.6680    25.2330   -16.2190 
  126.0000     2.3500    45.6650    48.2860    46.5980    34.5170    25.0760   -16.2340 
  126.1250     2.4430    42.2510    50.9650    49.7990    65.2450    25.0180   -16.2500 
  126.2500     2.4670    40.6700    48.2250    47.9970    61.0790    25.0130   -16.2500 
  126.3750     2.4080    41.7130    42.0080    42.5170    32.5400    24.9940   -16.2190 
  126.5000     2.3040    44.1840    35.6580    36.3260    16.8250    25.0130   -16.1580 
  126.6250     2.2100    46.3060    31.5650    31.9200    13.4070    25.0480   -16.0990 
  126.7500     2.1620    46.1330    29.5750    29.5120    12.8440    25.0640   -16.0740 
  126.8750     2.1430    44.3040    29.0370    28.6460    12.9100    25.0580   -16.0930 
  127.0000     2.1370    43.1020    29.0810    28.5770    13.0920    25.0400   -16.1400 
  127.1250     2.1380    44.0150    28.8540    28.4860    12.9890    25.0360   -16.1860 
  127.2500     2.1490    45.5400    28.1960    28.0250    12.4100    25.0610   -16.2040 
  127.3750     2.1660    46.2900    27.4340    27.3830    11.6380    25.0260   -16.1820 
  127.5000     2.1840    46.3170    26.9130    26.8680    10.8830    24.8390   -16.1250 
  127.6250     2.1950    45.8870    26.6660    26.5670    11.4880    24.5720   -16.0400 
  127.7500     2.1920    44.5470    26.2720    26.1430    13.1980    24.4530   -15.9530 
  127.8750     2.1840    41.9510    25.3800    25.2550    13.9710    24.4850   -15.8800 
  128.0000     2.1840    39.9290    23.9210    23.8060    12.5330    24.5720   -15.8250 
  128.1250     2.1930    41.3720    22.2180    22.0580    10.6800    24.5990   -15.7480 
  128.2500     2.2000    45.8830    20.8250    20.5320    10.7130    24.5830   -15.6320 
  128.3750     2.1940    49.3820    20.0490    19.5380    11.2020    24.5670   -15.4870 
  128.5000     2.1810    48.4010    19.9440    19.1880    12.5270    24.5790   -15.3250 
  128.6250     2.1700    45.4670    20.3640    19.4630    13.1400    24.6120   -15.1600 
