~V
VERS. 2.00: Ver 2.00
~W
STRT.M 20.0000:
STOP.M 266.0000:
STEP.M 0.1250:
NULL. -999.2500:
UWI. F10773:
~C
DEPT.M :
DEN.GM/CC :
GR.API :
RML.OHMM :
RI. :
RXO.OHMM :
CALI.CM :
SP.MV :
~A
# ...
  211.2500     2.3740    65.1040    14.5470    16.0890    18.0050    23.9360    -9.0170 
  211.3750     2.3830    67.3350    12.8140    13.9530    13.7590    23.9700    -8.9200 
  211.5000     2.3780    67.9640    12.0560    12.7220    12.4850    24.0070    -8.7970 
  211.6250     2.3680    65.2240    12.1710    12.3540    10.8610    24.0100    -8.6350 
  211.7500     2.3670    63.0500    12.7930    12.5160    11.2240    24.0140    -8.4640 
  211.8750     2.3730    63.5690    13.7250    13.0570    11.6630    24.0350    -8.3020 
  212.0000     2.3780    65.3390    14.8190    13.8920    10.6820    24.0550    -8.1990 
  212.1250     2.3670    66.1200    16.0060    15.0490    13.0570    24.1190    -8.1380 
  212.2500     2.3400    64.3690    17.2510    16.4670    17.0820    24.1880    -8.0670 
  212.3750     2.3050    61.7230    18.5190    18.0420    20.2880    24.2760    -7.9700 
  212.5000     2.2710    60.8980    19.7100    19.5620    21.5240    24.4110    -7.8570 
  212.6250     2.2420    61.8400    20.6490    20.7280    22.5390    24.5810    -7.7440 
  212.7500     2.2230    61.7920    21.3420    21.5020    23.1690    24.6880    -7.6520 
  212.8750     2.2200    59.5770    21.9140    21.9990    23.7040    24.7140    -7.6070 
  213.0000     2.2430    56.0860    22.5380    22.4060    24.8630    24.7720    -7.5760 
  213.1250     2.2980    53.4190    23.3460    22.9010    24.1870    24.8660    -7.5230 
  213.2500     2.3650    54.3410    24.2620    23.5130    25.0250    24.8690    -7.4330 
  213.3750     2.4170    57.4100    25.1670    24.1840    27.1050    24.8080    -7.3240 
  213.5000     2.4370    58.2670    25.9490    24.8060    27.8380    24.7370    -7.1920 
  213.6250     2.4170    55.8690    26.5280    25.2170    27.0940    24.7430    -7.1340 
  213.7500     2.3820    54.4180    26.9280    25.3740    26.2040    24.7940    -7.2250 
  213.8750     2.3470    54.8140    27.1540    25.3040    26.0840    24.8560    -7.4220 
  214.0000     2.3250    55.1500    27.2370    25.1160    26.0990    24.8770    -7.6680 
  214.1250     2.3150    57.2820    27.2950    24.9910    26.2010    24.8620    -7.9440 
  214.2500     2.3160    59.6360    27.5240    25.0600    26.3680    24.8350    -8.2200 
  214.3750     2.3240    58.7810    28.0530    25.3620    26.6830    24.8080    -8.4870 
  214.5000     2.3380    56.4070    28.8560    25.8640    27.4710    24.7860    -8.7720 
  214.6250     2.3510    56.7850    29.6700    26.4710    28.8610    24.7650    -9.1080 
  214.7500     2.3580    58.4230    30.1310    27.0210    29.9080    24.7330    -9.4130 
  214.8750     2.3560    58.1340    30.0500    27.3910    29.8110    24.6950    -9.6270 
  215.0000     2.3460    56.4340    29.4690    27.5040    28.7600    24.6620    -9.7790 
  215.1250     2.3300    55.6270    28.6540    27.3230    27.5820    24.6520    -9.9120 
  215.2500     2.3130    55.5330    27.9950    26.9840    26.5830    24.6570   -10.0760 
  215.3750     2.2950    56.4450    27.6810    26.6120    25.6620    24.6970   -10.2710 
  215.5000     2.2790    56.8640    27.7290    26.3190    25.4230    24.7590   -10.4570 
  215.6250     2.2670    55.7230    28.0140    26.1900    25.8650    24.8330   -10.5100 
  215.7500     2.2600    55.0490    28.2580    26.1790    26.2510    24.8610   -10.4020 
  215.8750     2.2580    55.0710    28.2730    26.1960    26.2210    24.8510   -10.2020 
  216.0000     2.2600    54.9150    27.9500    26.1060    26.0390    24.8350    -9.9810 
  216.1250     2.2630    55.2080    27.2340    25.7280    25.9700    24.8460    -9.7840 
  216.2500     2.2650    56.8550    26.2880    25.0570    25.2450    24.8400    -9.5990 
  216.3750     2.2660    58.7780    25.2750    24.1700    24.1790    24.8350    -9.4610 
  216.5000     2.2650    59.9010    24.3940    23.2370    22.7190    24.8340    -9.3520 
  216.6250     2.2650    60.8770    23.9250    22.5340    21.1660    24.8410    -9.2180 
  216.7500     2.2650    61.1040    23.9650    22.2630    20.7450    24.8550    -9.1170 
  216.8750     2.2640    59.8530    24.5910    22.6050    21.2750    24.8350    -9.1220 
  217.0000     2.2640    57.9710    25.8660    23.7290    22.5150    24.7620    -9.2970 
  217.1250     2.2640    56.4830    28.0570    25.9490    25.1080    24.7070    -9.6410 
  217.2500     2.2650    57.0870    31.2610    29.2020    28.8860    24.8300   -10.0510 
  217.3750     2.2650    57.4640    35.6960    33.4700    34.4060    25.0080   -10.4890 
  217.5000     2.2670    56.8980    41.4280    38.6080    43.7100    25.1830   -11.0180 
  217.6250     2.2690    57.7240    48.3000    44.3990    51.1510    25.2740   -11.6850 
  217.7500     2.2700    59.4130    55.5230    50.4550    54.6670    25.2590   -12.3860 
  217.8750     2.2660    59.4270    62.5370    56.6470    52.4570    25.2140   -12.9990 
  218.0000     2.2530    56.3240    68.7540    62.7710    51.5110    25.1930   -13.4540 
  218.1250     2.2340    54.1730    72.5750    67.7240    65.5360    25.1290   -13.8380 
  218.2500     2.2280    53.5900    72.3970    69.8410    77.1200    25.0090   -14.2530 
  218.3750     2.2570    52.5650    66.9650    67.4880    85.0790    24.9060   -14.7050 
  218.5000     2.3410    51.8570    56.6910    60.1650    83.1640    24.7390   -15.1140 
  218.6250     2.4830    52.2820    43.8090    48.8300    64.7400    24.5300   -15.3760 
  218.7500     2.6450    53.8850    31.7320    36.7990    38.9060    24.4270   -15.4860 
  218.8750     2.7820    55.4580    22.0290    26.1280    23.0590    24.3780   -15.5050 
  219.0000     2.8520    56.2430    15.0430    17.8170    16.5000    24.3200   -15.3890 
  219.1250     2.8190    56.7000    10.6830    12.2700    10.8570    24.2080   -14.8740 
  219.2500     2.7110    57.9230     7.9210     8.6190     6.8180    23.9840   -14.0060 
  219.3750     2.5680    60.2910     6.2900     6.4070     4.7370    23.7670   -12.9090 
  219.5000     2.4350    63.4020     5.4700     5.2680     4.0520    23.7310   -11.7510 
  219.6250     2.3590    66.8200     5.3510     5.0550     4.2090    23.7560   -10.6750 
  219.7500     2.3360    69.2690     5.7140     5.4540     5.0050    23.6480    -9.6820 
  219.8750     2.3510    70.1960     6.4680     6.3110     6.4320    23.4850    -8.7020 
  220.0000     2.3800    70.9970     7.4820     7.4050     7.4950    23.4480    -7.7290 
  220.1250     2.4040    75.0530     8.5150     8.4040     7.6130    23.5530    -7.0700 
  220.2500     2.4170    80.0560     9.2870     9.0690     7.8070    23.6280    -6.8890 
  220.3750     2.4220    82.8320     9.6510     9.3600     8.1580    23.6370    -7.0710 
  220.5000     2.4220    84.0150     9.6230     9.4020     8.5610    23.6690    -7.3870 
  220.6250     2.4220    85.3100     9.3620     9.3860     8.7340    23.7940    -7.6810 
  220.7500     2.4210    86.1580     9.1450     9.4300     8.6980    23.9990    -7.9790 
  220.8750     2.4170    84.3940     9.1200     9.5400     8.9990    24.1990    -8.3770 
  221.0000     2.4100    81.4600     9.3160     9.6900     9.5820    24.2700    -8.9980 
  221.1250     2.3990    79.5300     9.6610     9.8710    10.1360    24.3660    -9.7720 
  221.2500     2.3880    79.7800    10.0130    10.0980    10.4190    24.5150   -10.4480 
  221.3750     2.3790    81.3140    10.3260    10.3840    10.6170    24.6180   -10.9770 
  221.5000     2.3730    83.3070    10.6200    10.6970    11.1570    24.6570   -11.3790 
  221.6250     2.3740    83.7550    10.9330    10.9480    11.7560    24.6350   -11.7270 
  221.7500     2.3790    82.5560    11.2670    11.0830    12.4100    24.5780   -12.0560 
  221.8750     2.3890    80.9390    11.6290    11.1220    12.8570    24.5260   -12.3770 
  222.0000     2.4020    81.8140    12.0770    11.1600    12.7210    24.5290   -12.6730 
  222.1250     2.4210    85.3410    12.8090    11.4190    12.0390    24.5460   -12.8630 
  222.2500     2.4500    85.5650    13.9870    12.0930    13.9470    24.6030   -12.9230 
  222.3750     2.4860    78.5450    15.7630    13.3680    18.8040    24.6250   -12.9270 
