~V
VERS. 2.00: Ver 2.00
~W
STRT.M 55.0000:
STOP.M 262.0000:
STEP.M 0.1250:
NULL. -999.2500:
UWI. F10759:
~C
DEPT.M :
DEN.GM/CC :
GR.API :
RML.OHMM :
RI. :
RXO.OHMM :
CALI.CM :
SP.MV :
~A
# ...
  223.7500     2.1120    49.1310    82.8730    75.7790    64.2220    23.1520   -18.9270 
  223.8750     2.1080    48.3580    89.0130    81.7000    72.6050    23.1810   -18.8790 
  224.0000     2.1160    49.9420    95.2790    88.1450    79.4860    23.5030   -18.7930 
  224.1250     2.1370    51.2060   100.1340    93.9120    82.9440    23.8040   -18.6710 
  224.2500     2.1620    51.2280   101.9630    97.4550    87.8700    23.8800   -18.5280 
  224.3750     2.1860    51.5710    99.3670    97.2610    91.3230    23.8930   -18.3570 
  224.5000     2.2030    53.0930    95.5340    92.5990    92.9470    23.8920   -18.1520 
  224.6250     2.2110    54.9190    89.1170    83.9920    88.7020    23.8830   -17.9330 
  224.7500     2.2110    54.2140    80.9420    74.6360    75.5160    23.8540   -17.7380 
  224.8750     2.2040    53.4440    73.7250    66.7870    59.6530    23.8440   -17.5610 
  225.0000     2.1970    56.3660    68.5050    61.7090    47.4620    23.8750   -17.3900 
  225.1250     2.1930    59.5340    67.2370    60.2010    43.8780    23.8820   -17.2340 
  225.2500     2.1940    58.9210    68.3160    61.2210    48.6580    23.8930   -17.0810 
  225.3750     2.1970    57.3170    70.2770    63.6630    61.6400    23.9430   -16.9290 
  225.5000     2.1970    58.1110    71.5330    66.0630    73.2870    23.9520   -16.7860 
  225.6250     2.1920    58.4130    70.7440    66.8670    71.4140    23.8560   -16.6650 
  225.7500     2.1870    57.3270    68.4120    66.0370    63.1490    23.8690   -16.5350 
  225.8750     2.1840    57.0320    65.3640    64.1100    55.9950    23.8890   -16.3960 
  226.0000     2.1890    57.3130    62.3410    61.7800    47.6330    23.8930   -16.2790 
  226.1250     2.2020    57.1380    59.7450    59.5510    43.6230    23.8930   -16.1480 
  226.2500     2.2160    55.9040    57.3330    57.3910    47.7420    23.8910   -16.0440 
  226.3750     2.2280    55.2120    54.7800    55.0260    52.8510    23.8860   -15.9680 
  226.5000     2.2330    56.0560    51.9160    52.2780    47.4620    23.8400   -15.9070 
  226.6250     2.2310    57.8770    48.8850    49.2360    37.6070    23.9230   -15.8660 
  226.7500     2.2240    58.7170    46.2590    46.4160    36.4260    23.9530   -15.8700 
  226.8750     2.2170    58.5590    44.7520    44.4560    36.0210    23.9360   -15.9020 
  227.0000     2.2090    58.5920    45.0890    44.0570    32.5400    23.9310   -15.9620 
  227.1250     2.2010    59.0200    48.2610    46.2330    31.5200    23.9480   -16.0660 
  227.2500     2.1930    58.8200    54.0830    50.9190    36.7940    23.9560   -16.1630 
  227.3750     2.1850    58.0850    62.3940    58.0100    46.6970    23.8870   -16.2520 
  227.5000     2.1780    56.7220    72.6220    66.9800    57.1330    23.8240   -16.3340 
  227.6250     2.1730    54.9430    83.5680    76.6840    69.2910    23.9550   -16.4070 
  227.7500     2.1700    52.9640    93.5980    85.5120    77.8000    23.9660   -16.4410 
  227.8750     2.1690    50.6470   102.0760    92.7910    78.8360    23.9200   -16.4380 
  228.0000     2.1680    49.3800   109.3820    98.8340    77.1800    23.8850   -16.4010 
  228.1250     2.1680    52.0430   116.1910   104.3490    83.6240    23.8620   -16.3340 
  228.2500     2.1700    56.2990   122.5640   109.6090    93.2320    23.8500   -16.2340 
  228.3750     2.1730    57.5580   127.7570   114.1330   103.0200    23.8410   -16.1190 
  228.5000     2.1770    55.3940   130.7460   117.1270   109.2890    23.8400   -15.9870 
  228.6250     2.1810    54.6930   130.0030   117.2860   112.3070    23.8470   -15.8290 
  228.7500     2.1850    56.9780   125.6050   114.4460   108.8790    23.8380   -15.6450 
  228.8750     2.1910    57.4780   117.7280   108.5330   100.6050    23.8290   -15.4600 
  229.0000     2.2040    53.6530   107.1500    99.9700    96.0980    23.8280   -15.2730 
  229.1250     2.2240    49.9050    95.3120    89.7230    90.8930    23.8250   -15.0470 
  229.2500     2.2470    51.6110    84.1670    79.5990    78.7050    23.8070   -14.8180 
  229.3750     2.2680    56.6880    74.8190    70.7490    62.9360    23.7430   -14.5800 
  229.5000     2.2820    58.9860    67.7430    63.7920    50.9850    23.6850   -14.3270 
  229.6250     2.2870    55.1550    63.1880    59.0840    48.2490    23.6670   -14.0410 
  229.7500     2.2910    50.8890    60.4620    56.0340    52.2520    23.6210   -13.7470 
  229.8750     2.3010    49.5020    59.3360    54.4470    54.5590    23.4630   -13.4160 
  230.0000     2.3040    51.1810    59.6220    54.1880    55.6690    23.2650   -13.0390 
  230.1250     2.3250    54.7860    61.2070    55.2410    57.3440    23.2480   -12.6510 
  230.2500     2.3440    57.9650    63.3950    57.0500    62.0940    23.1500   -12.2390 
  230.3750     2.3530    57.7420    65.4190    59.0210    72.6500    23.0440   -11.7860 
  230.5000     2.3510    52.5210    66.2050    60.2360    87.2540    23.0200   -11.3120 
  230.6250     2.3590    47.0000    64.3640    59.3570    88.7550    23.2980   -10.8580 
  230.7500     2.3920    48.3030    60.3910    56.4680    81.8090    23.7110   -10.4270 
  230.8750     2.4500    57.1280    55.5060    52.3900    70.4930    23.7250   -10.0310 
  231.0000     2.5180    65.8950    51.2160    48.4140    55.2230    23.6950    -9.6820 
  231.1250     2.5720    66.3330    48.6990    45.8310    46.2740    23.6910    -9.3800 
  231.2500     2.6020    63.4420    47.1260    44.3000    42.8810    23.7330    -9.1330 
  231.3750     2.6170    60.8520    44.7170    42.3320    42.1980    23.7420    -8.9540 
  231.5000     2.6230    58.8130    39.4770    37.8780    44.8690    23.7520    -8.8340 
  231.6250     2.6130    57.3090    30.7150    29.9510    50.4260    23.6980    -8.7530 
  231.7500     2.5760    56.3220    21.4580    21.3850    47.0360    23.5250    -8.7030 
  231.8750     2.5140    54.1680    14.0460    14.3940    28.3250    23.3690    -8.6750 
  232.0000     2.4370    51.9480     9.2780     9.7050    11.6230    23.2710    -8.6690 
  232.1250     2.3670    53.6670     6.9720     7.1980     6.3550    23.2890    -8.6800 
  232.2500     2.3140    56.6150     5.9320     5.8820     5.1410    23.4010    -8.7210 
  232.3750     2.2850    56.6590     5.6180     5.3190     5.3210    23.4640    -8.7710 
  232.5000     2.2770    52.6210     5.6680     5.2120     5.4810    23.4750    -8.8340 
  232.6250     2.2880    47.1660     5.8210     5.3320     5.1210    23.4280    -8.9030 
  232.7500     2.3100    42.9430     5.8980     5.4560     4.6030    23.4130    -8.9560 
  232.8750     2.3330    40.9360     5.8720     5.5050     4.4830    23.4020    -8.9770 
  233.0000     2.3500    41.2930     5.7790     5.4770     4.6860    23.3480    -8.9500 
  233.1250     2.3510    42.3380     5.6510     5.3910     4.8100    23.3380    -8.9160 
  233.2500     2.3430    42.0010     5.5190     5.2800     4.6130    23.3350    -8.8680 
  233.3750     2.3350    39.1570     5.4190     5.1710     4.4150    23.3360    -8.8420 
  233.5000     2.3350    35.7570     5.3850     5.0890     4.5020    23.3380    -8.8590 
  233.6250     2.3470    36.5180     5.4640     5.0660     4.6610    23.3490    -8.9270 
  233.7500     2.3640    39.7230     5.6500     5.1070     4.6790    23.3590    -9.0420 
  233.8750     2.3810    42.1330     5.9310     5.2140     4.7700    23.3780    -9.2290 
  234.0000     2.3920    43.9160     6.2810     5.3740     5.0010    23.3270    -9.5060 
  234.1250     2.3940    47.5480     6.6540     5.5690     5.1370    23.2100    -9.8430 
  234.2500     2.3890    52.4310     6.9680     5.7420     5.3400    22.9080   -10.2010 
  234.3750     2.3760    56.1200     7.1340     5.8260     5.6440    22.6840   -10.5370 
  234.5000     2.3590    57.8630     7.1010     5.7700     5.9830    22.6350   -10.8360 
  234.6250     2.3430    59.4660     6.9160     5.5890     6.0070    22.8570   -11.1320 
  234.7500     2.3350    60.7740     6.7760     5.4150     5.8800    23.2410   -11.4740 
  234.8750     2.3390    62.1390     6.8470     5.3600     5.3020    23.4000   -11.8340 
