~V
VERS. 2.00: Ver 2.00
~W
STRT.M 50.0000:
STOP.M 240.0000:
STEP.M 0.1250:
NULL. -999.2500:
UWI. F10736:
~C
DEPT.M :
DEN.GM/CC :
GR.API :
RML.OHMM :
RI. :
RXO.OHMM :
CALI.CM :
SP.MV :
~A
# ...
   61.2500     2.3510    48.4230     5.7100     6.8380     7.7140    25.3360    -6.2230 
   61.3750     2.3740    49.6180     5.8830     7.1940     7.5080    25.2360    -7.2330 
   61.5000     2.3420    51.7940     6.0240     7.4020     6.8920    25.0890    -7.8880 
   61.6250     2.2620    55.0150     6.1580     7.5430     6.3840    25.0220    -8.2730 
   61.7500     2.1770    57.1830     6.3170     7.7040     6.2500    25.0070    -8.5270 
   61.8750     2.1360    57.6530     6.4800     7.8730     6.2800    25.0340    -8.6980 
   62.0000     2.1430    56.7410     6.5700     7.9590     6.5660    25.1100    -8.8150 
   62.1250     2.1790    54.8330     6.4650     7.8180     6.9150    25.2140    -8.8970 
   62.2500     2.2180    54.7940     6.2120     7.4800     6.6560    25.2760    -8.9740 
   62.3750     2.2410    58.8780     5.9350     7.0650     5.7130    25.2950    -9.0590 
   62.5000     2.2410    65.2870     5.7520     6.7190     5.0080    25.2970    -9.1470 
   62.6250     2.2210    67.7860     5.7590     6.5760     5.1360    25.2870    -9.2090 
   62.7500     2.2010    65.5240     5.9310     6.6300     5.7880    25.2620    -9.2190 
   62.8750     2.1950    61.4290     6.2250     6.8430     6.4280    25.2410    -9.1760 
   63.0000     2.2060    58.4900     6.5480     7.1220     6.7540    25.2540    -9.1080 
   63.1250     2.2400    57.8430     6.7590     7.3190     7.2960    25.3070    -9.0580 
   63.2500     2.2890    58.4370     6.8050     7.3530     8.5950    25.3490    -9.0440 
   63.3750     2.3250    58.7570     6.7170     7.2300     8.7050    25.3620    -9.0690 
   63.5000     2.3250    58.0010     6.5800     7.0250     7.7690    25.3450    -9.1340 
   63.6250     2.2930    56.6750     6.4820     6.8390     6.2040    25.2810    -9.2370 
   63.7500     2.2550    56.5660     6.4380     6.7220     5.8310    25.1880    -9.3520 
   63.8750     2.2300    57.3970     6.4290     6.6710     5.9870    25.1120    -9.4630 
   64.0000     2.2250    59.0640     6.4460     6.6810     6.4700    25.0780    -9.5650 
   64.1250     2.2380    60.8550     6.5450     6.7920     6.6120    25.0720    -9.6680 
   64.2500     2.2600    61.2090     6.7990     7.0440     6.1200    25.0720    -9.7730 
   64.3750     2.2750    59.0870     7.2730     7.4800     5.9450    25.0720    -9.8630 
   64.5000     2.2820    56.4200     7.9550     8.0850     6.6590    25.0720    -9.9240 
   64.6250     2.2990    56.7590     8.6570     8.7050     7.4280    25.0760    -9.9690 
   64.7500     2.3200    57.8300     9.0350     9.0570     7.6520    25.0960   -10.0310 
   64.8750     2.3240    58.4190     8.8500     8.9270     7.6080    25.1430   -10.1280 
   65.0000     2.3110    60.6950     8.1370     8.3010     7.0480    25.1960   -10.2560 
   65.1250     2.3030    64.7250     7.2170     7.3980     6.0530    25.2170   -10.3870 
   65.2500     2.3010    66.2970     6.4810     6.5850     5.3370    25.2220   -10.5020 
   65.3750     2.2880    65.6450     6.0920     6.0420     5.2670    25.2220   -10.5960 
   65.5000     2.2690    64.8590     6.0980     5.8480     5.3100    25.2220   -10.6690 
   65.6250     2.2520    64.1870     6.5500     6.0680     5.5310    25.2110   -10.7050 
   65.7500     2.2360    62.2740     7.3240     6.6000     5.9480    25.1850   -10.7160 
   65.8750     2.2020    60.1400     8.3120     7.3610     6.6730    25.1590   -10.7290 
   66.0000     2.1480    58.3610     9.3560     8.2300     7.3240    25.1470   -10.7690 
   66.1250     2.0920    57.3340    10.2380     9.0340     7.9030    25.1470   -10.8420 
   66.2500     2.0630    56.7580    10.8320     9.6270     8.3450    25.1470   -10.9180 
   66.3750     2.0700    56.2380    11.0960     9.9340     8.3300    25.1460   -10.9710 
   66.5000     2.1090    55.0620    11.0950     9.9710     8.0540    25.1300   -10.9900 
   66.6250     2.1620    54.2650    10.9550     9.8130     7.8640    25.0830   -10.9840 
   66.7500     2.1900    54.3360    10.8350     9.6150     7.7730    25.0260   -10.9610 
   66.8750     2.1790    53.2430    10.8080     9.4610     7.7760    25.0010   -10.9070 
   67.0000     2.1500    50.6020    10.8970     9.3930     7.6920    24.9980   -10.8090 
   67.1250     2.1340    49.1060    11.0450     9.3990     7.4970    24.9980   -10.6670 
   67.2500     2.1500    48.7110    11.1170     9.3890     7.3340    24.9980   -10.5020 
   67.3750     2.1900    48.4950    11.0210     9.2910     7.4670    24.9920   -10.3200 
   67.5000     2.2350    49.4620    10.7360     9.0750     7.6750    24.9720   -10.1240 
   67.6250     2.2650    54.0820    10.3330     8.7620     7.4380    24.9370    -9.9210 
   67.7500     2.2630    59.4900     9.9800     8.4530     6.9620    24.8830    -9.7260 
   67.8750     2.2450    63.8500     9.7810     8.2200     6.7570    24.7910    -9.5540 
   68.0000     2.2260    67.3790     9.7550     8.0920     6.9240    24.7260    -9.4210 
   68.1250     2.2190    67.5950     9.8300     8.0490     7.0060    24.7040    -9.3470 
   68.2500     2.2280    65.6540     9.8390     7.9930     6.9080    24.7040    -9.3340 
   68.3750     2.2420    64.0840     9.6540     7.8370     6.6890    24.7040    -9.3880 
   68.5000     2.2540    65.1600     9.2300     7.5390     6.4450    24.7040    -9.5080 
   68.6250     2.2660    68.1590     8.6200     7.1200     6.1670    24.6990    -9.6770 
   68.7500     2.2790    71.8540     8.0110     6.7000     5.8990    24.6830    -9.8470 
   68.8750     2.2920    75.2970     7.5760     6.3930     5.7840    24.6570    -9.9760 
   69.0000     2.3080    76.6870     7.4810     6.3100     5.9380    24.6430   -10.0350 
   69.1250     2.3300    74.3780     7.9650     6.6200     6.2370    24.6700   -10.0170 
   69.2500     2.3690    70.8810     9.0260     7.3520     6.5880    24.7480    -9.9610 
   69.3750     2.4260    68.3830    10.6100     8.5200     7.5670    24.8450    -9.8910 
   69.5000     2.4920    66.4900    12.4530     9.9950    10.3530    24.9090    -9.8250 
   69.6250     2.5400    63.0850    13.8630    11.3110    14.6430    24.9130    -9.7780 
   69.7500     2.5350    59.8870    14.2400    11.9050    16.0680    24.8710    -9.7530 
   69.8750     2.4750    58.6270    13.4740    11.5630    12.2980    24.7970    -9.7390 
   70.0000     2.3790    59.2520    12.0070    10.5440     8.6460    24.7230    -9.7160 
   70.1250     2.2860    62.0210    10.5840     9.3880     7.1210    24.6680    -9.6630 
   70.2500     2.2330    65.6260     9.6660     8.5260     6.6220    24.6120    -9.6020 
   70.3750     2.2170    68.5740     9.3020     8.0600     6.3340    24.5820    -9.5580 
   70.5000     2.2280    71.2840     9.3010     7.9130     6.4080    24.6350    -9.5350 
   70.6250     2.2560    73.7970     9.3260     7.8860     7.1070    24.8480    -9.5100 
   70.7500     2.2990    74.4570     9.0890     7.7450     8.7170    25.1380    -9.4650 
   70.8750     2.3320    73.3000     8.5430     7.4170     9.7820    25.3140    -9.4050 
   71.0000     2.3310    73.9350     7.8930     6.9980     7.1630    25.3660    -9.3400 
   71.1250     2.3020    77.9560     7.5240     6.7220     5.7920    25.3520    -9.2770 
   71.2500     2.2730    79.1220     7.6000     6.7270     5.6640    25.3060    -9.2060 
   71.3750     2.2550    74.3230     8.1110     7.0420     6.5660    25.2300    -9.1170 
   71.5000     2.2430    66.0830     8.9160     7.6040     7.5150    25.1680    -9.0180 
   71.6250     2.2330    60.7680     9.6960     8.2210     7.6620    25.1460    -8.9360 
   71.7500     2.2350    59.7970    10.0930     8.6070     7.8540    25.1480    -8.8740 
   71.8750     2.2400    61.8030    10.0000     8.6400     7.7460    25.1680    -8.8240 
   72.0000     2.2350    66.2840     9.6010     8.4080     6.9640    25.2010    -8.7760 
   72.1250     2.2220    71.3830     9.2460     8.1390     6.8270    25.2070    -8.7360 
   72.2500     2.2130    72.5110     9.1880     8.0350     6.6790    25.1670    -8.7030 
   72.3750     2.2000    70.3310     9.5240     8.1880     6.8100    25.0850    -8.6710 
