~V
VERS. 2.00: Ver 2.00
~W
STRT.M 40.0000:
STOP.M 236.0000:
STEP.M 0.1250:
NULL. -999.2500:
UWI. F10781:
~C
DEPT.M :
GR.API :
RML.OHMM :
RI. :
RXO.OHMM :
CALI.CM :
SP.MV :
DEN.GM/CC :
~A
# ...
   62.5000    54.7230    11.0230    11.8720    10.0750    25.3980    -4.5080     2.1730 
   62.6250    53.3480    10.9620    11.8150     9.8320    25.3430    -4.6690     2.1800 
   62.7500    54.2470    10.4570    11.4240     9.5460    25.2750    -4.8220     2.1990 
   62.8750    55.7300     9.5720    10.7070     9.1700    25.1970    -4.9810     2.2220 
   63.0000    58.2180     8.5250     9.7780     8.5860    25.1260    -5.1680     2.2460 
   63.1250    65.6270     7.6230     8.8360     7.5250    25.0510    -5.4010     2.2730 
   63.2500    75.0090     6.9910     8.0380     6.2890    24.9930    -5.6660     2.3030 
   63.3750    80.2370     6.6010     7.4290     5.6480    24.9470    -5.9420     2.3320 
   63.5000    78.8630     6.3480     6.9880     5.3290    24.9270    -6.2140     2.3480 
   63.6250    75.0950     6.1320     6.6920     5.7010    24.9030    -6.4870     2.3410 
   63.7500    72.2620     5.9320     6.5000     5.7470    24.8840    -6.7750     2.3150 
   63.8750    68.5990     5.8400     6.4450     5.1450    24.8540    -7.0870     2.2840 
   64.0000    64.8680     5.9940     6.5950     4.6960    24.8270    -7.4160     2.2560 
   64.1250    64.0030     6.5780     7.0840     5.0750    24.7870    -7.7490     2.2350 
   64.2500    63.0140     7.5540     7.8910     6.5650    24.7550    -8.0670     2.2180 
   64.3750    59.0940     8.8120     8.9450     8.4130    24.7240    -8.3490     2.2010 
   64.5000    54.8580    10.1160    10.0700     9.4410    24.6980    -8.6000     2.1850 
   64.6250    55.6080    11.0710    10.9460     9.7440    24.6730    -8.8230     2.1720 
   64.7500    58.6590    11.5380    11.4070    10.1230    24.6590    -9.0370     2.1670 
   64.8750    59.5880    11.6000    11.4670    10.2890    24.6460    -9.2510     2.1720 
   65.0000    59.3420    11.4550    11.2810    10.3220    24.6250    -9.4730     2.1830 
   65.1250    60.1720    11.2760    11.0270    10.3680    24.6200    -9.7140     2.1950 
   65.2500    60.8830    11.1500    10.8240    10.2780    24.6220    -9.9690     2.2050 
   65.3750    60.4070    11.1020    10.7010    10.0940    24.6370   -10.2190     2.2100 
   65.5000    59.9140    11.1350    10.6570     9.7620    24.6670   -10.4370     2.2120 
   65.6250    60.5130    11.2120    10.6820     9.2680    24.7430   -10.5950     2.2140 
   65.7500    60.1830    11.2430    10.7230     8.9610    24.8340   -10.7170     2.2160 
   65.8750    59.5880    11.1450    10.7210     8.9230    24.9400   -10.8110     2.2170 
   66.0000    60.2280    10.8670    10.6030     9.0470    25.0330   -10.8810     2.2170 
   66.1250    62.1120    10.4070    10.2840     9.1220    25.1170   -10.9280     2.2160 
   66.2500    64.0520     9.8570     9.8100     9.0230    25.1720   -10.9620     2.2140 
   66.3750    64.9900     9.2660     9.2530     8.4790    25.2210   -11.0070     2.2080 
   66.5000    64.1440     8.6950     8.7100     7.3540    25.2440   -11.0930     2.1950 
   66.6250    63.2160     8.2450     8.2880     6.0910    25.2720   -11.2260     2.1830 
   66.7500    64.6950     7.9470     7.9990     5.8040    25.2930   -11.3930     2.1810 
   66.8750    68.4200     7.7710     7.8020     6.2180    25.3240   -11.5720     2.1940 
   67.0000    72.0100     7.6240     7.6230     6.8980    25.3420   -11.7380     2.2150 
   67.1250    72.6340     7.3820     7.3640     7.5590    25.3610   -11.8310     2.2340 
   67.2500    70.9370     7.0220     7.0080     7.2150    25.3490   -11.8240     2.2480 
   67.3750    70.5390     6.6150     6.6050     6.2510    25.3150   -11.6900     2.2650 
   67.5000    74.4210     6.2890     6.2490     5.4810    25.2550   -11.4420     2.2930 
   67.6250    80.2440     6.1840     6.0530     4.9910    25.1870   -11.1260     2.3380 
   67.7500    83.0870     6.2880     6.0310     5.6570    25.1090   -10.8210     2.3860 
   67.8750    83.2650     6.5360     6.1510     6.6890    25.0380   -10.5710     2.4300 
   68.0000    84.0610     6.8070     6.3310     7.4250    24.9810   -10.4050     2.4610 
   68.1250    85.2780     6.9320     6.4350     7.3200    24.9330   -10.3350     2.4650 
   68.2500    84.9030     6.8460     6.3760     7.0670    24.8950   -10.3200     2.4460 
   68.3750    83.5050     6.5730     6.1400     6.2300    24.8620   -10.3200     2.4120 
   68.5000    83.7450     6.1970     5.7760     5.5150    24.8350   -10.3060     2.3810 
   68.6250    86.8750     5.8050     5.3710     4.9180    24.7850   -10.2700     2.3710 
   68.7500    88.2690     5.4510     5.0060     4.3110    24.7370   -10.2340     2.3790 
   68.8750    86.0110     5.1570     4.7200     4.0910    24.6850   -10.2090     2.3910 
   69.0000    82.7760     4.9410     4.5330     4.3550    24.6510   -10.2010     2.3950 
   69.1250    83.4380     4.8270     4.4560     4.4460    24.6200   -10.2390     2.3870 
   69.2500    86.5960     4.7880     4.4540     4.1420    24.6130   -10.3130     2.3780 
   69.3750    89.3190     4.8010     4.5050     3.9970    24.6190   -10.4020     2.3720 
   69.5000    90.5040     4.8500     4.5900     4.0530    24.6480   -10.4740     2.3710 
   69.6250    89.6910     4.9680     4.7100     4.0550    24.6720   -10.4920     2.3690 
   69.7500    89.0900     5.1860     4.8850     4.2200    24.7060   -10.4630     2.3640 
   69.8750    88.6390     5.5310     5.1510     4.5300    24.7390   -10.4010     2.3570 
   70.0000    87.1100     6.0160     5.5350     4.9450    24.7750   -10.3080     2.3540 
   70.1250    85.3050     6.6450     6.0500     5.6260    24.8120   -10.1690     2.3540 
   70.2500    84.6600     7.3060     6.5950     6.5580    24.8560   -10.0100     2.3530 
   70.3750    82.7450     7.8220     7.0060     7.3660    24.8970    -9.8640     2.3480 
   70.5000    78.4350     7.9370     7.0730     7.7010    24.9260    -9.7530     2.3370 
   70.6250    75.4470     7.3670     6.5950     7.8390    24.9570    -9.6850     2.3280 
   70.7500    76.0560     6.3960     5.8000     7.5700    24.9710    -9.6360     2.3250 
   70.8750    77.3460     5.4640     4.9990     6.5410    24.9750    -9.5850     2.3280 
   71.0000    76.6750     5.0200     4.4910     5.0640    24.9530    -9.5150     2.3330 
   71.1250    74.7690     5.6140     4.6120     4.6200    24.9270    -9.4010     2.3450 
   71.2500    70.5620     7.4350     5.4780     7.7130    24.8920    -9.2290     2.3620 
   71.3750    63.9470    10.6260     7.2450    19.1930    24.8860    -8.9970     2.3760 
   71.5000    57.9100    14.9180     9.9220    36.8250    24.9000    -8.7200     2.3700 
   71.6250    55.7640    18.9930    12.9910    37.8370    24.9690    -8.4070     2.3340 
   71.7500    56.3250    21.0900    15.2020    23.7410    25.0620    -8.0810     2.2820 
   71.8750    57.2080    20.7780    15.8980    14.8440    25.1800    -7.7560     2.2330 
   72.0000    56.9640    19.1750    15.4840    11.7440    25.3080    -7.4320     2.1990 
   72.1250    54.8940    17.8530    14.8920    11.3290    25.4220    -7.1090     2.1850 
   72.2500    53.1950    17.3550    14.6640    11.0650    25.4880    -6.7810     2.1780 
   72.3750    54.4100    17.5300    14.8170    10.9100    25.4970    -6.4530     2.1790 
   72.5000    57.9660    18.0770    15.2170    10.9200    25.4710    -6.1440     2.1930 
   72.6250    60.9180    18.7320    15.7210    11.0670    25.4080    -5.9010     2.2220 
   72.7500    62.0720    19.2810    16.1920    11.2570    25.3390    -5.7380     2.2500 
   72.8750    62.0480    19.6290    16.5610    11.5440    25.2670    -5.6750     2.2670 
   73.0000    61.0380    19.7770    16.7980    11.9460    25.2140    -5.7220     2.2670 
   73.1250    58.3750    19.7840    16.8900    12.2160    25.1700    -5.9170     2.2520 
   73.2500    56.7740    19.7510    16.8820    12.2600    25.1650    -6.2520     2.2330 
   73.3750    58.1080    19.6860    16.7750    12.1750    25.1790    -6.7020     2.2160 
   73.5000    61.6800    19.5390    16.5550    12.0070    25.2130    -7.2300     2.2040 
   73.6250    63.4220    19.1970    16.1850    11.7180    25.2520    -7.7770     2.1990 
