~V
VERS. 2.00: Ver 2.00
~W
STRT.M 59.0000:
STOP.M 248.0000:
STEP.M 0.1250:
NULL. -999.2500:
UWI. F10727:
~C
DEPT.M :
GR.API :
RML.OHMM :
RI. :
RXO.OHMM :
CALI.CM :
SP.MV :
DEN.GM/CC :
~A
# ...
  239.0000    77.9590     7.2490     6.9900    14.6410    24.2220   -14.1520     2.4750 
  239.1250    77.9590     7.2500     7.0000    10.4480    24.2100   -13.9610     2.4860 
  239.2500    77.9590     7.2400     7.0090     8.0190    24.1990   -13.8100     2.4840 
  239.3750    77.9590     7.2210     7.0100     7.6170    24.2000   -13.6870     2.4680 
  239.5000    77.9590     7.2020     7.0040     7.9970    24.2230   -13.5950     2.4430 
  239.6250    77.9590     7.1960     6.9960     7.3970    24.3440   -13.5080     2.4130 
  239.7500    77.9590     7.2090     6.9900     6.3690    24.3590   -13.3750     2.3850 
  239.8750    77.9590     7.2450     6.9930     5.8590    24.2720   -13.2070     2.3610 
  240.0000    77.9590     7.2860     6.9990     5.5300    24.2300   -13.0450     2.3400 
  240.1250    77.9590     7.3210     7.0040     5.4410    24.2400   -12.9650     2.3210 
  240.2500    77.9590     7.3430     7.0050     5.8400    24.2040   -12.9890     2.3000 
  240.3750    77.9590     7.3540     7.0060     6.4620    24.2000   -13.0560     2.2770 
  240.5000    77.9590     7.3640     7.0060     6.8040    24.2020   -13.1650     2.2570 
  240.6250    77.9590     7.3750     7.0050     6.7340    24.2120   -13.3340     2.2430 
  240.7500    77.9590     7.3770     7.0050     6.3230    24.2080   -13.5670     2.2390 
  240.8750    77.9590     7.3770     7.0050     5.8270    24.2490   -13.8660     2.2440 
  241.0000    77.9590     7.3770     7.0050     5.8440    24.2700   -14.1430     2.2570 
  241.1250    77.9590     7.3770     7.0050     6.5480    24.2040   -14.3290     2.2730 
  241.2500    77.9590     7.3770     7.0050     7.0480    24.1190   -14.4200     2.2870 
  241.3750    77.9590     7.3770     7.0050     7.3470    24.0610   -14.4650     2.2970 
  241.5000    77.9590     7.3770     7.0050     8.0850    23.9230   -14.4830     2.3020 
  241.6250    77.9590     7.3770     7.0050     8.1940    23.7980   -14.4560     2.3020 
  241.7500    77.9590     7.3770     7.0050     7.6790    23.7520   -14.4190     2.2970 
  241.8750    77.9590     7.3770     7.0050     7.1900    23.7030   -14.3480     2.2850 
  242.0000    77.9590     7.3770     7.0050     6.4820    23.6240   -14.2770     2.2660 
  242.1250    77.9590     7.3770     7.0050     6.0800    23.6420   -14.2620     2.2360 
  242.2500    77.9590     7.3770     7.0050     5.8910    23.6240   -14.2640     2.1970 
  242.3750    77.9590     7.3770     7.0050     5.4940    22.4420   -14.2610     2.1470 
  242.5000    77.9590     7.3770     7.0050     4.6730    19.9000   -14.2790     2.0890 
  242.6250    77.9590     7.3770     7.0050     3.9680    16.0360   -14.3110     2.0280 
  242.7500    77.9590     7.3770     7.0050     3.6020    12.5570   -14.3180     1.9750 
  242.8750    77.9590     7.3770     7.0050     3.5200    11.9180   -14.3450     1.9350 
  243.0000    77.9590     7.3770     7.0050     3.5050    11.7980   -14.3810     1.9100 
  243.1250    77.9590     7.3770     7.0050     3.5050    11.7960   -14.3900     1.9010 
  243.2500    77.9590     7.3770     7.0050     3.5060    11.7960   -14.3830     1.8980 
  243.3750    77.9590     7.3770     7.0050     3.5050    11.7960  -999.2500     1.8980 
  243.5000    77.9590     7.3770     7.0050     3.5050    11.7960  -999.2500     1.8970 
  243.6250    77.9590     7.3770     7.0050     3.5060    11.7960  -999.2500     1.8950 
  243.7500    77.9590     7.3770     7.0050     3.5060    11.7960  -999.2500     1.8920 
  243.8750    77.9590     7.3770     7.0050     3.5050    11.7960  -999.2500     1.8910 
  244.0000    77.9590     7.3770     7.0050     3.5050    11.7960  -999.2500     1.8900 
  244.1250    77.9590     7.3770     7.0050     3.5050    11.7960  -999.2500     1.8920 
  244.2500    77.9590     7.3770     7.0050     3.5050    11.7960  -999.2500     1.8940 
  244.3750    77.9590     7.3770     7.0050     3.5050    11.7960  -999.2500     1.8950 
  244.5000    77.9590     7.3770     7.0050     3.5050    11.7960  -999.2500     1.8960 
  244.6250    77.9590     7.3770     7.0050     3.5050    11.7960  -999.2500     1.8960 
  244.7500    77.9590     7.3770     7.0050     3.5050    11.7960  -999.2500     1.8960 
  244.8750    77.9590     7.3770     7.0050     3.5050    11.7950  -999.2500     1.8960 
  245.0000    77.9590     7.3770     7.0050     3.5050    11.7910  -999.2500     1.8970 
  245.1250    77.9590     7.3770     7.0050     3.5040    11.7930  -999.2500     1.8980 
  245.2500    77.9590     7.3770     7.0050     3.5040    11.7950  -999.2500     1.8990 
  245.3750    77.9590     7.3770     7.0050     3.5040    11.7960  -999.2500     1.9010 
  245.5000  -999.2500  -999.2500  -999.2500  -999.2500  -999.2500  -999.2500     1.9030 
  245.6250  -999.2500  -999.2500  -999.2500  -999.2500  -999.2500  -999.2500     1.9050 
  245.7500  -999.2500  -999.2500  -999.2500  -999.2500  -999.2500  -999.2500     1.9070 
  245.8750  -999.2500  -999.2500  -999.2500  -999.2500  -999.2500  -999.2500     1.9080 
  246.0000  -999.2500  -999.2500  -999.2500  -999.2500  -999.2500  -999.2500     1.9090 
  246.1250  -999.2500  -999.2500  -999.2500  -999.2500  -999.2500  -999.2500     1.9080 
  246.2500  -999.2500  -999.2500  -999.2500  -999.2500  -999.2500  -999.2500     1.9060 
  246.3750  -999.2500  -999.2500  -999.2500  -999.2500  -999.2500  -999.2500     1.9020 
  246.5000  -999.2500  -999.2500  -999.2500  -999.2500  -999.2500  -999.2500     1.8990 
  246.6250  -999.2500  -999.2500  -999.2500  -999.2500  -999.2500  -999.2500     1.8960 
  246.7500  -999.2500  -999.2500  -999.2500  -999.2500  -999.2500  -999.2500     1.8940 
  246.8750  -999.2500  -999.2500  -999.2500  -999.2500  -999.2500  -999.2500     1.8930 
  247.0000  -999.2500  -999.2500  -999.2500  -999.2500  -999.2500  -999.2500     1.8930 
  247.1250  -999.2500  -999.2500  -999.2500  -999.2500  -999.2500  -999.2500     1.8930 
  247.2500  -999.2500  -999.2500  -999.2500  -999.2500  -999.2500  -999.2500     1.8930 
  247.3750  -999.2500  -999.2500  -999.2500  -999.2500  -999.2500  -999.2500     1.8920 
  247.5000  -999.2500  -999.2500  -999.2500  -999.2500  -999.2500  -999.2500     1.8920 
  247.6250  -999.2500  -999.2500  -999.2500  -999.2500  -999.2500  -999.2500     1.8930 
  247.7500  -999.2500  -999.2500  -999.2500  -999.2500  -999.2500  -999.2500     1.8930 
  247.8750  -999.2500  -999.2500  -999.2500  -999.2500  -999.2500  -999.2500     1.8930 
  248.0000  -999.2500  -999.2500  -999.2500  -999.2500  -999.2500  -999.2500     1.8930 
