~V
VERS. 2.00: Ver 2.00
~W
STRT.M 60.0000:
STOP.M 239.0000:
STEP.M 0.1250:
NULL. -999.2500:
UWI. F10775:
~C
DEPT.M :
DEN.GM/CC :
SP.MV :
GR.API :
RML.OHMM :
RI. :
RXO.OHMM :
CALI.CM :
~A
# ...
   93.7500     2.1270    -6.0400    47.2740    21.3850    19.3060    11.9900    27.6060 
   93.8750     2.1390    -6.0530    46.7570    21.2990    19.1570    11.8010    27.6990 
   94.0000     2.1550    -6.0090    48.0480    21.3560    19.1220    11.7580    27.7890 
   94.1250     2.1700    -5.9920    49.6940    21.6590    19.2680    11.7150    27.8360 
   94.2500     2.1800    -5.9340    49.7350    22.2510    19.6510    11.7060    27.8740 
   94.3750     2.1850    -5.8020    47.4040    23.1730    20.3650    11.8510    27.9120 
   94.5000     2.1910    -5.6730    43.4360    24.3770    21.4260    12.0380    27.9600 
   94.6250     2.2070    -5.5420    40.1710    25.6550    22.7120    12.1010    28.0510 
   94.7500     2.2340    -5.4360    39.5930    26.6640    23.8740    12.1050    28.2650 
   94.8750     2.2620    -5.3870    40.1350    27.1340    24.5730    12.0990    28.5490 
   95.0000     2.2730    -5.3870    39.7400    26.9580    24.5820    11.9080    28.6420 
   95.1250     2.2540    -5.4410    38.8810    26.2240    23.8990    11.9380    28.5390 
   95.2500     2.2140    -5.5330    39.8180    25.3590    22.9890    11.9730    28.4990 
   95.3750     2.1700    -5.6710    42.2670    24.6440    22.1660    12.0620    28.5330 
   95.5000     2.1340    -5.8660    42.5010    24.2170    21.6060    12.0900    28.6100 
   95.6250     2.1150    -6.0260    39.7780    24.0830    21.3780    12.1410    28.7270 
   95.7500     2.1060    -6.2110    38.5850    24.0600    21.3100    12.2270    28.8610 
   95.8750     2.1060    -6.3450    40.2750    24.0460    21.2660    12.2410    28.9520 
   96.0000     2.1100    -6.3830    42.3330    24.0130    21.1960    12.1680    29.0050 
   96.1250     2.1120    -6.3060    42.8260    24.0180    21.1580    12.1240    29.0520 
   96.2500     2.1090    -6.0930    42.0170    24.1210    21.2160    12.1650    29.1050 
   96.3750     2.0990    -5.8710    40.6270    24.3410    21.3980    12.2470    29.1290 
   96.5000     2.0880    -5.5980    38.9960    24.6460    21.6970    12.2830    29.1420 
   96.6250     2.0820    -5.2670    38.2550    24.9330    22.0420    12.2600    29.1630 
   96.7500     2.0820    -4.9410    39.3750    25.0670    22.2860    12.2460    29.1900 
   96.8750     2.0900    -4.6250    40.9220    24.9410    22.3050    12.2650    29.2010 
   97.0000     2.1100    -4.4030    41.0540    24.5040    22.0220    12.2890    29.2000 
   97.1250     2.1420    -4.2680    41.1740    23.7550    21.4010    12.1330    29.2000 
   97.2500     2.1790    -4.2290    42.5240    22.8750    20.5980    11.7150    29.2050 
   97.3750     2.2110    -4.2500    43.9380    22.0320    19.7670    11.2170    29.2180 
   97.5000     2.2240    -4.2160    43.0390    21.3830    19.0580    11.0860    29.2420 
   97.6250     2.2110    -4.2470    42.4150    21.1030    18.6370    11.1700    29.2330 
   97.7500     2.1810    -4.2720    44.0470    21.1740    18.5190    11.2600    29.1900 
   97.8750     2.1470    -4.1990    45.6230    21.5520    18.6900    11.3440    29.1470 
   98.0000     2.1220    -4.0920    46.4330    22.1490    19.0860    11.4880    29.1240 
   98.1250     2.1170    -3.9690    46.3140    22.8640    19.6330    11.7030    29.1080 
   98.2500     2.1240    -3.8020    44.5850    23.5650    20.2100    11.8860    29.0920 
   98.3750     2.1380    -3.6170    42.1860    24.1710    20.7340    11.9940    29.0730 
   98.5000     2.1510    -3.4940    41.2910    24.6380    21.1460    12.0390    29.0080 
   98.6250     2.1580    -3.4320    42.7030    24.9730    21.4310    12.0840    28.8590 
   98.7500     2.1660    -3.3760    42.9520    25.3000    21.6950    12.0770    28.7760 
   98.8750     2.1800    -3.3760    41.5940    25.7510    22.0540    12.0360    28.7370 
   99.0000     2.2010    -3.4010    40.6990    26.4410    22.6260    12.1740    28.6050 
   99.1250     2.2220    -3.3540    41.4430    27.4480    23.5420    12.4850    28.2710 
   99.2500     2.2340    -3.3540    41.7320    28.6020    24.7290    12.8960    27.9460 
   99.3750     2.2350    -3.3450    40.0570    29.6260    26.0220    13.2900    27.7950 
   99.5000     2.2280    -3.3130    38.0760    30.1250    27.0900    13.6490    27.7640 
   99.6250     2.2170    -3.2960    39.1600    29.4880    27.2680    13.9860    27.7560 
   99.7500     2.2080    -3.2920    41.1400    27.6610    26.2380    14.1860    27.7360 
   99.8750     2.2070    -3.3520    41.4870    24.7990    23.9850    13.9680    27.7160 
  100.0000     2.2190    -3.4750    41.4830    21.3480    20.9110    13.1900    27.7240 
  100.1250     2.2500    -3.6280    44.6730    17.9510    17.6820    11.8870    27.8080 
  100.2500     2.2950    -3.6990    50.3150    15.1040    14.8850    10.5490    27.9560 
  100.3750     2.3470    -3.6820    55.5610    13.0210    12.7750     9.6680    28.1470 
  100.5000     2.3930    -3.5620    58.7840    11.7150    11.3940     9.1400    28.3920 
  100.6250     2.4140    -3.2810    58.5730    11.1220    10.7290     8.6830    28.6090 
  100.7500     2.4060    -2.9490    56.5920    10.8800    10.4710     8.2370    28.6070 
  100.8750     2.3790    -2.5340    54.9160    10.7410    10.3900     8.4360    28.2940 
  101.0000     2.3500    -2.0120    55.3500    10.5070    10.2600     8.8400    27.9600 
  101.1250     2.3380    -1.5300    58.8340    10.0540     9.8970     8.6320    27.9200 
  101.2500     2.3370    -1.0690    62.8710     9.4790     9.3730     7.8010    27.9460 
  101.3750     2.3340    -0.6500    64.6620     8.9180     8.8250     7.5910    28.0720 
  101.5000     2.3190    -0.4310    63.3010     8.4960     8.3920     7.0890    28.3380 
  101.6250     2.2940    -0.3490    61.7910     8.3110     8.1940     7.0750    28.2670 
  101.7500     2.2730    -0.3130    62.3160     8.2890     8.1870     7.2710    27.8990 
  101.8750     2.2630    -0.3800    62.4640     8.3410     8.2810     7.5690    27.5540 
  102.0000     2.2610    -0.4870    62.1070     8.3820     8.3580     7.8190    27.5270 
  102.1250     2.2650    -0.6400    64.2450     8.3710     8.3350     7.7200    27.7000 
  102.2500     2.2740    -0.9040    66.8680     8.3600     8.2720     7.6140    27.6240 
  102.3750     2.2840    -1.2110    65.9280     8.4220     8.2590     7.6300    27.4070 
  102.5000     2.2910    -1.5020    62.8330     8.6090     8.3690     7.3150    27.2800 
  102.6250     2.2900    -1.7800    61.8230     8.9110     8.6400     7.4620    27.0480 
  102.7500     2.2880    -1.9280    61.9920     9.1940     8.9530     8.3080    26.6810 
  102.8750     2.2900    -1.9310    62.0120     9.3320     9.1410     8.9590    26.4690 
  103.0000     2.3000    -1.8690    63.2940     9.2710     9.0800     8.5790    26.5000 
  103.1250     2.3150    -1.6650    64.4040     9.0800     8.7990     7.8720    26.6340 
  103.2500     2.3260    -1.4080    63.1690     8.9710     8.5310     7.8570    26.6900 
  103.3750     2.3340    -1.1700    61.7680     9.0930     8.4420     7.4790    26.6300 
  103.5000     2.3480    -0.8850    62.4290     9.5020     8.6210     7.6340    26.4650 
  103.6250     2.3780    -0.6880    61.5620    10.1580     9.0830     9.1660    26.3500 
  103.7500     2.4150    -0.7110    58.0160    10.8810     9.6520    11.6160    26.3320 
  103.8750     2.4390    -0.9730    56.8310    11.5880    10.2000    11.9450    26.2310 
  104.0000     2.4320    -1.4400    59.5170    12.3130    10.6980     9.5910    26.0750 
  104.1250     2.3800    -2.0030    58.8430    13.2610    11.2750     9.3360    25.8880 
  104.2500     2.3050    -2.5660    53.4730    14.5990    12.1120     9.7420    25.7860 
  104.3750     2.2300    -3.0640    49.5910    16.4150    13.3720    10.4470    25.7550 
  104.5000     2.1740    -3.4630    50.1480    18.6460    15.1220    11.3820    25.7610 
  104.6250     2.1480    -3.7660    48.8800    21.0620    17.2610    12.2640    25.7830 
  104.7500     2.1410    -3.9670    45.3580    23.3080    19.3780    12.7410    25.8020 
  104.8750     2.1430    -4.0750    43.9750    25.1590    21.1770    12.6840    25.8090 
