~V
VERS. 2.00: Ver 2.00
~W
STRT.M 55.0000:
STOP.M 262.0000:
STEP.M 0.1250:
NULL. -999.2500:
UWI. F10759:
~C
DEPT.M :
DEN.GM/CC :
GR.API :
RML.OHMM :
RI. :
RXO.OHMM :
CALI.CM :
SP.MV :
~A
# ...
  190.0000     2.4420    62.5940    14.2510    13.1000    11.1970    23.1840    -2.2040 
  190.1250     2.4380    60.4760    14.7140    13.5460    11.2340    23.1830    -2.2480 
  190.2500     2.4410    58.6960    14.9290    13.8150    12.5310    23.1830    -2.2950 
  190.3750     2.4480    59.3610    14.7460    13.7610    13.9390    23.1840    -2.3150 
  190.5000     2.4540    60.1140    14.1260    13.3190    13.6800    23.1920    -2.3070 
  190.6250     2.4540    59.3380    13.1900    12.5400    11.8990    23.1940    -2.3000 
  190.7500     2.4520    59.1280    12.2880    11.7110    10.0890    23.2050    -2.3070 
  190.8750     2.4500    61.0060    11.6840    11.0660     9.4760    23.2410    -2.3150 
  191.0000     2.4500    62.8890    11.5440    10.7730     9.6750    23.3370    -2.3140 
  191.1250     2.4540    62.8350    12.0070    10.9910     9.8090    23.3530    -2.3320 
  191.2500     2.4590    61.3180    12.9320    11.6490    10.2160    23.3570    -2.3530 
  191.3750     2.4660    59.3350    14.1770    12.6670    11.3080    23.3570    -2.3930 
  191.5000     2.4750    58.8640    15.5030    13.8740    13.1260    23.3570    -2.4660 
  191.6250     2.4850    61.1160    16.5160    14.9530    14.4460    23.3570    -2.5560 
  191.7500     2.4900    62.8010    16.9620    15.6090    15.5320    23.3600    -2.6310 
  191.8750     2.4850    62.7670    16.7670    15.7000    15.9220    23.3990    -2.7010 
  192.0000     2.4700    63.0760    16.0850    15.2900    14.8280    23.4190    -2.7840 
  192.1250     2.4490    63.5230    15.2340    14.6080    13.4090    23.4200    -2.8630 
  192.2500     2.4270    61.1650    14.5370    13.9640    12.4070    23.4190    -2.9460 
  192.3750     2.4090    57.7380    14.1090    13.4940    12.1080    23.4220    -3.0330 
  192.5000     2.3960    58.6320    13.9490    13.2370    12.0330    23.4230    -3.1260 
  192.6250     2.3880    63.6180    13.9910    13.1810    12.1360    23.4190    -3.2220 
  192.7500     2.3850    65.1480    14.0880    13.2170    12.2970    23.3930    -3.3270 
  192.8750     2.3880    64.5580    14.1650    13.2740    12.3770    23.3580    -3.4460 
  193.0000     2.3960    63.8520    14.1880    13.3140    12.4380    23.3500    -3.5410 
  193.1250     2.4080    63.3290    14.1550    13.3230    12.3430    23.3780    -3.6030 
  193.2500     2.4190    62.9530    14.1050    13.3220    12.3680    23.4830    -3.6660 
  193.3750     2.4270    62.8780    14.0650    13.3330    12.3420    23.5630    -3.7330 
  193.5000     2.4330    61.7180    14.0570    13.3730    12.1300    23.5840    -3.8220 
  193.6250     2.4400    57.1490    14.0870    13.4510    12.0930    23.5780    -3.9380 
  193.7500     2.4450    53.5040    14.1320    13.5440    12.4770    23.5680    -4.0450 
  193.8750     2.4460    53.7100    14.1590    13.6230    12.7460    23.5230    -4.1380 
  194.0000     2.4410    56.7910    14.1350    13.6530    12.5490    23.5030    -4.2610 
  194.1250     2.4330    59.4160    14.0290    13.6010    12.1660    23.5020    -4.4180 
  194.2500     2.4280    60.6950    13.8510    13.4760    11.8920    23.5010    -4.5760 
  194.3750     2.4310    61.4290    13.6040    13.2840    11.6650    23.4840    -4.7280 
  194.5000     2.4380    61.0990    13.2780    13.0180    11.3660    23.4340    -4.8660 
  194.6250     2.4410    60.0940    12.8690    12.6640    11.3400    23.4250    -4.9600 
  194.7500     2.4320    60.4640    12.4410    12.2730    11.1620    23.4240    -5.0430 
  194.8750     2.4150    62.8560    12.0870    11.9220     9.9320    23.4280    -5.1070 
  195.0000     2.3950    66.2440    11.9190    11.7120     8.0650    23.4490    -5.1220 
  195.1250     2.3920    68.2790    12.0780    11.7770     7.6960    23.4860    -5.0820 
  195.2500     2.3840    67.6510    12.5250    12.1140     8.7380    23.4970    -5.0210 
  195.3750     2.3900    64.9100    13.1650    12.6760    11.3130    23.4980    -4.9650 
  195.5000     2.4090    62.1020    13.8260    13.3320    13.6040    23.4930    -4.9080 
  195.6250     2.4320    60.6040    14.2600    13.8540    14.0200    23.5020    -4.8670 
  195.7500     2.4480    60.0780    14.3780    14.0910    12.9800    23.5070    -4.8510 
  195.8750     2.4540    61.4860    14.2260    14.0250    12.3840    23.4960    -4.8660 
  196.0000     2.4510    61.3810    13.9590    13.7650    11.9500    23.4260    -4.9150 
  196.1250     2.4410    57.3940    13.8020    13.5070    11.5570    23.3650    -4.9700 
  196.2500     2.4330    54.1390    13.8870    13.4200    11.6520    23.3460    -5.0180 
  196.3750     2.4280    56.4990    14.2710    13.5880    11.5070    23.3550    -5.0540 
  196.5000     2.4290    62.2080    14.9560    14.0380    11.3280    23.4360    -5.0800 
  196.6250     2.4380    64.2540    15.9180    14.7830    13.1540    23.5660    -5.1020 
  196.7500     2.4520    63.5750    17.0140    15.6920    16.2610    23.5670    -5.1410 
  196.8750     2.4670    64.6080    18.1800    16.6940    18.9600    23.5060    -5.1880 
  197.0000     2.4780    67.8350    19.4120    17.7650    21.2440    23.4060    -5.2690 
  197.1250     2.4790    68.6530    20.8030    18.9600    21.5340    23.2740    -5.3890 
  197.2500     2.4720    65.4320    22.4030    20.3260    21.2810    23.1170    -5.5220 
  197.3750     2.4620    60.2770    24.2060    21.8850    21.7700    23.1070    -5.6600 
  197.5000     2.4540    55.4900    26.1000    23.5790    24.3880    23.2670    -5.7820 
  197.6250     2.4560    55.0180    27.8360    25.2360    26.6010    23.4020    -5.8950 
  197.7500     2.4710    58.3040    29.2150    26.6580    26.2850    23.5760    -5.9860 
  197.8750     2.4970    60.9560    30.1290    27.7130    25.4090    23.6440    -6.0640 
  198.0000     2.5270    59.4090    30.5580    28.3360    26.3910    23.6490    -6.1300 
  198.1250     2.5400    54.5980    30.4930    28.4790    27.8970    23.6280    -6.2040 
  198.2500     2.5180    52.3710    30.0900    28.2800    29.3290    23.5840    -6.2950 
  198.3750     2.4590    54.7960    29.4190    27.8000    29.2080    23.5770    -6.3890 
  198.5000     2.3780    59.1300    28.5560    27.1040    26.1400    23.5730    -6.5020 
  198.6250     2.3080    61.8660    27.5540    26.2330    24.0370    23.5540    -6.6120 
  198.7500     2.2690    61.2410    26.4640    25.2440    23.6820    23.5110    -6.7190 
  198.8750     2.2640    56.8650    25.2730    24.1340    24.0150    23.4940    -6.8160 
  199.0000     2.2790    51.0650    23.9850    22.9090    23.0850    23.4560    -6.8740 
  199.1250     2.2950    49.6270    22.6690    21.6300    21.0390    23.4230    -6.8930 
  199.2500     2.2990    53.0890    21.4640    20.4260    18.9280    23.4230    -6.8710 
  199.3750     2.2960    56.4100    20.4780    19.4020    17.3920    23.4220    -6.8410 
  199.5000     2.2930    58.7010    19.7530    18.6150    16.7940    23.4220    -6.8010 
  199.6250     2.2900    61.5250    19.2760    18.0860    16.7640    23.4180    -6.7800 
  199.7500     2.2840    63.6690    18.9110    17.7020    16.6040    23.4280    -6.7530 
  199.8750     2.2750    63.8580    18.5720    17.3800    16.0840    23.4330    -6.7300 
  200.0000     2.2640    62.2950    18.2250    17.0680    15.5220    23.4330    -6.7280 
  200.1250     2.2600    60.1410    17.8920    16.7630    16.0370    23.4290    -6.7650 
  200.2500     2.2630    58.1000    17.6030    16.4900    17.7580    23.4090    -6.8200 
  200.3750     2.2740    58.3850    17.3610    16.2570    18.3080    23.3530    -6.8660 
  200.5000     2.2860    59.5390    17.1520    16.0580    15.7870    23.2840    -6.8810 
  200.6250     2.2940    59.9350    16.9660    15.8850    14.5020    23.2690    -6.8690 
  200.7500     2.2980    60.3470    16.8010    15.7290    14.2090    23.2580    -6.8530 
  200.8750     2.2990    60.6370    16.6760    15.6050    14.0890    23.2490    -6.8290 
  201.0000     2.2990    60.1170    16.6210    15.5340    13.7800    23.1930    -6.7960 
  201.1250     2.3010    59.8920    16.6630    15.5400    13.6970    23.1630    -6.7210 
