~V
VERS. 2.00: Ver 2.00
~W
STRT.M 55.0000:
STOP.M 262.0000:
STEP.M 0.1250:
NULL. -999.2500:
UWI. F10759:
~C
DEPT.M :
DEN.GM/CC :
GR.API :
RML.OHMM :
RI. :
RXO.OHMM :
CALI.CM :
SP.MV :
~A
# ...
  133.7500     2.1700    55.8670    27.5990    21.9430    16.5890    22.3080    -5.7390 
  133.8750     2.1870    57.6840    32.0040    25.7760    21.8850    22.3070    -5.4490 
  134.0000     2.2020    61.0510    35.8790    29.4970    32.7930    22.3970    -5.1840 
  134.1250     2.2030    61.2410    36.3620    30.0540    35.5110    22.4460    -4.9470 
  134.2500     2.1940    60.9780    38.0830    32.2890    45.9350    22.6750    -4.7410 
  134.3750     2.1830    58.2540    37.7760    32.8130    44.9480    22.8190    -4.5950 
  134.5000     2.1750    55.7590    35.9190    31.7870    34.3170    22.8940    -4.4940 
  134.6250     2.1710    53.9920    33.4500    29.8460    26.7610    23.1240    -4.4210 
  134.7500     2.1700    51.4640    31.2200    27.8720    23.7640    23.3120    -4.4330 
  134.8750     2.1710    49.6390    29.4170    26.1740    22.8320    23.4290    -4.4870 
  135.0000     2.1760    49.9380    28.0010    24.8190    22.2060    23.3780    -4.5670 
  135.1250     2.1820    51.7100    26.9920    23.8590    21.7940    23.2860    -4.6590 
  135.2500     2.1840    53.1620    26.4010    23.2760    20.9890    23.1660    -4.7750 
  135.3750     2.1770    53.8620    26.3300    23.1370    19.3600    23.0450    -4.8820 
  135.5000     2.1620    52.9430    26.8030    23.4850    17.8840    23.0530    -4.9890 
  135.6250     2.1450    51.1890    27.6490    24.2710    20.0640    23.0500    -5.1170 
  135.7500     2.1340    52.4900    28.3610    25.0980    22.3270    23.0730    -5.2080 
  135.8750     2.1310    56.1750    28.5180    25.5710    24.5030    23.1660    -5.2820 
  136.0000     2.1360    57.6000    27.9070    25.3940    26.4040    23.1350    -5.3730 
  136.1250     2.1430    54.3710    26.6380    24.5030    24.9630    23.0640    -5.4850 
  136.2500     2.1470    51.5450    25.3350    23.4000    21.2990    22.9460    -5.5590 
  136.3750     2.1470    52.0500    24.4640    22.5180    18.8570    22.7270    -5.6210 
  136.5000     2.1440    55.0950    24.3050    22.1760    18.0920    22.5600    -5.6600 
  136.6250     2.1420    58.8090    25.0560    22.6530    18.1630    22.4920    -5.6500 
  136.7500     2.1410    60.5420    26.4490    23.8210    18.6670    22.4160    -5.6420 
  136.8750     2.1420    59.5350    28.1670    25.4930    19.6850    22.3890    -5.6300 
  137.0000     2.1440    57.8150    29.7240    27.2730    20.9830    22.4100    -5.6420 
  137.1250     2.1440    58.0640    30.3570    28.4220    22.2730    22.3680    -5.6690 
  137.2500     2.1410    57.9340    29.8090    28.4940    23.5290    22.3670    -5.7980 
  137.3750     2.1380    55.2650    28.1580    27.4020    23.5450    22.4100    -5.9760 
  137.5000     2.1370    52.2230    25.8070    25.4340    21.0120    22.6040    -6.1850 
  137.6250     2.1450    52.5850    23.3180    23.0950    17.4200    22.7170    -6.4220 
  137.7500     2.1700    56.5430    21.1260    20.9070    15.6360    22.7240    -6.6460 
  137.8750     2.2110    61.9280    19.3860    19.0850    14.8180    22.6730    -6.8380 
  138.0000     2.2650    65.1520    18.1580    17.7310    13.8600    22.6130    -6.9670 
  138.1250     2.3110    62.4450    17.5810    17.0040    12.1760    22.4050    -7.0490 
  138.2500     2.3310    59.0960    17.5610    16.8280    10.8810    22.1550    -7.0430 
  138.3750     2.3220    58.9070    18.0330    17.1520    10.7570    21.9980    -6.9450 
  138.5000     2.2910    60.2430    18.9070    17.8950    11.6570    21.9470    -6.8200 
  138.6250     2.2580    59.0720    20.0780    18.9850    13.6630    21.8760    -6.6750 
  138.7500     2.2390    55.6260    21.3180    20.2040    15.1460    21.8330    -6.5210 
  138.8750     2.2340    53.5040    22.4450    21.3730    15.0580    21.8440    -6.3810 
  139.0000     2.2370    55.5320    23.2490    22.2870    14.7390    21.8290    -6.2590 
  139.1250     2.2420    60.5230    23.3260    22.5530    16.3090    21.8450    -6.1600 
  139.2500     2.2460    62.7360    22.5590    22.0170    18.3610    21.9590    -6.0640 
  139.3750     2.2490    60.6170    21.0340    20.7170    19.0730    22.3030    -6.0270 
  139.5000     2.2510    57.6350    19.1570    18.9960    16.5080    22.6720    -5.9840 
  139.6250     2.2500    57.8850    17.6750    17.4820    12.6630    22.8720    -5.9320 
  139.7500     2.2440    59.9250    17.1480    16.6910    11.5090    22.9730    -5.8470 
  139.8750     2.2300    61.6800    17.8750    16.9230    12.4930    23.0850    -5.7110 
  140.0000     2.2090    61.9330    19.9100    18.3410    14.8740    23.0720    -5.5630 
  140.1250     2.1830    59.2170    23.1360    21.0980    18.1230    23.0880    -5.3800 
  140.2500     2.1620    55.2030    26.6080    24.5160    22.6760    23.1940    -5.2250 
  140.3750     2.1510    52.7480    29.2000    27.5840    26.9390    23.1570    -5.0730 
  140.5000     2.1580    54.9570    29.7260    28.9500    31.8660    23.0560    -4.9770 
  140.6250     2.1830    59.9160    27.2760    27.2590    34.4580    22.9550    -4.9510 
  140.7500     2.2170    61.8490    23.2150    23.6190    29.8900    22.8130    -5.0020 
  140.8750     2.2490    62.2050    19.0440    19.5490    22.1500    22.6360    -5.1480 
  141.0000     2.2660    64.1120    15.9010    16.2460    17.0580    22.4120    -5.3500 
  141.1250     2.2590    67.2780    14.5260    14.4190    12.3750    22.1890    -5.6030 
  141.2500     2.2370    65.6520    14.6350    13.8840     9.9300    22.1150    -5.8870 
  141.3750     2.2090    59.1680    15.9410    14.5150    11.2040    22.2570    -6.2070 
  141.5000     2.1870    54.6770    17.9640    16.0630    14.0620    22.5120    -6.5710 
  141.6250     2.1790    57.3510    19.9410    18.0320    14.7540    22.6690    -6.9260 
  141.7500     2.1830    60.0000    21.1630    19.6170    14.6670    22.7480    -7.2450 
  141.8750     2.1960    58.2190    21.4240    20.3750    14.3890    22.7590    -7.5140 
  142.0000     2.2170    56.1030    21.0430    20.3780    13.6020    22.7550    -7.7360 
  142.1250     2.2410    59.4110    20.6160    20.0890    12.6090    22.7270    -7.9300 
  142.2500     2.2550    63.0430    20.4550    19.9270    12.9340    22.6240    -8.0810 
  142.3750     2.2520    62.4720    20.4440    19.8700    14.8350    22.5430    -8.1770 
  142.5000     2.2320    59.8570    20.3160    19.7020    17.9340    22.5280    -8.1820 
  142.6250     2.2060    58.9370    19.8250    19.1800    17.8010    22.5010    -8.1410 
  142.7500     2.1900    59.5520    19.0720    18.3790    14.9220    22.2440    -8.0970 
  142.8750     2.1870    60.1940    18.2560    17.4850    12.5110    21.8860    -8.0480 
  143.0000     2.1940    60.3320    17.5800    16.6990    10.5150    21.3950    -7.9930 
  143.1250     2.2030    60.1100    17.1430    16.1580     9.8670    21.2120    -7.9370 
  143.2500     2.2090    61.3080    16.8090    15.7650    10.2330    21.1780    -7.8920 
  143.3750     2.2100    63.4750    16.4790    15.4250    10.7350    21.1740    -7.8800 
  143.5000     2.2050    65.6870    16.2030    15.1390    10.2680    21.1890    -7.8710 
  143.6250     2.1950    69.3570    16.2660    15.1020     9.4390    21.2380    -7.8360 
  143.7500     2.1830    71.7560    16.8780    15.4950     9.3070    21.2500    -7.8070 
  143.8750     2.1720    68.2480    18.1030    16.4360     9.6580    21.2560    -7.7920 
  144.0000     2.1650    60.1580    19.7590    17.8720    10.9440    21.2610    -7.7920 
  144.1250     2.1650    57.4540    21.3130    19.4530    12.8450    21.2840    -7.8100 
  144.2500     2.1690    59.9950    22.1810    20.5800    13.9280    21.3220    -7.8590 
  144.3750     2.1740    58.7890    22.1070    20.8830    12.5950    21.3160    -7.9120 
  144.5000     2.1730    53.4760    21.2220    20.3540    10.7060    21.3230    -7.9750 
  144.6250     2.1620    53.6360    19.8340    19.1980    10.4870    21.5870    -8.0540 
  144.7500     2.1450    59.5210    18.3170    17.8180    11.5360    22.0430    -8.1280 
  144.8750     2.1330    64.3880    16.8450    16.4220    12.8810    22.3930    -8.1920 
