~V
VERS. 2.00: Ver 2.00
~W
STRT.M 45.0000:
STOP.M 272.0000:
STEP.M 0.1250:
NULL. -999.2500:
UWI. F10774:
~C
DEPT.M :
DEN.GM/CC :
SP.MV :
GR.API :
RML.OHMM :
RI. :
RXO.OHMM :
CALI.CM :
~A
   45.0000  -999.2500  -999.2500    35.5220    45.0620     1.0680     0.4070    25.8360 
   45.1250  -999.2500  -999.2500    36.5880    45.3250     1.0620     0.4540    25.8360 
   45.2500  -999.2500  -999.2500    37.0130    47.0290     1.0550     0.4420    25.8360 
   45.3750  -999.2500  -999.2500    37.4680    49.8500     1.0510     0.3490    25.8360 
   45.5000  -999.2500  -999.2500    37.1660    52.7750     1.0520     0.2450    25.8350 
   45.6250  -999.2500  -999.2500    36.4920    54.2900     1.0580     0.1820    25.8250 
   45.7500  -999.2500  -999.2500    36.5330    53.3720     1.0680     0.1580    25.8030 
   45.8750  -999.2500  -999.2500    36.1520    51.0040     1.0800     0.1380    25.7780 
   46.0000  -999.2500  -999.2500    34.6890    48.4200     1.0900     0.1110    25.7650 
   46.1250  -999.2500  -999.2500    33.4900    46.3060     1.0900     0.0950    25.7620 
   46.2500  -999.2500  -999.2500    33.1110    44.7190     1.0800     0.0880    25.7620 
   46.3750  -999.2500  -999.2500    32.5420    43.4990     1.0610     0.0910    25.7620 
   46.5000  -999.2500  -999.2500    31.7890    42.8210     1.0390     0.0980    25.7620 
   46.6250  -999.2500  -999.2500    32.1180    42.7200     1.0210     0.1140    25.7620 
   46.7500  -999.2500  -999.2500    32.9750    42.7270     1.0120     0.1630    25.7600 
   46.8750  -999.2500  -999.2500    32.7340    42.3640     1.0100     0.2970    25.7510 
   47.0000  -999.2500  -999.2500    31.5820    41.7230     1.0110     0.5430    25.7240 
   47.1250  -999.2500  -999.2500    30.5320    41.1340     1.0120     0.7810    25.6770 
   47.2500  -999.2500  -999.2500    29.8140    40.6850     1.0120     0.8190    25.6330 
   47.3750  -999.2500  -999.2500    29.4870    39.9460     1.0110     0.7350    25.5970 
   47.5000  -999.2500  -999.2500    30.2590    38.5460     1.0130     0.6210    25.5330 
   47.6250  -999.2500  -999.2500    31.9390    36.6470     1.0170     0.5390    25.4120 
   47.7500  -999.2500  -999.2500    33.8490    34.9780     1.0230     0.5410    25.2450 
   47.8750  -999.2500  -999.2500    35.1660    34.3300     1.0290     0.5800    25.1120 
   48.0000  -999.2500  -999.2500    35.8420    35.0040     1.0320     0.5940    25.1400 
   48.1250  -999.2500  -999.2500    35.5600    36.8790     1.0340     0.5230    25.3580 
   48.2500  -999.2500  -999.2500    34.5080    39.3210     1.0340     0.3370    25.6200 
   48.3750  -999.2500  -999.2500    33.9120    41.0900     1.0340     0.1080    25.7820 
   48.5000  -999.2500  -999.2500    34.2720    41.4780     1.0340     0.0130    25.8310 
   48.6250  -999.2500  -999.2500    35.6160    40.7520     1.0310     0.0000    25.8360 
   48.7500  -999.2500  -999.2500    36.5930    39.8500     1.0230     0.0000    25.8360 
   48.8750  -999.2500  -999.2500    36.0630    39.3550     1.0140     0.0040    25.8320 
   49.0000  -999.2500  -999.2500    34.7870    38.9660     1.0030     0.0220    25.8210 
   49.1250  -999.2500  -999.2500    33.8600    38.1140     0.9910     0.0740    25.7980 
   49.2500  -999.2500  -999.2500    33.4270    36.3880     0.9780     0.1310    25.7740 
   49.3750  -999.2500  -999.2500    33.6120    33.9270     0.9650     0.1240    25.7620 
   49.5000  -999.2500  -999.2500    35.2990    30.9560     0.9530     0.0840    25.7520 
   49.6250  -999.2500  -999.2500    37.2810    27.8170     0.9440     0.1220    25.7300 
   49.7500  -999.2500  -999.2500    37.3570    25.0220     0.9410     0.2960    25.6850 
   49.8750  -999.2500  -999.2500    37.2320    22.8730     0.9410     0.5050    25.6220 
   50.0000  -999.2500  -999.2500    38.0090    21.2890     0.9430     0.5800    25.5220 
   50.1250  -999.2500  -999.2500    38.4110    19.9760     0.9430     0.5410    25.3960 
   50.2500  -999.2500  -999.2500    37.0840    18.7270     0.9380     0.4850    25.3020 
   50.3750  -999.2500  -999.2500    35.7200    17.6660     0.9280     0.4180    25.3370 
   50.5000  -999.2500  -999.2500    34.9450    17.0220     0.9110     0.2950    25.4850 
   50.6250  -999.2500  -999.2500    34.1800    16.7990     0.8920     0.1260    25.6480 
   50.7500  -999.2500  -999.2500    34.8410    16.7400     0.8740     0.0290    25.7290 
   50.8750  -999.2500  -999.2500    36.8260    16.5490     0.8600     0.0010    25.7560 
   51.0000  -999.2500  -999.2500    38.2680    16.2280     0.8510     0.0000    25.7610 
   51.1250  -999.2500  -999.2500    38.0670    15.9700     0.8440     0.0000    25.7620 
   51.2500  -999.2500  -999.2500    37.6110    15.9130     0.8380     0.0000    25.7600 
   51.3750  -999.2500  -999.2500    39.0940    15.8380     0.8330     0.0020    25.7570 
   51.5000  -999.2500  -999.2500    41.8880    15.4420     0.8270     0.0120    25.7490 
   51.6250  -999.2500  -999.2500    44.1470    14.6420     0.8230     0.0410    25.7360 
   51.7500  -999.2500  -999.2500    45.0040    13.7310     0.8210     0.1250    25.7100 
   51.8750  -999.2500    87.3840    43.4680    13.0840     0.8220     0.2990    25.6450 
   52.0000  -999.2500    87.3840    39.9060    12.8340     0.8290     0.4870    25.5110 
   52.1250  -999.2500    87.4140    37.4000    12.9590     0.8400     0.5650    25.2890 
   52.2500  -999.2500    87.5570    38.0420    13.3070     0.8520     0.6090    25.0440 
   52.3750  -999.2500    87.6660    38.1180    13.6350     0.8600     0.6810    24.8820 
   52.5000  -999.2500    87.6930    35.7580    13.8410     0.8610     0.7270    24.8460 
   52.6250  -999.2500    87.5900    33.1570    13.9090     0.8530     0.7050    24.9270 
   52.7500  -999.2500    87.3880    32.9100    13.9100     0.8400     0.6050    25.1360 
   52.8750  -999.2500    87.1300    34.7770    13.9870     0.8280     0.4200    25.3890 
   53.0000  -999.2500    86.8160    37.0180    14.2510     0.8210     0.1750    25.5910 
   53.1250  -999.2500    86.4900    36.8450    14.7840     0.8190     0.0310    25.6780 
   53.2500  -999.2500    86.1850    33.3930    15.6770     0.8210     0.0000    25.6920 
   53.3750  -999.2500    85.9720    30.3720    16.9420     0.8200     0.0040    25.6920 
   53.5000  -999.2500    85.8780    30.2450    18.4510     0.8150     0.0210    25.6920 
   53.6250  -999.2500    85.9800    31.0890    19.7140     0.8060     0.0950    25.6870 
   53.7500  -999.2500    86.2850    29.7140    19.8890     0.7970     0.3190    25.6460 
   53.8750  -999.2500    86.7440    27.9590    18.7440     0.7900     0.6000    25.5290 
   54.0000  -999.2500    87.3560    28.8860    16.8470     0.7850     0.7220    25.3450 
   54.1250  -999.2500    88.1110    31.7670    15.0520     0.7820     0.7030    25.2010 
   54.2500  -999.2500    88.9770    32.2660    13.8210     0.7780     0.6730    25.2190 
   54.3750  -999.2500    89.8760    30.8670    13.0130     0.7710     0.7310    25.2690 
   54.5000  -999.2500    90.7940    30.4080    12.4720     0.7610     0.8420    25.2570 
   54.6250  -999.2500    91.6700    31.5880    12.1930     0.7480     0.8550    25.1740 
   54.7500  -999.2500    92.4790    33.2560    12.2860     0.7360     0.7490    25.0640 
   54.8750  -999.2500    93.1700    34.6510    12.6760     0.7270     0.7190    24.9850 
   55.0000  -999.2500    93.6850    34.7940    13.0950     0.7220     0.6910    24.9960 
   55.1250  -999.2500    94.0250    34.6740    13.1100     0.7240     0.6050    25.1130 
   55.2500  -999.2500    94.1360    36.9200    12.3920     0.7300     0.5160    25.2480 
   55.3750  -999.2500    94.0390    39.4430    11.2640     0.7380     0.4930    25.2960 
   55.5000  -999.2500    93.7590    39.0000    10.2090     0.7460     0.5440    25.2210 
   55.6250  -999.2500    93.3250    36.2070     9.5510     0.7540     0.6190    25.0620 
   55.7500  -999.2500    92.7710    35.4500     9.2430     0.7630     0.6650    24.9490 
   55.8750  -999.2500    92.1420    37.9640     8.9660     0.7710     0.6710    25.0080 
   56.0000  -999.2500    91.4830    40.5400     8.6080     0.7730     0.7060    25.2030 
   56.1250  -999.2500    90.8130    40.7010     8.2640     0.7640     0.8690    25.4300 
