~V
VERS. 2.00: Ver 2.00
~W
STRT.M 50.0000:
STOP.M 229.0000:
STEP.M 0.1250:
NULL. -999.2500:
UWI. F10777:
~C
DEPT.M :
DEN.GM/CC :
GR.API :
RML.OHMM :
RI. :
RXO.OHMM :
CALI.CM :
SP.MV :
~A
# ...
  218.7500     2.4010    54.6870     5.7510     5.1560     4.4800    25.0930   -14.9760 
  218.8750     2.3610    54.6870     6.1900     5.4540     4.6340    25.0680   -15.6100 
  219.0000     2.3320    54.6870     6.8110     5.8990     5.3360    25.0630   -16.4250 
  219.1250     2.3140    54.6870     7.5990     6.4860     6.6500    25.0680   -17.3740 
  219.2500     2.2990    54.6870     8.4410     7.1260     7.6290    25.0940   -18.3350 
  219.3750     2.2890    54.6870     9.2280     7.7320     8.0670    25.1420   -19.2120 
  219.5000     2.2880    54.6870     9.8640     8.2130     8.6420    25.1990   -19.9410 
  219.6250     2.3000    54.6870    10.2720     8.4880     9.6130    25.2620   -20.4750 
  219.7500     2.3210    54.6870    10.5060     8.6110    10.4480    25.2980   -20.8690 
  219.8750     2.3380    54.6870    10.6200     8.6390    11.2100    25.2610   -21.1530 
  220.0000     2.3470    54.6870    10.6660     8.6330    11.5170    25.1610   -21.3400 
  220.1250     2.3470    54.6870    10.6800     8.6310    11.0500    25.0620   -21.4050 
  220.2500     2.3430    54.6870    10.6880     8.6380    10.2700    24.9930   -21.3690 
  220.3750     2.3400    54.6870    10.6920     8.6460    10.1550    24.9590   -21.2540 
  220.5000     2.3440    54.6870    10.6960     8.6510    10.5220    24.9730   -21.0710 
  220.6250     2.3580    54.6870    10.6990     8.6530    10.8910    25.0460   -20.7870 
  220.7500     2.3770    54.6870    10.7030     8.6540    11.5520    25.1340   -20.4030 
  220.8750     2.3890    54.6870    10.7050     8.6540    12.1510    25.2190   -19.9400 
  221.0000     2.3840    54.6870    10.7040     8.6550    12.9520    25.2900   -19.4660 
  221.1250     2.3610    54.6870    10.7020     8.6570    12.6190    25.3290   -19.0750 
  221.2500     2.3310    54.6870    10.7040     8.6610    10.6410    25.3310   -18.7890 
  221.3750     2.3060    54.6870    10.7110     8.6650     7.5780    25.3000   -18.5780 
  221.5000     2.2960    54.6870    10.7230     8.6680     5.9350    25.2520   -18.3930 
  221.6250     2.2980    54.6870    10.7420     8.6680     5.5800    25.0990   -18.2110 
  221.7500     2.3070    54.6870    10.7720     8.6680     5.7380    24.8360   -18.0560 
  221.8750     2.3130    54.6870    10.8110     8.6680     5.9290    24.8110   -17.9610 
  222.0000     2.3130    54.6870    10.8190     8.6680     6.1780    24.7960   -17.9500 
  222.1250     2.3080    54.6870    10.8190     8.6680     6.3800    24.7830   -18.0310 
  222.2500     2.3010    54.6870    10.8190     8.6680     6.5970    24.7690   -18.1650 
  222.3750     2.2940    54.6870    10.8190     8.6680     7.0360    24.7640   -18.3210 
  222.5000     2.2880    54.6870    10.8190     8.6680     7.4420    24.7480   -18.4700 
  222.6250     2.2830    54.6870    10.8190     8.6680     6.9500    24.6960   -18.5940 
  222.7500     2.2800    54.6870    10.8190     8.6680     6.4530    24.6310   -18.7000 
  222.8750     2.2770    54.6870    10.8190     8.6680     6.4520    24.6360   -18.7960 
  223.0000     2.2770    54.6870    10.8190     8.6680     6.8320    24.6840   -18.8830 
  223.1250     2.2810    54.6870    10.8190     8.6680     7.4380    24.7100   -18.9400 
  223.2500     2.2900    54.6870    10.8190     8.6680     8.2550    24.6790   -18.9650 
  223.3750     2.3000    54.6870    10.8190     8.6680     8.4050    24.6500   -18.9730 
  223.5000     2.3070    54.6870    10.8190     8.6680     7.8300    24.6590   -18.9820 
  223.6250     2.3090    54.6870    10.8190     8.6680     6.9040    24.7140   -18.9950 
  223.7500     2.3040    54.6870    10.8190     8.6680     6.2970    24.7760   -18.9890 
  223.8750     2.2980    54.6870    10.8190     8.6680     6.0360    24.7770   -18.9350 
  224.0000     2.2970    54.6870    10.8190     8.6680     5.9900    24.7500   -18.8270 
  224.1250     2.3060    54.6870    10.8190     8.6680     5.9540    24.6850   -18.6890 
  224.2500     2.3190    54.6870    10.8190     8.6680     5.8830    24.5790   -18.5630 
  224.3750     2.3090    54.6870    10.8190     8.6680     6.0740    24.2040   -18.4630 
  224.5000     2.2590    54.6870    10.8190     8.6680     6.5240    23.3120   -18.3990 
  224.6250     2.1780    54.6870    10.8190     8.6680     6.6210    21.7710   -18.4000 
  224.7500     2.0940    54.6870    10.8190     8.6680     6.6070    20.9470   -18.4670 
  224.8750     2.0310    54.6870    10.8190     8.6680     6.5830    20.7050   -18.5860 
  225.0000     1.9970    54.6870    10.8190     8.6680     6.5810    20.6890   -18.7270 
  225.1250     1.9860    54.6870    10.8190     8.6680     6.5810    20.6900   -18.8390 
  225.2500     1.9860    54.6870    10.8190     8.6680     6.5810    20.6910   -18.9040 
  225.3750     1.9860    54.6870    10.8190     8.6680     6.5820    20.6910   -18.9160 
  225.5000     1.9860    54.6870    10.8190     8.6680     6.5810    20.6880   -18.9110 
  225.6250     1.9840    54.6870    10.8190     8.6680     6.5820    20.6880  -999.2500 
  225.7500     1.9810    54.6870    10.8190     8.6680     6.5830    20.6890  -999.2500 
  225.8750     1.9800    54.6870    10.8190     8.6680     6.5830    20.6900  -999.2500 
  226.0000     1.9820    54.6870    10.8190     8.6680     6.5820    20.6880  -999.2500 
  226.1250     1.9870    54.6870    10.8190     8.6680     6.5820    20.6900  -999.2500 
  226.2500     1.9910    54.6870    10.8190     8.6680     6.5830    20.6900  -999.2500 
  226.3750     1.9910    54.6870    10.8190     8.6680     6.5820    20.6900  -999.2500 
  226.5000     1.9880    54.6870    10.8190     8.6680     6.5830    20.6880  -999.2500 
  226.6250     1.9830    54.6870    10.8190     8.6680     6.5840    20.6880  -999.2500 
  226.7500     1.9810    54.6870    10.8190     8.6680     6.5830    20.6870  -999.2500 
  226.8750     1.9840  -999.2500  -999.2500  -999.2500  -999.2500  -999.2500  -999.2500 
  227.0000     1.9890  -999.2500  -999.2500  -999.2500  -999.2500  -999.2500  -999.2500 
  227.1250     1.9920  -999.2500  -999.2500  -999.2500  -999.2500  -999.2500  -999.2500 
  227.2500     1.9900  -999.2500  -999.2500  -999.2500  -999.2500  -999.2500  -999.2500 
  227.3750     1.9860  -999.2500  -999.2500  -999.2500  -999.2500  -999.2500  -999.2500 
  227.5000     1.9830  -999.2500  -999.2500  -999.2500  -999.2500  -999.2500  -999.2500 
  227.6250  -999.2500  -999.2500  -999.2500  -999.2500  -999.2500  -999.2500  -999.2500 
  227.7500  -999.2500  -999.2500  -999.2500  -999.2500  -999.2500  -999.2500  -999.2500 
  227.8750  -999.2500  -999.2500  -999.2500  -999.2500  -999.2500  -999.2500  -999.2500 
  228.0000  -999.2500  -999.2500  -999.2500  -999.2500  -999.2500  -999.2500  -999.2500 
  228.1250  -999.2500  -999.2500  -999.2500  -999.2500  -999.2500  -999.2500  -999.2500 
  228.2500  -999.2500  -999.2500  -999.2500  -999.2500  -999.2500  -999.2500  -999.2500 
  228.3750  -999.2500  -999.2500  -999.2500  -999.2500  -999.2500  -999.2500  -999.2500 
  228.5000  -999.2500  -999.2500  -999.2500  -999.2500  -999.2500  -999.2500  -999.2500 
  228.6250  -999.2500  -999.2500  -999.2500  -999.2500  -999.2500  -999.2500  -999.2500 
  228.7500  -999.2500  -999.2500  -999.2500  -999.2500  -999.2500  -999.2500  -999.2500 
  228.8750  -999.2500  -999.2500  -999.2500  -999.2500  -999.2500  -999.2500  -999.2500 
  229.0000  -999.2500  -999.2500  -999.2500  -999.2500  -999.2500  -999.2500  -999.2500 
