~V
VERS. 2.00: Ver 2.00
~W
STRT.M 60.0000:
STOP.M 239.0000:
STEP.M 0.1250:
NULL. -999.2500:
UWI. F10775:
~C
DEPT.M :
DEN.GM/CC :
SP.MV :
GR.API :
RML.OHMM :
RI. :
RXO.OHMM :
CALI.CM :
~A
# ...
  183.7500     2.4450    -2.9270    46.7960    13.7030    12.9080    12.5390    25.1710 
  183.8750     2.4090    -2.9900    46.8410    14.0200    13.3980    13.1710    25.0830 
  184.0000     2.3770    -3.1270    48.1240    14.1080    13.6460    13.6070    25.0300 
  184.1250     2.3580    -3.3480    50.5150    13.9460    13.5610    13.6590    24.9490 
  184.2500     2.3490    -3.5560    52.9190    13.6600    13.2570    13.0940    24.8500 
  184.3750     2.3490    -3.7930    54.4200    13.3700    12.8740    12.7790    24.7960 
  184.5000     2.3560    -3.9550    55.1140    13.1730    12.5520    12.0580    24.7470 
  184.6250     2.3690    -4.0200    54.5020    13.1210    12.3930    11.1990    24.6910 
  184.7500     2.3790    -4.0700    52.3620    13.1360    12.3480    10.7920    24.6630 
  184.8750     2.3830    -4.0400    49.9640    13.1380    12.3340    11.4770    24.6620 
  185.0000     2.3780    -4.0230    48.5900    13.0800    12.2780    12.3310    24.6540 
  185.1250     2.3680    -3.9900    49.6050    13.0070    12.1830    12.0450    24.6410 
  185.2500     2.3590    -3.9270    51.4550    13.0610    12.1670    11.3370    24.6200 
  185.3750     2.3520    -3.8580    52.8010    13.3770    12.3680    10.9950    24.5920 
  185.5000     2.3470    -3.7800    53.1240    14.0270    12.8930    11.8340    24.5880 
  185.6250     2.3420    -3.7910    52.4120    14.9830    13.8010    13.0530    24.5990 
  185.7500     2.3380    -3.8110    51.4230    15.9780    14.8770    14.1880    24.5920 
  185.8750     2.3340    -3.8740    49.6650    16.7580    15.8460    14.9370    24.5970 
  186.0000     2.3300    -3.9730    47.2950    17.1300    16.4180    15.6400    24.6630 
  186.1250     2.3230    -4.0010    45.6140    16.9860    16.3570    15.0300    24.7820 
  186.2500     2.3170    -4.0260    46.3920    16.5550    15.8740    14.0260    24.8620 
  186.3750     2.3160    -4.0790    49.1220    16.0600    15.2020    13.1090    24.8860 
  186.5000     2.3210    -4.1660    51.8920    15.7260    14.5770    12.6190    24.9380 
  186.6250     2.3290    -4.2940    52.9960    15.8260    14.2590    12.2640    25.0520 
  186.7500     2.3340    -4.4870    52.1640    16.4710    14.3700    12.0340    25.1540 
  186.8750     2.3320    -4.7080    49.6540    17.7980    15.0310    12.2450    25.2470 
  187.0000     2.3200    -4.9450    45.8930    19.9330    16.3680    12.7830    25.2310 
  187.1250     2.2950    -5.3070    42.9610    23.1130    18.6520    13.5800    25.0980 
  187.2500     2.2570    -5.7660    41.6830    27.1140    21.7920    15.3490    25.0840 
  187.3750     2.2160    -6.2350    41.3470    31.6280    25.6460    18.9030    25.2860 
  187.5000     2.1870    -6.7000    41.1080    36.0950    29.8210    25.4250    25.5490 
  187.6250     2.1920    -7.1380    41.2640    39.5530    33.4930    32.6120    25.6040 
  187.7500     2.2290    -7.4750    41.9350    41.5030    35.9620    35.1170    25.5740 
  187.8750     2.2840    -7.7800    42.4210    41.8440    36.9070    33.3820    25.4980 
  188.0000     2.3390    -7.9580    42.8210    40.9620    36.5150    33.3790    25.4200 
  188.1250     2.3740    -8.0280    44.1880    39.5880    35.3460    32.8220    25.3290 
  188.2500     2.3880    -8.0140    45.5080    38.5610    34.2830    34.4570    25.2820 
  188.3750     2.3880    -7.9110    46.0950    38.2660    33.8090    33.3290    25.2750 
  188.5000     2.3760    -7.8270    45.3540    38.7530    34.1030    31.7210    25.3860 
  188.6250     2.3580    -7.7290    43.5390    39.7170    35.0650    29.5830    25.5750 
  188.7500     2.3370    -7.7270    42.6190    40.3740    36.0420    31.4640    25.7150 
  188.8750     2.3170    -7.7680    43.1850    40.0060    36.2850    33.3780    25.7200 
  189.0000     2.3010    -7.9390    44.5820    38.1660    35.0890    31.7220    25.6680 
  189.1250     2.2890    -8.2290    45.7190    34.9100    32.1600    26.9840    25.5930 
  189.2500     2.2920    -8.6710    46.9180    31.4320    28.6790    23.2890    25.5770 
  189.3750     2.3220    -9.2620    47.6640    28.8160    25.7340    18.6240    25.4830 
  189.5000     2.3870    -9.8570    46.7850    27.9340    24.1430    14.1760    25.4050 
  189.6250     2.4720   -10.5240    45.4860    29.7070    24.7890    12.8520    25.4760 
  189.7500     2.5360   -11.1390    44.9310    33.8710    27.6570    20.2760    25.6470 
  189.8750     2.5450   -11.7630    44.5610    40.0820    32.7580    33.3960    25.8320 
  190.0000     2.4870   -12.3780    43.9160    47.4120    39.6430    45.1170    25.9360 
  190.1250     2.3880   -12.9990    43.9830    53.9230    46.8720    50.7480    25.9040 
  190.2500     2.3080   -13.6170    44.0310    57.8180    52.2870    49.1800    25.7240 
  190.3750     2.2900   -14.2160    42.9620    58.2440    54.6150    42.7840    25.5170 
  190.5000     2.3450   -14.9300    41.8770    55.4850    53.7080    46.5090    25.5440 
  190.6250     2.4600   -15.6650    41.3780    50.5390    50.0140    68.5630    25.5460 
  190.7500     2.5820   -16.4090    40.1070    45.1490    45.2910    74.9470    25.4330 
  190.8750     2.6830   -17.0130    38.6740    40.0640    40.6630    54.7730    25.2240 
  191.0000     2.7500   -17.3400    40.2570    35.3530    36.5180    37.7690    25.0390 
  191.1250     2.7950   -17.2140    44.5170    31.8230    32.2360    29.0220    24.9530 
  191.2500     2.8350   -16.5520    47.3050    26.1390    27.0360    32.6900    24.9350 
  191.3750     2.8700   -15.4140    47.3540    20.0490    20.9840    37.7080    24.8750 
  191.5000     2.8780   -13.7790    47.0660    14.2830    15.0250    26.2560    24.7630 
  191.6250     2.8250   -11.8290    47.2400     9.8910    10.4710    11.8820    24.6180 
  191.7500     2.7160    -9.7540    45.4780     6.9870     7.4110     5.9240    24.4340 
  191.8750     2.5690    -7.7630    41.1780     5.3420     5.5660     4.4420    24.2110 
  192.0000     2.4150    -5.9470    37.9130     4.5560     4.5810     4.2710    24.0210 
  192.1250     2.2920    -4.4990    37.9420     4.3140     4.2250     4.2170    24.0720 
  192.2500     2.2130    -3.5440    37.9840     4.2960     4.1760     4.1370    24.3210 
  192.3750     2.1800    -3.1020    38.5650     4.4100     4.3120     4.1550    24.5260 
  192.5000     2.1870    -3.2390    42.3660     4.6400     4.5850     4.2740    24.4960 
  192.6250     2.2240    -3.7490    49.5390     5.0360     5.0440     4.5330    24.2600 
  192.7500     2.2720    -4.4120    56.7320     5.5730     5.6890     5.0310    24.1140 
  192.8750     2.3180    -5.0190    64.1020     6.2000     6.4890     5.7790    24.0400 
  193.0000     2.3580    -5.5920    70.4330     6.8210     7.3330     6.6010    24.0330 
  193.1250     2.3880    -6.1290    72.4750     7.3090     8.0020     6.6910    24.2340 
  193.2500     2.4110    -6.5510    71.3520     7.6340     8.3700     6.9900    24.5230 
  193.3750     2.4320    -6.8650    69.3980     7.8200     8.4360     7.3470    24.9480 
  193.5000     2.4540    -6.9490    68.9750     7.9290     8.3010     7.5720    25.4290 
  193.6250     2.4760    -6.9070    70.8990     8.0230     8.1090     7.6740    25.6730 
  193.7500     2.4920    -6.8620    72.4550     8.1310     7.9500     7.7770    25.7260 
  193.8750     2.4990    -6.9290    72.5370     8.2360     7.8230     7.7680    25.7410 
  194.0000     2.5000    -7.1230    71.8450     8.3150     7.6920     7.7490    25.7800 
  194.1250     2.4990    -7.3870    72.3920     8.3800     7.5400     7.7410    25.7870 
  194.2500     2.4990    -7.7300    71.9780     8.5220     7.4250     7.7410    25.8330 
  194.3750     2.4970    -8.0510    70.6990     8.8880     7.4580     7.7300    25.9080 
  194.5000     2.4890    -8.4430    71.1700     9.6640     7.7750     7.7260    25.9400 
  194.6250     2.4780    -8.8590    71.9730    11.1570     8.6090     8.0480    25.9210 
  194.7500     2.4710    -9.3240    67.7560    13.4050    10.0360     9.7930    25.8970 
  194.8750     2.4680    -9.8360    59.3250    16.4500    12.1700    14.1430    25.8820 
