~V
VERS. 2.00: Ver 2.00
~W
STRT.M 50.0000:
STOP.M 228.0000:
STEP.M 0.1250:
NULL. -999.2500:
UWI. F10779:
~C
DEPT.M :
GR.API :
RML.OHMM :
RI. :
RXO.OHMM :
CALI.CM :
SP.MV :
DEN.GM/CC :
~A
# ...
  196.2500    50.6240    53.5850    50.0060    41.0590    25.2260   -21.1760     2.2260 
  196.3750    50.0170    52.7990    49.0070    37.5420    25.2670   -21.2170     2.2250 
  196.5000    50.4940    53.1270    49.0320    38.2990    25.3010   -21.2950     2.2340 
  196.6250    50.4770    54.5020    49.9540    40.3740    25.3390   -21.4340     2.2470 
  196.7500    50.8380    56.5510    51.4080    42.9440    25.3200   -21.5990     2.2590 
  196.8750    51.7670    59.1210    53.2490    46.8080    25.2840   -21.7690     2.2660 
  197.0000    53.2500    62.2070    55.4790    50.2810    25.2620   -21.8900     2.2690 
  197.1250    54.6870    66.1650    58.4560    48.7060    25.2120   -21.9800     2.2660 
  197.2500    54.0430    71.1800    62.4510    52.8560    25.2140   -22.0470     2.2580 
  197.3750    51.6850    77.3800    67.7010    58.7920    25.3010   -22.1330     2.2490 
  197.5000    49.5670    84.6090    74.1930    63.7160    25.3330   -22.2680     2.2440 
  197.6250    50.0910    92.2660    81.5520    79.0300    25.2930   -22.4630     2.2450 
  197.7500    51.4150    99.1720    88.6190    91.1800    25.2840   -22.7380     2.2500 
  197.8750    51.8700   104.1990    94.1930    89.7600    25.2700   -23.0590     2.2560 
  198.0000    51.7930   106.4480    97.2160    92.1350    25.2330   -23.3860     2.2630 
  198.1250    51.0400   104.8490    96.5000   102.2510    25.2200   -23.6550     2.2880 
  198.2500    49.7980    99.1920    91.9750   106.0070    25.1920   -23.7790     2.3390 
  198.3750    49.3900    87.9610    82.3750    88.1200    25.0210   -23.7400     2.4180 
  198.5000    50.8380    70.3350    66.7180    67.5050    24.9740   -23.5050     2.5070 
  198.6250    55.1390    48.8760    47.4940    58.6470    24.9190   -23.0420     2.5770 
  198.7500    60.2210    30.1890    30.5520    46.1190    24.9190   -22.4170     2.6070 
  198.8750    64.5000    18.1260    17.5550    25.4150    24.9260   -21.6590     2.5900 
  199.0000    67.5160    10.8410     9.9170    10.1490    24.8060   -20.8570     2.5350 
  199.1250    69.0700     7.2760     6.4670     4.4300    24.5260   -20.0600     2.4580 
  199.2500    70.0260     5.5500     5.0040     3.2870    24.2950   -19.3460     2.3880 
  199.3750    71.6250     4.9790     4.6970     3.5590    24.3510   -18.7240     2.3450 
  199.5000    73.8040     5.2010     5.1070     4.1210    24.6030   -18.1980     2.3390 
  199.6250    75.8550     6.0240     5.9870     5.4930    24.9240   -17.8290     2.3700 
  199.7500    77.4230     7.0460     6.9280     6.2000    25.1230   -17.5550     2.4080 
  199.8750    79.8390     7.9500     7.6300     6.3510    25.1630   -17.3640     2.4340 
  200.0000    82.7790     8.5080     7.9400     6.3020    25.2100   -17.2300     2.4410 
  200.1250    85.6570     8.6470     7.8870     6.3440    25.2220   -17.1380     2.4340 
  200.2500    89.6110     8.5790     7.7120     6.3070    25.2520   -17.0930     2.4220 
  200.3750    93.7380     8.4390     7.5410     6.2600    25.2790   -17.0670     2.4110 
  200.5000    96.1360     8.3020     7.4330     6.2960    25.2790   -17.0560     2.4060 
  200.6250    93.9700     8.1900     7.4130     6.6030    25.2740   -17.0260     2.4080 
  200.7500    90.4540     8.0880     7.4570     6.8060    25.2700   -17.0040     2.4100 
  200.8750    90.6810     7.9930     7.5560     6.8840    25.2730   -17.0260     2.4110 
  201.0000    95.4680     7.9090     7.6940     6.8420    25.2780   -17.0850     2.4100 
  201.1250    99.8450     7.8760     7.8190     6.8560    25.2800   -17.2240     2.4080 
  201.2500   102.2110     7.9890     7.8240     6.7490    25.2810   -17.3970     2.4080 
  201.3750   105.6340     8.1290     7.8450     6.8070    25.2780   -17.5950     2.4080 
  201.5000   110.9540     8.2730     7.9150     7.0030    25.2740   -17.7770     2.4060 
  201.6250   112.6350     8.4140     8.0160     6.9470    25.2730   -17.9260     2.3990 
  201.7500   107.6110     8.5430     8.1140     7.0070    25.2540   -18.0290     2.3890 
  201.8750    99.8790     8.6580     8.1980     7.5710    25.2260   -18.0760     2.3800 
  202.0000    95.1100     8.7830     8.2830     7.9820    25.1860   -18.1060     2.3760 
  202.1250    95.6750     8.9980     8.4370     7.1100    25.1150   -18.1290     2.3820 
  202.2500    96.0380     9.3800     8.7230     6.4260    25.0770   -18.1760     2.3930 
  202.3750    92.1560     9.9850     9.1910     6.3990    24.9470   -18.2140     2.4050 
  202.5000    85.7770    10.8210     9.8580     7.1390    24.7950   -18.2290     2.4130 
  202.6250    80.9060    11.8210    10.6920     8.2570    24.6310   -18.1760     2.4190 
  202.7500    78.8180    12.7700    11.5180     9.3240    24.5090   -18.0780     2.4290 
  202.8750    78.6980    13.4870    12.1700    10.2670    24.4530   -17.9610     2.4430 
  203.0000    79.9190    13.8930    12.5420    12.1710    24.4070   -17.8300     2.4590 
  203.1250    83.1740    14.0440    12.6340    14.5890    24.4580   -17.7270     2.4630 
  203.2500    87.6170    14.1640    12.6320    14.5600    24.4370   -17.6600     2.4530 
  203.3750    91.4370    14.4110    12.6790    11.7800    24.4210   -17.6730     2.4300 
  203.5000    92.5220    14.8880    12.8820    11.1490    24.4230   -17.7490     2.4040 
  203.6250    89.4350    15.7290    13.3720    12.4720    24.4900   -17.8720     2.3760 
  203.7500    85.1210    17.0330    14.2250    13.8960    24.7700   -18.0100     2.3490 
  203.8750    82.3640    19.0900    15.6250    14.4610    25.0920   -18.1460     2.3320 
  204.0000    80.7010    22.3700    17.8750    15.0830    25.2250   -18.3140     2.3350 
  204.1250    77.1060    28.0660    21.8530    17.5410    25.3260   -18.4970     2.3620 
  204.2500    72.2940    37.0370    28.4080    23.1400    25.3880   -18.7200     2.3880 
  204.3750    67.4140    50.5490    38.8870    34.2460    25.4110   -18.9440     2.3900 
  204.5000    62.1550    69.6460    54.4570    57.8710    25.4260   -19.1600     2.3600 
  204.6250    56.6010    94.7070    75.4510   112.8790    25.4320   -19.3590     2.3140 
  204.7500    53.1840   120.9340    97.5050   145.0330    25.4290   -19.5080     2.2760 
  204.8750    53.4090   142.3010   115.6640   153.7420    25.4170   -19.6280     2.2550 
  205.0000    56.0370   154.6750   126.6760   160.4280    25.2790   -19.7150     2.2440 
  205.1250    57.5430   158.7860   130.8180   157.0710    25.2770   -19.8030     2.2320 
  205.2500    55.4470   160.8830   133.0460   149.9440    25.2810   -19.8780     2.2170 
  205.3750    50.9920   163.7970   136.0280   146.4880    25.2790   -19.9590     2.2030 
  205.5000    48.1360   167.9870   140.5750   150.2390    25.2840   -20.0480     2.1940 
  205.6250    48.3780   171.1640   145.2510   153.9720    25.2840   -20.1230     2.1950 
  205.7500    47.6000   169.3570   146.7330   164.2550    25.2790   -20.1860     2.2010 
  205.8750    46.7730   159.6020   142.1760   171.2780    25.2790   -20.2000     2.2110 
  206.0000    49.2800   142.4510   131.0260   177.3300    25.2690   -20.1890     2.2230 
  206.1250    54.7490   122.3630   115.6710   164.8070    25.2740   -20.1570     2.2350 
  206.2500    57.7500   104.8050   100.9910   119.8550    25.2710   -20.1470     2.2480 
  206.3750    56.9360    91.9940    89.6680    76.1470    25.2680   -20.1610     2.2560 
  206.5000    55.3110    84.2080    82.7040    62.0140    25.2580   -20.1650     2.2570 
  206.6250    55.2730    80.6720    80.0290    66.7580    25.2710   -20.1920     2.2480 
  206.7500    56.2640    78.8560    78.6930    74.9960    25.2720   -20.2110     2.2350 
  206.8750    56.8880    77.2060    75.7810    77.1630    25.2760   -20.2070     2.2220 
  207.0000    56.5630    73.2300    70.4020    74.5540    25.2860   -20.1690     2.2120 
  207.1250    57.8020    66.3970    62.5370    65.5470    25.2720   -20.0800     2.2100 
  207.2500    61.2720    58.9030    54.6250    51.3070    25.2560   -19.9920     2.2190 
  207.3750    63.9740    52.6340    48.4380    36.0470    25.2260   -19.8980     2.2360 
