~V
VERS. 2.00: Ver 2.00
~W
STRT.M 50.0000:
STOP.M 226.0000:
STEP.M 0.1250:
NULL. -999.2500:
UWI. F10778:
~C
DEPT.M :
DEN.GM/CC :
GR.API :
RML.OHMM :
RI. :
RXO.OHMM :
CALI.CM :
SP.MV :
~A
# ...
  128.7500     2.6070    65.6240    55.5850    49.0990    47.8520    24.1510    -9.5500 
  128.8750     2.6090    66.1230    54.5090    48.9580    45.1700    24.1300    -9.0840 
  129.0000     2.5930    62.8800    50.7560    46.5750    44.6070    24.1200    -8.5320 
  129.1250     2.5410    59.1590    44.1250    41.4900    47.8590    24.0820    -7.9400 
  129.2500     2.4570    59.8830    36.4350    35.1080    32.9300    24.0250    -7.3240 
  129.3750     2.3630    63.2090    29.3360    28.8650    18.6100    24.0000    -6.7040 
  129.5000     2.2800    65.6470    24.0380    23.9420    11.7850    24.0340    -6.1290 
  129.6250     2.2290    66.5250    21.3590    21.2140     9.5550    24.0810    -5.6610 
  129.7500     2.2000    66.9380    20.6920    20.3200     8.7390    24.1400    -5.2690 
  129.8750     2.1800    66.8570    21.5630    20.9770     9.2020    24.1700    -5.0010 
  130.0000     2.1590    67.2750    23.3900    22.7880    10.2920    24.1260    -4.8920 
  130.1250     2.1370    67.3680    25.4290    25.1790    11.4040    23.9920    -4.9360 
  130.2500     2.1220    63.6180    26.8080    27.1740    12.0370    23.8260    -5.1490 
  130.3750     2.1200    58.7060    26.8530    27.8980    12.5590    23.7310    -5.5220 
  130.5000     2.1340    56.0990    25.1440    26.6840    11.7920    23.7260    -6.0780 
  130.6250     2.1650    57.5670    21.5570    23.2030    11.4950    23.7440    -6.7660 
  130.7500     2.2070    63.2270    17.1730    18.6590    11.2950    23.6850    -7.5040 
  130.8750     2.2550    74.2550    12.9760    14.1750    10.5300    23.6250    -8.2500 
  131.0000     2.2990    88.4670     9.7570    10.6150     8.5300    23.6130    -8.9360 
  131.1250     2.3220    98.4590     8.0930     8.5560     6.3850    23.6360    -9.4430 
  131.2500     2.3170    99.4350     7.6620     7.7010     5.9340    23.6190    -9.7430 
  131.3750     2.2870    91.9330     8.1900     7.8460     7.3410    23.5600    -9.8410 
  131.5000     2.2480    80.1100     9.3300     8.7450    10.1220    23.4990    -9.7430 
  131.6250     2.2220    72.3920    10.6180    10.0560     9.8670    23.4940    -9.5580 
  131.7500     2.2190    70.8060    11.5430    11.2030     9.2940    23.4990    -9.4030 
  131.8750     2.2300    71.3390    11.8920    11.8370     9.0780    23.5230    -9.2890 
  132.0000     2.2400    71.3680    11.7780    11.9160     9.1410    23.5930    -9.2570 
  132.1250     2.2340    71.5710    11.6130    11.7390     9.0430    23.6990    -9.4250 
  132.2500     2.2150    73.1940    11.7840    11.7590     8.7220    23.7750    -9.7520 
  132.3750     2.1930    74.8810    12.3870    12.1650     8.7350    23.7140   -10.1480 
  132.5000     2.1790    74.2620    13.2880    12.9130     8.8890    23.5040   -10.5650 
  132.6250     2.1750    71.4880    14.1630    13.7460    10.1440    23.3250   -10.9870 
  132.7500     2.1750    69.2780    14.6970    14.3220    10.6050    23.3390   -11.3050 
  132.8750     2.1760    70.2810    14.7590    14.4620    10.4760    23.3960   -11.4900 
  133.0000     2.1750    73.2670    14.3990    14.1720     9.9930    23.3870   -11.5860 
  133.1250     2.1710    74.9940    13.7920    13.6000     9.5750    23.4190   -11.6130 
  133.2500     2.1670    74.7030    13.1930    13.0120     9.6360    23.4760   -11.5690 
  133.3750     2.1670    72.4270    12.7080    12.5260     9.9150    23.5090   -11.5070 
  133.5000     2.1740    69.5460    12.3500    12.1680     9.5840    23.4810   -11.5030 
  133.6250     2.1880    68.3530    12.1040    11.9230     9.1050    23.4850   -11.5630 
  133.7500     2.2010    69.0460    11.9350    11.7480     9.2180    23.6520   -11.6470 
  133.8750     2.2080    69.6830    11.8540    11.6520     8.9770    23.9120   -11.7360 
  134.0000     2.2040    69.6900    11.8670    11.6480     8.3880    24.0970   -11.8650 
  134.1250     2.1960    70.6000    11.9480    11.7330     7.7580    24.1650   -12.0250 
  134.2500     2.1940    70.3910    12.0070    11.8240     7.7070    24.1940   -12.1400 
  134.3750     2.2010    68.4590    11.9680    11.8420     7.7590    24.1810   -12.2460 
  134.5000     2.2120    67.7920    11.7870    11.7180     7.8280    24.1270   -12.3910 
  134.6250     2.2140    70.9630    11.4700    11.4160     8.2630    24.0600   -12.4800 
  134.7500     2.2090    72.3960    11.1560    11.0430     9.9960    24.0360   -12.4990 
  134.8750     2.2060    70.9370    11.0120    10.7480    13.4560    24.0140   -12.5590 
  135.0000     2.2180    70.5240    11.1910    10.7020    13.2980    23.9890   -12.6500 
  135.1250     2.2540    72.3980    11.8130    11.0790    11.2550    24.0130   -12.7170 
  135.2500     2.2960    71.1370    12.6840    11.7740    11.0070    24.1550   -12.7820 
  135.3750     2.3230    67.1570    13.5490    12.5900    13.9590    24.4010   -12.8600 
  135.5000     2.3200    65.4470    14.1250    13.2490    20.6420    24.7080   -12.9440 
  135.6250     2.2890    70.0870    14.1840    13.4580    20.5460    25.0410   -13.0320 
  135.7500     2.2520    76.9010    13.9610    13.3190    12.3880    25.1510   -13.1410 
  135.8750     2.2260    80.2370    13.8420    13.1210     8.7890    24.9220   -13.2680 
  136.0000     2.2170    77.6780    14.2580    13.2520     9.6830    24.4600   -13.3980 
  136.1250     2.2190    73.1600    15.6200    14.1930    13.1710    24.1930   -13.5070 
  136.2500     2.2170    69.9670    17.6580    15.9040    14.3170    24.1480   -13.6250 
  136.3750     2.2040    66.4770    19.8350    18.0430    14.4410    24.3710   -13.7200 
  136.5000     2.1850    61.7000    21.3940    19.9040    17.2850    24.6430   -13.7720 
  136.6250     2.1700    58.9930    21.4710    20.4850    18.7110    24.7150   -13.7910 
  136.7500     2.1680    60.8240    20.2900    19.7430    17.1090    24.5670   -13.7820 
  136.8750     2.1810    66.3680    18.4320    18.1370    12.6490    24.2650   -13.7550 
  137.0000     2.2010    72.4900    16.6190    16.3730     9.1800    24.0040   -13.6890 
  137.1250     2.2180    75.5630    15.4790    15.1000     8.4070    23.8780   -13.5560 
  137.2500     2.2250    76.5100    15.0160    14.4290     8.9340    23.8530   -13.4240 
  137.3750     2.2240    77.1720    15.0680    14.2750    10.0030    23.8890   -13.3190 
  137.5000     2.2200    77.1950    15.4170    14.4740    10.6690    24.0330   -13.1720 
  137.6250     2.2200    76.3170    15.9160    14.9010    10.1540    24.1420   -12.9680 
  137.7500     2.2180    75.7410    16.5000    15.4540     9.4850    24.0330   -12.7670 
  137.8750     2.2120    75.3790    17.1890    16.1290     9.9260    23.5960   -12.5060 
  138.0000     2.1980    75.2080    17.9770    16.9210    11.6010    22.9220   -12.1540 
  138.1250     2.1790    74.5980    18.7610    17.7530    11.9620    22.3210   -11.8590 
  138.2500     2.1620    73.2220    19.3570    18.4440    11.5090    21.9910   -11.6520 
  138.3750     2.1530    70.9150    19.6050    18.8150    10.9890    22.0400   -11.4810 
  138.5000     2.1530    69.4950    19.4230    18.7440    10.8060    22.4420   -11.3080 
  138.6250     2.1590    69.4880    18.8090    18.1710    10.9080    23.0340   -11.1510 
  138.7500     2.1660    68.0940    18.0620    17.3650    11.2550    23.5250   -10.9970 
  138.8750     2.1670    66.4760    17.5010    16.6220    10.9100    23.6990   -10.8250 
  139.0000     2.1620    66.0910    17.4360    16.2530    10.3800    23.5800   -10.6630 
  139.1250     2.1620    67.4810    18.1280    16.5760    10.2350    23.2270   -10.4660 
  139.2500     2.1730    69.5200    19.3020    17.4560    10.2830    23.0240   -10.2240 
  139.3750     2.1940    70.9830    20.5460    18.5980    12.3470    23.0990    -9.8990 
  139.5000     2.2160    69.9970    21.3670    19.5590    18.4840    23.2630    -9.5230 
  139.6250     2.2230    69.2000    21.3070    19.8130    23.5730    23.3560    -9.1880 
  139.7500     2.2160    71.4260    20.6240    19.4200    17.5290    23.2810    -8.8890 
  139.8750     2.2010    72.7460    19.7740    18.7030    11.5910    22.9830    -8.5950 
