~V
VERS. 2.00: Ver 2.00
~W
STRT.M 45.0000:
STOP.M 272.0000:
STEP.M 0.1250:
NULL. -999.2500:
UWI. F10774:
~C
DEPT.M :
DEN.GM/CC :
SP.MV :
GR.API :
RML.OHMM :
RI. :
RXO.OHMM :
CALI.CM :
~A
# ...
  225.0000     2.1790   -38.4850    50.0140    58.4780    55.2150    48.8110    25.2230 
  225.1250     2.1840   -39.0920    52.2360    52.8130    50.3430    40.3090    25.2350 
  225.2500     2.1910   -39.7650    54.2020    47.8960    45.7420    34.7660    25.2630 
  225.3750     2.1940   -40.4880    57.3950    44.4990    42.3040    31.3700    25.2750 
  225.5000     2.1950   -41.2520    61.1400    42.9510    40.4240    29.4260    25.2770 
  225.6250     2.1950   -42.0160    61.7820    43.4640    40.3560    28.7030    25.2770 
  225.7500     2.1950   -42.7260    58.7660    46.3030    42.3940    29.6870    25.2780 
  225.8750     2.1900   -43.3370    56.9860    51.1100    46.2910    34.4620    25.2830 
  226.0000     2.1850   -43.8010    57.2940    57.5480    51.8030    43.1700    25.2980 
  226.1250     2.1840   -44.0930    56.8510    64.9000    58.3200    49.8210    25.3150 
  226.2500     2.1890   -44.1910    55.3030    72.0170    64.8130    52.0510    25.3070 
  226.3750     2.1940   -44.1240    55.5670    77.7500    70.1990    54.3600    25.2870 
  226.5000     2.1950   -43.9120    55.4560    81.5190    73.8950    58.4850    25.2760 
  226.6250     2.1910   -43.5850    52.1820    83.3490    75.8250    61.3500    25.2670 
  226.7500     2.1830   -43.1810    48.0440    83.6670    76.2640    61.3470    25.2420 
  226.8750     2.1760   -42.7460    46.9730    83.2710    75.8920    59.0830    25.2090 
  227.0000     2.1710   -42.3100    48.6710    82.6420    75.1400    57.4370    25.1930 
  227.1250     2.1670   -41.8900    50.3040    82.2760    74.4860    56.9860    25.2150 
  227.2500     2.1650   -41.5060    50.6460    82.6970    74.4750    56.3330    25.2140 
  227.3750     2.1640   -41.1530    49.3940    84.1350    75.4150    54.8100    25.1140 
  227.5000     2.1610   -40.8190    47.3680    86.7520    77.5160    53.9300    24.9740 
  227.6250     2.1580   -40.4810    46.8440    90.7230    80.9810    55.5410    24.8900 
  227.7500     2.1510   -40.1250    48.2510    96.3450    86.1060    59.2280    24.9480 
  227.8750     2.1440   -39.7590    49.8000   103.5010    92.7600    67.6660    25.2300 
  228.0000     2.1370   -39.3990    50.6080   112.0090   100.7730    80.6600    25.6730 
  228.1250     2.1350   -39.0450    50.7780   121.1910   109.5960    94.3730    25.9720 
  228.2500     2.1410   -38.6870    50.1310   129.5830   118.0840   108.5020    25.8540 
  228.3750     2.1490   -38.3260    48.7650   135.3810   124.7380   123.5450    25.5940 
  228.5000     2.1550   -37.9750    46.5510   137.1340   128.2530   133.6310    25.4520 
  228.6250     2.1580   -37.6570    44.0940   134.1100   127.7150   136.2630    25.4220 
  228.7500     2.1640   -37.3830    44.0970   126.3750   122.7380   132.3410    25.4220 
  228.8750     2.1750   -37.1450    45.9690   115.7050   114.5940   124.1560    25.4220 
  229.0000     2.1830   -36.9300    47.4050   105.6560   104.3850   113.3590    25.4220 
  229.1250     2.1900   -36.7420    47.6830   101.8950    93.5170    97.8750    25.4210 
  229.2500     2.1920   -36.5900    48.5020    90.0790    83.6190    80.8250    25.4150 
  229.3750     2.1930   -36.4640    50.4410    81.0450    75.7730    66.7990    25.3920 
  229.5000     2.1950   -36.3680    52.9970    75.1370    70.5030    56.0920    25.3490 
  229.6250     2.1970   -36.3010    54.6850    72.3630    68.0040    49.5800    25.3090 
  229.7500     2.1960   -36.2640    53.8750    72.6000    68.3210    51.5360    25.2980 
  229.8750     2.1860   -36.2570    51.4780    74.8810    70.6720    54.8570    25.2930 
  230.0000     2.1740   -36.2880    49.5480    78.4470    74.4180    55.9010    25.2720 
  230.1250     2.1630   -36.3410    49.0170    82.1790    78.5450    59.2970    25.2310 
  230.2500     2.1570   -36.4070    49.7340    84.4880    81.5130    63.4540    25.1540 
  230.3750     2.1550   -36.4820    51.1600    84.2410    82.0570    67.2790    25.0580 
  230.5000     2.1530   -36.5470    52.2410    81.1400    79.6710    69.7990    24.9760 
  230.6250     2.1570   -36.5970    52.0940    76.0200    74.9360    67.7790    24.9520 
  230.7500     2.1660   -36.6240    50.7150    70.7620    69.5100    59.1120    24.9800 
  230.8750     2.1780   -36.6170    48.7100    67.4260    65.4690    51.3880    25.0470 
  231.0000     2.1860   -36.5770    47.1650    67.3090    64.1500    48.3840    25.1060 
  231.1250     2.1850   -36.5200    46.6610    71.3460    66.5530    50.9010    25.1550 
  231.2500     2.1710   -36.4370    46.8590    80.2750    73.5210    60.4850    25.2190 
  231.3750     2.1510   -36.3360    46.2150    93.1220    84.2610    78.2350    25.2930 
  231.5000     2.1370   -36.2190    44.5880   108.5820    97.6170    98.8870    25.3290 
  231.6250     2.1330   -36.0950    43.2220   124.2230   111.4170   114.1560    25.3300 
  231.7500     2.1340   -35.9620    43.1540   136.8550   122.8660   121.0650    25.3240 
  231.8750     2.1350   -35.8220    43.6670   145.0660   130.6330   124.0680    25.3370 
  232.0000     2.1360   -35.6620    43.5610   149.0990   134.7780   125.2630    25.3460 
  232.1250     2.1390   -35.4580    42.8250   149.7320   135.8710   125.1660    25.3510 
  232.2500     2.1470   -35.2220    43.1160   146.8300   133.8720   122.1920    25.3530 
  232.3750     2.1560   -34.9680    44.8070   140.1650   128.6920   116.5480    25.3450 
  232.5000     2.1630   -34.6940    46.8170   129.6070   120.1320   111.2870    25.3080 
  232.6250     2.1670   -34.3990    48.2280   116.3510   108.9710   101.8860    25.2400 
  232.7500     2.1710   -34.0930    49.0430   102.9100    97.1510    88.1840    25.2220 
  232.8750     2.1780   -33.7800    49.5020    91.8180    87.0240    73.9410    25.2480 
  233.0000     2.1860   -33.4630    49.5040    84.2260    79.8440    61.8210    25.2230 
  233.1250     2.1960   -33.1630    50.6710    80.2760    75.9730    55.0410    25.1010 
  233.2500     2.2090   -32.8770    52.9050    79.3520    75.0210    55.1190    24.9300 
  233.3750     2.2260   -32.5950    54.1840    79.6000    75.3430    62.1370    24.8880 
  233.5000     2.2450   -32.3180    54.9240    79.5520    75.5790    71.0160    24.9540 
  233.6250     2.2690   -32.0430    56.1020    78.0320    74.5610    70.3990    25.0130 
  233.7500     2.2930   -31.7720    57.6300    74.6050    71.7310    60.4490    24.9180 
  233.8750     2.3070   -31.5110    58.6490    70.2660    67.8760    53.7270    24.7060 
  234.0000     2.3110   -31.2650    59.5260    66.1290    63.9710    46.9540    24.5300 
  234.1250     2.3150   -31.0380    59.5680    63.1790    60.9600    43.4160    24.5320 
  234.2500     2.3230   -30.8360    58.5430    62.0530    59.5100    40.5950    24.6610 
  234.3750     2.3310   -30.6410    58.8300    62.4910    59.4690    36.2420    24.7570 
  234.5000     2.3320   -30.4500    60.6200    64.1400    60.5410    34.4710    24.7130 
  234.6250     2.3260   -30.2560    61.5600    66.4560    62.2390    35.9650    24.5630 
  234.7500     2.3250   -30.0480    61.1940    68.7350    63.9040    41.9090    24.4590 
  234.8750     2.3360   -29.8380    60.8840    70.3370    64.9290    49.6260    24.4960 
  235.0000     2.3520   -29.6260    61.1800    70.9140    64.9900    58.4910    24.7250 
  235.1250     2.3590   -29.4120    61.0090    70.3360    63.9710    59.1380    25.0200 
  235.2500     2.3460   -29.2000    60.4580    68.7190    61.9610    52.7410    25.1490 
  235.3750     2.3280   -28.9900    60.8650    66.7970    59.6010    50.3640    25.1150 
  235.5000     2.3190   -28.7830    61.8070    65.4460    57.6530    52.6330    24.9920 
  235.6250     2.3260   -28.5720    61.5330    65.7350    57.0340    52.8030    24.9250 
  235.7500     2.3520   -28.3610    59.9500    68.7830    58.6800    48.2910    24.9800 
  235.8750     2.3940   -28.1340    59.1130    74.6600    62.6800    49.9140    25.0790 
  236.0000     2.4480   -27.8810    58.3880    82.9440    68.7360    67.6210    25.1260 
  236.1250     2.5050   -27.5880    56.7730    89.9980    75.6310    93.0920    25.0960 
