~V
VERS. 2.00: Ver 2.00
~W
STRT.M 45.0000:
STOP.M 272.0000:
STEP.M 0.1250:
NULL. -999.2500:
UWI. F10774:
~C
DEPT.M :
DEN.GM/CC :
SP.MV :
GR.API :
RML.OHMM :
RI. :
RXO.OHMM :
CALI.CM :
~A
# ...
  101.2500     2.3070   -16.3130    63.2650    13.1110    11.3510     5.9230    24.3140 
  101.3750     2.2880   -16.3480    68.3510    12.7230    10.9510     5.5220    24.4130 
  101.5000     2.2360   -16.4200    68.7110    12.9060    10.9280     5.5230    24.5240 
  101.6250     2.1800   -16.5370    65.9410    13.5010    11.2150     5.9990    24.5780 
  101.7500     2.1500   -16.6730    62.3060    14.1410    11.5980     6.3440    24.5880 
  101.8750     2.1400   -16.8020    57.7580    14.3670    11.7520     6.2860    24.5860 
  102.0000     2.1380   -16.9190    54.7830    13.9300    11.4690     6.0120    24.5860 
  102.1250     2.1350   -17.0310    56.2980    12.9270    10.7670     5.6760    24.5860 
  102.2500     2.1330   -17.1330    61.5140    11.7850     9.9040     5.4040    24.5850 
  102.3750     2.1340   -17.2300    65.0110    10.9820     9.2170     5.1310    24.5780 
  102.5000     2.1410   -17.3290    64.7330    10.7160     8.8650     4.8210    24.5580 
  102.6250     2.1510   -17.4060    63.0570    11.0290     8.9060     4.8180    24.5300 
  102.7500     2.1630   -17.4540    61.4830    11.8600     9.3340     5.2500    24.5290 
  102.8750     2.1750   -17.4700    60.0890    12.9720    10.0090     5.7110    24.5670 
  103.0000     2.1860   -17.4550    58.5380    14.1980    10.8250     5.9880    24.6400 
  103.1250     2.1910   -17.3920    57.1480    15.3960    11.6810     6.2590    24.7050 
  103.2500     2.1830   -17.2730    56.4760    16.4720    12.4990     6.6500    24.7360 
  103.3750     2.1590   -17.0930    56.6070    17.4120    13.2370     7.1450    24.7620 
  103.5000     2.1230   -16.8420    56.4050    18.1850    13.8620     7.5670    24.7910 
  103.6250     2.0890   -16.5550    54.5110    18.7050    14.3060     7.7570    24.8140 
  103.7500     2.0720   -16.2680    51.4160    18.8650    14.4900     7.6940    24.8120 
  103.8750     2.0830   -16.0070    50.0000    18.7170    14.4470     7.5360    24.7880 
  104.0000     2.1180   -15.7740    51.1780    18.3600    14.2450     7.3880    24.7720 
  104.1250     2.1660   -15.5580    52.5270    17.9380    13.9860     7.2170    24.7880 
  104.2500     2.2110   -15.3460    53.7320    17.6190    13.7860     6.9900    24.8030 
  104.3750     2.2410   -15.1460    56.1220    17.5100    13.7260     6.7360    24.7980 
  104.5000     2.2580   -14.9680    58.4980    17.6730    13.8500     6.5670    24.7620 
  104.6250     2.2660   -14.8170    59.0060    18.1290    14.1830     6.4550    24.6780 
  104.7500     2.2560   -14.7230    58.6560    18.8240    14.7130     6.3730    24.5700 
  104.8750     2.2240   -14.6950    58.6620    19.4770    15.2720     6.3690    24.4980 
  105.0000     2.1770   -14.7440    57.4780    19.6670    15.5640     6.4420    24.4910 
  105.1250     2.1380   -14.8760    55.0450    18.8740    15.1810     6.4990    24.5450 
  105.2500     2.1360   -15.1130    55.5550    16.7710    13.8060     6.4360    24.6650 
  105.3750     2.1750   -15.4270    61.3650    13.9080    11.7910     6.1010    24.7330 
  105.5000     2.2400   -15.8120    70.3850    10.9970     9.6360     5.4500    24.6600 
  105.6250     2.2960   -16.2650    77.8290     8.6790     7.8160     4.7200    24.5860 
  105.7500     2.3150   -16.7530    80.0580     7.3170     6.6250     4.3060    24.7200 
  105.8750     2.3040   -17.2430    80.2110     6.7610     6.0130     4.3400    24.9780 
  106.0000     2.2750   -17.6960    81.4470     6.8760     5.9170     4.6990    25.2130 
  106.1250     2.2410   -18.0960    83.5030     7.5170     6.2640     5.3630    25.3450 
  106.2500     2.2060   -18.4150    82.5310     8.5080     6.9620     6.0100    25.3690 
  106.3750     2.1790   -18.6750    76.0920     9.5120     7.7670     6.4480    25.3490 
  106.5000     2.1640   -18.8780    66.9510    10.2330     8.4480     6.6310    25.3230 
  106.6250     2.1660   -18.9960    60.9650    10.4580     8.7990     6.6080    25.3020 
  106.7500     2.1930   -19.0170    61.5720    10.1760     8.7380     6.6070    25.2850 
  106.8750     2.2350   -18.9600    64.8770     9.6760     8.4390     6.3990    25.2800 
  107.0000     2.2670   -18.8670    68.9950     9.1510     8.0470     5.8160    25.2780 
  107.1250     2.2720   -18.7830    72.4510     8.6820     7.6430     5.2900    25.2220 
  107.2500     2.2650   -18.7380    73.3000     8.2490     7.2400     5.1410    25.1060 
  107.3750     2.2690   -18.7130    73.0590     7.8190     6.8410     5.2790    25.0480 
  107.5000     2.2790   -18.7080    74.4460     7.4300     6.4790     5.1100    25.1220 
  107.6250     2.2770   -18.7350    76.8190     7.1950     6.2270     4.6770    25.2480 
  107.7500     2.2550   -18.7840    77.3290     7.2510     6.1730     4.4310    25.3030 
  107.8750     2.2300   -18.8330    76.9900     7.6220     6.3360     4.6760    25.2980 
  108.0000     2.2090   -18.8600    77.6110     8.2610     6.7010     5.1520    25.2260 
  108.1250     2.1940   -18.8400    77.7700     9.0090     7.1880     5.4970    25.0710 
  108.2500     2.1880   -18.7630    74.6030     9.5880     7.6340     5.6900    24.8760 
  108.3750     2.2020   -18.6620    70.3600     9.7870     7.8730     5.7550    24.7550 
  108.5000     2.2360   -18.5170    69.1910     9.5630     7.8390     5.7620    24.6900 
  108.6250     2.2690   -18.3170    72.5680     9.0450     7.5720     5.7920    24.6740 
  108.7500     2.2790   -18.0710    76.2070     8.4580     7.1910     5.5790    24.7240 
  108.8750     2.2710   -17.8040    76.2260     8.0330     6.8680     5.4900    24.7580 
  109.0000     2.2560   -17.5290    73.4760     7.9270     6.7310     5.4690    24.7300 
  109.1250     2.2400   -17.2580    69.6830     8.2990     6.9040     5.3550    24.6680 
  109.2500     2.2180   -17.0030    66.2700     9.3290     7.5240     5.3400    24.5860 
  109.3750     2.1850   -16.7690    62.7850    10.9210     8.5620     5.6490    24.4460 
  109.5000     2.1520   -16.5810    59.1920    12.7890     9.8770     6.1580    24.2490 
  109.6250     2.1310   -16.4660    58.0980    14.2500    11.0370     6.5200    24.0650 
  109.7500     2.1380   -16.4510    61.2830    14.3380    11.3420     6.5830    23.9650 
  109.8750     2.1640   -16.5430    66.4590    12.9180    10.5730     6.3660    23.9930 
  110.0000     2.1930   -16.7420    71.4510    10.6470     9.0900     5.7710    24.2190 
  110.1250     2.2010   -17.0300    76.4520     8.5230     7.5460     4.8760    24.6270 
  110.2500     2.1830   -17.3730    79.8200     7.2210     6.4380     4.1610    25.0080 
  110.3750     2.1660   -17.7260    77.9740     6.6880     5.8240     4.0590    25.1850 
  110.5000     2.1650   -18.0710    72.7330     6.7330     5.6260     4.5370    25.2150 
  110.6250     2.1790   -18.4020    69.9380     7.1200     5.7300     5.3160    25.1970 
  110.7500     2.1980   -18.6980    71.6680     7.6140     6.0100     5.6440    25.1900 
  110.8750     2.2090   -18.9500    74.0380     8.0440     6.3320     5.5130    25.1800 
  111.0000     2.2050   -19.1610    75.2110     8.4160     6.6640     5.4650    25.1470 
  111.1250     2.1900   -19.3450    74.8900     8.8890     7.0630     5.7120    25.0840 
  111.2500     2.1750   -19.5090    73.5760     9.7070     7.6640     5.9080    24.9850 
  111.3750     2.1730   -19.6440    70.5520    10.9240     8.5380     6.1830    24.8550 
  111.5000     2.1810   -19.7590    66.5820    12.3880     9.6350     6.6260    24.7850 
  111.6250     2.1930   -19.8600    63.2250    13.6680    10.6940     7.4770    24.8350 
  111.7500     2.2200   -19.9840    61.8020    14.1070    11.2370     9.4490    24.9280 
  111.8750     2.2720   -20.1380    64.0820    13.4510    10.9910    12.5100    24.9840 
  112.0000     2.3310   -20.3180    70.2510    11.9170    10.0410    13.5560    25.0140 
  112.1250     2.3560   -20.5090    77.9600    10.1310     8.7850     9.6070    25.0360 
  112.2500     2.3240   -20.7020    83.1590     8.7570     7.6830     6.3610    25.0170 
  112.3750     2.2760   -20.8970    83.4610     8.0260     6.9570     5.2470    25.0210 
