~V
VERS. 2.00: Ver 2.00
~W
STRT.M 59.0000:
STOP.M 248.0000:
STEP.M 0.1250:
NULL. -999.2500:
UWI. F10727:
~C
DEPT.M :
GR.API :
RML.OHMM :
RI. :
RXO.OHMM :
CALI.CM :
SP.MV :
DEN.GM/CC :
~A
# ...
  171.5000    67.5810     6.2950     6.1740     6.0110    24.6300   -12.6190     2.3730 
  171.6250    70.2850     6.1870     6.1080     5.8480    24.5340   -12.6380     2.3760 
  171.7500    69.8540     6.0860     6.0210     5.9390    24.5290   -12.7010     2.3770 
  171.8750    68.3490     6.0200     5.9310     6.0760    24.6220   -12.7540     2.3760 
  172.0000    68.6220     6.0240     5.8610     6.0700    24.7880   -12.8430     2.3750 
  172.1250    70.7560     6.1750     5.8720     6.1760    24.8080   -13.0440     2.3740 
  172.2500    70.8900     6.4990     6.0110     6.2500    24.7660   -13.2450     2.3730 
  172.3750    67.7240     7.0000     6.3110     6.4740    24.7250   -13.4560     2.3730 
  172.5000    63.5680     7.6340     6.7620     7.3700    24.8520   -13.6900     2.3740 
  172.6250    63.2280     8.2630     7.2830     9.0450    24.8840   -13.8880     2.3800 
  172.7500    65.3130     8.7130     7.7040    10.0790    24.8540   -14.0490     2.3900 
  172.8750    68.7760     8.9020     7.9140     9.5600    24.8980   -14.2200     2.4020 
  173.0000    72.1870     8.8940     7.9240     8.4910    24.9560   -14.3420     2.4140 
  173.1250    74.4440     8.8990     7.8800     8.3450    24.9040   -14.3670     2.4180 
  173.2500    73.3870     9.1190     7.9620     8.6610    24.9720   -14.3960     2.4160 
  173.3750    69.9710     9.6290     8.2590     9.4700    25.0560   -14.3830     2.4120 
  173.5000    67.0250    10.3980     8.7860    10.8500    25.0400   -14.3220     2.4130 
  173.6250    67.0350    11.2970     9.4920    12.3680    24.9270   -14.2800     2.4210 
  173.7500    69.5510    12.1260    10.2100    12.5120    24.7740   -14.2330     2.4340 
  173.8750    71.5290    12.7800    10.8200    12.7280    24.6320   -14.1440     2.4440 
  174.0000    70.0550    13.2460    11.2600    14.0130    24.5080   -14.0700     2.4470 
  174.1250    65.7360    13.5820    11.5440    16.1090    24.1520   -13.9930     2.4430 
  174.2500    64.4830    13.8850    11.7910    15.6920    23.9540   -13.8710     2.4380 
  174.3750    66.5380    14.1690    12.0540    13.2110    23.9270   -13.7580     2.4360 
  174.5000    67.9730    14.3820    12.3030    11.9160    24.1030   -13.6780     2.4370 
  174.6250    67.3330    14.4120    12.4260    13.0440    24.3710   -13.5520     2.4380 
  174.7500    66.1580    14.2930    12.4140    15.1950    24.5550   -13.4330     2.4360 
  174.8750    65.0900    14.2010    12.3740    15.1740    24.7180   -13.3680     2.4270 
  175.0000    65.5570    14.4180    12.5020    12.3480    24.8350   -13.2980     2.4070 
  175.1250    67.5910    15.2780    13.0500    11.2630    24.8910   -13.2530     2.3770 
  175.2500    67.9800    16.6020    13.9670    12.5100    24.9060   -13.2390     2.3400 
  175.3750    65.8010    17.8850    14.9670    16.0810    24.9150   -13.2160     2.3040 
  175.5000    63.3990    18.2850    15.4490    20.9420    24.9080   -13.1990     2.2740 
  175.6250    62.9560    16.8320    14.5780    19.0540    24.8430   -13.1940     2.2570 
  175.7500    64.2990    14.1780    12.6870    14.2230    24.8320   -13.1610     2.2540 
  175.8750    67.4230    11.4410    10.5590     9.9440    24.8270   -13.1330     2.2640 
  176.0000    69.4110     9.5410     8.9090     7.7660    24.8260   -13.1000     2.2850 
  176.1250    67.9610     9.0340     8.2310     7.4150    24.8180   -13.0200     2.3110 
  176.2500    67.2770     9.6770     8.4500     8.0140    24.7440   -12.9340     2.3310 
  176.3750    68.6620    11.2940     9.5210     9.7590    24.6630   -12.8850     2.3410 
  176.5000    68.1940    13.5660    11.3100    13.1480    24.5860   -12.8050     2.3380 
  176.6250    63.4250    15.7740    13.4140    15.4240    24.5790   -12.7040     2.3260 
  176.7500    59.5260    16.9590    14.9690    15.9670    24.5620   -12.6420     2.3130 
  176.8750    60.0300    16.5720    15.2860    14.9490    24.5120   -12.5220     2.3020 
  177.0000    64.1850    14.8140    14.2660    13.4230    24.4870   -12.3760     2.2960 
  177.1250    67.1190    12.4960    12.4220    11.6700    24.4820   -12.2810     2.2950 
  177.2500    65.6010    10.4710    10.5830     9.9730    24.4820   -12.1800     2.2990 
  177.3750    62.5560     9.0020     9.0780     8.2840    24.4820   -12.0380     2.3080 
  177.5000    62.8550     8.0790     7.9970     7.4650    24.4820   -11.9350     2.3230 
  177.6250    66.3970     7.6300     7.3600     7.4690    24.4880   -11.8430     2.3410 
  177.7500    68.1810     7.4340     7.0090     7.6710    24.5160   -11.7270     2.3590 
  177.8750    69.1530     7.3910     6.8610     7.4650    24.5260   -11.6650     2.3730 
  178.0000    70.3500     7.4490     6.8560     7.1910    24.4910   -11.6220     2.3800 
  178.1250    68.7980     7.6370     6.9950     7.1350    24.4860   -11.5850     2.3800 
  178.2500    63.7940     7.9960     7.2780     7.4230    24.4950   -11.5910     2.3780 
  178.3750    58.9520     8.5880     7.7470     7.8680    24.5340   -11.5970     2.3720 
  178.5000    57.7160     9.4380     8.4360     8.7950    24.5420   -11.5720     2.3630 
  178.6250    58.2080    10.5120     9.3620    10.2880    24.4830   -11.6020     2.3480 
  178.7500    57.4170    11.6150    10.3900    11.4540    24.4740   -11.6440     2.3320 
  178.8750    55.3060    12.5610    11.3610    11.9120    24.4750   -11.6690     2.3170 
  179.0000    54.1530    13.1850    12.1040    12.5820    24.4850   -11.7230     2.3070 
  179.1250    54.6860    13.3470    12.4400    13.0630    24.5440   -11.7300     2.3070 
  179.2500    56.4960    13.1790    12.4460    12.6070    24.5310   -11.7160     2.3170 
  179.3750    59.2250    12.7940    12.2170    11.8970    24.5150   -11.7430     2.3350 
  179.5000    61.4740    12.2640    11.8310    11.2580    24.5590   -11.7520     2.3540 
  179.6250    62.5000    11.6050    11.3070    11.4270    24.5800   -11.7530     2.3600 
  179.7500    62.3250    10.8880    10.7160    11.7570    24.7270   -11.7730     2.3520 
  179.8750    62.9230    10.2070    10.1350    11.3090    24.7940   -11.7370     2.3310 
  180.0000    63.9480     9.6730     9.6580     9.4810    24.7130   -11.6830     2.3090 
  180.1250    62.9760     9.4300     9.4110     8.2940    24.3360   -11.6940     2.2980 
  180.2500    60.4240     9.4420     9.3950     8.4760    23.9210   -11.6950     2.3000 
  180.3750    58.2810     9.6250     9.5690     9.6760    23.8970   -11.6960     2.3150 
  180.5000    58.5220     9.8620     9.8350    10.2720    24.0310   -11.7730     2.3400 
  180.6250    61.7120    10.0420    10.0600    10.1650    24.1210   -11.8740     2.3720 
  180.7500    64.2620    10.1530    10.1860     9.5340    24.1470   -12.0110     2.4030 
  180.8750    63.7230    10.2420    10.2500     9.0870    24.0420   -12.2620     2.4300 
  181.0000    60.4050    10.3600    10.3250     9.0000    23.9450   -12.5590     2.4460 
  181.1250    58.8480    10.4930    10.4570     9.1880    23.8180   -12.8880     2.4430 
  181.2500    59.3740    10.5490    10.5780     9.4980    23.7390   -13.2480     2.4240 
  181.3750    60.4870    10.4590    10.5880     9.7440    23.5820   -13.6030     2.3970 
  181.5000    60.9310    10.2410    10.4340     9.6830    23.5300   -13.9550     2.3690 
  181.6250    60.1360    10.1050    10.2200     9.2480    23.5190   -14.2800     2.3470 
  181.7500    58.1340    10.3730    10.2300     8.8490    23.5230   -14.5860     2.3340 
  181.8750    57.3850    11.3710    10.7550     8.8360    23.5180   -14.8830     2.3290 
  182.0000    58.2660    13.4350    12.0990     9.7000    23.4520   -15.1500     2.3270 
  182.1250    55.9470    17.0950    14.7890    13.2410    23.3340   -15.3590     2.3240 
  182.2500    50.5620    22.1190    18.8200    20.9940    23.1620   -15.5920     2.3150 
  182.3750    47.8810    27.9490    23.9230    29.8370    23.2980   -15.8340     2.2960 
  182.5000    50.7250    33.4380    29.1860    32.2020    23.7830   -16.0400     2.2690 
  182.6250    55.8620    36.9240    32.9500    29.4510    24.3370   -16.2890     2.2430 
