~V
VERS. 2.00: Ver 2.00
~W
STRT.M 51.0000:
STOP.M 263.0000:
STEP.M 0.1250:
NULL. -999.2500:
UWI. F10758:
~C
DEPT.M :
DEN.GM/CC :
GR.API :
RML.OHMM :
RI. :
RXO.OHMM :
CALI.CM :
SP.MV :
~A
# ...
  197.2500     2.4420    61.0410    17.1590    15.8740    15.7100    24.2100   -12.5950 
  197.3750     2.4330    61.9010    17.5820    16.1570    16.1830    24.3170   -12.6730 
  197.5000     2.4150    61.9940    17.9260    16.3840    16.6780    24.3980   -12.7570 
  197.6250     2.4020    61.5910    18.1540    16.5670    16.6180    24.4360   -12.8290 
  197.7500     2.4000    59.8120    18.3410    16.7130    16.3900    24.3510   -12.8970 
  197.8750     2.4050    56.3920    18.5470    16.7970    16.3670    24.3460   -12.9290 
  198.0000     2.4110    53.7350    18.7560    16.7960    17.0540    24.3660   -12.9460 
  198.1250     2.4080    54.6890    18.8630    16.7150    17.1400    24.3710   -12.9030 
  198.2500     2.3980    56.6470    18.8220    16.6200    16.6330    24.3720   -12.8850 
  198.3750     2.3890    57.8190    18.6700    16.5710    15.7810    24.3740   -12.8710 
  198.5000     2.3900    58.4280    18.5580    16.6120    14.9120    24.3840   -12.8610 
  198.6250     2.4020    59.5830    18.5920    16.7240    14.7390    24.3330   -12.8510 
  198.7500     2.4170    59.8970    18.6210    16.7790    14.6670    24.1760   -12.8610 
  198.8750     2.4250    58.3910    18.4630    16.6650    14.1680    23.9900   -12.9060 
  199.0000     2.4230    56.3610    18.0040    16.3480    13.3940    24.0760   -12.9340 
  199.1250     2.4100    55.2490    17.2640    15.8830    13.5120    24.0660   -12.9990 
  199.2500     2.3950    54.9570    16.5030    15.4320    13.5660    24.0630   -13.0470 
  199.3750     2.3830    55.2890    15.9240    15.1120    13.3200    24.0920   -13.0940 
  199.5000     2.3750    56.2820    15.6480    14.9840    13.1500    24.1440   -13.1110 
  199.6250     2.3710    56.4550    15.7440    15.0660    13.4960    24.1580   -13.0930 
  199.7500     2.3710    56.0970    16.1030    15.2730    13.8340    24.1280   -13.0350 
  199.8750     2.3750    55.4780    16.6130    15.5480    14.2950    24.1310   -12.9350 
  200.0000     2.3790    54.0650    17.1420    15.8420    15.1860    24.1480   -12.8420 
  200.1250     2.3820    53.1090    17.6450    16.1300    15.9410    24.1450   -12.7160 
  200.2500     2.3830    54.1720    18.1570    16.4200    16.4970    24.1270   -12.5980 
  200.3750     2.3820    57.0260    18.6700    16.7150    16.2370    24.1410   -12.4760 
  200.5000     2.3810    58.3060    19.1060    16.9850    15.1680    24.1890   -12.4150 
  200.6250     2.3790    56.2840    19.2700    17.1290    15.4500    24.2150   -12.3970 
  200.7500     2.3710    54.5140    19.0770    17.0710    16.5580    24.0190   -12.4090 
  200.8750     2.3550    54.0220    18.5470    16.7830    17.2140    23.7700   -12.4210 
  201.0000     2.3340    54.6340    17.8350    16.3360    16.5810    23.7060   -12.4330 
  201.1250     2.3230    55.1400    17.2190    15.8880    15.3820    23.9360   -12.4760 
  201.2500     2.3270    55.6550    16.9080    15.6030    14.4380    24.0990   -12.5160 
  201.3750     2.3450    57.0100    16.9860    15.5660    14.9810    24.0490   -12.5870 
  201.5000     2.3680    59.2390    17.3960    15.7790    16.6050    23.9930   -12.6410 
  201.6250     2.3810    61.9790    17.9520    16.1860    18.0830    23.8420   -12.7170 
  201.7500     2.3770    63.0470    18.4140    16.6360    18.0040    23.5690   -12.8240 
  201.8750     2.3580    62.1920    18.6890    17.0260    18.6490    23.2050   -12.9580 
  202.0000     2.3350    60.5110    18.7940    17.2740    22.0850    23.5220   -13.1230 
  202.1250     2.3210    58.4430    18.7900    17.3050    27.4470    23.6800   -13.2600 
  202.2500     2.3210    57.4800    18.7360    17.1650    26.7740    23.8710   -13.3790 
  202.3750     2.3330    58.1900    18.6260    16.9220    22.6550    24.0230   -13.4430 
  202.5000     2.3490    59.6800    18.4670    16.6520    17.5930    24.2050   -13.5010 
  202.6250     2.3600    60.7550    18.2890    16.4160    16.3850    24.2880   -13.4950 
  202.7500     2.3670    60.8690    18.1210    16.2220    17.3790    24.3850   -13.4680 
  202.8750     2.3740    60.3870    17.9480    16.0360    19.1710    24.4970   -13.4270 
  203.0000     2.3830    60.4190    17.7390    15.8210    19.0670    24.2620   -13.3790 
  203.1250     2.3900    61.2420    17.5110    15.5990    17.2960    24.1620   -13.3050 
  203.2500     2.3940    61.2730    17.3680    15.4770    16.2070    24.1150   -13.2210 
  203.3750     2.3980    59.8870    17.4120    15.5520    15.8970    24.0550   -13.1510 
  203.5000     2.4050    57.3290    17.6790    15.8630    15.9370    24.0240   -13.0560 
  203.6250     2.4160    56.3290    18.1070    16.3670    16.6080    23.9840   -12.9960 
  203.7500     2.4250    57.4300    18.4930    16.8490    17.5220    24.0550   -12.9120 
  203.8750     2.4310    60.0630    18.6890    17.1140    18.8260    24.1810   -12.8510 
  204.0000     2.4310    62.7880    18.6170    17.0360    19.7320    24.2560   -12.7810 
  204.1250     2.4260    63.1590    18.2770    16.6150    19.1180    24.2840   -12.7450 
  204.2500     2.4190    61.3650    17.8120    16.0870    19.2750    24.2230   -12.7450 
  204.3750     2.4140    58.2140    17.3030    15.6350    20.2880    24.2140   -12.7770 
  204.5000     2.4140    57.2210    16.8500    15.3910    18.3020    24.2110   -12.8480 
  204.6250     2.4230    58.3480    16.6210    15.4390    16.8980    24.2550   -12.9060 
  204.7500     2.4360    58.6630    16.6440    15.6610    16.9550    24.2050   -13.0160 
  204.8750     2.4450    59.2430    16.8470    15.9100    18.0410    24.1930   -13.1030 
  205.0000     2.4420    60.8260    17.0650    16.0180    18.5140    24.1960   -13.1840 
  205.1250     2.4190    61.0810    17.0660    15.8110    16.9070    24.1730   -13.2420 
  205.2500     2.3830    59.1740    16.7920    15.3220    14.1630    24.2160   -13.2970 
  205.3750     2.3400    58.5090    16.2610    14.6180    13.0380    24.2730   -13.3470 
  205.5000     2.3000    59.7800    15.5100    13.7730    12.7930    24.2840   -13.3730 
  205.6250     2.2750    60.0590    14.5470    12.8380    12.3860    24.2850   -13.3730 
  205.7500     2.2660    58.3640    13.4960    11.9010    11.9540    24.2880   -13.3090 
  205.8750     2.2710    57.0430    12.5340    11.0620    11.1650    24.2870   -13.2450 
  206.0000     2.2830    59.2340    11.8440    10.4330     9.8590    24.2850   -13.1660 
  206.1250     2.2910    63.7840    11.6150    10.1670     9.0110    24.2840   -13.1150 
  206.2500     2.2930    65.1770    11.8050    10.2640     9.6350    24.2820   -13.0250 
  206.3750     2.2950    62.6080    12.3490    10.7000    10.8470    24.2740   -12.9220 
  206.5000     2.3060    59.9610    13.1270    11.3850    11.8840    24.2200   -12.8480 
  206.6250     2.3400    59.0060    13.9330    12.1520    11.9540    24.2080   -12.8130 
  206.7500     2.3870    59.6990    14.5200    12.7720    11.9690    24.1910   -12.8210 
  206.8750     2.4270    62.3760    14.7230    13.0960    13.0290    24.1500   -12.8420 
  207.0000     2.4400    65.2260    14.5090    13.0730    14.1680    24.1700   -12.9280 
  207.1250     2.4120    62.9680    14.0000    12.7560    13.3550    24.2650   -13.0240 
  207.2500     2.3650    58.2380    13.5090    12.3650    12.0140    24.3590   -13.1630 
  207.3750     2.3180    56.1050    13.2440    12.0570    11.4630    24.3930   -13.3240 
  207.5000     2.2830    56.8890    13.3210    11.9430    11.5700    24.4490   -13.4770 
  207.6250     2.2640    58.9150    13.7770    12.1090    11.9310    24.4630   -13.6590 
  207.7500     2.2520    61.3220    14.4110    12.4870    12.4070    24.4600   -13.8400 
  207.8750     2.2410    62.6960    15.0590    13.0060    12.8150    24.4620   -14.0220 
  208.0000     2.2310    61.8000    15.6320    13.5920    13.2940    24.4710   -14.1670 
  208.1250     2.2300    59.0700    16.1590    14.1740    13.9100    24.5230   -14.3270 
  208.2500     2.2430    57.5440    16.7280    14.6970    14.5230    24.5100   -14.4870 
  208.3750     2.2670    56.4010    17.3440    15.1330    14.8040    24.4030   -14.6570 
