~V
VERS. 2.00: Ver 2.00
~W
STRT.M 51.0000:
STOP.M 263.0000:
STEP.M 0.1250:
NULL. -999.2500:
UWI. F10758:
~C
DEPT.M :
DEN.GM/CC :
GR.API :
RML.OHMM :
RI. :
RXO.OHMM :
CALI.CM :
SP.MV :
~A
# ...
  129.7500     2.1860    82.0170     9.6010     8.6140     8.1690    24.2270   -14.7040 
  129.8750     2.1790    81.7340     9.8750     8.6510     7.5230    24.5310   -14.6950 
  130.0000     2.1710    80.1620    10.6710     9.0720     7.1560    24.4700   -14.6730 
  130.1250     2.1640    79.0750    11.9810     9.9450     7.4380    23.8880   -14.6500 
  130.2500     2.1580    79.3930    13.4810    11.0820     8.1230    23.2380   -14.6030 
  130.3750     2.1510    79.0100    14.7810    12.2010     8.9020    22.8500   -14.5880 
  130.5000     2.1470    76.1770    15.4360    12.8880     9.6750    22.7930   -14.5880 
  130.6250     2.1570    74.4250    15.0300    12.6630    10.0360    22.9810   -14.5820 
  130.7500     2.1820    75.8120    13.9470    11.7570     9.6460    23.0120   -14.5390 
  130.8750     2.2160    79.0610    12.7070    10.6130     8.7290    22.7930   -14.4830 
  131.0000     2.2430    84.0780    11.8150     9.6930     7.8610    22.6180   -14.4480 
  131.1250     2.2470    87.4990    11.8320     9.4450     7.5610    22.6110   -14.4610 
  131.2500     2.2290    85.7210    12.9010     9.9640     8.1340    22.5800   -14.5540 
  131.3750     2.2000    80.0560    15.1090    11.3290     9.5840    22.5650   -14.6700 
  131.5000     2.1710    74.7470    18.3040    13.5330    12.0250    22.6030   -14.7770 
  131.6250     2.1480    72.0570    21.8910    16.3680    16.4480    22.6180   -14.8760 
  131.7500     2.1340    68.3930    24.7400    19.0290    22.8690    22.6210   -14.9450 
  131.8750     2.1300    64.0290    26.0300    20.7530    26.1320    22.6210   -15.0090 
  132.0000     2.1350    61.4790    25.6060    21.1730    21.2100    22.6210   -15.0460 
  132.1250     2.1470    61.6620    23.9690    20.4350    14.5070    22.6210   -15.0170 
  132.2500     2.1560    64.4160    22.1180    19.3000    11.8740    22.6200   -14.9270 
  132.3750     2.1580    69.3630    20.4860    18.1400    10.9200    22.6100   -14.8370 
  132.5000     2.1530    74.0360    19.2460    17.1320    10.3540    22.5470   -14.7340 
  132.6250     2.1440    76.4530    18.4750    16.3590     9.8400    22.4310   -14.6720 
  132.7500     2.1380    76.5620    18.0480    15.8010     9.5010    22.2530   -14.6210 
  132.8750     2.1340    74.7410    17.9100    15.4720     9.3530    22.0900   -14.5800 
  133.0000     2.1300    72.6110    18.0170    15.3850     9.3890    22.0190   -14.5820 
  133.1250     2.1220    71.2030    18.3810    15.5590     9.7110    21.9580   -14.6080 
  133.2500     2.1110    69.8170    18.9180    15.8900     9.9100    21.9080   -14.6790 
  133.3750     2.1000    68.3740    19.5300    16.2920    10.0140    21.7980   -14.7510 
  133.5000     2.0920    68.0280    20.0780    16.6840    10.0560    21.7050   -14.8440 
  133.6250     2.0880    68.2520    20.3980    16.9900    10.1010    21.8130   -14.9070 
  133.7500     2.0890    66.5450    20.5130    17.1910    10.1970    22.2520   -14.9480 
  133.8750     2.0920    63.3900    20.5500    17.3110    10.4240    22.7780   -14.9530 
  134.0000     2.0970    61.8760    20.6870    17.4160    10.7140    23.0020   -14.8930 
  134.1250     2.1040    64.6710    21.0990    17.6260    10.8980    23.0360   -14.7650 
  134.2500     2.1100    67.2920    21.7750    18.0210    11.0930    23.0460   -14.5540 
  134.3750     2.1170    66.4970    22.6830    18.6470    11.6500    23.0700   -14.2840 
  134.5000     2.1230    64.3630    23.7800    19.4950    12.9810    23.1220   -13.9710 
  134.6250     2.1250    64.3680    24.9830    20.4970    15.0700    23.1160   -13.6220 
  134.7500     2.1190    63.1640    26.1540    21.5100    16.8210    23.0770   -13.2730 
  134.8750     2.1010    59.7210    27.2680    22.4910    17.2870    23.0510   -12.9320 
  135.0000     2.0760    57.0380    28.3530    23.4650    17.2900    23.0380   -12.6040 
  135.1250     2.0570    56.0640    29.4150    24.4740    19.1590    23.2970   -12.3400 
  135.2500     2.0590    56.0960    30.3300    25.4290    23.5640    23.5960   -12.1340 
  135.3750     2.0870    56.1700    30.7990    26.0740    31.0370    23.5190   -11.9740 
  135.5000     2.1380    55.7510    30.4880    26.0650    32.4280    23.3330   -11.8470 
  135.6250     2.1990    55.8760    29.1580    25.1010    23.7960    22.8220   -11.7860 
  135.7500     2.2480    58.3230    27.3210    23.5960    19.6940    22.4200   -11.7890 
  135.8750     2.2730    60.5390    25.4960    22.0040    16.8280    21.9880   -11.8610 
  136.0000     2.2690    58.3880    24.0910    20.6890    15.2190    21.7930   -11.9760 
  136.1250     2.2370    54.4580    23.3640    19.9050    14.9810    21.8340   -12.1720 
  136.2500     2.1950    54.1160    23.0670    19.5320    16.8710    21.9200   -12.4030 
  136.3750     2.1590    55.3920    22.9440    19.4310    17.5640    21.9850   -12.6700 
  136.5000     2.1360    55.9160    22.8000    19.4700    15.8180    21.9580   -12.9830 
  136.6250     2.1350    57.6530    22.6010    19.5800    13.7460    21.8900   -13.3380 
  136.7500     2.1470    60.2600    22.4540    19.7140    12.8260    21.8080   -13.7030 
  136.8750     2.1650    61.6960    22.3840    19.8200    13.4660    21.8840   -14.0630 
  137.0000     2.1800    60.6830    22.2690    19.7910    14.9070    22.1940   -14.4480 
  137.1250     2.1840    59.4880    21.8100    19.4200    14.7280    22.5620   -14.7940 
  137.2500     2.1780    60.1890    20.9060    18.6600    13.4340    22.7890   -15.1620 
  137.3750     2.1670    62.0250    19.6680    17.5800    11.9050    22.8560   -15.5380 
  137.5000     2.1600    63.2790    18.3510    16.3630    10.7260    22.8700   -15.9000 
  137.6250     2.1610    61.9460    17.2720    15.2620    10.3970    22.8550   -16.1950 
  137.7500     2.1660    59.6310    16.5590    14.4570    10.5170    22.8090   -16.4220 
  137.8750     2.1670    59.0500    16.2560    14.0620    10.3040    22.6990   -16.5760 
  138.0000     2.1560    60.5210    16.3480    14.1330     9.8110    22.7730   -16.6260 
  138.1250     2.1360    61.4600    16.7890    14.6890    10.0560    22.9630   -16.5840 
  138.2500     2.1220    59.7090    17.3350    15.4680    12.0490    23.1690   -16.4160 
  138.3750     2.1280    57.5350    17.7410    16.1840    16.9250    23.3010   -16.1430 
  138.5000     2.1600    57.2840    17.7550    16.5150    22.2120    23.1770   -15.7900 
  138.6250     2.2050    58.2880    17.1800    16.1600    18.0100    22.8770   -15.3870 
  138.7500     2.2400    59.2670    16.2680    15.3370    11.4750    22.6110   -14.9940 
  138.8750     2.2490    59.5810    15.3310    14.3480     8.7050    22.4030   -14.6460 
  139.0000     2.2340    59.4280    14.6490    13.4830     8.1330    22.2230   -14.4410 
  139.1250     2.2080    58.9700    14.3870    12.9670     8.0430    22.2320   -14.3620 
  139.2500     2.1870    59.6560    14.3750    12.7630     8.0280    22.3450   -14.3620 
  139.3750     2.1740    62.0310    14.4410    12.7790     8.0690    22.3800   -14.4440 
  139.5000     2.1660    64.9980    14.4600    12.8900     8.2010    22.3630   -14.5700 
  139.6250     2.1620    66.6900    14.4190    12.9800     8.4080    22.4090   -14.7300 
  139.7500     2.1610    66.1260    14.4250    13.0380     8.5610    22.5750   -14.8840 
  139.8750     2.1650    63.6160    14.6270    13.1520     8.7760    22.8310   -15.0010 
  140.0000     2.1780    60.5870    15.2490    13.4980     9.1350    23.0930   -14.9910 
  140.1250     2.2100    61.6380    16.6760    14.4000    10.0000    23.3120   -14.8030 
  140.2500     2.2600    65.9750    18.9570    15.9580    12.3560    23.5280   -14.5300 
  140.3750     2.3260    69.2160    22.0520    18.2340    17.5990    23.6220   -14.1510 
  140.5000     2.3930    67.7970    25.6700    21.1340    23.4250    23.7810   -13.7580 
  140.6250     2.4280    65.0960    29.0690    24.2100    23.4990    23.5000   -13.3370 
  140.7500     2.4150    65.6570    31.3870    26.6170    18.8840    22.9350   -12.9280 
  140.8750     2.3550    67.2880    32.1100    27.7070    16.4020    22.5920   -12.5370 
