~V
VERS. 2.00: Ver 2.00
~W
STRT.M 55.0000:
STOP.M 262.0000:
STEP.M 0.1250:
NULL. -999.2500:
UWI. F10759:
~C
DEPT.M :
DEN.GM/CC :
GR.API :
RML.OHMM :
RI. :
RXO.OHMM :
CALI.CM :
SP.MV :
~A
# ...
  235.0000     2.3540    63.8100     7.2470     5.5120     5.4420    23.4680   -12.1970 
  235.1250     2.3740    64.9570     7.5830     5.9530     7.3000    23.5600   -12.5040 
  235.2500     2.3920    64.5500     7.9530     6.5840     9.7530    23.5750   -12.7560 
  235.3750     2.4060    63.1640     8.5030     7.2550     9.8810    23.5630   -12.9620 
  235.5000     2.4150    62.0700     9.0780     7.7660     9.0050    23.4490   -13.0950 
  235.6250     2.4120    60.4340     9.0070     7.8840     9.2080    23.4020   -13.1330 
  235.7500     2.3960    59.1890     8.5810     7.6670    10.2350    23.4820   -13.0670 
  235.8750     2.3690    60.8100     8.0310     7.2630     9.3920    23.6080   -12.9150 
  236.0000     2.3400    65.2790     7.5690     6.8480     7.7650    23.6380   -12.6860 
  236.1250     2.3250    69.7770     7.3400     6.5720     7.2430    23.6030   -12.4070 
  236.2500     2.3320    72.5280     7.3050     6.4530     7.1160    23.5890   -12.0970 
  236.3750     2.3580    71.3510     7.3900     6.4640     6.9740    23.6130   -11.7870 
  236.5000     2.3920    66.1550     7.4790     6.5320     6.8780    23.5250   -11.5200 
  236.6250     2.4170    61.3890     7.4260     6.5360     7.0460    23.5240   -11.2750 
  236.7500     2.4210    60.6230     7.2090     6.4170     7.2030    23.5610   -11.0560 
  236.8750     2.4050    61.3010     6.8930     6.1980     6.6920    23.5840   -10.8700 
  237.0000     2.3790    60.4310     6.5940     5.9560     5.9210    23.5990   -10.7210 
  237.1250     2.3570    59.6560     6.4470     5.8020     5.4850    23.6540   -10.6280 
  237.2500     2.3440    59.0100     6.4710     5.7770     5.4660    23.6640   -10.5870 
  237.3750     2.3390    55.4380     6.6100     5.8610     5.9400    23.6580   -10.5590 
  237.5000     2.3390    50.3660     6.7460     5.9710     6.9010    23.5980   -10.5130 
  237.6250     2.3410    49.9190     6.7140     5.9730     7.7690    23.6110   -10.4630 
  237.7500     2.3440    53.0290     6.4860     5.8120     8.0550    23.5350   -10.4070 
  237.8750     2.3470    54.1050     6.1360     5.5210     7.6420    23.5060   -10.3590 
  238.0000     2.3510    49.9470     5.7880     5.1910     6.3560    23.5110   -10.3490 
  238.1250     2.3490    42.9680     5.5880     4.9380     5.0320    23.5700   -10.3850 
  238.2500     2.3420    39.4690     5.5720     4.8210     4.6650    23.5980   -10.4920 
  238.3750     2.3300    42.5330     5.7270     4.8560     4.8280    23.6280   -10.6770 
  238.5000     2.3150    49.4520     5.9930     5.0170     5.0760    23.5870   -10.9410 
  238.6250     2.3040    53.5990     6.2630     5.2330     5.3280    23.5870   -11.2220 
  238.7500     2.2990    55.1250     6.4580     5.4120     6.0450    23.6100   -11.4840 
  238.8750     2.3030    55.3370     6.5960     5.5340     7.1630    23.5890   -11.7240 
  239.0000     2.3210    53.5720     6.7750     5.6550     7.0800    23.5360   -11.9480 
  239.1250     2.3580    49.0480     7.1390     5.8840     5.9220    23.4960   -12.1810 
  239.2500     2.4050    46.8730     7.6840     6.2450     5.6150    23.4880   -12.3870 
  239.3750     2.4480    49.6090     8.3080     6.6880     6.3350    23.4760   -12.5710 
  239.5000     2.4690    54.2540     8.8270     7.0980     7.4930    23.4120   -12.7110 
  239.6250     2.4510    57.5890     9.0250     7.3160     7.5820    23.3520   -12.9340 
  239.7500     2.4090    59.8320     8.9830     7.3590     6.2770    23.3690   -13.2300 
  239.8750     2.3640    60.4420     8.9230     7.3580     5.7900    23.4790   -13.5900 
  240.0000     2.3330    60.9740     9.0790     7.4840     6.4180    23.5310   -13.9380 
  240.1250     2.3260    62.7780     9.5930     7.8940     8.3720    23.4090   -14.2320 
  240.2500     2.3340    65.1470    10.2800     8.5160    10.8400    23.3730   -14.4630 
  240.3750     2.3480    66.4350    10.8860     9.1860    12.2240    23.4270   -14.6150 
  240.5000     2.3590    67.5110    11.1720     9.6870    11.7000    23.3910   -14.7250 
  240.6250     2.3580    69.3040    11.0000     9.8140    10.4240    23.3250   -14.6840 
  240.7500     2.3490    70.7500    10.5410     9.6320     9.8660    23.4020   -14.5060 
  240.8750     2.3370    71.0160     9.9050     9.2190     9.0830    23.4150   -14.1620 
  241.0000     2.3290    69.7140     9.1490     8.6330     8.7740    23.3720   -13.7000 
  241.1250     2.3310    65.4800     8.2870     7.8990     8.5260    23.4460   -13.1110 
  241.2500     2.3380    60.1670     7.4030     7.1090     7.7630    23.3870   -12.4790 
  241.3750     2.3430    55.1620     6.5920     6.3540     6.5010    23.2810   -11.8660 
  241.5000     2.3400    51.2230     5.9380     5.7200     5.3780    23.1690   -11.2890 
  241.6250     2.3330    48.4920     5.5210     5.2930     4.8430    23.3020   -10.7960 
  241.7500     2.3300    46.1480     5.3080     5.0570     4.9530    23.3630   -10.3950 
  241.8750     2.3340    43.5060     5.2700     4.9960     5.1220    23.2920   -10.1040 
  242.0000     2.3410    41.5630     5.3530     5.0670     4.9470    23.2150    -9.9410 
  242.1250     2.3400    41.3920     5.4910     5.2190     4.6500    23.2700    -9.9130 
  242.2500     2.3300    43.3480     5.6020     5.3700     4.8640    23.3120    -9.9680 
  242.3750     2.3160    46.7090     5.6400     5.4640     5.4110    23.2780   -10.0690 
  242.5000     2.3120    49.7260     5.5930     5.4720     5.6930    23.2180   -10.1910 
  242.6250     2.3290    49.7680     5.4980     5.4040     5.3820    23.1300   -10.3820 
  242.7500     2.3650    47.0150     5.4380     5.3310     4.9830    23.1120   -10.6060 
  242.8750     2.4090    43.8830     5.4690     5.3110     4.9290    23.1170   -10.8760 
  243.0000     2.4460    43.6070     5.6070     5.3720     5.0270    23.0860   -11.1800 
  243.1250     2.4570    48.4510     5.8250     5.5100     5.3590    23.0080   -11.5460 
  243.2500     2.4420    54.5490     6.0400     5.6640     5.9730    22.9760   -11.9340 
  243.3750     2.4110    58.6590     6.2040     5.7900     6.2920    22.9160   -12.3490 
  243.5000     2.3750    60.3730     6.3180     5.8770     6.1630    23.0180   -12.8280 
  243.6250     2.3500    60.4340     6.4440     5.9620     6.1210    22.9630   -13.3620 
  243.7500     2.3400    60.3390     6.6790     6.1200     6.4110    22.8880   -13.9230 
  243.8750     2.3460    63.5230     7.1210     6.4360     6.4180    22.8040   -14.5220 
  244.0000     2.3670    70.0400     7.8560     6.9930     6.3530    22.7680   -15.1530 
  244.1250     2.4000    75.9460     9.0050     7.9140     6.9770    22.7050   -15.7670 
  244.2500     2.4340    77.5590    10.9310     9.1630     8.3430    22.6960   -16.3800 
  244.3750     2.4590    75.8350    13.1380    10.6680    10.5070    22.7750   -16.9800 
  244.5000     2.4690    73.5390    14.8760    12.2390    13.5780    22.9530   -17.5030 
  244.6250     2.4620    73.3590    16.0020    13.4600    15.4580    22.9400   -17.8970 
  244.7500     2.4470    74.9690    16.2570    14.0120    15.3940    23.0320   -18.2020 
  244.8750     2.4290    75.0970    15.6560    13.7930    14.3460    23.1760   -18.3930 
  245.0000     2.4120    74.5970    14.5490    13.0130    13.8780    23.2340   -18.4550 
  245.1250     2.4010    77.2980    13.5390    12.1190    13.7840    23.2660   -18.4630 
  245.2500     2.4000    81.0450    13.0870    11.5450    12.8580    23.3160   -18.5070 
  245.3750     2.4100    80.8080    13.4100    11.5160    10.8430    23.3290   -18.5880 
  245.5000     2.4290    78.2720    14.5490    12.1380    11.1970    23.3560   -18.7060 
  245.6250     2.4470    80.2180    16.4190    13.4830    15.9910    23.3840   -18.8680 
  245.7500     2.4520    83.5060    18.4570    15.2120    22.2520    23.4230   -19.0750 
  245.8750     2.4410    83.9550    20.0690    16.8820    23.6570    23.4100   -19.3280 
  246.0000     2.4190    81.7780    20.7300    17.9600    21.3670    23.3900   -19.6340 
  246.1250     2.3950    79.8950    20.2360    18.0240    19.6630    23.3260   -19.9600 
