~V
VERS. 2.00: Ver 2.00
~W
STRT.M 40.0000:
STOP.M 236.0000:
STEP.M 0.1250:
NULL. -999.2500:
UWI. F10781:
~C
DEPT.M :
GR.API :
RML.OHMM :
RI. :
RXO.OHMM :
CALI.CM :
SP.MV :
DEN.GM/CC :
~A
# ...
  141.2500    49.7740    29.6920    24.3520    19.6360    25.2610    -4.8720     2.2890 
  141.3750    51.3330    30.7920    25.3200    27.9070    25.2930    -5.1160     2.3340 
  141.5000    55.0110    31.5970    26.0620    41.2130    25.3180    -5.4160     2.3510 
  141.6250    55.7700    31.9820    26.4910    28.9720    25.3400    -5.7460     2.3380 
  141.7500    52.9870    32.0040    26.6300    21.8630    25.3660    -6.0650     2.3350 
  141.8750    50.8220    31.6300    26.4270    21.0350    25.3960    -6.3690     2.3730 
  142.0000    53.5890    30.7320    25.7770    27.0770    25.4160    -6.6640     2.4440 
  142.1250    60.1490    29.0280    24.4810    40.6270    25.4000    -6.9300     2.4830 
  142.2500    64.3510    26.7170    22.7190    38.8460    25.3490    -7.1580     2.4550 
  142.3750    63.0870    24.2020    20.8040    27.2000    25.2710    -7.3440     2.3800 
  142.5000    58.3560    22.0080    19.1160    18.2400    25.1900    -7.4960     2.3010 
  142.6250    56.8140    20.6920    18.0550    15.3090    25.1270    -7.6280     2.2530 
  142.7500    58.6060    20.2210    17.6250    14.3120    25.0810    -7.7640     2.2310 
  142.8750    60.3930    20.4120    17.7360    14.1480    25.0440    -7.9010     2.2250 
  143.0000    59.7520    20.9840    18.2110    13.9570    25.0120    -8.0350     2.2250 
  143.1250    57.5140    21.7020    18.8800    14.4330    24.9870    -8.1630     2.2380 
  143.2500    57.2640    22.3890    19.5660    15.4810    24.9770    -8.2750     2.2770 
  143.3750    59.2360    22.9220    20.1470    16.0320    24.9910    -8.3460     2.3530 
  143.5000    61.3960    23.1690    20.4890    15.8280    25.0300    -8.3420     2.4490 
  143.6250    59.3000    23.0060    20.4510    15.2480    25.0930    -8.1890     2.5020 
  143.7500    54.6570    22.6010    20.1530    15.0670    25.1640    -7.8680     2.4800 
  143.8750    51.0390    22.1490    19.7460    15.2370    25.2310    -7.3770     2.4020 
  144.0000    50.5440    21.8180    19.3790    15.9310    25.2850    -6.7430     2.3160 
  144.1250    51.5960    21.7130    19.1660    17.2930    25.3150    -6.0250     2.2660 
  144.2500    51.9730    21.7620    19.0920    18.5160    25.3280    -5.3220     2.2540 
  144.3750    51.5490    21.8740    19.1080    17.3420    25.3300    -4.7150     2.2630 
  144.5000    51.2260    21.9930    19.1610    15.3080    25.3260    -4.2500     2.2720 
  144.6250    51.7640    22.1470    19.2500    14.7680    25.3120    -3.9700     2.2700 
  144.7500    52.0690    22.3650    19.3790    16.5760    25.2910    -3.8450     2.2660 
  144.8750    51.9750    22.6080    19.5210    17.1790    25.2700    -3.8350     2.2700 
  145.0000    53.3110    22.7820    19.6210    16.3830    25.2600    -3.8870     2.2820 
  145.1250    55.8260    22.7790    19.6110    15.7360    25.2720    -3.9230     2.2900 
  145.2500    57.6460    22.6500    19.5120    15.3270    25.3040    -3.8970     2.2840 
  145.3750    57.7280    22.5320    19.4000    15.2320    25.3550    -3.7850     2.2640 
  145.5000    56.1500    22.6120    19.3960    16.2660    25.4260    -3.5910     2.2400 
  145.6250    53.5410    23.1050    19.6640    17.2760    25.5130    -3.3090     2.2280 
  145.7500    50.8690    23.9960    20.2340    18.0270    25.6040    -2.9480     2.2240 
  145.8750    49.8760    25.2460    21.1090    19.1750    25.6920    -2.5090     2.2230 
  146.0000    51.2310    26.7580    22.2330    24.3060    25.7740    -2.0210     2.2190 
  146.1250    53.0900    28.3810    23.4980    32.3620    25.8470    -1.5050     2.2100 
  146.2500    52.8410    29.8850    24.7060    28.7660    25.9110    -1.0030     2.2040 
  146.3750    49.8030    31.0540    25.6820    20.5350    25.9600    -0.5520     2.2150 
  146.5000    46.2230    31.6810    26.2540    17.1620    25.9860    -0.1740     2.2460 
  146.6250    45.2490    31.4690    26.1780    17.3600    25.9800     0.0860     2.2900 
  146.7500    46.1670    30.4980    25.4940    17.8090    25.9360     0.2200     2.3250 
  146.8750    49.4790    28.9440    24.3170    17.4400    25.8480     0.2280     2.3360 
  147.0000    53.9830    27.1700    22.9260    15.9240    25.7170     0.1280     2.3210 
  147.1250    57.4850    25.7160    21.7330    14.2670    25.5610    -0.0470     2.2960 
  147.2500    58.9640    24.9120    21.0020    13.6420    25.4160    -0.2370     2.2750 
  147.3750    58.2640    24.8900    20.8520    13.2510    25.3060    -0.4030     2.2630 
  147.5000    55.9850    25.5810    21.2710    14.4800    25.2390    -0.5370     2.2580 
  147.6250    52.8070    26.7190    22.1260    15.9120    25.2100    -0.6210     2.2600 
  147.7500    51.9850    27.7790    23.0220    16.3790    25.1940    -0.6470     2.2640 
  147.8750    52.5250    28.4210    23.6660    16.2550    25.1690    -0.6230     2.2630 
  148.0000    51.8310    28.4900    23.8720    16.1530    25.1110    -0.5600     2.2560 
  148.1250    51.0520    28.0210    23.5880    16.1770    24.9980    -0.4660     2.2400 
  148.2500    52.3860    27.3800    23.0890    15.9020    24.8460    -0.3610     2.2230 
  148.3750    54.8640    26.8110    22.5880    15.4250    24.6850    -0.2510     2.2120 
  148.5000    56.4900    26.4570    22.2180    15.4320    24.5610    -0.1410     2.2110 
  148.6250    58.8350    26.4190    22.0730    15.9180    24.5740    -0.0500     2.2200 
  148.7500    62.4170    26.6690    22.1430    15.5610    24.7340     0.0120     2.2320 
  148.8750    62.3720    27.1920    22.4190    15.6480    24.7510     0.0570     2.2400 
  149.0000    57.3740    27.9050    22.8450    15.8010    24.7810     0.1030     2.2430 
  149.1250    52.4500    28.5980    23.2980    16.4250    24.8130     0.1610     2.2480 
  149.2500    50.9060    29.0210    23.6130    16.6520    24.8470     0.2460     2.2650 
  149.3750    51.5710    29.0370    23.6900    16.7690    24.8820     0.3560     2.2950 
  149.5000    51.7870    28.6720    23.5290    16.6360    24.9280     0.4870     2.3270 
  149.6250    51.0650    28.1160    23.2280    16.3040    24.9690     0.6390     2.3390 
  149.7500    50.2180    27.6490    22.9570    16.2720    25.0060     0.8100     2.3270 
  149.8750    49.1740    27.4020    22.8020    16.7190    25.0410     1.0040     2.2990 
  150.0000    48.2580    27.3590    22.7690    17.7220    25.0580     1.2240     2.2670 
  150.1250    47.0510    27.2880    22.7250    18.4490    25.0500     1.4540     2.2460 
  150.2500    46.9690    26.8480    22.4420    18.2320    25.0120     1.6860     2.2370 
  150.3750    48.4440    25.8210    21.7560    17.6850    24.9520     1.9070     2.2420 
  150.5000    50.6600    24.2160    20.6460    18.8270    24.8710     2.1070     2.2550 
  150.6250    51.8150    22.2770    19.2510    21.8360    24.7880     2.2600     2.2680 
  150.7500    51.6800    20.4380    17.8770    23.7390    24.7260     2.3510     2.2750 
  150.8750    51.3840    18.9230    16.7040    24.7890    24.6810     2.3860     2.2750 
  151.0000    51.8530    17.8010    15.8210    25.5530    24.6520     2.3750     2.2710 
  151.1250    52.2190    17.1130    15.2930    25.2110    24.6380     2.3270     2.2660 
  151.2500    51.0460    16.7610    15.0530    24.1190    24.6260     2.2580     2.2580 
  151.3750    49.7570    16.7050    15.0670    22.9960    24.6220     2.1800     2.2490 
  151.5000    49.7830    16.8980    15.2910    22.4440    24.6110     2.1130     2.2440 
  151.6250    50.9500    17.2900    15.6790    22.1200    24.6210     2.0660     2.2510 
  151.7500    52.3960    17.7400    16.1130    21.4350    24.6410     2.0410     2.2640 
  151.8750    53.9950    18.1360    16.4840    19.7280    24.6740     2.0280     2.2740 
  152.0000    55.3450    18.4040    16.7000    18.0260    24.7090     2.0180     2.2740 
  152.1250    55.8060    18.4840    16.6920    17.5320    24.7690     2.0190     2.2610 
  152.2500    55.4260    18.4080    16.5130    17.7990    24.8380     2.0240     2.2460 
  152.3750    53.6430    18.2140    16.2150    17.2430    24.9260     2.0210     2.2400 
