~V
VERS. 2.00: Ver 2.00
~W
STRT.M 59.0000:
STOP.M 239.0000:
STEP.M 0.1250:
NULL. -999.2500:
UWI. F10784:
~C
DEPT.M :
DEN.GM/CC :
GR.API :
RML.OHMM :
RI. :
RXO.OHMM :
CALI.CM :
SP.MV :
~A
# ...
   70.2500     2.3560    99.5780     5.2890     4.6490     5.0240    24.5480   -25.3190 
   70.3750     2.3900   103.9910     5.4880     4.8410     5.4800    24.5470   -24.9100 
   70.5000     2.4150   105.1190     5.6050     5.0110     5.9960    24.5460   -24.6380 
   70.6250     2.4090    99.0480     5.5440     5.0550     5.9770    24.5470   -24.4740 
   70.7500     2.3800    93.4640     5.3290     4.9560     5.1920    24.5480   -24.3550 
   70.8750     2.3410    93.6620     5.0180     4.7390     4.7220    24.5630   -24.3190 
   71.0000     2.3120    96.9090     4.7030     4.4680     4.6380    24.6310   -24.3040 
   71.1250     2.3040    97.5480     4.5000     4.2430     4.6610    24.8360   -24.3450 
   71.2500     2.3060    96.5640     4.4540     4.1270     4.5250    25.1500   -24.4720 
   71.3750     2.3080    95.4750     4.5720     4.1460     4.5280    25.4840   -24.5850 
   71.5000     2.3060    93.8230     4.8260     4.2950     4.7680    25.6720   -24.6650 
   71.6250     2.3010    91.7590     5.1640     4.5450     5.2430    25.7140   -24.7080 
   71.7500     2.2940    88.5360     5.5040     4.8250     5.5650    25.6430   -24.6960 
   71.8750     2.2820    84.6550     5.8150     5.1000     5.7280    25.4430   -24.6330 
   72.0000     2.2590    82.2810     6.1170     5.3680     5.7220    25.1580   -24.5250 
   72.1250     2.2200    83.1410     6.5010     5.6830     5.7860    25.0130   -24.3680 
   72.2500     2.1750    84.9750     7.0400     6.1080     5.8830    24.8540   -24.1960 
   72.3750     2.1360    84.3080     7.7630     6.6900     6.0690    24.5340   -24.0060 
   72.5000     2.1150    78.9910     8.6300     7.4260     6.3070    24.1750   -23.8060 
   72.6250     2.1190    71.4080     9.5210     8.2580     6.4130    24.0240   -23.6080 
   72.7500     2.1380    66.9620    10.2950     9.0550     6.4410    23.9850   -23.4280 
   72.8750     2.1590    67.9150    10.8910     9.7270     6.4420    23.6520   -23.2800 
   73.0000     2.1710    70.7400    11.3170    10.2390     6.4150    23.4970   -23.1540 
   73.1250     2.1730    73.9050    11.5890    10.5780     6.3570    23.5210   -23.0170 
   73.2500     2.1780    75.7720    11.6840    10.7460     6.3420    23.6530   -22.8580 
   73.3750     2.1930    75.2720    11.4600    10.6390     6.3840    23.7260   -22.7410 
   73.5000     2.2200    74.6710    10.7690    10.1220     6.4190    23.7540   -22.6850 
   73.6250     2.2470    75.5770     9.5510     9.1030     6.3810    23.8490   -22.6770 
   73.7500     2.2590    77.4140     8.1650     7.8620     6.1320    23.8630   -22.7190 
   73.8750     2.2540    79.8300     6.9950     6.7060     5.4390    23.8670   -22.7970 
   74.0000     2.2400    83.8210     6.3850     5.9220     4.5140    23.8670   -22.8990 
   74.1250     2.2390    87.1190     6.6840     5.8140     4.4270    23.8670   -23.0220 
   74.2500     2.2630    83.5540     7.8070     6.3890     5.3590    23.8670   -23.1930 
   74.3750     2.3070    73.8980     9.6340     7.6590     7.2380    23.8670   -23.3550 
   74.5000     2.3480    65.9910    11.8620     9.5060    10.4840    23.8670   -23.4430 
   74.6250     2.3470    66.5360    13.9040    11.5580    12.4660    23.8560   -23.4100 
   74.7500     2.2960    69.4500    15.2640    13.2360    10.3110    23.8000   -23.2420 
   74.8750     2.2140    68.9710    15.8090    14.2240     8.0870    23.7440   -22.9970 
   75.0000     2.1370    66.3360    15.7770    14.5540     8.1710    23.7330   -22.7180 
   75.1250     2.1040    64.0390    15.5960    14.5190    11.6850    23.7350   -22.4100 
   75.2500     2.1080    61.9030    15.5720    14.4880    16.6430    23.7470   -22.0350 
   75.3750     2.1270    61.2800    15.7090    14.5460    16.8610    23.8280   -21.6000 
   75.5000     2.1370    64.2770    15.8900    14.6390    10.5150    23.8880   -21.1750 
   75.6250     2.1390    67.8990    15.9870    14.6640     7.5900    24.0260   -20.7980 
   75.7500     2.1550    69.4570    15.9930    14.6050     6.6870    24.1160   -20.4370 
   75.8750     2.1950    70.8300    15.9490    14.5040     6.7340    24.1270   -19.9970 
   76.0000     2.2430    72.7700    15.8920    14.4120     7.0180    24.1120   -19.4420 
   76.1250     2.2610    73.1480    15.8290    14.3650     7.0490    24.0160   -18.8170 
   76.2500     2.2350    71.3150    15.7610    14.3520     7.0860    23.9930   -18.1700 
   76.3750     2.1790    70.1990    15.7060    14.3670     7.0660    23.9280   -17.5230 
   76.5000     2.1240    69.2280    15.6870    14.4130     6.9550    23.9860   -16.8430 
   76.6250     2.0930    66.6370    15.7350    14.5060     6.8620    23.9950   -16.1610 
   76.7500     2.0870    64.5840    15.8280    14.6360     6.7850    23.9970   -15.5280 
   76.8750     2.1010    64.5950    15.9400    14.7900     6.6710    23.9920   -15.0190 
   77.0000     2.1290    66.2560    16.0480    14.9510     6.5480    23.9370   -14.6890 
   77.1250     2.1670    66.5450    16.1390    15.1060     6.5650    24.1470   -14.5260 
   77.2500     2.2020    65.1840    16.2140    15.2480     6.8920    24.2460   -14.4850 
   77.3750     2.2210    64.3090    16.2710    15.3710     7.3360    24.2650   -14.5540 
   77.5000     2.2160    65.7630    16.2970    15.4610     7.7060    24.2600   -14.7270 
   77.6250     2.1910    68.8800    16.2650    15.4880     7.8290    24.2210   -14.9530 
   77.7500     2.1610    71.2780    16.1720    15.4480     7.7280    24.1330   -15.2130 
   77.8750     2.1370    73.0460    16.0250    15.3390     7.5390    24.0460   -15.4770 
   78.0000     2.1230    74.5270    15.8510    15.1810     7.4020    24.0070   -15.7170 
   78.1250     2.1260    72.8940    15.7290    15.0250     7.2520    23.9990   -15.9140 
   78.2500     2.1470    68.8200    15.7540    14.9590     7.2100    23.9940   -16.0680 
   78.3750     2.1850    65.8620    16.0050    15.0710     7.1360    23.9630   -16.2040 
   78.5000     2.2350    67.2100    16.4790    15.3970     7.0880    23.9110   -16.3520 
   78.6250     2.2930    70.2350    17.0110    15.8580     7.4040    23.8530   -16.5490 
   78.7500     2.3480    70.6950    17.2990    16.1970     9.0710    23.7840   -16.8290 
   78.8750     2.3820    70.0400    17.1210    16.1940    12.6290    23.7410   -17.1310 
   79.0000     2.3800    73.2240    16.4260    15.7430    14.8080    23.7400   -17.4150 
   79.1250     2.3300    80.0280    15.3770    14.9040    10.2380    23.7770   -17.5820 
   79.2500     2.2540    81.9850    14.3750    14.0050     7.4830    23.8590   -17.6600 
   79.3750     2.1760    76.6170    13.6710    13.2810     6.7370    23.9000   -17.7290 
   79.5000     2.1150    68.9610    13.3630    12.8670     6.8040    24.0910   -17.7210 
   79.6250     2.0820    66.5210    13.4360    12.8190     6.8540    24.1220   -17.6860 
   79.7500     2.0660    68.2120    13.6740    12.9750     6.6770    24.1190   -17.6120 
   79.8750     2.0560    70.0880    13.9300    13.2000     6.4820    24.0440   -17.4960 
   80.0000     2.0480    69.9940    14.1060    13.3800     6.4250    24.0060   -17.4350 
   80.1250     2.0490    67.4490    14.1510    13.4370     6.5540    23.9910   -17.5150 
   80.2500     2.0690    65.5920    14.1060    13.3950     6.5950    23.9660   -17.6950 
   80.3750     2.1150    66.8680    14.0200    13.2940     6.5600    23.9380   -17.9490 
   80.5000     2.1840    69.2950    13.9510    13.1830     6.4930    23.9090   -18.2780 
   80.6250     2.2610    69.0440    13.9590    13.1120     6.5240    23.8630   -18.6480 
   80.7500     2.3240    69.6220    14.0200    13.0830     6.6020    23.8010   -19.0360 
   80.8750     2.3560    74.0010    14.0600    13.0560     6.6330    23.7440   -19.4010 
   81.0000     2.3470    79.1100    13.9740    12.9540     6.5710    23.7330   -19.7260 
   81.1250     2.2970    79.7410    13.6420    12.6690     6.5400    23.7330   -20.0180 
   81.2500     2.2320    77.7790    13.1120    12.2020     6.5240    23.7330   -20.2880 
   81.3750     2.1740    75.9800    12.4810    11.6110     6.4760    23.7330   -20.5400 
