~V
VERS. 2.00: Ver 2.00
~W
STRT.M 20.0000:
STOP.M 266.0000:
STEP.M 0.1250:
NULL. -999.2500:
UWI. F10773:
~C
DEPT.M :
DEN.GM/CC :
GR.API :
RML.OHMM :
RI. :
RXO.OHMM :
CALI.CM :
SP.MV :
~A
# ...
  188.7500     2.3950    88.7080    10.3520     8.0840     9.0140    25.0860   -11.9890 
  188.8750     2.3800    85.7070    10.9800     8.6190    10.2420    25.0140   -12.9990 
  189.0000     2.3670    82.3320    11.4660     9.1300    11.7200    24.9060   -13.9050 
  189.1250     2.3400    78.7110    11.7630     9.5260    13.2280    24.8180   -14.6120 
  189.2500     2.3010    75.4970    11.9390     9.8210    12.4490    24.8080   -15.1870 
  189.3750     2.2650    74.9600    12.0670    10.0630    10.9200    24.9210   -15.7030 
  189.5000     2.2470    76.6800    12.2460    10.3100    10.4530    25.0650   -16.1880 
  189.6250     2.2560    75.8060    12.6160    10.6300    12.9030    25.0640   -16.5910 
  189.7500     2.2790    73.3100    13.2190    11.0750    15.2060    24.9470   -16.8960 
  189.8750     2.3050    74.1280    14.0690    11.7040    15.4280    24.8520   -17.1100 
  190.0000     2.3280    77.7450    15.1690    12.5920    15.1140    24.8300   -17.2380 
  190.1250     2.3470    78.8630    16.6660    13.9280    16.2690    24.8740   -17.3080 
  190.2500     2.3660    77.4460    18.7020    15.8220    18.0550    24.9260   -17.3780 
  190.3750     2.3830    75.3650    21.4230    18.3840    21.4220    24.9160   -17.4120 
  190.5000     2.3950    72.1550    24.7320    21.5290    30.0010    24.8440   -17.4030 
  190.6250     2.3980    68.1270    28.0830    24.8150    39.2450    24.7800   -17.3660 
  190.7500     2.3920    67.4890    30.7860    27.6060    41.1000    24.7590   -17.3020 
  190.8750     2.3790    71.6620    32.6210    29.6510    39.2630    24.7680   -17.2790 
  191.0000     2.3630    75.5450    33.9410    31.2290    36.2680    24.7730   -17.4030 
  191.1250     2.3480    74.7900    35.4890    33.0950    33.5710    24.7450   -17.7520 
  191.2500     2.3350    70.5850    37.1870    35.3910    35.4730    24.7400   -18.2020 
  191.3750     2.3230    65.8890    37.6070    37.0270    41.3190    24.7260   -18.6340 
  191.5000     2.3130    64.0350    34.8870    36.1200    47.3870    24.7210   -18.8250 
  191.6250     2.3160    64.1490    28.2720    30.9830    52.8520    24.7160   -18.6830 
  191.7500     2.3330    64.2860    20.6340    23.5810    51.1520    24.6830   -18.4220 
  191.8750     2.3610    65.1690    14.2890    16.3060    33.0470    24.6210   -17.9960 
  192.0000     2.3910    67.9610    10.1410    10.8430    14.1540    24.5510   -17.2870 
  192.1250     2.4100    70.0950     8.0390     7.7970     6.2630    24.5130   -16.1450 
  192.2500     2.4170    67.6660     6.9600     6.2050     4.9080    24.4330   -14.7360 
  192.3750     2.4170    60.5750     6.4840     5.5210     5.1180    24.2950   -13.1930 
  192.5000     2.4130    52.7400     6.3980     5.3870     5.5620    24.1330   -11.7450 
  192.6250     2.4070    48.2450     6.6060     5.5930     5.8240    24.0730   -10.4660 
  192.7500     2.3980    46.6160     6.9080     5.8790     5.7460    24.0670    -9.2700 
  192.8750     2.3880    45.2450     7.1510     6.1070     5.5010    24.0370    -8.2150 
  193.0000     2.3770    42.5600     7.2560     6.2060     5.2930    24.0100    -7.3500 
  193.1250     2.3660    40.5590     7.2190     6.1710     5.1980    24.0110    -6.6850 
  193.2500     2.3540    40.3870     7.1280     6.0850     5.0870    23.9990    -6.1360 
  193.3750     2.3400    41.7240     7.0430     6.0060     4.9110    24.0050    -5.6600 
  193.5000     2.3270    43.7590     6.9980     5.9630     4.7540    24.0430    -5.2320 
  193.6250     2.3200    45.1540     7.0020     5.9670     4.7090    24.0000    -4.9150 
  193.7500     2.3220    46.0400     7.0400     6.0020     4.8060    23.7380    -4.6950 
  193.8750     2.3310    47.3000     7.1140     6.0730     5.0460    23.2380    -4.5440 
  194.0000     2.3430    50.8880     7.2340     6.1850     5.2990    22.8720    -4.4820 
  194.1250     2.3500    58.8130     7.3760     6.3190     5.1060    23.1360    -4.5490 
  194.2500     2.3480    67.6020     7.4590     6.3970     5.0530    23.6750    -4.6950 
  194.3750     2.3410    73.3590     7.4110     6.3520     5.2640    24.1190    -4.8880 
  194.5000     2.3330    74.5560     7.2080     6.1600     5.5400    24.3310    -5.0680 
  194.6250     2.3310    74.9940     6.8980     5.8690     5.4960    24.3440    -5.2280 
  194.7500     2.3330    78.0520     6.6010     5.5900     5.2120    24.3090    -5.3820 
  194.8750     2.3370    80.6470     6.3900     5.3910     4.9520    24.3230    -5.4990 
  195.0000     2.3400    79.8530     6.2900     5.2970     4.8450    24.3320    -5.5740 
  195.1250     2.3450    75.5460     6.2980     5.3040     4.9740    24.3480    -5.6340 
  195.2500     2.3510    71.3800     6.3360     5.3410     5.1070    24.3680    -5.6930 
  195.3750     2.3570    68.6340     6.3480     5.3480     4.9840    24.3790    -5.8170 
  195.5000     2.3610    67.4280     6.2920     5.3120     5.2420    24.3050    -6.0620 
  195.6250     2.3600    67.2170     6.3290     5.3310     5.8670    24.2110    -6.4090 
  195.7500     2.3590    68.5700     6.8380     5.6050     6.0780    24.2400    -6.7640 
  195.8750     2.3680    70.2810     8.1000     6.3870     6.8720    24.3950    -7.1150 
  196.0000     2.3930    70.3710    10.2320     7.9690     9.0980    24.5460    -7.4240 
  196.1250     2.4270    67.2500    13.6190    10.8790    15.2660    24.5090    -7.6740 
  196.2500     2.4500    63.5000    18.2050    14.9800    27.0930    24.4040    -7.9120 
  196.3750     2.4390    62.3140    23.1930    19.6230    40.3290    24.3070    -8.1180 
  196.5000     2.3900    64.3970    26.7830    23.4730    42.5570    24.2310    -8.2900 
  196.6250     2.3180    67.8740    26.9480    24.7380    35.5220    24.2500    -8.4050 
  196.7500     2.2590    68.7440    24.6610    23.6520    30.2500    24.3660    -8.4310 
  196.8750     2.2300    67.3520    21.5830    21.2800    24.5730    24.5040    -8.3790 
  197.0000     2.2330    66.3270    19.0590    18.8830    18.6940    24.6510    -8.2840 
  197.1250     2.2510    65.4010    17.6680    17.3380    15.9830    24.7640    -8.1740 
  197.2500     2.2630    64.3470    17.0140    16.5150    17.7010    24.8210    -8.0640 
  197.3750     2.2640    64.1580    16.7530    16.0740    19.5170    24.8380    -8.0090 
  197.5000     2.2610    65.6920    16.5460    15.6630    18.3780    24.8480    -7.9970 
  197.6250     2.2610    68.1210    16.0720    15.0270    16.5920    24.8750    -7.9730 
  197.7500     2.2660    70.3500    15.2680    14.1960    14.6200    24.9100    -7.9450 
  197.8750     2.2740    71.7040    14.2370    13.2730    13.0060    24.9390    -7.9270 
  198.0000     2.2820    71.8550    13.1760    12.3500    11.8150    24.9230    -7.9180 
  198.1250     2.2830    70.3120    12.3020    11.4600    11.1610    24.9100    -7.9640 
  198.2500     2.2790    66.9330    11.6390    10.6040    10.5790    24.9020    -8.0310 
  198.3750     2.2780    63.4780    11.1420     9.8370    10.2340    24.9010    -8.0380 
  198.5000     2.2890    61.9910    10.7750     9.2770     9.7970    24.9020    -7.9480 
  198.6250     2.3190    61.9990    10.6020     9.1300     9.2540    24.9020    -7.7850 
  198.7500     2.3620    61.8040    10.7000     9.4260     9.1950    24.8870    -7.6040 
  198.8750     2.4020    62.4900    11.1610    10.1530    10.2320    24.8460    -7.4080 
  199.0000     2.4290    65.0920    11.9870    11.2070    13.2260    24.8640    -7.2100 
  199.1250     2.4320    66.1760    13.0170    12.3810    18.0050    24.9570    -6.9720 
  199.2500     2.4200    64.0080    13.9010    13.3870    18.9330    25.0530    -6.6730 
  199.3750     2.4000    60.7660    14.4270    14.0370    15.9670    25.0310    -6.3230 
  199.5000     2.3840    58.8450    14.5900    14.2670    14.0210    24.9330    -6.0010 
  199.6250     2.3770    58.3290    14.5910    14.1210    13.7320    24.8750    -5.7760 
  199.7500     2.3750    59.5920    14.7150    13.8560    14.3620    24.8390    -5.6020 
  199.8750     2.3710    62.5600    15.0750    13.6630    14.7650    24.7910    -5.4600 
