~V
VERS. 2.00: Ver 2.00
~W
STRT.M 10.0000:
STOP.M 237.0000:
STEP.M 0.1250:
NULL. -999.2500:
UWI. F10776:
~C
DEPT.M :
DEN.GM/CC :
GR.API :
RML.OHMM :
RI. :
RXO.OHMM :
CALI.CM :
SP.MV :
~A
# ...
  223.7500     2.3350    68.2900     7.5320     5.9180     6.9200    25.0810   -15.2390 
  223.8750     2.3260    63.3350     7.5580     5.9300     6.9460    25.1140   -15.4110 
  224.0000     2.3100    60.4180     7.5770     5.9360     6.9980    25.1370   -15.6100 
  224.1250     2.2990    60.9820     7.6020     5.9420     7.0350    25.1560   -15.8120 
  224.2500     2.2930    62.9570     7.6610     5.9690     7.0250    25.1950   -15.9950 
  224.3750     2.2890    64.4180     7.7690     6.0300     6.9760    25.2450   -16.2140 
  224.5000     2.2820    64.4810     7.9260     6.1350     6.9890    25.2670   -16.4750 
  224.6250     2.2740    64.4430     8.1140     6.2790     7.2260    25.2770   -16.7690 
  224.7500     2.2660    65.4350     8.2850     6.4330     7.6370    25.2910   -17.0260 
  224.8750     2.2590    64.7040     8.4020     6.5580     7.9470    25.2780   -17.2250 
  225.0000     2.2610    62.3890     8.4560     6.6340     7.9120    25.1940   -17.3970 
  225.1250     2.2770    62.4330     8.4620     6.6640     7.7350    25.0840   -17.5110 
  225.2500     2.3000    64.1360     8.4340     6.6590     7.6370    25.0380   -17.5080 
  225.3750     2.3160    61.4960     8.3720     6.6260     7.4510    25.0270   -17.3880 
  225.5000     2.3250    57.0760     8.2530     6.5510     7.2410    25.0330   -17.2090 
  225.6250     2.3270    58.0480     8.0560     6.4150     6.9340    25.0500   -16.9540 
  225.7500     2.3210    64.1800     7.7880     6.2090     6.2830    25.0830   -16.6390 
  225.8750     2.3180    66.9550     7.5260     5.9850     6.0460    25.0960   -16.3730 
  226.0000     2.3230    65.2250     7.3400     5.7960     6.1220    25.1010   -16.1070 
  226.1250     2.3270    62.8620     7.2620     5.6840     6.2360    25.1000   -15.8650 
  226.2500     2.3180    62.8860     7.2950     5.6710     6.4370    25.1020   -15.7110 
  226.3750     2.2920    64.1770     7.3890     5.7240     6.7340    25.1360   -15.6660 
  226.5000     2.2680    64.9600     7.5320     5.8290     6.9580    25.2240   -15.7030 
  226.6250     2.2600    65.0250     7.7480     5.9900     6.9960    25.3360   -15.8140 
  226.7500     2.2750    65.0250     8.0790     6.2390     6.9190    25.3650   -16.0430 
  226.8750     2.3090    65.0250     8.4780     6.5530     7.4460    25.3040   -16.2680 
  227.0000     2.3440    65.0250     8.8490     6.8730     8.4200    25.1890   -16.4430 
  227.1250     2.3650    65.0250     9.0760     7.1090    10.0510    25.0730   -16.5870 
  227.2500     2.3650    65.0250     9.0570     7.1570    10.4920    25.1020   -16.6300 
  227.3750     2.3440    65.0250     8.8610     7.0470     9.6690    25.2870   -16.5650 
  227.5000     2.3180    65.0250     8.5820     6.8440     8.0710    25.4990   -16.4680 
  227.6250     2.2970    65.0250     8.3020     6.6280     7.7080    25.5500   -16.3840 
  227.7500     2.2810    65.0250     8.0700     6.4670     8.7870    25.4790   -16.2520 
  227.8750     2.2660    65.0250     7.8790     6.3550     9.3210    25.5390   -16.0900 
  228.0000     2.2600    65.0250     7.7240     6.2660     8.2140    25.7470   -16.0010 
  228.1250     2.2710    65.0250     7.6060     6.1790     7.2160    25.9450   -15.9910 
  228.2500     2.2990    65.0250     7.5340     6.0890     6.9600    26.0110   -16.0870 
  228.3750     2.3220    65.0250     7.5000     6.0140     6.8270    25.9800   -16.2560 
  228.5000     2.3200    65.0250     7.4970     5.9720     6.6380    25.8510   -16.4020 
  228.6250     2.2910    65.0250     7.5070     5.9690     6.5490    25.6870   -16.5080 
  228.7500     2.2550    65.0250     7.5240     6.0020     6.5830    25.5990   -16.6110 
  228.8750     2.2420    65.0250     7.5620     6.0610     6.6780    25.5380   -16.7210 
  229.0000     2.2530    65.0250     7.6600     6.1630     6.7430    25.4520   -16.7930 
  229.1250     2.2780    65.0250     7.8660     6.3340     6.8900    25.3620   -16.7810 
  229.2500     2.3020    65.0250     8.2220     6.6100     7.1650    25.2740   -16.7130 
  229.3750     2.3170    65.0250     8.6690     6.9660     7.8080    25.1580   -16.5780 
  229.5000     2.3220    65.0250     9.1110     7.3540     8.9860    25.0490   -16.3560 
  229.6250     2.3180    65.0250     9.4210     7.6880     9.8280    24.9910   -16.0650 
  229.7500     2.3080    65.0250     9.4390     7.8170     9.4090    24.9940   -15.7120 
  229.8750     2.2920    65.0250     9.1760     7.7040     8.7910    25.0180   -15.2670 
  230.0000     2.2650    65.0250     8.6950     7.3710     8.3070    25.0440   -14.7450 
  230.1250     2.2330    65.0250     8.1040     6.8990     7.8330    25.0970   -14.2380 
  230.2500     2.2090    65.0250     7.5230     6.3930     7.2270    25.2760   -13.7850 
  230.3750     2.2170    65.0250     7.0490     5.9520     6.3970    25.6720   -13.4580 
  230.5000     2.2660    65.0250     6.7460     5.6350     5.9590    26.2120   -13.3010 
  230.6250     2.3370    65.0250     6.6510     5.4760     5.7310    26.5420   -13.3260 
  230.7500     2.3850    65.0250     6.7860     5.5060     5.8550    26.1540   -13.5770 
  230.8750     2.3720    65.0250     7.0520     5.6590     6.6110    25.4890   -14.0330 
  231.0000     2.3350    65.0250     7.3590     5.8690     7.7090    25.0220   -14.6400 
  231.1250     2.3070    65.0250     7.6170     6.0620     8.1150    24.9310   -15.3500 
  231.2500     2.2970    65.0250     7.7650     6.1780     7.1280    25.0780   -16.1100 
  231.3750     2.3060    65.0250     7.8310     6.2260     6.5840    25.1790   -16.8260 
  231.5000     2.3320    65.0250     7.8510     6.2320     6.9420    25.1860   -17.4930 
  231.6250     2.3680    65.0250     7.8540     6.2220     7.8060    25.1110   -18.0700 
  231.7500     2.3960    65.0250     7.8560     6.2140     8.8750    24.9750   -18.5110 
  231.8750     2.3960    65.0250     7.8560     6.2140    10.0970    24.8790   -18.8660 
  232.0000     2.3800    65.0250     7.8540     6.2170    11.4730    24.8580   -19.1200 
  232.1250     2.3600    65.0250     7.8480     6.2180    12.3650    24.8850   -19.2890 
  232.2500     2.3480    65.0250     7.8370     6.2170    12.3700    24.9380   -19.3890 
  232.3750     2.3440    65.0250     7.8220     6.2150    11.5560    24.9590   -19.4410 
  232.5000     2.3460    65.0250     7.8150     6.2140    11.0580    24.9600   -19.4460 
  232.6250     2.3500    65.0250     7.8150     6.2140    10.8740    24.9620   -19.4270 
  232.7500     2.3480    65.0250     7.8150     6.2140     9.9760    24.9820   -19.3980 
  232.8750     2.3340    65.0250     7.8150     6.2140     8.0320    25.0070   -19.3410 
  233.0000     2.3160    65.0250     7.8150     6.2140     6.4670    25.0140   -19.3300 
  233.1250     2.3070    65.0250     7.8150     6.2140     5.8850    25.0120   -19.3580 
  233.2500     2.3140    65.0250     7.8150     6.2140     6.0250    25.0100   -19.3960 
  233.3750     2.3360    65.0250     7.8150     6.2140     6.2460    25.0100   -19.4520 
  233.5000     2.3680    65.0250     7.8150     6.2140     6.5900    25.0100   -19.5220 
  233.6250     2.4070    65.0250     7.8150     6.2140     7.0990    25.0100   -19.6070 
  233.7500     2.4490    65.0250     7.8150     6.2140     8.0720    25.0090   -19.6990 
  233.8750     2.4890    65.0250     7.8150     6.2140    10.2890    25.0000   -19.8130 
  234.0000     2.5160    65.0250     7.8150     6.2140    14.7260    24.9820   -19.9040 
  234.1250     2.5140    65.0250     7.8150     6.2140    20.2380    24.9790   -19.9580 
  234.2500     2.4780    65.0250     7.8150     6.2140    20.5300    25.0000   -20.0330 
  234.3750     2.4230    65.0250     7.8150     6.2140    14.7010    25.0200   -20.1130 
  234.5000     2.3660    65.0250     7.8150     6.2140     8.9960    25.0470   -20.1840 
  234.6250     2.3170    65.0250     7.8150     6.2140     6.4010    25.1030   -20.2550 
  234.7500     2.2790    65.0250     7.8150     6.2140     5.8460    25.1250   -20.2930 
  234.8750     2.2650    65.0250     7.8150     6.2140     5.8810    25.0490   -20.3250 
