~V
VERS. 2.00: Ver 2.00
~W
STRT.M 50.0000:
STOP.M 240.0000:
STEP.M 0.1250:
NULL. -999.2500:
UWI. F10736:
~C
DEPT.M :
DEN.GM/CC :
GR.API :
RML.OHMM :
RI. :
RXO.OHMM :
CALI.CM :
SP.MV :
~A
# ...
  128.7500     2.1600    45.1350    20.8850    20.0170    13.1880    24.6260   -15.0110 
  128.8750     2.1500    47.6900    21.2600    20.6120    12.4340    24.6340   -14.8870 
  129.0000     2.1460    49.2540    21.4400    21.1210    11.8150    24.6620   -14.7910 
  129.1250     2.1560    48.6230    21.6240    21.6170    11.7590    24.7360   -14.7330 
  129.2500     2.1750    49.0790    22.0240    22.2660    11.9600    24.8200   -14.7120 
  129.3750     2.1970    49.9910    22.5660    23.0260    12.0270    24.8800   -14.7130 
  129.5000     2.2270    48.6400    22.8590    23.5380    11.8600    24.9110   -14.7100 
  129.6250     2.2740    44.5720    22.2140    23.0680    11.9350    24.9370   -14.6750 
  129.7500     2.3370    42.6350    20.5150    21.4420    12.3570    24.9790   -14.6020 
  129.8750     2.3930    44.1920    17.9940    18.8730    11.6790    25.0650   -14.4920 
  130.0000     2.4330    46.7290    15.1550    15.9030     8.9100    25.2500   -14.3490 
  130.1250     2.4660    48.0940    12.5820    13.1630     6.9820    25.5170   -14.1830 
  130.2500     2.5010    49.2940    10.5110    10.9250     6.5610    25.6860   -14.0160 
  130.3750     2.5100    52.8270     9.0120     9.2600     6.4850    25.7160   -13.8670 
  130.5000     2.4730    58.0750     8.1430     8.1980     6.2840    25.6780   -13.7500 
  130.6250     2.4220    60.8070     8.1450     7.9000     6.1770    25.6220   -13.6760 
  130.7500     2.4040    57.7050     9.0650     8.3530     6.7220    25.5740   -13.6300 
  130.8750     2.4250    51.1310    11.0750     9.7070     8.8540    25.5410   -13.6100 
  131.0000     2.4720    46.2930    14.2640    12.1440    14.5730    25.5100   -13.6270 
  131.1250     2.5230    45.1160    18.4440    15.7990    25.2870    25.4900   -13.7030 
  131.2500     2.5380    44.6830    22.3760    19.7140    32.0500    25.4310   -13.8190 
  131.3750     2.4940    44.0890    24.7200    22.5300    25.8000    25.2850   -13.9520 
  131.5000     2.4020    44.1810    24.8630    23.3210    17.0960    25.0870   -14.0950 
  131.6250     2.3000    44.1680    23.4520    22.3740    14.9360    24.9980   -14.2580 
  131.7500     2.2200    43.3010    22.1070    21.1740    15.1070    24.9760   -14.4390 
  131.8750     2.1630    43.2800    21.5630    20.4540    15.8140    24.9780   -14.6180 
  132.0000     2.1240    44.1200    22.0110    20.4930    16.2720    24.9800   -14.7690 
  132.1250     2.0970    44.5000    23.3830    21.3590    16.2030    24.9950   -14.8500 
  132.2500     2.0880    46.0760    25.1420    22.6600    15.5140    25.0320   -14.8570 
  132.3750     2.0980    49.2580    26.8170    24.0240    14.7520    25.0690   -14.8020 
  132.5000     2.1260    50.3090    27.9050    25.0230    14.2110    25.0570   -14.7130 
  132.6250     2.1660    47.3570    27.8680    25.1750    13.8610    25.0450   -14.6370 
  132.7500     2.1990    45.6220    26.9570    24.5950    12.6210    25.0620   -14.6120 
  132.8750     2.2140    46.2940    25.6290    23.5980    11.7910    25.1030   -14.6490 
  133.0000     2.2130    46.3120    24.3910    22.5750    11.5800    25.1270   -14.7370 
  133.1250     2.2040    44.7030    23.6620    21.8890    11.6780    25.1300   -14.8480 
  133.2500     2.1990    43.5750    23.4270    21.6010    11.7040    25.1300   -14.9530 
  133.3750     2.2000    42.9510    23.5440    21.6440    11.8940    25.1300   -15.0390 
  133.5000     2.2000    42.6120    23.8160    21.8650    12.0980    25.1280   -15.1060 
  133.6250     2.1810    42.8660    24.0600    22.0970    12.1510    25.1270   -15.1660 
  133.7500     2.1490    43.4800    24.2100    22.2470    12.1560    25.1270   -15.2320 
  133.8750     2.1250    44.2850    24.2700    22.3080    12.4790    25.1290   -15.3120 
  134.0000     2.1060    44.9580    24.2680    22.3040    12.9940    25.1300   -15.4040 
  134.1250     2.0790    45.3780    24.2000    22.2430    13.2810    25.1270   -15.4990 
  134.2500     2.0610    44.9670    24.0670    22.1280    13.1190    25.1100   -15.5890 
  134.3750     2.0820    44.3630    23.8620    21.9470    12.1090    25.0640   -15.6820 
  134.5000     2.1380    43.8000    23.6150    21.7200    10.9150    25.0020   -15.7880 
  134.6250     2.1880    43.0110    23.4490    21.5420     9.9700    24.9440   -15.9010 
  134.7500     2.2040    43.8060    23.5000    21.5340     9.8180    24.8760   -16.0120 
  134.8750     2.2010    45.8310    23.8570    21.7850    10.7270    24.8000   -16.1230 
  135.0000     2.1980    47.0210    24.5370    22.3240    11.5410    24.7010   -16.2340 
  135.1250     2.2000    46.7390    25.5210    23.1640    12.8420    24.6240   -16.3440 
  135.2500     2.2030    46.0000    26.6450    24.1700    13.4910    24.6070   -16.4590 
  135.3750     2.1930    45.3360    27.7780    25.2280    13.8290    24.6470   -16.5880 
  135.5000     2.1740    43.9500    28.8080    26.2210    14.2490    24.6890   -16.7270 
  135.6250     2.1650    41.1730    29.5740    26.9910    14.5070    24.7360   -16.8700 
  135.7500     2.1750    38.8390    30.0020    27.4620    14.3740    24.8080   -17.0120 
  135.8750     2.1840    38.3980    30.0450    27.5850    13.5270    24.8950   -17.1510 
  136.0000     2.1890    40.6410    29.7640    27.3950    12.8100    24.9890   -17.2830 
  136.1250     2.1930    43.6710    29.3180    27.0020    12.6480    25.0810   -17.3960 
  136.2500     2.1990    44.9250    28.9420    26.6080    12.6860    25.1520   -17.4810 
  136.3750     2.2050    45.1490    28.7690    26.3430    12.7870    25.1860   -17.5400 
  136.5000     2.2110    44.9080    28.8330    26.2640    13.0010    25.2030   -17.5830 
  136.6250     2.2190    43.3330    29.1140    26.3850    13.1650    25.2280   -17.6300 
  136.7500     2.2180    40.4720    29.5020    26.6240    13.2730    25.2510   -17.6880 
  136.8750     2.2050    37.4540    29.9730    26.9600    13.2680    25.2450   -17.7460 
  137.0000     2.1910    37.2260    30.5850    27.4280    13.1010    25.2000   -17.7900 
  137.1250     2.1900    40.1100    31.5060    28.1590    12.8830    25.1200   -17.8110 
  137.2500     2.2030    42.8350    32.7650    29.1860    13.0170    25.0190   -17.8210 
  137.3750     2.2240    45.2120    34.2960    30.4770    13.6130    24.9800   -17.8230 
  137.5000     2.2510    46.6350    35.8810    31.8820    14.1160    25.0080   -17.8170 
  137.6250     2.2730    45.8710    37.0450    33.0340    13.9890    25.0400   -17.8050 
  137.7500     2.2640    43.9200    37.4420    33.6020    13.8710    25.0860   -17.7810 
  137.8750     2.2280    43.2120    36.9380    33.4170    13.5640    25.1490   -17.7280 
  138.0000     2.1920    43.6020    35.6970    32.5640    13.1370    25.1890   -17.6370 
  138.1250     2.1750    42.7430    34.1230    31.3280    12.9250    25.2090   -17.5080 
  138.2500     2.1900    40.7950    32.7630    30.1850    12.6790    25.2310   -17.3610 
  138.3750     2.2280    40.5130    31.9330    29.4370    12.5170    25.2360   -17.2010 
  138.5000     2.2730    43.7900    31.7520    29.2330    12.4680    25.2130   -17.0280 
  138.6250     2.3020    47.0090    32.1770    29.5890    12.4560    25.1960   -16.8330 
  138.7500     2.2930    45.4160    32.7890    30.1760    12.7950    25.1730   -16.6210 
  138.8750     2.2590    40.9460    33.1930    30.6700    14.4930    25.1200   -16.3960 
  139.0000     2.2170    39.3370    33.0050    30.7270    17.5760    25.0440   -16.1710 
  139.1250     2.1790    41.9370    31.8910    29.9870    18.7680    25.0160   -15.9580 
  139.2500     2.1560    43.9440    30.1840    28.6570    15.1200    25.0510   -15.7650 
  139.3750     2.1500    43.9320    28.2930    27.0570    12.9210    25.0990   -15.5890 
  139.5000     2.1650    43.1290    26.5880    25.5170    12.0500    25.1140   -15.4240 
  139.6250     2.1920    41.9980    25.3380    24.2990    11.4720    25.0920   -15.2540 
  139.7500     2.2170    41.5860    24.4910    23.4140    11.2410    25.0630   -15.0730 
  139.8750     2.2290    42.7940    23.9710    22.8320    11.5780    25.0510   -14.8860 
