~V
VERS. 2.00: Ver 2.00
~W
STRT.M 50.0000:
STOP.M 228.0000:
STEP.M 0.1250:
NULL. -999.2500:
UWI. F10779:
~C
DEPT.M :
GR.API :
RML.OHMM :
RI. :
RXO.OHMM :
CALI.CM :
SP.MV :
DEN.GM/CC :
~A
# ...
  173.7500    62.4690    20.3000    19.0220    15.5550    25.3530   -14.3930     2.4340 
  173.8750    64.2080    21.4150    19.9340    16.7790    25.3700   -14.3840     2.4050 
  174.0000    65.1100    22.3410    20.6700    17.6780    25.4650   -14.3800     2.3770 
  174.1250    63.5830    22.8670    21.0510    18.2430    25.4810   -14.3470     2.3660 
  174.2500    62.6900    22.9790    21.0700    18.1650    25.4740   -14.2990     2.3750 
  174.3750    61.8530    22.7410    20.7750    17.0540    25.4240   -14.2510     2.3990 
  174.5000    60.1220    22.3160    20.2970    16.1700    25.3470   -14.1880     2.4330 
  174.6250    58.0830    21.9220    19.8140    15.8020    25.2830   -14.1320     2.4690 
  174.7500    56.0460    21.6960    19.4600    16.0080    25.2230   -14.1070     2.4950 
  174.8750    53.3560    21.6590    19.2730    15.9530    25.2020   -14.1310     2.5080 
  175.0000    50.8420    21.7740    19.2430    15.9920    25.2530   -14.2110     2.5100 
  175.1250    52.1370    21.9980    19.3500    16.1530    25.2360   -14.3080     2.5040 
  175.2500    55.0250    22.2620    19.5280    16.1720    25.2240   -14.4240     2.4980 
  175.3750    56.4480    22.5300    19.7350    16.1820    25.2150   -14.5310     2.4920 
  175.5000    56.4580    22.7720    19.9400    16.8410    25.2100   -14.6230     2.4840 
  175.6250    56.8710    22.9220    20.0950    18.0270    25.2250   -14.6960     2.4750 
  175.7500    58.1360    22.9240    20.1510    18.1040    25.2840   -14.7440     2.4680 
  175.8750    59.4250    22.7560    20.0750    16.9700    25.2930   -14.8040     2.4640 
  176.0000    59.9280    22.4840    19.8940    17.0630    25.3030   -14.8550     2.4600 
  176.1250    58.0020    22.2740    19.7170    17.2380    25.2970   -14.9350     2.4530 
  176.2500    56.0720    22.2560    19.6600    16.4580    25.2620   -15.0130     2.4470 
  176.3750    56.9170    22.4440    19.7540    15.6050    25.2260   -15.0590     2.4480 
  176.5000    58.6000    22.7340    19.9350    16.1830    25.2320   -15.0730     2.4600 
  176.6250    57.2780    22.9150    20.0450    18.1250    25.2700   -15.0180     2.4770 
  176.7500    55.0760    22.8550    19.9730    19.4760    25.2720   -14.9310     2.4890 
  176.8750    55.1620    22.5700    19.7100    18.3340    25.2910   -14.8010     2.4890 
  177.0000    56.4460    22.2210    19.3540    16.2470    25.2820   -14.6590     2.4820 
  177.1250    56.5770    22.1090    19.1070    15.7330    25.2340   -14.5160     2.4730 
  177.2500    56.5370    22.3550    19.0870    16.0780    25.2320   -14.3800     2.4690 
  177.3750    56.9260    22.8920    19.2870    15.8800    25.2370   -14.3000     2.4710 
  177.5000    57.6170    23.4960    19.5880    16.4640    25.2300   -14.2640     2.4790 
  177.6250    58.8570    23.8460    19.7960    18.1980    25.2290   -14.3290     2.4880 
  177.7500    60.5960    23.8650    19.8280    19.3280    25.1960   -14.4470     2.4940 
  177.8750    62.6590    23.6490    19.7210    17.3110    25.2730   -14.6110     2.4920 
  178.0000    62.7710    23.3440    19.5610    15.6770    25.3360   -14.8150     2.4850 
  178.1250    60.1790    23.0680    19.4410    15.9350    25.3200   -15.0030     2.4740 
  178.2500    59.0180    22.9060    19.4430    17.4990    25.3010   -15.1850     2.4650 
  178.3750    61.3930    22.9680    19.6630    18.8910    25.3380   -15.3170     2.4560 
  178.5000    64.2610    23.4020    20.2090    18.0660    25.3990   -15.4260     2.4480 
  178.6250    63.8890    24.3990    21.2300    17.1500    25.4040   -15.5130     2.4400 
  178.7500    63.6330    25.6370    22.5150    19.5770    25.4290   -15.5750     2.4350 
  178.8750    65.1780    26.3850    23.5160    24.3620    25.4740   -15.6430     2.4360 
  179.0000    66.1110    25.6400    23.3430    27.9110    25.4950   -15.7050     2.4420 
  179.1250    65.9280    22.5120    21.0590    26.7170    25.5600   -15.7910     2.4500 
  179.2500    67.0620    18.1110    17.5180    20.8510    25.5360   -15.8880     2.4510 
  179.3750    69.6960    13.7660    13.8460    12.7210    25.5050   -15.9990     2.4380 
  179.5000    71.2420    10.4470    10.8820     7.5770    25.4130   -16.1040     2.4140 
  179.6250    70.9560     8.6060     9.0610     6.0150    25.3160   -16.1750     2.3850 
  179.7500    70.8220     7.7540     8.0760     5.6830    25.2970   -16.2180     2.3640 
  179.8750    72.1740     7.5520     7.7010     5.7780    25.2850   -16.2090     2.3520 
  180.0000    73.9930     7.6890     7.7010     5.9070    25.2940   -16.1690     2.3480 
  180.1250    75.3560     7.8640     7.8340     6.0600    25.2910   -16.1030     2.3520 
  180.2500    75.1000     7.8870     7.8860     6.0610    25.3100   -16.0120     2.3590 
  180.3750    73.2680     7.7750     7.8230     5.9350    25.3420   -15.9310     2.3650 
  180.5000    70.2480     7.6610     7.7280     5.7910    25.3670   -15.8440     2.3630 
  180.6250    66.6550     7.7580     7.7720     5.8690    25.4040   -15.7680     2.3540 
  180.7500    64.7280     8.1850     8.0710     6.3040    25.3930   -15.6940     2.3450 
  180.8750    64.3840     9.0260     8.7090     7.2270    25.3450   -15.6260     2.3370 
  181.0000    62.5810    10.3060     9.7230     8.1590    25.2430   -15.5710     2.3330 
  181.1250    57.8240    12.0010    11.1140     9.3410    25.2330   -15.5480     2.3360 
  181.2500    53.8100    13.8310    12.6540    11.5300    25.2610   -15.5960     2.3390 
  181.3750    53.0920    15.5030    14.1000    14.1850    25.2990   -15.6860     2.3360 
  181.5000    54.2660    16.7480    15.2120    15.4580    25.3310   -15.8130     2.3300 
  181.6250    55.3810    17.3640    15.7970    16.0550    25.5000   -15.9210     2.3260 
  181.7500    56.2040    17.5660    16.0130    16.3620    25.4940   -15.9860     2.3280 
  181.8750    56.6640    17.5720    16.0230    15.6500    25.4350   -16.0220     2.3310 
  182.0000    57.8930    17.5760    15.9790    14.7410    25.2040   -16.0180     2.3310 
  182.1250    60.5000    17.7130    15.9920    13.9630    25.1080   -16.0020     2.3240 
  182.2500    62.1350    17.9660    16.0720    13.9740    25.0660   -15.9800     2.3130 
  182.3750    62.6260    18.2780    16.1900    14.3830    25.1300   -15.9800     2.3040 
  182.5000    62.0060    18.5680    16.2960    14.2280    25.1760   -16.0130     2.2970 
  182.6250    61.7520    18.7120    16.3070    14.0420    25.2450   -16.0660     2.2850 
  182.7500    62.1500    18.6350    16.1610    13.7920    25.2700   -16.1370     2.2700 
  182.8750    63.1070    18.3080    15.8280    13.5280    25.2440   -16.1900     2.2560 
  183.0000    63.9560    17.8170    15.3680    13.1950    25.2960   -16.2500     2.2490 
  183.1250    63.3820    17.4880    15.0190    12.6880    25.4000   -16.2880     2.2550 
  183.2500    61.6110    17.7520    15.0870    12.5750    25.4110   -16.3290     2.2720 
  183.3750    59.7490    19.0450    15.8790    12.9330    25.4090   -16.3700     2.2980 
  183.5000    58.8850    21.7850    17.7110    15.1300    25.4110   -16.4110     2.3230 
  183.6250    58.5910    26.5890    21.1530    20.5580    25.4570   -16.5010     2.3260 
  183.7500    56.3180    33.0780    26.1030    29.5970    25.5590   -16.5900     2.3020 
  183.8750    53.7230    40.5290    32.1660    35.7890    25.5970   -16.6790     2.2620 
  184.0000    53.3940    47.5510    38.2760    37.5430    25.6030   -16.7510     2.2250 
  184.1250    53.7810    52.0920    42.6110    38.1050    25.6020   -16.8140     2.2160 
  184.2500    51.9590    53.9540    44.6680    42.5010    25.5820   -16.8750     2.2320 
  184.3750    49.6410    53.9110    44.9200    47.4610    25.5410   -16.9170     2.2630 
  184.5000    48.6140    53.0460    44.2590    46.7700    25.4880   -16.9690     2.2980 
  184.6250    47.4310    52.0880    43.3780    41.2980    25.4970   -17.0260     2.3330 
  184.7500    45.4450    51.2360    42.5840    39.4790    25.5330   -17.1060     2.3680 
  184.8750    45.3070    50.4250    41.8870    39.6860    25.5340   -17.1970     2.3990 
