~V
VERS. 2.00: Ver 2.00
~W
STRT.M 50.0000:
STOP.M 240.0000:
STEP.M 0.1250:
NULL. -999.2500:
UWI. F10736:
~C
DEPT.M :
DEN.GM/CC :
GR.API :
RML.OHMM :
RI. :
RXO.OHMM :
CALI.CM :
SP.MV :
~A
# ...
  162.5000     2.5380    45.6600    18.8100    16.8090    14.8480    25.3720   -10.1110 
  162.6250     2.5550    42.2400    19.4260    17.4660    15.4480    25.3950   -10.1110 
  162.7500     2.5540    40.6710    19.7270    17.8960    17.1800    25.3690   -10.1190 
  162.8750     2.5390    40.8470    19.6090    17.9720    19.4950    25.2980   -10.1150 
  163.0000     2.5200    40.3500    19.0700    17.6600    19.2240    25.2760   -10.0870 
  163.1250     2.5060    39.0350    18.2170    17.0130    16.7590    25.2960   -10.0490 
  163.2500     2.5120    39.0190    17.3270    16.2620    14.4700    25.3160   -10.0340 
  163.3750     2.5290    38.9720    16.5590    15.5440    13.5510    25.3230   -10.0500 
  163.5000     2.5430    36.9530    15.9650    14.9280    13.1960    25.2390   -10.0830 
  163.6250     2.5450    35.4300    15.5170    14.4240    12.8640    25.0610   -10.1180 
  163.7500     2.5420    35.8420    15.1250    13.9910    12.1560    24.8660   -10.1430 
  163.8750     2.5410    37.4000    14.7890    13.6400    11.4180    24.7970   -10.1540 
  164.0000     2.5400    39.3540    14.5660    13.4160    11.0620    24.8280   -10.1470 
  164.1250     2.5350    41.0340    14.5550    13.4050    11.3940    24.8530   -10.1210 
  164.2500     2.5330    41.0290    14.7330    13.5870    11.9070    24.9360   -10.0920 
  164.3750     2.5400    39.3010    15.0400    13.9150    12.4700    25.1400   -10.0840 
  164.5000     2.5510    38.2320    15.3840    14.2970    13.2170    25.4430   -10.1150 
  164.6250     2.5610    38.8050    15.6430    14.6090    13.2290    25.6270   -10.1770 
  164.7500     2.5690    39.6800    15.7570    14.7870    12.8960    25.6760   -10.2300 
  164.8750     2.5730    39.4510    15.7030    14.8130    12.8780    25.6540   -10.2490 
  165.0000     2.5680    37.8590    15.4970    14.7090    12.9590    25.6320   -10.2320 
  165.1250     2.5550    37.7530    15.2100    14.5300    12.7450    25.6250   -10.2040 
  165.2500     2.5440    40.9860    14.9820    14.3780    12.3740    25.6250   -10.1980 
  165.3750     2.5420    46.3180    14.9160    14.3360    12.2790    25.6190   -10.2210 
  165.5000     2.5450    50.3830    15.0890    14.4680    12.1020    25.5830   -10.2630 
  165.6250     2.5470    50.7030    15.5900    14.8520    12.0710    25.4560   -10.3040 
  165.7500     2.5440    48.1780    16.3430    15.4400    12.7010    25.2650   -10.3280 
  165.8750     2.5340    45.1610    17.2270    16.1350    13.3780    25.0920   -10.3320 
  166.0000     2.5220    44.3630    18.0200    16.7610    13.8890    24.9900   -10.3340 
  166.1250     2.5160    46.4060    18.3520    17.0070    14.3710    24.9990   -10.3640 
  166.2500     2.5190    49.7100    18.1280    16.7830    14.3920    25.0550   -10.4240 
  166.3750     2.5200    53.1730    17.5400    16.2260    13.7220    25.1370   -10.4960 
  166.5000     2.5190    54.8040    17.0670    15.7080    12.7640    25.2270   -10.5600 
  166.6250     2.5180    53.1540    17.4530    15.8400    12.2370    25.2990   -10.6010 
  166.7500     2.5160    52.7780    19.1120    17.0390    13.0720    25.3790   -10.6260 
  166.8750     2.5170    55.8770    22.4720    19.7960    17.5540    25.4600   -10.6490 
  167.0000     2.5230    58.3920    27.9260    24.6480    30.1330    25.5240   -10.6870 
  167.1250     2.5330    56.1660    35.9310    32.3240    48.4590    25.5400   -10.7350 
  167.2500     2.5280    52.3550    45.1090    41.6920    61.2970    25.5210   -10.7710 
  167.3750     2.5060    50.2140    53.2260    50.7480    64.6170    25.4720   -10.7800 
  167.5000     2.4760    48.9040    58.1430    57.2440    65.5290    25.4270   -10.7660 
  167.6250     2.4470    47.2030    59.6200    60.2240    66.4010    25.4090   -10.7310 
  167.7500     2.4270    46.0440    60.2060    61.7880    62.0630    25.4060   -10.6840 
  167.8750     2.4140    46.5150    60.4600    62.7930    58.9200    25.4010   -10.6320 
  168.0000     2.4040    48.4130    58.4830    61.9220    58.9780    25.3840   -10.5790 
  168.1250     2.3940    51.3720    50.1470    55.0200    65.2710    25.3500   -10.5250 
  168.2500     2.3900    53.5680    37.3450    42.6520    66.3650    25.3370   -10.4650 
  168.3750     2.3970    53.1260    24.7750    29.1230    50.9300    25.3450   -10.3980 
  168.5000     2.4170    49.7020    15.5130    18.4430    27.3170    25.3520   -10.3220 
  168.6250     2.4450    46.5380    10.2320    12.1130    12.4260    25.2970   -10.2340 
  168.7500     2.4670    44.6150     7.2990     8.4760     6.7360    25.2250   -10.1470 
  168.8750     2.4700    42.5530     5.8850     6.5470     5.4640    25.1840   -10.0660 
  169.0000     2.4620    39.5480     5.4210     5.6840     5.6060    25.1540    -9.9890 
  169.1250     2.4540    36.8320     5.5480     5.5690     5.4660    25.1010    -9.9130 
  169.2500     2.4490    34.9450     5.8320     5.7760     5.2120    25.0570    -9.8470 
  169.3750     2.4380    34.7870     6.0520     6.0730     5.0630    25.0270    -9.8030 
  169.5000     2.4200    36.4820     6.1170     6.3050     5.0270    24.9970    -9.7820 
  169.6250     2.4010    36.6280     6.0540     6.4060     5.0160    24.9490    -9.7750 
  169.7500     2.3910    33.4670     5.9560     6.4200     5.0130    24.9320    -9.7770 
  169.8750     2.3910    30.7220     5.8490     6.3740     4.9820    24.9210    -9.7930 
  170.0000     2.3990    30.5100     5.7370     6.2880     4.8690    24.8950    -9.8240 
  170.1250     2.4070    30.8860     5.6310     6.1730     4.6590    24.8540    -9.8530 
  170.2500     2.4050    30.4290     5.5380     6.0400     4.5030    24.8170    -9.8560 
  170.3750     2.3940    31.4320     5.4660     5.8980     4.4710    24.7940    -9.8350 
  170.5000     2.3790    34.5550     5.4230     5.7550     4.4760    24.8320    -9.8010 
  170.6250     2.3650    37.0280     5.4150     5.6270     4.4670    24.8070    -9.8040 
  170.7500     2.3550    38.6580     5.4370     5.5220     4.4980    24.8060    -9.8370 
  170.8750     2.3550    41.1590     5.5010     5.4550     4.6970    24.9310    -9.9060 
  171.0000     2.3680    46.3580     5.6250     5.4410     4.9750    25.2010   -10.0000 
  171.1250     2.3950    53.5730     5.8000     5.4760     5.3170    25.4370   -10.0000 
  171.2500     2.4240    59.5680     5.9490     5.5050     5.6390    25.5620   -10.0000 
  171.3750     2.4440    61.8020     6.0050     5.4870     6.2430    25.5640   -10.0000 
  171.5000     2.4550    60.3180     5.9730     5.4280     7.0360    25.5230   -10.0000 
  171.6250     2.4630    59.2020     6.0350     5.4500     7.1000    25.5050    -9.9990 
  171.7500     2.4700    57.5290     6.4360     5.7200     6.4640    25.5260    -9.9980 
  171.8750     2.4780    53.6330     7.3570     6.3870     6.3310    25.5470    -9.9990 
  172.0000     2.4940    48.1130     8.8660     7.5430     7.9430    25.5060   -10.0030 
  172.1250     2.5120    45.4130    10.8920     9.2190    12.8880    25.4320   -10.0140 
  172.2500     2.5060    45.6620    12.9390    11.0750    19.5820    25.3800   -10.0360 
  172.3750     2.4690    47.0170    14.5190    12.7230    22.6310    25.3340   -10.0630 
  172.5000     2.4180    49.1110    15.4110    13.8900    20.1140    25.2920   -10.0890 
  172.6250     2.3800    52.2600    15.8260    14.5820    16.6580    25.2750   -10.1140 
  172.7500     2.3650    54.2300    16.1970    15.1040    18.3590    25.2620   -10.1390 
  172.8750     2.3510    54.0920    16.5890    15.5350    23.4200    25.2560   -10.1680 
  173.0000     2.3290    52.7290    16.9060    15.8400    25.5380    25.2690   -10.1890 
  173.1250     2.3120    51.9490    17.0020    15.9290    22.0700    25.3040   -10.2410 
  173.2500     2.3190    53.1860    16.8380    15.7890    18.0660    25.4140   -10.3080 
  173.3750     2.3460    55.6760    16.3830    15.3720    14.8270    25.5440   -10.3560 
  173.5000     2.3800    55.4060    15.6140    14.6460    15.4120    25.5650   -10.4030 
  173.6250     2.4070    50.8340    14.3990    13.5320    20.8450    25.4100   -10.4590 
