~V
VERS. 2.00: Ver 2.00
~W
STRT.M 50.0000:
STOP.M 240.0000:
STEP.M 0.1250:
NULL. -999.2500:
UWI. F10736:
~C
DEPT.M :
DEN.GM/CC :
GR.API :
RML.OHMM :
RI. :
RXO.OHMM :
CALI.CM :
SP.MV :
~A
# ...
   83.7500     2.1610    53.8410    15.8420    13.7230    21.0620    25.1700    -8.8130 
   83.8750     2.2060    52.1500    18.1170    15.7890    19.1860    25.1230    -8.8110 
   84.0000     2.2230    49.2350    20.0690    17.7490    14.9880    25.0220    -8.7830 
   84.1250     2.2080    48.2270    21.0980    18.9830    13.8050    25.0070    -8.7140 
   84.2500     2.1850    49.5640    21.2540    19.3810    13.6860    25.0500    -8.6110 
   84.3750     2.1770    50.2980    20.7910    19.0960    13.3370    25.1250    -8.4900 
   84.5000     2.1820    48.5980    20.0390    18.4160    12.8110    25.2060    -8.3780 
   84.6250     2.1930    46.0500    19.2640    17.5940    12.0740    25.2610    -8.3040 
   84.7500     2.2080    45.3080    18.6130    16.8130    11.2470    25.2640    -8.2690 
   84.8750     2.2210    46.7550    18.1610    16.1690    10.5230    25.2250    -8.2620 
   85.0000     2.2260    49.6690    17.9740    15.7470    10.1670    25.1820    -8.2660 
   85.1250     2.2220    53.0200    18.1670    15.6840     9.9930    25.1880    -8.2570 
   85.2500     2.2060    55.3420    18.7160    15.9810    10.0530    25.2200    -8.2270 
   85.3750     2.1750    54.6400    19.5920    16.6290    10.5140    25.2570    -8.1850 
   85.5000     2.1310    50.2200    20.6940    17.5510    11.2790    25.2720    -8.1440 
   85.6250     2.0920    46.7990    21.8280    18.5840    12.3260    25.2540    -8.1260 
   85.7500     2.0740    47.0430    22.7560    19.4840    13.4200    25.2080    -8.1300 
   85.8750     2.0690    49.1820    23.3060    20.0650    13.9690    25.1530    -8.1410 
   86.0000     2.0630    49.7440    23.4010    20.2190    13.7210    25.1040    -8.1350 
   86.1250     2.0550    47.2170    23.0620    19.9200    13.0500    25.0940    -8.1070 
   86.2500     2.0620    44.9320    22.5380    19.3920    12.2350    25.1260    -8.0830 
   86.3750     2.0930    45.5980    22.0030    18.8110    11.1130    25.1690    -8.0730 
   86.5000     2.1360    47.5920    21.6110    18.3350    10.4010    25.1730    -8.0720 
   86.6250     2.1670    46.3860    21.5300    18.1380    10.3880    25.1020    -8.0700 
   86.7500     2.1630    44.0300    21.7670    18.2450    10.7050    25.0090    -8.0700 
   86.8750     2.1250    45.2940    22.2800    18.6380    11.3220    24.9510    -8.0850 
   87.0000     2.0660    49.2630    22.9390    19.2360    11.9220    24.9620    -8.1180 
   87.1250     2.0080    50.9420    23.4980    19.8690    12.2150    25.0630    -8.1550 
   87.2500     1.9780    48.6900    23.7550    20.3280    11.7430    25.2020    -8.1670 
   87.3750     1.9860    44.5330    23.6630    20.5150    10.9830    25.3170    -8.1490 
   87.5000     2.0330    41.5020    23.3390    20.4600    10.7360    25.3990    -8.1200 
   87.6250     2.1050    42.2710    22.9990    20.3050    11.1430    25.5310    -8.1210 
   87.7500     2.1780    43.1680    22.6880    20.1340    11.7730    25.7070    -8.1730 
   87.8750     2.2380    43.1520    22.1320    19.7690    11.9000    25.8310    -8.2750 
   88.0000     2.2860    43.8650    20.8760    18.8470    11.9690    25.8740    -8.4170 
   88.1250     2.3330    46.6110    18.4730    16.9530    11.9360    25.8740    -8.5920 
   88.2500     2.3930    50.2630    15.4300    14.4670    11.3140    25.8700    -8.7860 
   88.3750     2.4520    54.5050    12.4400    11.9470     9.4080    25.8400    -8.9850 
   88.5000     2.4670    59.4100    10.1020     9.8760     7.0970    25.7610    -9.1670 
   88.6250     2.4190    64.0180     8.8110     8.5850     6.1480    25.6410    -9.3100 
   88.7500     2.3450    67.3630     8.3170     7.9250     5.9580    25.5270    -9.4330 
   88.8750     2.2960    68.4110     8.3830     7.7560     6.1810    25.3950    -9.5550 
   89.0000     2.2760    66.6770     8.7260     7.8930     6.4180    25.2570    -9.6820 
   89.1250     2.2740    64.1630     9.0360     8.1140     6.5740    25.1330    -9.7920 
   89.2500     2.2880    63.2080     9.1160     8.2190     6.4390    25.1100    -9.8730 
   89.3750     2.3080    64.1560     8.9310     8.1340     6.1190    25.1780    -9.9300 
   89.5000     2.3210    65.8920     8.5320     7.8630     5.7270    25.2960    -9.9810 
   89.6250     2.3130    66.7950     7.9860     7.4350     5.8850    25.3570   -10.0440 
   89.7500     2.2900    67.5900     7.4290     6.9620     6.2310    25.3830   -10.1240 
   89.8750     2.2690    68.7380     7.0040     6.5560     6.1170    25.3890   -10.2150 
   90.0000     2.2590    69.0180     6.8660     6.3400     5.5160    25.3910   -10.3090 
   90.1250     2.2570    67.0040     7.1840     6.4500     5.2000    25.3550   -10.3990 
   90.2500     2.2600    64.1600     7.8680     6.8400     5.6120    25.2850   -10.4720 
   90.3750     2.2630    60.6980     8.7670     7.4270     6.4900    25.1700   -10.5170 
   90.5000     2.2650    57.1900     9.6340     8.0550     7.4210    25.0490   -10.5300 
   90.6250     2.2690    55.4880    10.1280     8.4950     7.7630    24.9690   -10.5180 
   90.7500     2.2680    56.7070    10.2230     8.6820     7.3100    24.9410   -10.4960 
   90.8750     2.2540    59.5960    10.0930     8.6900     7.2270    24.8970   -10.4750 
   91.0000     2.2200    60.4570     9.9990     8.6720     7.6670    24.8050   -10.4630 
   91.1250     2.1720    57.7950    10.2230     8.8250     8.0580    24.7590   -10.4630 
   91.2500     2.1280    57.0570    10.8530     9.2540     8.2570    24.8010   -10.4530 
   91.3750     2.0990    59.6510    11.9210    10.0330     8.5360    24.8950   -10.4140 
   91.5000     2.0890    61.0520    13.3490    11.1590     9.1540    24.9890   -10.3350 
   91.6250     2.1050    56.2320    14.8320    12.4750    10.1540    25.0470   -10.2230 
   91.7500     2.1470    50.3920    15.8090    13.5210    11.6710    25.0900   -10.0960 
   91.8750     2.2030    48.1740    15.7710    13.8180    12.1970    25.1600    -9.9630 
   92.0000     2.2630    49.7590    14.5380    13.1050    11.2670    25.2680    -9.8220 
   92.1250     2.3200    52.3080    12.4140    11.5260     9.3980    25.3630    -9.6750 
   92.2500     2.3470    54.5950    10.2630     9.7860     7.4890    25.4260    -9.5450 
   92.3750     2.3400    57.5400     8.5570     8.2920     6.5570    25.4740    -9.4570 
   92.5000     2.3140    61.8630     7.4710     7.2170     6.0650    25.5380    -9.4090 
   92.6250     2.2890    65.8940     7.0270     6.6250     5.6070    25.5540    -9.3710 
   92.7500     2.2760    68.0860     6.9570     6.3490     5.1800    25.5030    -9.3100 
   92.8750     2.2690    68.3560     7.0930     6.2850     5.2640    25.3800    -9.2310 
   93.0000     2.2640    67.2080     7.2930     6.3410     5.8520    25.2490    -9.1630 
   93.1250     2.2580    64.7300     7.4500     6.4470     5.9390    25.2180    -9.1460 
   93.2500     2.2570    61.3990     7.5610     6.5660     5.7590    25.2720    -9.1740 
   93.3750     2.2540    57.6640     7.7050     6.7280     5.9990    25.3080    -9.2250 
   93.5000     2.2470    54.7610     8.0390     7.0190     6.5310    25.2740    -9.2760 
   93.6250     2.2420    54.9920     8.8800     7.6540     6.7890    25.2300    -9.3240 
   93.7500     2.2570    57.4070    10.3990     8.7850     6.9750    25.2130    -9.3790 
   93.8750     2.2880    59.6580    12.7250    10.5690     7.7320    25.2110    -9.4400 
   94.0000     2.3250    58.7630    15.7920    13.0560     9.3650    25.2030    -9.4960 
   94.1250     2.3530    54.6090    18.9800    15.9210    10.4840    25.1650    -9.5270 
   94.2500     2.3470    50.8980    20.9560    18.0300    10.5290    25.0880    -9.5310 
   94.3750     2.3070    49.1670    20.6310    18.2770    10.0160    25.0110    -9.5110 
   94.5000     2.2600    50.4760    18.0890    16.4940     9.5930    24.9970    -9.4750 
   94.6250     2.2390    54.3770    14.6440    13.6640     8.8970    25.0310    -9.4380 
   94.7500     2.2600    58.5910    11.6990    11.0670     7.6530    25.0870    -9.4230 
   94.8750     2.2950    60.0480     9.6210     9.0880     6.4450    25.1240    -9.4490 
