~V
VERS. 2.00: Ver 2.00
~W
STRT.M 45.0000:
STOP.M 272.0000:
STEP.M 0.1250:
NULL. -999.2500:
UWI. F10774:
~C
DEPT.M :
DEN.GM/CC :
SP.MV :
GR.API :
RML.OHMM :
RI. :
RXO.OHMM :
CALI.CM :
~A
# ...
  258.7500     2.1180   -18.7370    23.6000     4.2660     4.1400     3.3400    30.0020 
  258.8750     2.1810   -18.8350    21.9850     4.4280     4.2790     3.4940    28.7500 
  259.0000     2.2080   -18.9540    21.4950     4.5820     4.4140     3.7620    28.0650 
  259.1250     2.1900   -19.0790    22.2560     4.6810     4.5110     3.9670    27.9510 
  259.2500     2.1460   -19.2270    23.7570     4.6940     4.5440     3.8950    27.9430 
  259.3750     2.0890   -19.3690    24.5910     4.6370     4.5200     3.7350    28.0680 
  259.5000     2.0300   -19.5190    24.6220     4.5350     4.4530     3.6070    28.5240 
  259.6250     1.9910   -19.6700    24.6970     4.4160     4.3690     3.5700    28.9440 
  259.7500     1.9940   -19.8160    25.1480     4.3140     4.3000     3.5510    29.0930 
  259.8750     2.0420   -19.9640    25.5150     4.2720     4.2780     3.5240    28.8070 
  260.0000     2.1070   -20.1590    25.3310     4.3330     4.3290     3.5110    28.1540 
  260.1250     2.1450   -20.4130    24.7620     4.5350     4.4810     3.5830    27.7320 
  260.2500     2.1620   -20.7100    24.0440     4.8950     4.7510     3.7910    27.4170 
  260.3750     2.1830   -21.0470    24.0440     5.3520     5.0980     4.1060    26.9690 
  260.5000     2.2130   -21.4100    24.0440     5.8150     5.4550     4.5340    26.4360 
  260.6250     2.2250   -21.7970    24.0440     6.1440     5.7170     5.2010    26.1280 
  260.7500     2.2120   -22.2040    24.0440     6.1870     5.7650     5.8840    26.1350 
  260.8750     2.1890   -22.6230    24.0440     5.9510     5.5950     6.1630    26.3000 
  261.0000     2.1750   -23.0240    24.0440     5.5450     5.2760     5.8820    26.5290 
  261.1250     2.1920   -23.4130    24.0440     5.1610     4.9440     5.0800    26.6050 
  261.2500     2.2410   -23.7870    24.0440     5.0210     4.7770     4.5640    26.3220 
  261.3750     2.3030   -24.2250    24.0440     5.2640     4.9060     4.4780    25.8410 
  261.5000     2.3420   -24.8200    24.0440     6.0160     5.4480     4.9100    25.4890 
  261.6250     2.3400   -25.4910    24.0440     7.4060     6.5180     6.3120    25.3350 
  261.7500     2.3200   -26.1850    24.0440     9.4780     8.1710     9.6380    25.2770 
  261.8750     2.2970   -26.9030    24.0440    11.7830    10.0830    14.6780    25.2450 
  262.0000     2.2810   -27.5470    24.0440    13.5810    11.7200    19.5590    25.2410 
  262.1250     2.2740   -28.0650    24.0440    14.0800    12.4550    22.4910    25.2490 
  262.2500     2.2650   -28.3840    24.0440    13.0660    11.9910    20.4290    25.2570 
  262.3750     2.2460   -28.4920    24.0440    11.4320    10.8760    15.6600    25.2740 
  262.5000     2.2260   -28.3310    24.0440     9.8300     9.5970    11.1710    25.3130 
  262.6250     2.2150   -27.9560    24.0440     8.5450     8.4480     9.2860    25.3770 
  262.7500     2.2100   -27.3960    24.0440     7.5930     7.5240     8.9480    25.5010 
  262.8750     2.2040   -26.6810    24.0440     6.8290     6.7700     7.6350    25.7320 
  263.0000     2.1970   -25.8970    24.0440     6.2040     6.1590     6.3110    26.1260 
  263.1250     2.2020   -25.0950    24.0440     5.7290     5.6890     5.2110    26.5520 
  263.2500     2.2250   -24.3530    24.0440     5.4400     5.3780     4.5040    26.6330 
  263.3750     2.2590   -23.7170    24.0440     5.3100     5.2020     4.3500    26.2390 
  263.5000     2.2830   -23.2080    24.0440     5.2790     5.1260     4.6310    25.7030 
  263.6250     2.2750   -22.7890    24.0440     5.2650     5.0980     4.8960    25.4100 
  263.7500     2.2450   -22.4790    24.0440     5.2110     5.0730     4.6660    25.4540 
  263.8750     2.2180   -22.2770    24.0440     5.1350     5.0470     4.3390    25.6610 
  264.0000     2.2110   -22.1730    24.0440     5.0840     5.0450     4.0990    25.8180 
  264.1250     2.2230   -22.1810    24.0440     5.0900     5.0930     4.1580    25.8260 
  264.2500     2.2340   -22.2920    24.0440     5.1540     5.1870     4.5460    25.6760 
  264.3750     2.2340   -22.4680    24.0440     5.2380     5.2850     5.2350    25.4870 
  264.5000     2.2200   -22.6590    24.0440     5.3140     5.3570     6.1090    25.4450 
  264.6250     2.1990   -22.8450    24.0440     5.3670     5.3930     6.5210    25.7060 
  264.7500     2.1820   -22.9990    24.0440     5.3970     5.4020     6.0170    26.3150 
  264.8750     2.1690   -23.1130    24.0440     5.4140     5.4040     5.5230    27.0710 
  265.0000     2.1570   -23.1930    24.0440     5.4240     5.4060     5.0730    27.8880 
  265.1250     2.1500   -23.2370    24.0440     5.4370     5.4080     4.5510    28.6620 
  265.2500     2.1520   -23.2000    24.0440     5.4590     5.4090     4.2060    29.2180 
  265.3750     2.1560   -23.0610    24.0440     5.4770     5.4110     3.9500    29.5010 
  265.5000     2.1560   -22.9180    24.0440     5.4820     5.4110     3.7820    29.7010 
  265.6250     2.1500   -22.7820    24.0440     5.4720     5.4090     3.6370    30.0030 
  265.7500     2.1320   -22.6690    24.0440     5.4540     5.4060     3.5750    30.4050 
  265.8750     2.1030   -22.5990    24.0440     5.4350     5.4040     3.6130    30.6970 
  266.0000     2.0810   -22.5560    24.0440     5.4210     5.4020     3.8210    30.7620 
  266.1250     2.0820   -22.5000    24.0440     5.4130     5.4010     4.0140    30.3180 
  266.2500     2.0910   -22.4620    24.0440     5.4130     5.4010     3.9940    29.6450 
  266.3750     2.0900   -22.4600    24.0440     5.4130     5.4010     3.8340    29.7010 
  266.5000     2.0780   -22.4220    24.0440     5.4130     5.4010     3.6960    30.3570 
  266.6250     2.0660   -22.3890    24.0440     5.4130     5.4010     3.6100    31.0580 
  266.7500     2.0580   -22.3950    24.0440     5.4130     5.4010     3.5020    31.1970 
  266.8750     2.0510   -22.3880    24.0440     5.4130     5.4010     3.3920    30.6480 
  267.0000     2.0320   -22.3710    24.0440     5.4130     5.4010     3.3910    29.9050 
  267.1250     1.9830   -22.3950    24.0440     5.4130     5.4010     3.4860    29.6720 
  267.2500     1.9200   -22.4050    24.0440     5.4130     5.4010     3.5590    29.9280 
  267.3750     1.8750   -22.3740    24.0440     5.4130     5.4010     3.5750    30.0850 
  267.5000     1.8740   -22.3430    24.0440     5.4130     5.4010     3.5130    29.8700 
  267.6250     1.9240   -22.3530    24.0440     5.4130     5.4010     3.4200    29.0750 
  267.7500     1.9860   -22.3410    24.0440     5.4130     5.4010     3.4070    28.0810 
  267.8750     2.0230   -22.2920    24.0440     5.4130     5.4010     3.4870    27.9150 
  268.0000     2.0290   -22.1830    24.0440     5.4130     5.4010     3.5500    28.4830 
  268.1250     2.0320   -21.9420    24.0440     5.4130     5.4010     3.6090    28.8650 
  268.2500     2.0460   -21.6550    24.0440     5.4130     5.4010     3.7760    28.7220 
  268.3750     2.0420   -21.3730    24.0440     5.4130     5.4010     3.9470    28.5760 
  268.5000     1.9870   -21.0740    24.0440     5.4130     5.4010     4.0000    28.7750 
  268.6250     1.8850   -20.6870    24.0440     5.4130     5.4010     4.0420    29.4780 
  268.7500     1.7850   -20.2330    24.0440     5.4130     5.4010     4.1560    30.6310 
  268.8750     1.7070   -19.7580    24.0440     5.4130     5.4010     4.0130    31.3880 
  269.0000     1.6520   -19.4210    24.0440     5.4130     5.4010     3.5360    30.6480 
  269.1250     1.6120   -19.5430    24.0440     5.4130     5.4010     3.0410    28.4200 
  269.2500     1.5840  -999.2500    24.0440     5.4130     5.4010     2.7790    25.9350 
  269.3750     1.5690  -999.2500    24.0440     5.4130     5.4010     2.7010    24.9410 
  269.5000     1.5620  -999.2500    24.0440     5.4130     5.4010     2.6890    24.7350 
  269.6250     1.5590  -999.2500    24.0440     5.4130     5.4010     2.6890    24.7330 
  269.7500     1.5560  -999.2500    24.0440     5.4130     5.4010     2.6890    24.7310 
  269.8750     1.5530  -999.2500    24.0440     5.4130     5.4010     2.6880    24.7300 
