~V
VERS. 2.00: Ver 2.00
~W
STRT.M 50.0000:
STOP.M 230.0000:
STEP.M 0.1250:
NULL. -999.2500:
UWI. F10780:
~C
DEPT.M :
DEN.GM/CC :
GR.API :
RML.OHMM :
RI. :
RXO.OHMM :
CALI.CM :
SP.MV :
~A
# ...
  207.5000     2.4400   116.9140     7.2680     7.3320     6.3000    24.5090   -15.9220 
  207.6250     2.4310   121.2200     7.3770     7.2980     6.6430    24.4620   -15.9360 
  207.7500     2.4190   121.7520     7.5000     7.2860     6.9250    24.4010   -15.9830 
  207.8750     2.4060   122.3050     7.6270     7.2930     7.1750    24.3390   -16.0670 
  208.0000     2.3920   123.7810     7.7620     7.3270     7.4080    24.2680   -16.1780 
  208.1250     2.3830   125.0850     7.9240     7.4070     7.5870    24.2470   -16.2730 
  208.2500     2.3830   124.4150     8.1240     7.5380     7.9350    24.3290   -16.3430 
  208.3750     2.3910   122.5710     8.3640     7.7180     8.6920    24.4410   -16.3910 
  208.5000     2.4040   118.8730     8.6310     7.9370     9.3860    24.4940   -16.4290 
  208.6250     2.4200   113.9180     8.8930     8.1640     9.7880    24.4950   -16.5050 
  208.7500     2.4330   113.0260     9.1220     8.3660     9.5730    24.5110   -16.6300 
  208.8750     2.4430   116.1360     9.3120     8.5250     9.3070    24.5490   -16.7640 
  209.0000     2.4490   117.7800     9.4970     8.6550     9.5940    24.5960   -16.8440 
  209.1250     2.4480   114.1630     9.7830     8.8290     9.5480    24.5830   -16.9020 
  209.2500     2.4470   111.5480    10.2840     9.1490     9.4090    24.5680   -16.9840 
  209.3750     2.4490   111.4010    11.1030     9.7120     9.4820    24.5490   -17.1030 
  209.5000     2.4590   110.2240    12.2810    10.5840    10.3570    24.5250   -17.2830 
  209.6250     2.4770   107.6140    13.7880    11.8000    12.3090    24.5110   -17.4970 
  209.7500     2.4940   106.5440    15.3830    13.1790    14.7950    24.4800   -17.7260 
  209.8750     2.5010   105.6770    16.8510    14.5280    18.0190    24.4330   -17.9410 
  210.0000     2.4910   102.8840    18.0530    15.6600    20.6610    24.4070   -18.2170 
  210.1250     2.4630   100.5000    19.0260    16.4790    20.9400    24.4890   -18.5300 
  210.2500     2.4260   100.9760    20.1720    17.2310    19.6650    24.6370   -18.8910 
  210.3750     2.3890   101.5760    22.0500    18.3110    19.6000    24.7540   -19.2760 
  210.5000     2.3570    98.7210    25.3810    20.2880    21.1210    24.6400   -19.6760 
  210.6250     2.3330    94.1150    31.6010    24.4230    22.6580    24.3340   -20.1010 
  210.7500     2.3110    90.8210    41.5430    31.7790    25.7770    24.2720   -20.5580 
  210.8750     2.2860    86.8300    56.4500    43.8030    37.0990    24.4840   -21.0730 
  211.0000     2.2570    79.5400    77.3620    61.6090    71.5470    24.6730   -21.5980 
  211.1250     2.2280    70.6290   104.8690    85.6110   145.5640    24.7280   -22.2090 
  211.2500     2.2040    65.9180   134.6300   111.7680   204.3950    24.7980   -22.7790 
  211.3750     2.1900    65.0630   161.2690   135.6100   223.9240    24.9010   -23.3500 
  211.5000     2.1840    65.2860   179.8040   153.1470   226.7640    24.9770   -23.8750 
  211.6250     2.1810    64.2910   186.8580   161.4110   209.3570    24.9510   -24.3650 
  211.7500     2.1800    62.3200   186.3540   163.0570   180.1300    24.8920   -24.8030 
  211.8750     2.1780    61.5040   181.5280   160.4200   159.0310    24.8840   -25.2040 
  212.0000     2.1790    61.9740   175.1040   155.7740   175.6820    24.8790   -25.5530 
  212.1250     2.1860    61.8100   169.4280   151.2910   189.9920    24.8590   -25.7930 
  212.2500     2.1980    60.3820   165.8770   148.5280   180.1240    24.8270   -25.9500 
  212.3750     2.2090    58.8680   164.9060   148.1260   163.4970    24.7900   -26.0250 
  212.5000     2.2150    58.9750   166.0510   149.8740   148.5920    24.7400   -26.0540 
  212.6250     2.2120    60.9760   167.8620   152.6660   138.0370    24.6410   -25.9930 
  212.7500     2.2040    64.1890   168.3330   154.6090   147.7270    24.5500   -25.8040 
  212.8750     2.1940    65.8810   166.3240   154.4940   167.4270    24.5300   -25.5090 
  213.0000     2.1870    64.6170   161.7810   151.9860   182.0280    24.5670   -25.1320 
  213.1250     2.1860    64.3310   155.7930   147.6420   172.2200    24.6350   -24.7230 
  213.2500     2.1870    66.3420   150.3390   143.1820   156.2600    24.6970   -24.3360 
  213.3750     2.1890    67.3750   146.5090   139.7630   153.3240    24.7010   -23.9890 
  213.5000     2.1900    65.1370   144.6920   138.0350   152.8510    24.6460   -23.6800 
  213.6250     2.1890    62.5180   144.9340   138.2550   145.7060    24.6350   -23.4400 
  213.7500     2.1880    62.5230   146.0700   139.3430   141.9800    24.6270   -23.2770 
  213.8750     2.1870    64.6460   146.6540   139.9020   145.0470    24.6400   -23.1360 
  214.0000     2.1870    67.3390   144.8260   138.1530   144.6310    24.6480   -23.0450 
  214.1250     2.1870    68.0210   138.3530   131.9610   142.3800    24.6460   -22.9030 
  214.2500     2.1910    67.1290   128.1290   122.1800   142.7190    24.6400   -22.7700 
  214.3750     2.1980    66.7600   116.2590   110.8260   128.6590    24.6060   -22.6240 
  214.5000     2.2100    68.1580   105.8390   100.8590    93.6820    24.5350   -22.5080 
  214.6250     2.2210    68.8970   101.0620    96.2890    66.9450    24.4920   -22.3660 
  214.7500     2.2280    68.3420   103.3990    98.5240    66.7080    24.5010   -22.2940 
  214.8750     2.2260    66.8090   113.2740   107.9710    81.9090    24.5410   -22.2730 
  215.0000     2.2160    64.5720   128.7070   122.7340   111.1320    24.6550   -22.3310 
  215.1250     2.2010    63.5390   143.1710   136.5720   151.2280    24.7260   -22.4990 
  215.2500     2.1900    65.0410   148.6310   141.7820   145.4920    24.7440   -22.7060 
  215.3750     2.1880    66.9170   141.4210   134.8690   147.7160    24.7290   -22.9180 
  215.5000     2.1960    67.1240   123.9070   118.3280   144.4640    24.7060   -23.1180 
  215.6250     2.2130    67.7680   103.7140    99.4380    99.1850    24.6260   -23.3810 
  215.7500     2.2280    71.8980    88.4390    84.9400    64.4420    24.5700   -23.6090 
  215.8750     2.2350    75.1540    80.1130    76.5940    56.1210    24.5460   -23.8570 
  216.0000     2.2340    72.5670    77.2750    73.4580    65.0930    24.5810   -24.0210 
  216.1250     2.2260    67.3520    77.1950    73.6230    77.7840    24.6180   -24.1660 
  216.2500     2.2190    65.2990    77.1950    74.3390    79.9020    24.6070   -24.2960 
  216.3750     2.2170    66.5610    76.3650    74.3420    80.0100    24.5740   -24.4620 
  216.5000     2.2190    70.6100    74.6820    73.2930    75.8790    24.5450   -24.6320 
  216.6250     2.2260    75.2240    73.0130    71.7640    63.3280    24.5120   -24.8230 
  216.7500     2.2320    76.8570    72.3610    70.8500    58.6650    24.5040   -25.0040 
  216.8750     2.2340    75.2100    73.1490    71.1320    62.9120    24.5240   -25.1860 
  217.0000     2.2300    73.2240    75.2550    72.6340    70.7580    24.5740   -25.4010 
  217.1250     2.2200    72.6340    78.3370    75.0320    73.6260    24.6190   -25.6890 
  217.2500     2.2100    70.8670    81.9890    77.8050    69.8970    24.6240   -26.0360 
  217.3750     2.2040    68.2270    86.5380    81.0870    71.9590    24.6030   -26.3960 
  217.5000     2.2020    66.6600    92.9090    85.6280    75.5620    24.5520   -26.7370 
  217.6250     2.2020    67.3250   103.2540    93.4460    74.1900    24.5350   -27.0690 
  217.7500     2.2000    69.4640   118.5640   105.7960    83.4580    24.5230   -27.4450 
  217.8750     2.1930    69.7550   139.3770   123.4860   120.4060    24.5490   -27.8450 
  218.0000     2.1830    66.2800   164.4490   145.6400   189.6600    24.5950   -28.2820 
  218.1250     2.1760    62.8240   188.8970   168.2120   244.2580    24.6670   -28.6840 
  218.2500     2.1740    62.6350   205.7580   184.8840   255.3090    24.7520   -29.0380 
  218.3750     2.1780    64.7820   210.4680   191.2820   238.6480    24.8260   -29.3510 
  218.5000     2.1870    65.8750   203.0940   186.8030   206.6510    24.8310   -29.6850 
  218.6250     2.1970    64.3110   187.9000   174.4320   185.5300    24.7810   -29.9770 
