~V
VERS. 2.00: Ver 2.00
~W
STRT.M 50.0000:
STOP.M 229.0000:
STEP.M 0.1250:
NULL. -999.2500:
UWI. F10777:
~C
DEPT.M :
DEN.GM/CC :
GR.API :
RML.OHMM :
RI. :
RXO.OHMM :
CALI.CM :
SP.MV :
~A
# ...
   61.2500     2.2280    68.9490     5.7410     7.0330     7.1870    26.2840   -17.8280 
   61.3750     2.1760    68.2760     6.2520     7.4820     7.8480    25.8980   -18.1410 
   61.5000     2.1440    62.8880     6.7780     8.0080     8.0360    25.3430   -18.6560 
   61.6250     2.1480    57.4710     7.1900     8.4410     7.8980    24.6040   -19.2220 
   61.7500     2.2000    56.6930     7.4320     8.6780     7.8210    24.0470   -19.7120 
   61.8750     2.2700    60.0760     7.5290     8.7310     7.7090    23.7590   -20.0610 
   62.0000     2.3170    64.5460     7.5810     8.7010     7.7110    23.5890   -20.2400 
   62.1250     2.3110    66.3990     7.7430     8.7560     8.1400    23.5790   -20.2210 
   62.2500     2.2490    67.3230     8.0940     9.0040     8.9450    23.7980   -20.0680 
   62.3750     2.1780    68.4260     8.6580     9.4830     9.6960    23.8440   -19.8220 
   62.5000     2.1310    69.1660     9.3990    10.1590    10.0610    23.9790   -19.5240 
   62.6250     2.1260    67.4540    10.2080    10.9280    10.0580    24.2090   -19.2140 
   62.7500     2.1570    63.1390    10.9090    11.6120    10.1170    24.4060   -18.9350 
   62.8750     2.1920    57.9520    11.3660    12.0690    10.1690    24.4960   -18.7250 
   63.0000     2.2180    52.7250    11.4830    12.1940    10.1700    24.5000   -18.6140 
   63.1250     2.2370    51.1820    11.1630    11.8880    10.2030    24.5000   -18.6340 
   63.2500     2.2590    54.7750    10.5220    11.2630    10.1720    24.5270   -18.7680 
   63.3750     2.2820    61.6900     9.6760    10.4320     9.9080    24.5750   -19.0060 
   63.5000     2.2960    68.9750     8.7760     9.5360     9.2680    24.6530   -19.3340 
   63.6250     2.2960    74.0610     7.9840     8.7260     8.3320    24.7480   -19.7360 
   63.7500     2.2870    76.0510     7.3590     8.0590     7.9210    24.8090   -20.1690 
   63.8750     2.2810    73.4230     6.8960     7.5340     8.1000    24.7520   -20.6130 
   64.0000     2.2820    68.5160     6.5550     7.1230     8.0400    24.6870   -21.0500 
   64.1250     2.2880    66.3470     6.3250     6.8300     7.6010    24.7390   -21.4490 
   64.2500     2.2970    68.1010     6.2000     6.6550     7.0490    24.8280   -21.7820 
   64.3750     2.3120    72.7750     6.1860     6.6110     7.0380    24.8250   -22.0240 
   64.5000     2.3380    77.7190     6.2580     6.6750     6.9260    24.7940   -22.1700 
   64.6250     2.3690    79.4860     6.3250     6.7650     6.8740    24.7810   -22.2260 
   64.7500     2.3910    77.6570     6.2620     6.7420     6.9070    24.7760   -22.2350 
   64.8750     2.3930    76.2580     5.9980     6.5200     7.0150    24.7850   -22.2120 
   65.0000     2.3780    79.6740     5.5810     6.1190     7.0580    24.7940   -22.1600 
   65.1250     2.3560    86.6660     5.1670     5.6710     6.8820    24.7950   -22.0640 
   65.2500     2.3410    89.9840     4.8850     5.3220     5.6410    24.7940   -21.9320 
   65.3750     2.3300    89.0680     4.7680     5.1350     4.7500    24.7990   -21.7830 
   65.5000     2.3210    87.1160     4.7940     5.1070     5.1110    24.7910   -21.6410 
   65.6250     2.3110    86.0490     4.8990     5.1900     6.0480    24.7620   -21.5280 
   65.7500     2.3030    85.2250     4.9990     5.2850     5.8160    24.6270   -21.4390 
   65.8750     2.2970    85.5610     5.0730     5.3520     5.1420    24.5210   -21.3630 
   66.0000     2.2930    87.9530     5.1360     5.3860     4.9190    24.4800   -21.2890 
   66.1250     2.2920    88.1680     5.2080     5.3930     5.1170    24.4810   -21.2190 
   66.2500     2.2940    85.8490     5.2900     5.3860     5.2280    24.4850   -21.1610 
   66.3750     2.2980    84.1100     5.3700     5.3640     5.5570    24.4880   -21.1100 
   66.5000     2.3030    86.0890     5.4210     5.3140     5.9130    24.4890   -21.0540 
   66.6250     2.3080    89.7660     5.4250     5.2180     5.9900    24.4880   -20.9850 
   66.7500     2.3090    90.2490     5.4330     5.1160     5.7620    24.4870   -20.9120 
   66.8750     2.3060    86.4150     5.5410     5.0750     5.6600    24.4830   -20.8420 
   67.0000     2.2900    81.1960     5.8640     5.1850     5.7790    24.4750   -20.7750 
   67.1250     2.2570    77.9400     6.5790     5.5830     6.1260    24.4560   -20.6940 
   67.2500     2.2060    74.5970     7.7160     6.3040     6.7540    24.4410   -20.5720 
   67.3750     2.1510    71.2620     9.2730     7.3670     7.8040    24.4970   -20.3930 
   67.5000     2.1030    69.3720    11.1290     8.7210     8.8320    24.6990   -20.1610 
   67.6250     2.0740    66.9220    12.9900    10.2050     9.0830    25.0450   -19.9100 
   67.7500     2.0730    60.5280    14.5120    11.5310     9.0620    25.2590   -19.6990 
   67.8750     2.0910    53.1400    15.5060    12.4990     9.0850    25.2970   -19.5680 
   68.0000     2.1230    49.4230    15.9650    13.0260     9.2790    25.1940   -19.5280 
   68.1250     2.1580    50.5560    15.9420    13.0890     9.6350    24.9180   -19.5510 
   68.2500     2.1990    53.1400    15.5850    12.8220     9.7420    24.5870   -19.5840 
   68.3750     2.2430    56.7510    14.9020    12.2730     9.6950    24.4020   -19.6070 
   68.5000     2.2820    61.8330    13.9170    11.4990     9.5750    24.3570   -19.6250 
   68.6250     2.3020    67.3880    12.7330    10.5820     9.4080    24.3480   -19.6570 
   68.7500     2.2930    72.7470    11.6080     9.6900     9.2370    24.3160   -19.7020 
   68.8750     2.2670    75.5600    10.7540     8.9630     9.1960    24.2700   -19.7440 
   69.0000     2.2360    74.6670    10.3210     8.5120     9.0940    24.2430   -19.7650 
   69.1250     2.2100    72.4850    10.4700     8.4760     8.6050    24.2260   -19.7400 
   69.2500     2.1910    70.2260    11.1130     8.8220     8.5140    24.1980   -19.6600 
   69.3750     2.1720    66.5140    12.1610     9.5180     9.1900    24.1640   -19.5090 
   69.5000     2.1550    60.6170    13.4470    10.4660     9.6460    24.1360   -19.2790 
   69.6250     2.1400    55.0890    14.7040    11.4960     9.6890    24.2100   -18.9730 
   69.7500     2.1310    52.5840    15.6830    12.3890     9.6150    24.4120   -18.6470 
   69.8750     2.1240    52.5520    16.2530    12.9990     9.6960    24.6250   -18.3530 
   70.0000     2.1260    54.3530    16.4090    13.2760     9.6580    24.5200   -18.1380 
   70.1250     2.1390    55.8690    16.2390    13.2470     9.5670    24.4200   -18.0500 
   70.2500     2.1610    56.5510    15.9580    13.0840     9.5560    24.3930   -18.0690 
   70.3750     2.1780    57.8580    15.6660    12.8700     9.4490    24.3840   -18.1820 
   70.5000     2.1800    59.4010    15.4280    12.6630     9.3790    24.3660   -18.3730 
   70.6250     2.1670    61.1390    15.2920    12.5100     9.3600    24.3690   -18.6170 
   70.7500     2.1540    62.2260    15.2510    12.4220     9.4130    24.3920   -18.8580 
   70.8750     2.1490    60.9900    15.3060    12.4040     9.4180    24.4250   -19.0520 
   71.0000     2.1460    57.8120    15.4720    12.4730     9.2750    24.4550   -19.1730 
   71.1250     2.1350    54.2450    15.7880    12.6710     9.0560    24.4730   -19.2290 
   71.2500     2.1170    52.4570    16.2140    12.9800     8.8950    24.4690   -19.2820 
   71.3750     2.1080    52.5390    16.6660    13.3540     8.9480    24.4400   -19.3670 
   71.5000     2.1180    53.6600    17.0100    13.7050     9.6130    24.3980   -19.4940 
   71.6250     2.1440    55.2800    17.0470    13.8690    10.8030    24.3300   -19.6490 
   71.7500     2.1680    57.2590    16.7410    13.7700    11.1300    24.2480   -19.8090 
   71.8750     2.1770    58.7400    16.1360    13.4060    10.4500    24.1920   -19.9650 
   72.0000     2.1740    57.6990    15.3620    12.8640     9.8120    24.1610   -20.1130 
   72.1250     2.1700    57.3110    14.6040    12.2810     9.8180    24.1100   -20.2500 
   72.2500     2.1730    60.6330    13.9940    11.7790    10.1430    24.0300   -20.3720 
   72.3750     2.1830    63.4830    13.5840    11.4110    10.3090    23.9850   -20.4860 
