~V
VERS. 2.00: Ver 2.00
~W
STRT.M 45.0000:
STOP.M 272.0000:
STEP.M 0.1250:
NULL. -999.2500:
UWI. F10774:
~C
DEPT.M :
DEN.GM/CC :
SP.MV :
GR.API :
RML.OHMM :
RI. :
RXO.OHMM :
CALI.CM :
~A
# ...
  135.0000     2.1910   -25.8830    59.9490    13.1890    11.3230     7.1580    24.7660 
  135.1250     2.1970   -25.8920    61.5850    13.2030    11.3850     7.0950    24.8190 
  135.2500     2.1940   -25.8570    65.7370    13.4570    11.5740     7.1560    24.9310 
  135.3750     2.1910   -25.7650    68.0920    13.9620    11.9270     7.4810    25.0400 
  135.5000     2.1940   -25.6170    67.6910    14.5780    12.3700     8.2210    25.0740 
  135.6250     2.1990   -25.4260    66.8380    15.0090    12.7050     8.7830    24.9970 
  135.7500     2.1970   -25.2410    66.4710    14.9200    12.6860     8.2940    24.8780 
  135.8750     2.1910   -25.0970    66.1610    14.3460    12.3060     7.0280    24.8230 
  136.0000     2.1840   -24.9880    66.6170    13.5390    11.7220     6.4020    24.8240 
  136.1250     2.1810   -24.8840    68.4270    12.8620    11.1790     6.3380    24.8380 
  136.2500     2.1720   -24.7560    70.3160    12.6650    10.9370     6.3890    24.7990 
  136.3750     2.1580   -24.5870    70.7340    13.0460    11.1090     6.4170    24.6730 
  136.5000     2.1470   -24.3700    68.6760    13.9990    11.7300     6.5200    24.4760 
  136.6250     2.1400   -24.0960    64.5780    15.4170    12.7600     7.0060    24.3440 
  136.7500     2.1360   -23.7400    61.4100    17.0900    14.0860     8.1360    24.4210 
  136.8750     2.1400   -23.3140    61.1620    18.6480    15.4250     9.3000    24.6080 
  137.0000     2.1570   -22.8250    61.9160    19.7540    16.4920     9.4890    24.7480 
  137.1250     2.1780   -22.3070    61.0620    20.1880    17.0410     8.5270    24.7950 
  137.2500     2.1830   -21.7840    59.5570    19.9900    17.0120     7.7970    24.8020 
  137.3750     2.1700   -21.2700    60.3030    19.6020    16.7240     7.5490    24.8170 
  137.5000     2.1540   -20.7650    62.4400    19.3740    16.4660     7.5170    24.8400 
  137.6250     2.1470   -20.2640    61.6760    19.5590    16.4680     7.5770    24.8660 
  137.7500     2.1440   -19.7440    56.7900    20.2790    16.8700     7.8860    24.8920 
  137.8750     2.1360   -19.2080    52.9880    21.4070    17.6210     8.4860    24.9220 
  138.0000     2.1260   -18.6740    53.2160    22.8100    18.6540     9.1910    24.9420 
  138.1250     2.1200   -18.1370    56.5260    24.3050    19.8600     9.9420    24.9480 
  138.2500     2.1190   -17.6170    59.5460    25.6810    21.0900    11.0750    24.9490 
  138.3750     2.1260   -17.1370    60.3980    26.8590    22.2150    12.9770    24.9490 
  138.5000     2.1420   -16.7140    58.4720    27.9600    23.2580    15.0970    24.9470 
  138.6250     2.1630   -16.3570    54.1770    29.2700    24.3960    16.2480    24.9450 
  138.7500     2.1900   -16.0590    49.0440    31.0840    25.8660    17.0910    24.9440 
  138.8750     2.2360   -15.7910    44.4610    33.3390    27.6880    18.9830    24.9440 
  139.0000     2.3070   -15.5240    42.4480    35.7110    29.6830    23.7240    24.9450 
  139.1250     2.3800   -15.2680    43.0760    37.5430    31.3870    32.4660    24.9470 
  139.2500     2.3950   -15.0420    45.4010    37.9440    32.0820    38.1190    24.9510 
  139.3750     2.3350   -14.8530    48.5110    36.7690    31.5000    30.4400    24.9720 
  139.5000     2.2540   -14.7120    51.2480    34.5200    29.9030    23.8120    25.0240 
  139.6250     2.2120   -14.6340    51.6790    32.1640    28.0050    22.9830    25.0860 
  139.7500     2.2160   -14.6400    49.3140    30.6290    26.5760    23.8980    25.1050 
  139.8750     2.2190   -14.7130    47.3380    30.1480    25.9350    21.7680    25.1220 
  140.0000     2.1940   -14.8270    46.9640    30.5810    26.0690    17.5360    25.1370 
  140.1250     2.1560   -14.9550    48.1410    31.5420    26.7600    14.9890    25.1000 
  140.2500     2.1410   -15.0840    50.8390    32.5120    27.6640    14.5680    24.9740 
  140.3750     2.1520   -15.2080    52.1690    33.0280    28.3840    15.6750    24.8570 
  140.5000     2.1730   -15.3170    49.9170    32.8810    28.6750    16.9810    24.7480 
  140.6250     2.1870   -15.4060    46.7390    32.0860    28.4370    17.6910    24.6340 
  140.7500     2.1920   -15.4640    46.7360    30.9010    27.7670    17.3680    24.6410 
  140.8750     2.1890   -15.5120    47.8590    29.8270    27.0260    15.9040    24.8000 
  141.0000     2.1760   -15.5960    47.3010    29.1830    26.4720    14.3320    24.9570 
  141.1250     2.1590   -15.7290    46.1590    29.0940    26.2340    13.4400    25.0160 
  141.2500     2.1520   -15.8840    47.2860    29.4260    26.2580    13.4870    25.0200 
  141.3750     2.1540   -16.0440    50.1950    29.6950    26.2390    14.6310    25.0440 
  141.5000     2.1600   -16.1990    53.0990    29.4260    25.8460    16.0610    25.0980 
  141.6250     2.1670   -16.3540    53.4380    28.3320    24.8530    15.5590    25.1520 
  141.7500     2.1770   -16.5180    50.2810    26.5900    23.3660    12.7530    25.1570 
  141.8750     2.1880   -16.6860    47.5980    24.9550    21.9320    10.0690    25.0930 
  142.0000     2.1880   -16.8320    47.2680    24.0450    21.0260     8.6220    24.9990 
  142.1250     2.1780   -16.9660    47.4830    24.2940    21.0110     8.6370    24.9060 
  142.2500     2.1750   -17.1100    46.4730    25.8910    22.1140     9.8620    24.8320 
  142.3750     2.1780   -17.2490    45.7590    28.3420    24.0420    11.7650    24.7610 
  142.5000     2.1670   -17.3670    46.6990    30.9630    26.3180    13.8680    24.6980 
  142.6250     2.1430   -17.4610    48.2810    32.7150    28.0680    15.2140    24.6630 
  142.7500     2.1330   -17.5470    49.2460    32.4400    28.1870    14.6010    24.6560 
  142.8750     2.1470   -17.6460    50.0810    30.1730    26.5180    12.9230    24.6720 
  143.0000     2.1740   -17.7770    52.9100    26.6950    23.6580    11.1540    24.7000 
  143.1250     2.2030   -17.9350    58.3060    23.2040    20.6280     9.8620    24.7180 
  143.2500     2.2260   -18.1010    63.0770    20.7740    18.3400     8.8330    24.7230 
  143.3750     2.2340   -18.2570    63.4020    19.7220    17.0920     7.9410    24.7170 
  143.5000     2.2180   -18.3740    60.1310    20.0430    16.9250     7.9700    24.6940 
  143.6250     2.1890   -18.4160    57.0240    21.4800    17.7320     8.9330    24.6520 
  143.7500     2.1550   -18.3490    55.9100    23.5170    19.2370     9.6870    24.6250 
  143.8750     2.1260   -18.1890    54.8310    25.3080    20.7970    10.3730    24.6280 
  144.0000     2.1060   -17.9690    51.8040    26.2300    21.8500    10.6850    24.6440 
  144.1250     2.0990   -17.7060    48.5370    26.0390    22.0430     9.9680    24.6520 
  144.2500     2.1020   -17.4310    49.6270    25.0440    21.4630     8.6080    24.6530 
  144.3750     2.1070   -17.1710    53.9410    24.0250    20.7050     7.8830    24.6380 
  144.5000     2.1100   -16.9630    57.0620    23.4150    20.1450     7.6930    24.5820 
  144.6250     2.1140   -16.8170    56.7870    23.3690    19.9610     7.8520    24.4800 
  144.7500     2.1180   -16.7480    55.6550    23.8320    20.1630     8.2400    24.3850 
  144.8750     2.1190   -16.7280    56.6820    24.4930    20.5510     8.5640    24.3840 
  145.0000     2.1190   -16.7370    58.2590    25.1080    20.9420     8.5860    24.3990 
  145.1250     2.1190   -16.7560    58.1650    25.4950    21.1880     8.4120    24.3790 
  145.2500     2.1250   -16.7650    56.0380    25.5730    21.2170     8.2590    24.3320 
  145.3750     2.1380   -16.7770    54.1530    25.4410    21.0970     8.1830    24.3120 
  145.5000     2.1530   -16.7890    53.1270    25.1910    20.9040     8.1120    24.3090 
  145.6250     2.1610   -16.8320    52.4980    24.9060    20.7100     8.0900    24.2900 
  145.7500     2.1550   -16.9240    51.3340    24.6800    20.6000     8.1660    24.2800 
  145.8750     2.1430   -17.0590    50.0210    24.6750    20.6860     8.3100    24.3520 
  146.0000     2.1340   -17.2290    49.4290    25.1220    21.1430     8.6190    24.4830 
  146.1250     2.1330   -17.4380    49.9570    26.2490    22.1790     9.2690    24.5880 
