~V
VERS. 2.00: Ver 2.00
~W
STRT.M 59.0000:
STOP.M 248.0000:
STEP.M 0.1250:
NULL. -999.2500:
UWI. F10727:
~C
DEPT.M :
GR.API :
RML.OHMM :
RI. :
RXO.OHMM :
CALI.CM :
SP.MV :
DEN.GM/CC :
~A
   59.0000    52.0210     0.1090     0.0380     2.8690    25.1550    23.2210     2.1680 
   59.1250    44.6810     0.0810     0.0260     2.8340    25.5360    20.0030     2.2150 
   59.2500    37.7520     0.0690     0.0410     2.5920    26.6090    16.1380     2.2450 
   59.3750    37.2860     0.0780     0.0950     2.2930    28.7250    11.7790     2.2460 
   59.5000    41.7470     0.1210     0.2170     2.1220    31.8690     7.2310     2.2180 
   59.6250    44.4570     0.2690     0.4990     2.5300    33.0140     2.9670     2.1770 
   59.7500    43.9660     0.6150     1.0410     3.6270    32.3230    -0.7730     2.1470 
   59.8750    43.8420     1.3020     1.9940     5.1830    28.5060    -3.8030     2.1420 
   60.0000    45.6570     2.4670     3.4810     6.5310    25.6110    -6.1650     2.1640 
   60.1250    48.9520     4.0670     5.4220     7.0460    25.1040    -8.0560     2.1990 
   60.2500    53.7270     5.6000     7.3060     7.2940    25.0050    -9.6280     2.2260 
   60.3750    58.1600     6.7420     8.8170     7.4040    24.9700   -10.9610     2.2310 
   60.5000    59.6170     7.4870     9.9130     7.4800    24.9750   -12.1570     2.2160 
   60.6250    58.2190     7.9810    10.6490     7.5340    25.0200   -13.1880     2.1910 
   60.7500    57.0920     8.4210    11.1750     7.5100    25.0230   -14.1090     2.1700 
   60.8750    56.1840     8.8870    11.5640     7.4690    25.0320   -14.9980     2.1560 
   61.0000    53.8800     9.3840    11.9030     7.5070    24.9700   -15.8230     2.1450 
   61.1250    50.9370     9.8300    12.2490     7.6290    24.9590   -16.5580     2.1350 
   61.2500    49.1800    10.0890    12.5400     7.7600    24.9560   -17.2970     2.1270 
   61.3750    49.3480    10.0110    12.5950     7.8630    24.9560   -17.9800     2.1230 
   61.5000    50.6120     9.4980    12.2050     7.9050    24.9560   -18.5560     2.1270 
   61.6250    53.9290     8.5470    11.2080     7.8600    24.9720   -19.0880     2.1430 
   61.7500    59.5570     7.4490     9.8790     7.5650    25.0760   -19.5810     2.1700 
   61.8750    64.7270     6.4400     8.5140     6.8530    25.4170   -19.9910     2.2040 
   62.0000    67.5740     5.6660     7.3680     5.9350    25.7850   -20.3430     2.2380 
   62.1250    67.5880     5.1790     6.6340     5.4930    25.8850   -20.6420     2.2630 
   62.2500    68.3310     4.9100     6.2530     5.4870    25.8810   -20.9070     2.2740 
   62.3750    70.6860     4.8600     6.1690     5.6450    25.7450   -21.1810     2.2730 
   62.5000    72.9520     5.0540     6.3190     6.1310    25.3880   -21.4770     2.2640 
   62.6250    72.4690     5.5670     6.6640     6.5800    25.1280   -21.7630     2.2540 
   62.7500    69.1240     6.3070     7.1310     6.5760    25.0600   -22.0340     2.2450 
   62.8750    64.8020     7.1580     7.7120     6.4140    25.0110   -22.3280     2.2350 
   63.0000    62.0830     7.9820     8.3870     6.8560    24.8260   -22.6470     2.2240 
   63.1250    60.8080     8.6250     9.0620     7.8560    24.5120   -23.0020     2.2090 
   63.2500    58.9640     9.0620     9.5870     8.2320    24.3410   -23.3540     2.1910 
   63.3750    56.2130     9.3410     9.8650     8.2770    24.2690   -23.6510     2.1720 
   63.5000    55.1100     9.6020     9.9320     8.2550    24.2450   -23.9030     2.1560 
   63.6250    55.9040    10.1470    10.0640     8.3480    24.1650   -24.1540     2.1490 
   63.7500    56.8590    11.2120    10.6150     8.6530    24.1230   -24.4360     2.1530 
   63.8750    56.5680    12.9440    11.7900     9.4750    24.1550   -24.7180     2.1680 
   64.0000    54.1780    15.2610    13.5820    11.5800    24.1690   -24.9880     2.1940 
   64.1250    51.5130    17.5480    15.5850    17.7980    24.3760   -25.2280     2.2300 
   64.2500    50.0770    18.6550    16.8340    26.7020    24.4860   -25.4450     2.2690 
   64.3750    50.3130    17.8500    16.5760    25.9560    24.4470   -25.6330     2.3000 
   64.5000    51.3560    15.5600    14.9020    15.5250    24.3670   -25.7920     2.3080 
   64.6250    52.4630    13.0690    12.7320    10.3830    24.3530   -25.9150     2.2760 
   64.7500    52.7500    11.2650    10.9630     8.7200    24.3500   -25.9890     2.2210 
   64.8750    52.6510    10.3000     9.8370     8.3480    24.3500   -26.0130     2.1600 
   65.0000    52.7120    10.0700     9.3430     8.3760    24.3500   -25.9920     2.1140 
   65.1250    51.9380    10.4320     9.4260     8.4460    24.3500   -25.9040     2.0960 
   65.2500    50.0390    11.0690     9.8340     8.5200    24.3590   -25.7530     2.1010 
   65.3750    50.1770    11.7980    10.4150     8.6410    24.4160   -25.5650     2.1280 
   65.5000    53.1640    12.4370    11.0100     9.0730    24.7420   -25.3250     2.1740 
   65.6250    54.4230    12.7420    11.3960    10.0090    25.1880   -25.0270     2.2340 
   65.7500    53.0340    12.6430    11.4460    10.4390    25.1920   -24.7350     2.2900 
   65.8750    50.0680    12.1660    11.1460     9.2630    24.5950   -24.4660     2.3220 
   66.0000    48.1620    11.4700    10.6120     8.2850    24.3100   -24.2000     2.3170 
   66.1250    49.8090    10.7700    10.0270     8.1340    24.2610   -23.9770     2.2740 
   66.2500    53.0950    10.1960     9.5420     8.2860    24.2440   -23.8240     2.2190 
   66.3750    54.9470     9.7790     9.2010     8.3090    24.1710   -23.7310     2.1730 
   66.5000    54.6750     9.4980     8.9780     8.2640    24.0340   -23.7160     2.1470 
   66.6250    55.2660     9.3310     8.8180     8.4040    23.9030   -23.7510     2.1410 
   66.7500    57.0190     9.2470     8.6820     8.4510    23.8030   -23.7520     2.1410 
   66.8750    59.4130     9.2270     8.5870     8.2380    23.7680   -23.7260     2.1390 
   67.0000    61.6410     9.2200     8.5430     8.0020    23.7600   -23.7030     2.1300 
   67.1250    61.8480     9.1300     8.5040     7.9890    23.7870   -23.6810     2.1140 
   67.2500    61.0030     8.9220     8.3940     8.0590    23.8850   -23.6010     2.0960 
   67.3750    61.0070     8.6040     8.1700     7.9260    24.0320   -23.4530     2.0840 
   67.5000    62.2650     8.2120     7.8330     7.4170    24.4350   -23.2620     2.0890 
   67.6250    63.5830     7.7890     7.4100     6.6460    25.0850   -23.0490     2.1200 
   67.7500    64.9850     7.3700     6.9660     6.2280    25.5100   -22.8370     2.1660 
   67.8750    68.4410     6.9680     6.5320     6.1200    25.2900   -22.6330     2.2130 
   68.0000    75.2880     6.5860     6.1140     6.2050    24.9020   -22.4850     2.2470 
   68.1250    83.4870     6.2450     5.7250     5.7130    25.3300   -22.4240     2.2610 
   68.2500    87.4510     5.9940     5.4070     5.5280    25.6580   -22.4600     2.2640 
   68.3750    86.2230     5.9160     5.2320     5.4550    25.7750   -22.6330     2.2610 
   68.5000    84.4190     6.0910     5.2740     5.5430    25.7490   -22.9350     2.2510 
   68.6250    82.7750     6.6210     5.6400     6.0120    25.3850   -23.3350     2.2310 
   68.7500    76.1810     7.4180     6.2750     6.7900    24.7200   -23.7800     2.2040 
   68.8750    65.5040     8.3290     7.0720     7.4750    24.3520   -24.2480     2.1770 
   69.0000    57.9640     9.1150     7.8410     8.0190    24.3100   -24.7280     2.1550 
   69.1250    58.2080     9.5080     8.3270     8.2890    24.3500   -25.1820     2.1440 
   69.2500    60.7570     9.5360     8.4820     8.2690    24.3980   -25.5540     2.1410 
   69.3750    61.4470     9.3440     8.3780     8.1340    24.4880   -25.8260     2.1430 
   69.5000    60.4440     9.1330     8.1560     8.0070    24.5220   -26.0140     2.1480 
   69.6250    58.3730     9.0520     7.9590     8.1190    24.5300   -26.1560     2.1530 
   69.7500    56.9370     9.0810     7.8550     8.2620    24.5550   -26.2670     2.1570 
   69.8750    57.1440     9.1790     7.8520     8.2010    24.6350   -26.3370     2.1630 
   70.0000    59.9610     9.3110     7.9290     7.9530    24.6920   -26.3610     2.1690 
   70.1250    63.1850     9.4710     8.0550     7.8440    24.7110   -26.3190     2.1790 
