~V
VERS. 2.00: Ver 2.00
~W
STRT.M 50.0000:
STOP.M 240.0000:
STEP.M 0.1250:
NULL. -999.2500:
UWI. F10736:
~C
DEPT.M :
DEN.GM/CC :
GR.API :
RML.OHMM :
RI. :
RXO.OHMM :
CALI.CM :
SP.MV :
~A
# ...
  106.2500     2.3310    49.7560    30.7060    29.1760    45.5200    25.3190   -10.5920 
  106.3750     2.2240    47.8030    26.6050    24.9550    28.6840    25.2920   -10.5320 
  106.5000     2.1460    45.4050    23.5730    21.6750    16.3240    25.2920   -10.4640 
  106.6250     2.1090    45.0810    21.9020    19.6800    12.7160    25.3180   -10.3870 
  106.7500     2.1100    46.0470    21.1760    18.6390    12.3040    25.3420   -10.3100 
  106.8750     2.1250    46.2950    21.0750    18.3140    12.9800    25.3510   -10.2460 
  107.0000     2.1360    45.1620    21.2470    18.4220    13.5980    25.3530   -10.2060 
  107.1250     2.1310    44.0750    21.3460    18.6780    13.8140    25.3540   -10.1980 
  107.2500     2.1140    42.8120    21.2070    18.8540    13.7070    25.3530   -10.2040 
  107.3750     2.0960    41.2240    20.8250    18.8870    13.6760    25.3510   -10.2140 
  107.5000     2.0850    41.3150    20.2860    18.7980    13.7770    25.3490   -10.2190 
  107.6250     2.0840    44.0390    19.7600    18.6840    14.1450    25.3490   -10.2300 
  107.7500     2.0890    46.5320    19.4390    18.6760    14.7780    25.3490   -10.2620 
  107.8750     2.0930    46.2980    19.4770    18.8860    15.3510    25.3490   -10.3220 
  108.0000     2.0990    44.0500    19.9700    19.4070    15.6240    25.3490   -10.4000 
  108.1250     2.1160    43.3920    20.8870    20.2720    15.2520    25.3510   -10.4830 
  108.2500     2.1470    44.6160    21.7080    21.1020    14.5800    25.3490   -10.5650 
  108.3750     2.1800    45.6540    21.7030    21.2450    14.1890    25.3340   -10.6550 
  108.5000     2.2130    45.7400    20.1810    19.9880    14.5740    25.3050   -10.7580 
  108.6250     2.2480    47.1810    16.9140    17.0210    14.8200    25.3150   -10.8790 
  108.7500     2.2860    51.8600    13.1490    13.5110    13.0070    25.3760   -11.0100 
  108.8750     2.3140    59.0930     9.9100    10.4150     9.3090    25.4830   -11.1520 
  109.0000     2.3180    66.0050     7.7330     8.2150     6.3630    25.5870   -11.3020 
  109.1250     2.3020    69.5760     6.8580     7.1260     5.2390    25.6220   -11.4470 
  109.2500     2.2880    69.7090     6.9870     6.9090     5.3520    25.5330   -11.5640 
  109.3750     2.2930    67.5350     8.0500     7.5320     6.4070    25.3680   -11.6480 
  109.5000     2.3170    63.5740     9.9760     8.9980     8.2070    25.2380   -11.7120 
  109.6250     2.3470    57.5630    12.6290    11.3240     9.7270    25.2130   -11.7630 
  109.7500     2.3810    51.3350    15.3410    13.9740    12.1070    25.2770   -11.7960 
  109.8750     2.4070    47.5030    17.3920    16.2600    17.2210    25.3350   -11.8110 
  110.0000     2.3900    48.2930    18.2750    17.5470    24.0130    25.2980   -11.8030 
  110.1250     2.3030    50.3030    18.0580    17.6690    21.7660    25.1800   -11.7580 
  110.2500     2.1850    48.9060    17.6550    17.4040    15.3130    25.1010   -11.6770 
  110.3750     2.1240    46.7070    17.5970    17.2630    12.4520    25.1060   -11.5730 
  110.5000     2.1440    47.7920    18.0530    17.4630    12.7000    25.1780   -11.4670 
  110.6250     2.2150    48.8060    18.8760    17.9570    14.9620    25.2690   -11.3850 
  110.7500     2.2810    47.4600    19.5630    18.3730    17.2570    25.3420   -11.3320 
  110.8750     2.3030    46.1540    19.7400    18.3970    15.5170    25.3660   -11.3030 
  111.0000     2.2850    45.9990    19.3240    17.9410    12.8980    25.3220   -11.2850 
  111.1250     2.2510    46.3460    18.5460    17.1720    11.4080    25.2390   -11.2700 
  111.2500     2.2160    46.8120    17.8680    16.4640    11.0470    25.1800   -11.2550 
  111.3750     2.1830    47.9730    17.6060    16.0850    10.9290    25.1470   -11.2380 
  111.5000     2.1640    48.0360    17.9700    16.2400    11.0520    25.1430   -11.2250 
  111.6250     2.1620    47.3540    19.1550    17.1490    11.4760    25.1640   -11.2220 
  111.7500     2.1610    46.8980    20.9430    18.6730    12.6100    25.1940   -11.2320 
  111.8750     2.1530    45.6710    23.0710    20.6390    16.0630    25.2080   -11.2560 
  112.0000     2.1530    43.9260    25.0860    22.6980    22.6940    25.2030   -11.2800 
  112.1250     2.1620    41.6640    26.2710    24.2040    28.0900    25.1810   -11.2860 
  112.2500     2.1690    38.8630    26.5200    24.8700    21.9100    25.1510   -11.2830 
  112.3750     2.1720    38.1440    26.2820    24.9230    17.6690    25.1380   -11.2890 
  112.5000     2.1840    40.8310    26.3320    24.9900    16.5060    25.1360   -11.3180 
  112.6250     2.2180    43.4040    27.3280    25.7500    16.7830    25.1360   -11.3740 
  112.7500     2.2760    42.3770    28.7770    26.9810    17.8690    25.1360   -11.4540 
  112.8750     2.3590    39.9200    29.5520    27.7760    21.5660    25.1440   -11.5570 
  113.0000     2.4580    40.0850    28.3100    26.8690    31.3240    25.1730   -11.6790 
  113.1250     2.5400    44.3060    24.3310    23.4070    41.8260    25.2330   -11.8260 
  113.2500     2.5430    50.4980    19.3780    18.8980    30.2700    25.2610   -12.0030 
  113.3750     2.4720    55.6710    14.9390    14.7120    14.5400    25.2370   -12.2030 
  113.5000     2.3770    56.7910    11.7270    11.5420     8.6980    25.1740   -12.4060 
  113.6250     2.3030    56.3980     9.9490     9.6180     7.4080    25.1470   -12.5780 
  113.7500     2.2630    58.8020     9.1300     8.5660     6.9260    25.1500   -12.7070 
  113.8750     2.2550    62.8640     9.0090     8.1940     6.4160    25.1770   -12.7930 
  114.0000     2.2750    64.1740     9.3360     8.3030     6.3460    25.1970   -12.8470 
  114.1250     2.3070    61.2930     9.9000     8.7220     6.8750    25.1820   -12.8580 
  114.2500     2.3240    59.9370    10.4790     9.2260     7.1640    25.1100   -12.8190 
  114.3750     2.3230    61.7520    10.9470     9.6880     7.1440    24.9910   -12.7310 
  114.5000     2.3170    63.0450    11.2170    10.0120     7.2660    24.9010   -12.6210 
  114.6250     2.3240    59.9350    11.2560    10.1320     7.6140    24.9450   -12.5350 
  114.7500     2.3500    56.6150    11.1620    10.0970     7.8570    25.0870   -12.4840 
  114.8750     2.3700    56.9560    10.9840     9.9300     7.8840    25.2090   -12.4490 
  115.0000     2.3660    60.6720    10.7430     9.6470     7.7740    25.2430   -12.4020 
  115.1250     2.3430    65.7690    10.4270     9.2590     7.8610    25.2450   -12.3320 
  115.2500     2.3250    67.9440    10.0490     8.8240     7.5940    25.2920   -12.2590 
  115.3750     2.3190    65.5990     9.6440     8.3900     6.8550    25.3480   -12.1970 
  115.5000     2.3220    60.7990     9.2830     8.0170     6.4200    25.3740   -12.1410 
  115.6250     2.3310    60.0940     9.0590     7.7660     6.4550    25.4230   -12.0810 
  115.7500     2.3480    63.8420     8.9530     7.6130     6.5850    25.5230   -12.0180 
  115.8750     2.3700    67.4960     8.9010     7.5150     6.4960    25.6260   -11.9520 
  116.0000     2.3910    69.2200     8.8000     7.4020     6.5060    25.6860   -11.8860 
  116.1250     2.4070    71.8680     8.5220     7.1820     6.8130    25.6900   -11.8290 
  116.2500     2.3990    74.6730     8.0760     6.8480     6.5380    25.6750   -11.7820 
  116.3750     2.3690    76.4120     7.5330     6.4440     5.6500    25.6610   -11.7360 
  116.5000     2.3360    76.0620     6.9860     6.0310     5.1670    25.6530   -11.6820 
  116.6250     2.3160    74.7710     6.5510     5.6840     5.0370    25.6480   -11.6170 
  116.7500     2.3130    73.4930     6.3220     5.4670     4.9540    25.6480   -11.5440 
  116.8750     2.3180    73.7660     6.3870     5.4420     4.9240    25.6390   -11.4700 
  117.0000     2.3310    76.1750     6.7780     5.6430     4.8320    25.5940   -11.4060 
  117.1250     2.3500    75.2820     7.4620     6.0730     5.1480    25.4490   -11.3670 
  117.2500     2.3620    70.9050     8.1870     6.5770     5.8960    25.2320   -11.3480 
  117.3750     2.3670    69.7210     8.6750     6.9690     6.7770    25.0110   -11.3330 
