~V
VERS. 2.00: Ver 2.00
~W
STRT.M 50.0000:
STOP.M 240.0000:
STEP.M 0.1250:
NULL. -999.2500:
UWI. F10736:
~C
DEPT.M :
DEN.GM/CC :
GR.API :
RML.OHMM :
RI. :
RXO.OHMM :
CALI.CM :
SP.MV :
~A
# ...
   95.0000     2.3200    58.0120     8.3500     7.7430     6.0320    25.1370    -9.5240 
   95.1250     2.3280    56.3450     7.7880     7.0010     6.1350    25.1500    -9.6450 
   95.2500     2.3230    58.3440     7.6990     6.6840     6.2980    25.1750    -9.7880 
   95.3750     2.3120    63.1400     8.0510     6.7630     6.1530    25.1920    -9.9500 
   95.5000     2.2940    66.7530     8.8520     7.2340     5.8850    25.1740   -10.1260 
   95.6250     2.2620    64.4640    10.1900     8.1700     6.4180    25.1240   -10.3000 
   95.7500     2.2140    57.3430    11.9280     9.4800     7.2470    25.0830   -10.4560 
   95.8750     2.1640    49.6660    13.8810    11.0580     8.3210    25.0680   -10.5950 
   96.0000     2.1260    45.5490    15.7220    12.6830     9.3190    25.0590   -10.7250 
   96.1250     2.1060    46.0490    16.9930    13.9790     9.4530    25.0370   -10.8610 
   96.2500     2.1100    47.1680    17.6590    14.7980     9.1140    25.0100   -10.9930 
   96.3750     2.1270    46.9030    17.9000    15.1880     8.8770    24.9990   -11.0970 
   96.5000     2.1480    45.9020    17.9110    15.2720     9.0770    24.9980   -11.1430 
   96.6250     2.1620    47.1290    17.6550    15.0420     9.3100    24.9980   -11.1100 
   96.7500     2.1670    50.7710    16.9920    14.4680     9.1740    24.9990   -11.0320 
   96.8750     2.1730    54.1930    15.8060    13.4970     8.8560    25.0130   -10.9430 
   97.0000     2.1850    55.2280    14.2120    12.2190     8.5260    25.0570   -10.8850 
   97.1250     2.1990    55.1130    12.6300    10.9130     8.0310    25.1470   -10.9130 
   97.2500     2.2140    57.3000    11.4640     9.8670     7.4220    25.2280   -11.0290 
   97.3750     2.2280    62.0640    10.8190     9.1830     7.0000    25.2640   -11.2230 
   97.5000     2.2430    65.5290    10.5720     8.8130     6.7830    25.2390   -11.4700 
   97.6250     2.2550    64.2520    10.4690     8.6270     6.8820    25.1590   -11.7510 
   97.7500     2.2660    62.5350    10.2290     8.4290     7.1690    25.1040   -12.0270 
   97.8750     2.2830    64.5490     9.7660     8.1350     6.9850    25.1240   -12.2660 
   98.0000     2.3040    67.9980     9.1870     7.7670     6.0530    25.2200   -12.4400 
   98.1250     2.3220    67.9330     8.7460     7.4450     5.6420    25.2780   -12.5280 
   98.2500     2.3250    66.0870     8.5430     7.2390     5.7380    25.2320   -12.5660 
   98.3750     2.3150    66.4140     8.5100     7.1320     6.0100    25.1550   -12.5940 
   98.5000     2.2980    70.3480     8.4910     7.0500     6.1030    25.1280   -12.6340 
   98.6250     2.2800    76.7110     8.3050     6.8970     6.0450    25.1350   -12.6690 
   98.7500     2.2690    80.7340     7.9670     6.6610     5.7920    25.1530   -12.6730 
   98.8750     2.2710    80.9860     7.6230     6.4100     5.2960    25.1820   -12.6430 
   99.0000     2.2840    77.5270     7.4480     6.2420     5.0900    25.1880   -12.5990 
   99.1250     2.2940    71.3750     7.5500     6.2380     5.3580    25.1450   -12.5730 
   99.2500     2.2790    66.8740     7.8480     6.3730     5.8390    25.0920   -12.5720 
   99.3750     2.2410    66.3860     8.3090     6.6420     6.1900    25.0700   -12.5860 
   99.5000     2.2020    68.0640     8.9140     7.0460     6.4360    25.0670   -12.5980 
   99.6250     2.1850    67.0150     9.6200     7.5520     6.8140    25.0800   -12.5990 
   99.7500     2.2050    61.7230    10.2930     8.0510     7.7390    25.1190   -12.5950 
   99.8750     2.2430    56.7070    10.7890     8.4340    10.4910    25.1820   -12.5830 
  100.0000     2.2800    54.5880    10.9440     8.5960    15.1350    25.2440   -12.5640 
  100.1250     2.2990    56.3770    10.6190     8.4330    12.5160    25.3000   -12.5450 
  100.2500     2.2930    60.3010    10.0440     8.0720     8.3520    25.3110   -12.5370 
  100.3750     2.2800    63.5690     9.4430     7.6450     6.8830    25.2720   -12.5430 
  100.5000     2.2710    66.9220     8.9610     7.2560     6.7280    25.2500   -12.5600 
  100.6250     2.2660    72.2000     8.6870     6.9930     6.3990    25.2780   -12.5710 
  100.7500     2.2640    77.5200     8.6020     6.8750     6.3540    25.3190   -12.5690 
  100.8750     2.2630    78.2540     8.6930     6.8960     6.4830    25.3540   -12.5570 
  101.0000     2.2580    73.1980     8.9450     7.0360     6.6810    25.3590   -12.5430 
  101.1250     2.2490    67.5430     9.3380     7.2800     6.7550    25.3100   -12.5370 
  101.2500     2.2400    65.8560     9.7260     7.5510     6.9950    25.2120   -12.5410 
  101.3750     2.2290    65.6990     9.9520     7.7640     7.4560    25.1540   -12.5600 
  101.5000     2.2170    65.1120     9.9400     7.8600     7.6830    25.1510   -12.5890 
  101.6250     2.2080    65.8910     9.7750     7.8530     7.3420    25.2160   -12.6030 
  101.7500     2.2120    68.2960     9.6640     7.8440     6.7620    25.3030   -12.5850 
  101.8750     2.2200    70.4320     9.6950     7.8850     6.4980    25.3150   -12.5410 
  102.0000     2.2190    69.1870     9.8340     7.9780     6.8510    25.2260   -12.4910 
  102.1250     2.2080    66.9860     9.9440     8.0700     7.4130    25.1780   -12.4550 
  102.2500     2.1980    67.2040     9.9040     8.0970     7.4440    25.2050   -12.4320 
  102.3750     2.1960    69.2580     9.7120     8.0430     6.9320    25.2540   -12.4160 
  102.5000     2.1990    70.7700     9.4800     7.9510     6.3490    25.2460   -12.3980 
  102.6250     2.1980    68.8220     9.3770     7.9060     6.4830    25.1800   -12.3730 
  102.7500     2.1900    64.4940     9.4170     7.9360     6.8570    25.1610   -12.3370 
  102.8750     2.1930    60.7930     9.5090     8.0060     7.1700    25.2180   -12.2820 
  103.0000     2.2150    61.0100     9.5080     8.0370     7.3290    25.3620   -12.2090 
  103.1250     2.2500    64.9720     9.2430     7.9150     7.4960    25.5740   -12.1370 
  103.2500     2.2790    68.8430     8.7300     7.6230     6.9690    25.7140   -12.0810 
  103.3750     2.3010    70.7130     8.0530     7.1950     6.5010    25.7650   -12.0320 
  103.5000     2.3180    71.8880     7.3410     6.7080     6.1870    25.7640   -11.9780 
  103.6250     2.3260    73.3320     6.7790     6.2790     6.0690    25.7800   -11.9150 
  103.7500     2.3200    73.8040     6.5120     6.0220     5.5450    25.7870   -11.8520 
  103.8750     2.3010    72.5760     6.6720     6.0370     5.2560    25.7740   -11.7930 
  104.0000     2.2760    69.2670     7.3150     6.3860     5.2860    25.6980   -11.7430 
  104.1250     2.2500    62.7370     8.3900     7.0790     5.6440    25.5200   -11.7130 
  104.2500     2.2300    56.5270     9.4940     7.8700     6.4930    25.3380   -11.7090 
  104.3750     2.2240    54.9010    10.1620     8.4360     7.1240    25.2690   -11.7290 
  104.5000     2.2410    59.4590    10.0000     8.4650     7.1690    25.3260   -11.7510 
  104.6250     2.2820    66.6110     8.9180     7.8140     6.5460    25.4760   -11.7370 
  104.7500     2.3270    71.6470     7.6010     6.9090     5.8940    25.6230   -11.6760 
  104.8750     2.3580    75.1310     6.6100     6.1340     5.8970    25.7020   -11.5790 
  105.0000     2.3780    75.8420     6.3230     5.7760     5.8870    25.7260   -11.4680 
  105.1250     2.4070    70.6070     7.1730     6.1870     6.1490    25.7160   -11.3630 
  105.2500     2.4700    62.3020     9.2840     7.5490     7.4460    25.6630   -11.2680 
  105.3750     2.5520    54.8600    12.9870    10.2640    12.5310    25.5510   -11.1810 
  105.5000     2.6220    50.7100    18.5900    14.8280    25.5030    25.4590   -11.0960 
  105.6250     2.6480    46.8340    26.1130    21.7390    44.1470    25.4260   -11.0120 
  105.7500     2.6220    43.4220    33.5810    29.3800    52.3110    25.4230   -10.9240 
  105.8750     2.5750    43.3260    38.3710    35.0660    53.5090    25.4190   -10.8280 
  106.0000     2.5170    46.4850    38.7710    36.5230    54.4550    25.4030   -10.7320 
  106.1250     2.4370    49.4670    35.2430    33.5770    54.6120    25.3600   -10.6540 
