~V
VERS. 2.00: Ver 2.00
~W
STRT.M 10.0000:
STOP.M 237.0000:
STEP.M 0.1250:
NULL. -999.2500:
UWI. F10776:
~C
DEPT.M :
DEN.GM/CC :
GR.API :
RML.OHMM :
RI. :
RXO.OHMM :
CALI.CM :
SP.MV :
~A
# ...
  178.7500     2.2900    46.4970    28.8490    22.9540    25.4550    25.9840   -14.1340 
  178.8750     2.2930    45.0620    30.0830    24.0880    25.8380    25.9980   -14.3250 
  179.0000     2.2960    45.0330    31.0800    24.9770    25.8580    26.0080   -14.4870 
  179.1250     2.3020    44.9590    32.1350    25.8120    25.6580    25.9860   -14.6100 
  179.2500     2.3120    44.9700    33.4390    26.7660    25.8280    25.9150   -14.7270 
  179.3750     2.3270    44.3860    35.0020    27.8890    26.2620    25.8790   -14.8390 
  179.5000     2.3500    41.7920    36.6570    29.1060    28.6040    25.9850   -14.9360 
  179.6250     2.3770    38.3590    38.0260    30.1830    30.8290    26.0580   -15.0060 
  179.7500     2.3960    36.4520    38.8530    30.9170    31.6700    26.1080   -15.0700 
  179.8750     2.4000    36.6500    39.0630    31.2110    31.2210    26.1730   -15.1240 
  180.0000     2.3880    37.0190    38.8090    31.1210    29.5840    26.2590   -15.1660 
  180.1250     2.3700    37.2260    38.4360    30.8480    28.3860    26.4060   -15.2250 
  180.2500     2.3530    38.8150    38.2790    30.6760    28.6730    26.5000   -15.2990 
  180.3750     2.3380    42.1510    38.4620    30.7400    28.5910    26.4870   -15.3740 
  180.5000     2.3250    44.8380    39.0060    31.0940    28.7560    26.3710   -15.4270 
  180.6250     2.3160    44.2320    39.9790    31.8240    29.2060    26.2650   -15.4750 
  180.7500     2.3080    42.0270    41.3440    32.9180    29.5710    26.2260   -15.5170 
  180.8750     2.3000    40.6680    43.0810    34.3920    30.1070    26.2310   -15.5460 
  181.0000     2.2900    40.9450    45.0480    36.1780    31.5370    26.2450   -15.5770 
  181.1250     2.2800    41.5150    46.8920    38.0450    34.4780    26.2500   -15.5990 
  181.2500     2.2730    41.5300    48.2360    39.6340    35.9810    26.2390   -15.6130 
  181.3750     2.2660    42.0050    48.8350    40.6760    36.2970    26.2050   -15.6310 
  181.5000     2.2550    43.2140    48.6310    41.0390    36.1580    26.2020   -15.6540 
  181.6250     2.2460    43.1070    47.6960    40.7060    36.4740    26.1870   -15.6940 
  181.7500     2.2450    41.6990    46.4330    40.0110    35.2600    26.1810   -15.7210 
  181.8750     2.2510    41.5710    45.0560    39.1430    33.9010    26.1770   -15.7340 
  182.0000     2.2590    42.6290    43.6590    38.2010    33.1180    26.1820   -15.7320 
  182.1250     2.2600    41.8940    42.2040    37.1800    32.4030    26.2270   -15.7100 
  182.2500     2.2540    40.6640    40.5670    36.0120    32.4540    26.3210   -15.6730 
  182.3750     2.2430    41.7650    38.5860    34.5580    32.0810    26.4270   -15.6170 
  182.5000     2.2370    44.1770    36.1610    32.6900    31.0940    26.5110   -15.5590 
  182.6250     2.2400    46.3510    33.3880    30.4090    30.0820    26.5430   -15.4830 
  182.7500     2.2480    49.4210    30.7640    28.1270    28.8940    26.5540   -15.4080 
  182.8750     2.2640    52.5800    28.7960    26.2840    27.0360    26.5220   -15.3510 
  183.0000     2.2960    53.1140    27.8870    25.2670    25.3420    26.4340   -15.3130 
  183.1250     2.3400    49.5130    28.3980    25.4700    24.4970    26.3450   -15.2910 
  183.2500     2.3640    46.0430    29.9260    26.6710    27.5460    26.2690   -15.2630 
  183.3750     2.3450    44.6220    32.0300    28.5870    31.8790    26.2390   -15.2390 
  183.5000     2.2980    44.4330    34.1460    30.7680    33.1100    26.3510   -15.2190 
  183.6250     2.2630    44.3960    35.6140    32.6100    32.7690    26.5360   -15.1910 
  183.7500     2.2450    43.8900    36.2260    33.7770    30.6330    26.6720   -15.1630 
  183.8750     2.2330    44.5920    35.9500    34.1370    29.4810    26.7140   -15.1300 
  184.0000     2.2210    46.4330    34.8390    33.6560    29.8040    26.7130   -15.0890 
  184.1250     2.2100    46.7470    32.9490    32.2810    30.6530    26.7130   -15.0210 
  184.2500     2.2040    46.0920    30.7920    30.4520    30.4550    26.6540   -14.9440 
  184.3750     2.2040    46.8510    28.8860    28.6440    28.2980    26.4970   -14.8540 
  184.5000     2.2110    48.7370    27.6370    27.2860    24.3410    26.2590   -14.7570 
  184.6250     2.2260    49.1330    27.1520    26.6010    21.0270    26.0480   -14.6700 
  184.7500     2.2430    48.9690    26.8120    26.1510    21.8770    25.9700   -14.5910 
  184.8750     2.2570    50.1030    25.9550    25.3490    24.9070    26.1470   -14.5220 
  185.0000     2.2680    51.7310    24.1560    23.7200    25.6370    26.4210   -14.4560 
  185.1250     2.2790    51.2120    21.6050    21.3040    20.7370    26.3900   -14.4100 
  185.2500     2.2900    49.1390    19.3470    18.9980    16.5870    26.2250   -14.3880 
  185.3750     2.2990    47.0950    18.2390    17.5380    13.9940    26.1210   -14.3980 
  185.5000     2.3030    45.7180    18.9030    17.4550    13.1550    26.1030   -14.4540 
  185.6250     2.3000    45.0060    22.2330    19.5470    15.3000    26.1250   -14.5560 
  185.7500     2.2890    44.0820    28.2570    24.0170    21.4860    26.2050   -14.6970 
  185.8750     2.2740    43.4110    37.1180    31.1960    30.8340    26.3590   -14.8610 
  186.0000     2.2630    44.6170    48.4060    40.8490    41.7690    26.4870   -15.0560 
  186.1250     2.2600    45.5970    60.4440    51.4480    51.1240    26.4900   -15.2800 
  186.2500     2.2590    44.7290    70.3660    60.1910    53.7990    26.4430   -15.5130 
  186.3750     2.2560    42.4780    76.6230    65.5450    54.5020    26.4220   -15.7550 
  186.5000     2.2510    40.0180    79.6340    67.7910    54.6510    26.5180   -15.9700 
  186.6250     2.2520    36.9320    81.1260    68.3570    58.0710    26.7590   -16.1600 
  186.7500     2.2630    35.0190    82.8640    68.9230    62.6330    26.9000   -16.3380 
  186.8750     2.2850    35.7870    85.2380    69.9900    67.2640    27.0380   -16.5250 
  187.0000     2.3060    37.9480    87.9930    71.4830    67.4810    27.1920   -16.7180 
  187.1250     2.3010    39.4100    90.5000    73.0100    64.0790    27.3740   -16.9240 
  187.2500     2.2680    40.6580    92.3890    74.2810    60.2680    27.4990   -17.1510 
  187.3750     2.2250    42.7060    93.5430    75.2370    58.5420    27.5660   -17.3910 
  187.5000     2.1920    44.3050    93.8560    75.8170    60.0970    27.5390   -17.6680 
  187.6250     2.1850    43.0680    92.9520    75.7470    66.6140    27.3540   -17.9940 
  187.7500     2.1960    41.5080    90.8780    74.9180    73.5730    27.1160   -18.3450 
  187.8750     2.2090    40.6490    87.7170    73.2270    75.2670    27.0640   -18.7180 
  188.0000     2.2170    40.5210    83.7570    70.7070    71.5480    27.1030   -19.0950 
  188.1250     2.2430    39.9740    79.2300    67.4880    65.3540    27.1360   -19.4660 
  188.2500     2.2980    39.2060    73.7910    63.5300    62.4690    27.1850   -19.7920 
  188.3750     2.3730    39.2060    66.4090    58.0550    63.5070    27.1400   -20.0270 
  188.5000     2.4650    39.0790    56.6690    50.5580    61.5150    26.7910   -20.1480 
  188.6250     2.5830    38.9860    45.7330    41.7140    47.9590    26.2430   -20.0840 
  188.7500     2.6990    39.0530    35.7070    33.3240    35.9110    25.8640   -19.8270 
  188.8750     2.7630    39.9570    29.3930    26.2550    27.4880    25.7510   -19.3410 
  189.0000     2.7560    40.1810    23.0980    20.6470    19.2240    25.8070   -18.6390 
  189.1250     2.7080    36.9380    17.7320    16.3280    14.6750    25.8860   -17.6910 
  189.2500     2.6480    34.4610    13.3510    12.7070    14.2010    25.9940   -16.6080 
  189.3750     2.5660    36.0820     9.8440     9.6840    13.7520    26.1080   -15.4850 
  189.5000     2.4580    40.2610     7.2600     7.3210    10.5190    25.9700   -14.3830 
  189.6250     2.3430    42.7820     5.6830     5.7540     5.6940    25.0880   -13.3770 
  189.7500     2.2530    43.9760     4.7990     4.7980     4.0610    23.9420   -12.5170 
  189.8750     2.2030    44.8110     4.4460     4.3570     3.6840    23.1130   -11.8540 
