~V
VERS. 2.00: Ver 2.00
~W
STRT.M 50.0000:
STOP.M 226.0000:
STEP.M 0.1250:
NULL. -999.2500:
UWI. F10778:
~C
DEPT.M :
DEN.GM/CC :
GR.API :
RML.OHMM :
RI. :
RXO.OHMM :
CALI.CM :
SP.MV :
~A
# ...
  218.7500     2.4140    81.7790     9.7870     8.7200    11.0460    24.4460   -11.2040 
  218.8750     2.3710    81.7790     9.7270     8.7040    10.9790    24.6620   -12.1430 
  219.0000     2.3460    81.7790     9.6550     8.6090    10.3810    24.8890   -13.0480 
  219.1250     2.3340    81.7790     9.7060     8.5770    10.2320    24.9630   -13.8480 
  219.2500     2.3280    81.7790     9.8780     8.6450    10.8270    24.8860   -14.5020 
  219.3750     2.3260    81.7790    10.1290     8.7970    11.9670    24.7570   -14.9190 
  219.5000     2.3290    81.7790    10.4020     8.9940    12.2030    24.7220   -15.1440 
  219.6250     2.3370    81.7790    10.6370     9.1950    11.9820    24.7610   -15.2360 
  219.7500     2.3460    81.7790    10.8100     9.3650    11.6080    24.8240   -15.2300 
  219.8750     2.3500    81.7790    10.9110     9.4910    11.4750    24.8440   -15.0980 
  220.0000     2.3440    81.7790    10.9420     9.5650    11.3450    24.7710   -14.9110 
  220.1250     2.3320    81.7790    10.9090     9.5840    11.3090    24.7380   -14.6910 
  220.2500     2.3170    81.7790    10.8540     9.5730    11.3560    24.8350   -14.4990 
  220.3750     2.3020    81.7790    10.8150     9.5610    11.4890    24.9850   -14.3750 
  220.5000     2.2990    81.7790    10.8270     9.5780    11.7690    25.0510   -14.2230 
  220.6250     2.3110    81.7790    10.8840     9.6300    11.5220    24.9920   -14.0520 
  220.7500     2.3350    81.7790    11.0610     9.7950    12.2130    24.8110   -13.9280 
  220.8750     2.3600    81.7790    11.1550     9.8840    12.8480    24.7750   -13.7980 
  221.0000     2.3750    81.7790    11.2180     9.9330    12.6750    24.7200   -13.7300 
  221.1250     2.3780    81.7790    11.2540     9.9440    11.8650    24.6440   -13.7030 
  221.2500     2.3720    81.7790    11.2790     9.9300    11.1450    24.5630   -13.6550 
  221.3750     2.3640    81.7790    11.2980     9.9090    11.4470    24.5240   -13.5900 
  221.5000     2.3560    81.7790    11.3120     9.8950    12.1180    24.5040   -13.5460 
  221.6250     2.3470    81.7790    11.3180     9.8880    12.7950    24.5180   -13.5020 
  221.7500     2.3360    81.7790    11.3200     9.8860    12.9050    24.5510   -13.4550 
  221.8750     2.3290    81.7790    11.3200     9.8860    13.1110    24.6080   -13.4040 
  222.0000     2.3370    81.7790    11.3200     9.8860    14.1770    24.6150   -13.2980 
  222.1250     2.3650    81.7790    11.3200     9.8860    15.5740    24.5990   -13.1820 
  222.2500     2.4120    81.7790    11.3200     9.8860    16.6680    24.6080   -13.0120 
  222.3750     2.4630    81.7790    11.3200     9.8860    17.7290    24.5770   -12.8350 
  222.5000     2.4960    81.7790    11.3200     9.8860    18.3080    24.5180   -12.6920 
  222.6250     2.4990    81.7790    11.3200     9.8860    17.6620    24.5180   -12.6310 
  222.7500     2.4710    81.7790    11.3200     9.8860    16.3040    24.5510   -12.6530 
  222.8750     2.4190    81.7790    11.3200     9.8860    15.2730    24.6080   -12.7300 
  223.0000     2.3650    81.7790    11.3200     9.8860    13.6010    24.6900   -12.8530 
  223.1250     2.3220    81.7790    11.3200     9.8860    11.9090    24.8220   -13.0030 
  223.2500     2.2940    81.7790    11.3200     9.8860    10.9110    24.9390   -13.2410 
  223.3750     2.2820    81.7790    11.3200     9.8860    10.9270    24.9440   -13.4570 
  223.5000     2.2810    81.7790    11.3200     9.8860    11.6060    24.9100   -13.6300 
  223.6250     2.2850    81.7790    11.3200     9.8860    11.9270    24.9000   -13.6790 
  223.7500     2.2910    81.7790    11.3200     9.8860    10.9450    24.9600   -13.6640 
  223.8750     2.2950    81.7790    11.3200     9.8860    10.1240    24.9550  -999.2500 
  224.0000     2.2970    81.7790    11.3200     9.8860     9.9740    24.8440  -999.2500 
  224.1250     2.2960    81.7790    11.3200     9.8860    10.3080    24.8340  -999.2500 
  224.2500     2.2980    81.7790    11.3200     9.8860    11.1680    24.9450  -999.2500 
  224.3750     2.3070    81.7790    11.3200     9.8860    14.0060    24.9310  -999.2500 
  224.5000     2.3230    81.7790    11.3200     9.8860    18.1480    24.8080  -999.2500 
  224.6250     2.3380    81.7790    11.3200     9.8860    17.7370    24.6300  -999.2500 
  224.7500     2.3460    81.7790    11.3200     9.8860    14.4340    24.5580  -999.2500 
  224.8750     2.3380    81.7790    11.3200     9.8860     9.5440    24.5440  -999.2500 
  225.0000     2.3190    81.7790    11.3200     9.8860     7.4470    24.5540  -999.2500 
  225.1250     2.2990    81.7790    11.3200     9.8860     6.6310    24.5410  -999.2500 
  225.2500     2.2890    81.7790    11.3200     9.8860     6.8080    24.5310  -999.2500 
  225.3750     2.2970    81.7790    11.3200     9.8860     7.9020    24.4660  -999.2500 
  225.5000     2.3100    81.7790    11.3200     9.8860     9.2980    23.6670  -999.2500 
  225.6250     2.3080    81.7790    11.3200     9.8860     9.9930    21.1460  -999.2500 
  225.7500     2.2760    81.7790    11.3200     9.8860     9.9930    16.8090  -999.2500 
  225.8750     2.2090    81.7790    11.3200     9.8860     9.9060    14.7480  -999.2500 
  226.0000     2.1070    81.7790    11.3200     9.8860     9.8750    14.1120  -999.2500 
