~V
VERS. 2.00: Ver 2.00
~W
STRT.M 50.0000:
STOP.M 229.0000:
STEP.M 0.1250:
NULL. -999.2500:
UWI. F10777:
~C
DEPT.M :
DEN.GM/CC :
GR.API :
RML.OHMM :
RI. :
RXO.OHMM :
CALI.CM :
SP.MV :
~A
# ...
  106.2500     2.2770    87.2310     9.7070     7.2720     9.3590    24.9170   -21.8480 
  106.3750     2.3130    81.0460    11.6870     8.3980    11.4200    24.9010   -21.6810 
  106.5000     2.3920    75.1550    15.0060    10.4520    17.5640    24.8500   -21.5440 
  106.6250     2.5020    72.1900    19.5200    13.5590    35.0440    24.7850   -21.4300 
  106.7500     2.5860    67.9660    23.7960    16.9030    54.5020    24.7360   -21.3200 
  106.8750     2.6010    63.7120    25.9990    19.1590    50.6860    24.7120   -21.2060 
  107.0000     2.5500    63.7760    24.8850    19.1060    30.4770    24.7040   -21.0960 
  107.1250     2.4650    68.2530    20.9410    16.6810    18.9520    24.6080   -21.0110 
  107.2500     2.3790    72.5760    16.6930    13.6990    13.5010    24.5030   -20.9680 
  107.3750     2.3120    74.7760    13.3490    11.1400    11.2300    24.4780   -20.9720 
  107.5000     2.2670    76.3410    11.2200     9.3530     9.8440    24.5950   -21.0120 
  107.6250     2.2390    79.3930    10.3360     8.4500     8.6130    24.8030   -21.0510 
  107.7500     2.2220    83.2130    10.2940     8.1930     8.4700    24.9320   -21.0340 
  107.8750     2.2130    84.0630    10.9260     8.4830     8.8200    24.8020   -20.9260 
  108.0000     2.2110    80.3140    12.0630     9.2140    10.4160    24.5800   -20.7040 
  108.1250     2.2210    75.3870    13.5420    10.2970    11.8540    24.4010   -20.3430 
  108.2500     2.2400    72.9600    15.1110    11.5290    12.1000    24.2890   -19.8690 
  108.3750     2.2550    71.7620    16.6810    12.8100    11.6540    24.2180   -19.2970 
  108.5000     2.2520    69.3320    18.2640    14.1060    11.8490    24.1510   -18.6500 
  108.6250     2.2300    65.2680    19.9320    15.4390    12.8770    24.1300   -17.9560 
  108.7500     2.2010    62.2680    21.6460    16.7920    14.0930    24.2550   -17.2570 
  108.8750     2.1780    59.2050    23.2480    18.0620    15.0370    24.4900   -16.5760 
  109.0000     2.1670    54.9350    24.4560    19.0410    15.8540    24.6410   -15.9380 
  109.1250     2.1600    53.7500    24.8040    19.3610    16.1910    24.6730   -15.4110 
  109.2500     2.1490    57.3130    24.2840    18.9980    16.2780    24.6700   -15.0380 
  109.3750     2.1380    62.5760    23.0690    18.0820    16.1480    24.6740   -14.8580 
  109.5000     2.1340    66.2140    21.5130    16.8900    15.5080    24.6820   -14.8770 
  109.6250     2.1440    66.2450    20.1020    15.7780    14.3190    24.6710   -15.0700 
  109.7500     2.1670    64.7540    19.1970    15.0080    13.3820    24.6150   -15.3330 
  109.8750     2.1920    64.4850    18.9720    14.7190    13.2720    24.5650   -15.5840 
  110.0000     2.2060    64.9890    19.4400    14.9530    13.8230    24.5450   -15.7450 
  110.1250     2.2070    63.4670    20.5570    15.7310    14.7630    24.5450   -15.7180 
  110.2500     2.1960    61.1510    22.0090    16.8410    15.7670    24.5430   -15.5120 
  110.3750     2.1820    59.6130    23.5660    18.1080    17.1390    24.5410   -15.1700 
  110.5000     2.1710    58.3710    25.0000    19.3380    18.7790    24.5400   -14.7770 
  110.6250     2.1650    57.5280    25.9670    20.2490    19.5000    24.5540   -14.4670 
  110.7500     2.1630    58.0650    26.2030    20.6160    17.9330    24.6020   -14.3240 
  110.8750     2.1660    57.5190    25.4250    20.2050    16.6980    24.6910   -14.3840 
  111.0000     2.1740    56.0800    23.5650    18.9370    15.8780    24.7830   -14.6540 
  111.1250     2.1900    57.6060    20.8900    16.9780    14.8720    24.8420   -15.1550 
  111.2500     2.2090    61.6340    18.1880    14.9260    13.6030    24.8710   -15.8360 
  111.3750     2.2240    65.5690    15.9830    13.1780    12.4740    24.8960   -16.6660 
  111.5000     2.2300    67.7130    14.5670    11.9670    11.8810    24.9050   -17.5860 
  111.6250     2.2270    66.2530    14.1270    11.4600    11.6000    24.8680   -18.4880 
  111.7500     2.2200    63.2750    14.3980    11.5030    11.6190    24.7600   -19.2450 
  111.8750     2.2150    61.8170    15.1950    11.9910    11.7030    24.5930   -19.7660 
  112.0000     2.2090    62.3550    16.2970    12.7850    11.7240    24.4630   -20.0040 
  112.1250     2.1980    61.3200    17.4500    13.7260    11.8800    24.4210   -19.9320 
  112.2500     2.1760    58.3290    18.4240    14.6270    12.0920    24.4340   -19.6580 
  112.3750     2.1470    55.3840    19.1140    15.3900    12.3660    24.4630   -19.2560 
  112.5000     2.1210    55.4030    19.5030    15.9640    12.8010    24.4790   -18.8010 
  112.6250     2.1070    60.0530    19.6090    16.3070    13.4240    24.4860   -18.3650 
  112.7500     2.1150    64.0130    19.5610    16.4750    14.6860    24.4980   -17.9910 
  112.8750     2.1360    64.4880    19.4480    16.5100    16.4150    24.5210   -17.6880 
  113.0000     2.1610    64.3540    19.3560    16.4750    14.4460    24.5240   -17.4350 
  113.1250     2.1810    65.9340    19.3590    16.4320    12.5770    24.4440   -17.2020 
  113.2500     2.1890    66.2360    19.3710    16.3630    11.4240    24.2540   -16.9770 
  113.3750     2.1930    65.2820    19.1440    16.1140    11.3930    24.0150   -16.7870 
  113.5000     2.2030    66.7120    18.3400    15.4480    11.8710    23.8290   -16.6720 
  113.6250     2.2230    69.5690    16.6440    14.1240    12.1910    23.7870   -16.6770 
  113.7500     2.2510    71.7310    14.4690    12.4250    11.6250    23.8390   -16.7820 
  113.8750     2.2710    75.1070    12.3850    10.7490     9.9360    24.0620   -16.9640 
  114.0000     2.2730    79.6910    10.9480     9.4850     7.5670    24.4850   -17.2030 
  114.1250     2.2530    82.3720    10.7250     9.0440     7.2350    24.7550   -17.4840 
  114.2500     2.2270    80.4980    11.7290     9.4720     8.5390    24.7550   -17.7670 
  114.3750     2.2170    73.7170    13.9880    10.8540    10.9950    24.6460   -18.0110 
  114.5000     2.2340    64.7170    17.4010    13.2090    12.8170    24.5290   -18.1670 
  114.6250     2.2670    59.4770    21.7270    16.5090    14.0660    24.3910   -18.2040 
  114.7500     2.2870    57.7760    26.1250    20.1420    15.6090    24.2520   -18.1750 
  114.8750     2.2890    54.6160    29.6800    23.3430    16.8990    24.2160   -18.1470 
  115.0000     2.2920    49.9940    31.4400    25.2140    18.5090    24.2920   -18.1840 
  115.1250     2.3170    49.8640    30.5390    24.9210    25.2540    24.4330   -18.3380 
  115.2500     2.3760    54.4880    27.8240    23.1190    43.5420    24.5140   -18.5860 
  115.3750     2.4490    60.0790    24.2490    20.5480    61.5750    24.5520   -18.9040 
  115.5000     2.5120    63.3120    20.7500    17.9090    45.8290    24.6210   -19.2700 
  115.6250     2.5450    63.0110    17.9970    15.7040    27.7730    24.7170   -19.6730 
  115.7500     2.5350    62.6720    15.8710    13.9190    28.2170    24.7820   -20.0860 
  115.8750     2.4960    63.9690    14.1650    12.4480    27.9960    24.7890   -20.4860 
  116.0000     2.4360    64.8420    12.7590    11.2360    18.1690    24.8090   -20.8430 
  116.1250     2.3680    64.3190    11.6490    10.2950    11.7090    24.8540   -21.1140 
  116.2500     2.3130    66.1800    10.7400     9.5290     9.3250    24.8590   -21.2890 
  116.3750     2.2820    71.2340     9.9710     8.8730     9.2830    24.8190   -21.3650 
  116.5000     2.2720    75.8890     9.2720     8.2770    10.0810    24.8310   -21.3610 
  116.6250     2.2810    76.8400     8.5820     7.7070     9.3750    24.9020   -21.3170 
  116.7500     2.2980    75.4530     7.9460     7.1830     8.0960    24.9500   -21.2860 
  116.8750     2.3080    75.1360     7.5070     6.7950     6.9510    24.9310   -21.2940 
  117.0000     2.3080    78.4580     7.4110     6.6530     6.3560    24.8810   -21.3340 
  117.1250     2.3050    83.5900     7.7810     6.8700     7.4320    24.8510   -21.3770 
  117.2500     2.3100    84.2800     8.4580     7.3550     9.6370    24.8330   -21.4010 
  117.3750     2.3210    80.6990     9.2530     7.9800    11.6020    24.8430   -21.4130 
