~V
VERS. 2.00: Ver 2.00
~W
STRT.M 60.0000:
STOP.M 239.0000:
STEP.M 0.1250:
NULL. -999.2500:
UWI. F10775:
~C
DEPT.M :
DEN.GM/CC :
SP.MV :
GR.API :
RML.OHMM :
RI. :
RXO.OHMM :
CALI.CM :
~A
# ...
   71.2500     2.4030    -1.6890    74.7270     6.2820     5.2620     5.9610    27.3160 
   71.3750     2.3980    -1.2500    76.5860     6.1620     5.0990     5.5070    27.3550 
   71.5000     2.3990    -0.8980    74.4680     6.1570     5.0380     5.3560    27.3100 
   71.6250     2.4110    -0.5990    70.0280     6.2910     5.1110     5.5650    27.2360 
   71.7500     2.4240    -0.3000    68.7910     6.4970     5.2700     5.9590    27.1770 
   71.8750     2.4250    -0.0620    70.7290     6.7210     5.4650     6.2330    27.2190 
   72.0000     2.4070     0.0610    72.2730     6.9290     5.6550     6.3340    27.2800 
   72.1250     2.3720     0.0580    69.7760     7.1210     5.8270     6.4860    27.3010 
   72.2500     2.3310    -0.0390    64.5560     7.3220     5.9960     6.6270    27.2560 
   72.3750     2.2920    -0.2850    59.4240     7.5530     6.1780     6.7710    27.1200 
   72.5000     2.2600    -0.6050    55.9230     7.8180     6.3900     7.2350    26.8540 
   72.6250     2.2390    -0.9820    54.1190     8.0990     6.6330     7.6560    26.5510 
   72.7500     2.2310    -1.4080    52.4490     8.3420     6.8650     7.8270    26.3830 
   72.8750     2.2350    -1.8440    50.5590     8.4950     7.0400     7.6070    26.3890 
   73.0000     2.2510    -2.2490    49.9050     8.5110     7.1100     7.6810    26.3300 
   73.1250     2.2730    -2.5770    53.4500     8.3560     7.0210     8.0900    26.2980 
   73.2500     2.2940    -2.7750    60.5560     8.1060     6.8200     7.5610    26.4340 
   73.3750     2.3090    -2.7440    66.0510     7.8360     6.5770     6.9770    26.5460 
   73.5000     2.3200    -2.5410    66.1320     7.6120     6.3580     6.8870    26.5680 
   73.6250     2.3280    -2.1350    61.2150     7.4550     6.1920     6.5840    26.8130 
   73.7500     2.3360    -1.6790    58.5750     7.3180     6.0530     6.5830    27.1020 
   73.8750     2.3450    -1.2230    61.0570     7.1620     5.9070     6.7600    27.2280 
   74.0000     2.3550    -0.7110    64.6990     6.9850     5.7390     6.8060    27.2290 
   74.1250     2.3630    -0.2630    65.4080     6.8480     5.5770     6.3870    27.2530 
   74.2500     2.3660     0.1570    64.7060     6.8260     5.4940     5.9450    27.2990 
   74.3750     2.3550     0.4420    63.3380     6.9620     5.5410     6.0430    27.3320 
   74.5000     2.3260     0.5280    60.0780     7.2520     5.7290     6.6340    27.3030 
   74.6250     2.2840     0.4340    56.0600     7.6610     6.0520     7.2580    27.0790 
   74.7500     2.2500     0.1950    55.4960     8.1090     6.4450     7.7970    26.6860 
   74.8750     2.2350    -0.0780    56.1810     8.5480     6.8640     8.2360    26.3460 
   75.0000     2.2410    -0.4060    54.5290     8.9400     7.2680     8.0420    26.2950 
   75.1250     2.2610    -0.8090    51.8110     9.2190     7.6160     8.2670    26.3970 
   75.2500     2.2830    -1.2400    51.1200     9.3470     7.8640     9.0550    26.3580 
   75.3750     2.3040    -1.6390    53.2850     9.2880     7.9570     9.3710    26.2020 
   75.5000     2.3230    -1.9250    55.3840     9.0520     7.8780     8.5700    26.1970 
   75.6250     2.3310    -2.0430    54.6040     8.6890     7.6570     7.7250    26.4360 
   75.7500     2.3240    -2.0620    52.8370     8.3120     7.3890     7.0320    26.7860 
   75.8750     2.3060    -2.0760    50.9720     7.9910     7.1340     6.7440    26.9550 
   76.0000     2.2870    -2.0810    48.3020     7.7690     6.9430     7.1660    26.7770 
   76.1250     2.2790    -1.9770    45.2930     7.6690     6.8460     7.6480    26.6530 
   76.2500     2.2790    -1.8100    45.9820     7.6510     6.8100     7.2090    26.8380 
   76.3750     2.2770    -1.6810    51.3400     7.6830     6.8110     6.6290    27.0460 
   76.5000     2.2680    -1.5450    56.2920     7.7300     6.8250     6.9000    26.9790 
   76.6250     2.2580    -1.4890    56.5060     7.7560     6.8150     7.3840    26.8930 
   76.7500     2.2600    -1.3870    56.1020     7.7490     6.7650     7.3250    26.9410 
   76.8750     2.2740    -1.2280    56.6630     7.7230     6.6870     7.0180    27.0150 
   77.0000     2.2890    -1.0660    56.2070     7.7120     6.6010     6.8150    27.1600 
   77.1250     2.2900    -0.9840    54.1130     7.7920     6.5490     6.7270    27.3710 
   77.2500     2.2740    -1.0380    52.9950     8.0480     6.5940     6.7990    27.3230 
   77.3750     2.2540    -1.0550    53.2190     8.6070     6.8270     7.4150    26.9500 
   77.5000     2.2500    -1.0660    53.8400     9.6370     7.3630     8.0140    26.5980 
   77.6250     2.2850    -1.0180    52.7500    11.4660     8.4490     8.5300    26.5750 
   77.7500     2.3570    -1.0440    49.5340    14.1480    10.2270    10.7280    26.9620 
   77.8750     2.4450    -1.1360    45.9600    17.6420    12.8580    16.8480    27.6350 
   78.0000     2.5180    -1.2590    45.5150    21.5840    16.2920    26.2460    28.2630 
   78.1250     2.5330    -1.4570    48.4300    25.0320    19.9300    33.1450    28.4290 
   78.2500     2.4860    -1.6140    50.6380    27.0830    22.5930    31.6970    28.0990 
   78.3750     2.3960    -1.8740    50.9080    27.3570    23.5120    25.0200    27.3670 
   78.5000     2.2930    -2.2550    49.6010    26.1800    22.8050    18.9530    26.6550 
   78.6250     2.2140    -2.7340    47.0460    24.3930    21.2950    15.2910    26.3420 
   78.7500     2.1640    -3.2450    44.3880    22.8910    19.9320    13.8360    26.2950 
   78.8750     2.1400    -3.7460    42.1700    21.9380    18.9970    13.3470    26.3620 
   79.0000     2.1310    -4.2910    41.6180    21.4600    18.4760    13.2760    26.4810 
   79.1250     2.1380    -4.7730    42.5290    21.2640    18.2500    13.2720    26.5990 
   79.2500     2.1620    -5.2900    42.9740    21.1350    18.1230    13.1860    26.6820 
   79.3750     2.2080    -5.7460    42.9010    21.0440    18.0420    12.9620    26.7220 
   79.5000     2.2790    -6.1340    44.1730    21.0590    18.0380    12.5820    26.7550 
   79.6250     2.3600    -6.5120    48.0220    21.3430    18.2380    12.3920    26.8880 
   79.7500     2.4230    -6.8650    52.2540    21.9250    18.6960    13.0090    27.2060 
   79.8750     2.4410    -7.1670    54.4590    22.7580    19.4130    15.1420    27.5810 
   80.0000     2.4040    -7.3970    53.2920    23.6940    20.2870    18.1310    27.5920 
   80.1250     2.3250    -7.5520    48.9190    24.4670    21.0950    17.4660    27.1120 
   80.2500     2.2460    -7.6500    44.3000    24.8750    21.6150    16.8130    26.8210 
   80.3750     2.1920    -7.7060    41.7590    24.8170    21.7200    18.0480    26.7470 
   80.5000     2.1720    -7.7210    42.4950    24.3170    21.4090    18.2810    26.7640 
   80.6250     2.1770    -7.6640    44.1580    23.4900    20.7840    15.3140    26.7540 
   80.7500     2.1890    -7.5440    43.8020    22.5960    20.0760    13.4170    26.7140 
   80.8750     2.1990    -7.3960    41.2760    21.8040    19.4190    12.7650    26.6770 
   81.0000     2.2050    -7.2420    39.0200    21.2250    18.9100    12.6720    26.6610 
   81.1250     2.2070    -7.1080    37.7900    20.9500    18.6490    12.6790    26.6600 
   81.2500     2.2060    -7.0080    35.9490    20.9130    18.5970    12.6840    26.6750 
   81.3750     2.2040    -6.9410    33.4860    21.0550    18.7160    12.6490    26.7140 
   81.5000     2.2060    -6.9240    32.2540    21.2940    18.9630    12.5890    26.7620 
   81.6250     2.2120    -6.9310    34.1500    21.4650    19.2600    12.6180    26.7830 
   81.7500     2.2220    -6.9590    37.3820    21.3460    19.3900    12.7170    26.7930 
   81.8750     2.2350    -7.0190    39.6530    20.7450    19.0970    12.7780    26.7970 
   82.0000     2.2460    -7.0800    39.8570    19.6010    18.2180    12.7980    26.7920 
   82.1250     2.2520    -7.1520    39.7580    18.0620    16.8070    12.7540    26.7880 
   82.2500     2.2500    -7.1950    41.0170    16.5980    15.3330    12.2050    26.7910 
   82.3750     2.2420    -7.2850    42.2460    15.5780    14.1660    11.0320    26.8080 
