~V
VERS. 2.00: Ver 2.00
~W
STRT.M 50.0000:
STOP.M 228.0000:
STEP.M 0.1250:
NULL. -999.2500:
UWI. F10779:
~C
DEPT.M :
GR.API :
RML.OHMM :
RI. :
RXO.OHMM :
CALI.CM :
SP.MV :
DEN.GM/CC :
~A
# ...
  151.2500    70.1520    15.4550    16.2330    12.8210    24.8010   -13.7630     2.4000 
  151.3750    75.7740    12.4570    13.1940     8.3540    24.8260   -13.7220     2.3540 
  151.5000    78.0230    11.0910    11.6390     6.1550    24.7880   -13.6890     2.3130 
  151.6250    75.8590    11.7160    11.8360     5.9530    24.7540   -13.6960     2.2930 
  151.7500    72.4590    14.4490    13.8700     7.4180    24.6990   -13.7490     2.2930 
  151.8750    67.6940    19.8900    18.3910    10.8740    24.5950   -13.8300     2.3130 
  152.0000    60.3470    28.4860    26.1490    19.3600    24.4630   -13.9500     2.3570 
  152.1250    51.9830    39.5660    37.1770    37.9310    24.6730   -14.0900     2.4290 
  152.2500    47.6200    48.3410    46.7350    50.0560    24.8290   -14.2320     2.5170 
  152.3750    48.5520    49.0030    48.3250    45.6890    24.8560   -14.3640     2.6030 
  152.5000    51.3140    40.1650    40.1740    36.0840    24.8400   -14.4770     2.6600 
  152.6250    52.7470    27.9220    28.5380    27.1450    24.7400   -14.5380     2.6550 
  152.7500    55.0500    18.7490    19.6940    16.5790    24.7350   -14.5490     2.5960 
  152.8750    58.8860    13.6440    14.4800     9.1090    24.8780   -14.5370     2.5090 
  153.0000    61.1580    11.8970    12.1960     6.4630    25.0220   -14.5040     2.4300 
  153.1250    58.3660    13.0810    12.4300     8.6960    24.8460   -14.4520     2.3950 
  153.2500    54.2140    16.2880    14.5310    15.5250    24.8290   -14.3780     2.4070 
  153.3750    51.2250    21.0280    18.3600    22.3140    25.1020   -14.2730     2.4520 
  153.5000    49.6380    26.2800    23.3100    22.2630    25.1700   -14.1460     2.5060 
  153.6250    48.8060    30.1660    27.6850    19.5100    25.2230   -14.0150     2.5370 
  153.7500    47.9490    31.9320    30.1460    18.9080    25.2560   -13.8750     2.5430 
  153.8750    47.2610    32.1090    30.8220    19.8370    25.2670   -13.7380     2.5370 
  154.0000    46.8140    31.7250    30.6290    21.0500    25.2470   -13.6210     2.5290 
  154.1250    46.4290    31.4720    30.2880    20.8750    25.1960   -13.5500     2.5230 
  154.2500    46.0890    31.3900    29.9810    21.9450    25.1270   -13.5070     2.5190 
  154.3750    46.8690    31.3950    29.6590    22.8640    24.7890   -13.4750     2.5150 
  154.5000    49.6240    31.4600    29.2990    22.5860    24.6870   -13.4580     2.5080 
  154.6250    51.5530    31.5850    28.9270    21.6480    24.7290   -13.4130     2.4950 
  154.7500    50.1180    31.7260    28.5980    23.6570    24.7200   -13.3720     2.4810 
  154.8750    46.0740    31.8650    28.3730    25.4980    24.7450   -13.3190     2.4690 
  155.0000    43.3860    32.0460    28.3240    22.4480    24.8400   -13.2740     2.4660 
  155.1250    45.5590    32.3980    28.5470    21.3160    24.8680   -13.2440     2.4760 
  155.2500    49.2890    33.0090    29.0300    22.1830    24.8320   -13.2460     2.4960 
  155.3750    51.2310    33.9300    29.7800    24.6560    24.7390   -13.2860     2.5240 
  155.5000    50.1090    35.1090    30.7600    27.5550    24.6100   -13.3310     2.5540 
  155.6250    48.5410    36.3200    31.8150    28.3880    24.4910   -13.4210     2.5860 
  155.7500    48.2680    37.1930    32.6450    30.0030    24.5470   -13.5210     2.6170 
  155.8750    48.8490    37.3910    32.9510    30.8500    24.8620   -13.6360     2.6460 
  156.0000    48.3960    36.6830    32.5050    30.7970    25.0270   -13.7630     2.6690 
  156.1250    46.8610    34.9480    31.1600    29.4270    25.0490   -13.8740     2.6800 
  156.2500    46.2840    32.7160    29.3440    26.6690    25.0640   -13.9730     2.6770 
  156.3750    46.8380    30.5120    27.4950    23.2980    25.0610   -14.0400     2.6620 
  156.5000    46.8530    28.8230    26.0280    20.2320    25.0540   -14.0990     2.6390 
  156.6250    45.6740    28.0990    25.3240    18.1850    25.0620   -14.0930     2.6180 
  156.7500    44.6760    28.2280    25.3250    18.5630    25.1110   -14.0260     2.6060 
  156.8750    43.4420    29.0260    25.9210    21.2260    25.1220   -13.8850     2.6070 
  157.0000    42.1530    30.1580    26.8690    25.7620    25.1450   -13.6920     2.6170 
  157.1250    42.9170    31.1140    27.7630    25.8910    25.1500   -13.4760     2.6230 
  157.2500    46.2890    31.4810    28.2050    24.3520    25.1200   -13.2590     2.6230 
  157.3750    50.2980    31.0730    27.9800    23.7930    25.0870   -13.0470     2.6180 
  157.5000    51.8390    29.9680    27.1050    24.5870    25.1580   -12.8500     2.6130 
  157.6250    50.9220    28.4710    25.8120    22.7590    25.1720   -12.7050     2.6100 
  157.7500    50.4940    27.0840    24.5550    19.9840    25.1760   -12.6150     2.6080 
  157.8750    51.1800    26.1170    23.6140    18.1620    25.1780   -12.5870     2.6080 
  158.0000    51.7870    25.7570    23.1660    17.3280    25.2090   -12.5900     2.6130 
  158.1250    52.8550    26.1620    23.3750    17.9630    25.1960   -12.6460     2.6250 
  158.2500    54.3970    27.0850    24.0740    18.8710    25.1520   -12.7390     2.6390 
  158.3750    53.9980    28.2560    25.0700    20.1920    25.1840   -12.8700     2.6490 
  158.5000    50.0980    29.3280    26.0730    21.7480    25.1640   -13.0230     2.6510 
  158.6250    47.1300    29.8640    26.6800    22.5860    25.0970   -13.1670     2.6470 
  158.7500    48.9640    29.7460    26.7200    23.0310    25.0460   -13.2990     2.6410 
  158.8750    52.6610    28.9890    26.1660    22.2120    25.0010   -13.3870     2.6340 
  159.0000    53.6760    27.7240    25.1150    20.0360    24.9790   -13.4350     2.6280 
  159.1250    50.7950    26.1680    23.7420    17.3180    24.9910   -13.4510     2.6210 
  159.2500    47.8670    24.6950    22.3930    15.6290    25.0510   -13.4750     2.6110 
  159.3750    47.6460    23.5680    21.3100    14.9110    25.1170   -13.5240     2.6020 
  159.5000    51.3740    22.9500    20.6460    14.4040    25.1750   -13.5990     2.5960 
  159.6250    55.5160    22.9870    20.5360    14.1150    25.2750   -13.7010     2.6010 
  159.7500    55.2600    23.5030    20.8430    15.7110    25.2890   -13.8250     2.6150 
  159.8750    51.7840    24.3080    21.4200    19.2660    25.3100   -13.9600     2.6310 
  160.0000    48.5620    25.1850    22.0850    21.0190    25.3010   -14.0750     2.6390 
  160.1250    48.2320    25.9530    22.6730    20.0060    25.3000   -14.1230     2.6330 
  160.2500    48.9840    26.5600    23.1190    19.8420    25.2950   -14.1100     2.6200 
  160.3750    48.8020    27.0000    23.4070    19.0080    25.2900   -14.0670     2.6140 
  160.5000    46.3890    27.2830    23.5560    19.6690    25.2890   -14.0040     2.6240 
  160.6250    43.7940    27.3790    23.5790    21.3050    25.2760   -13.9430     2.6470 
  160.7500    44.6700    27.3120    23.5250    20.9120    25.2440   -13.8450     2.6630 
  160.8750    48.0710    27.1750    23.4630    18.3410    25.2450   -13.7380     2.6570 
  161.0000    51.8900    27.1710    23.5220    18.1050    25.2930   -13.6300     2.6290 
  161.1250    53.2190    27.5970    23.9080    19.8470    25.2990   -13.5160     2.5940 
  161.2500    51.3660    28.4200    24.6120    22.5800    25.2920   -13.4050     2.5750 
  161.3750    48.8040    29.3760    25.4690    24.4650    25.2900   -13.2940     2.5840 
  161.5000    48.8910    29.9980    26.1420    25.3490    25.2880   -13.2200     2.6110 
  161.6250    51.5250    29.6290    26.1020    25.8640    25.3000   -13.1850     2.6340 
  161.7500    52.5090    28.2640    25.2570    26.7560    25.2980   -13.1970     2.6360 
  161.8750    50.7090    26.2160    23.7820    24.5980    25.2990   -13.2280     2.6170 
  162.0000    48.0810    24.0030    22.0530    19.0120    25.3040   -13.2660     2.5910 
  162.1250    46.8560    22.1050    20.4540    15.4460    25.3400   -13.3250     2.5680 
  162.2500    46.8340    20.5590    19.0830    14.4640    25.3910   -13.3900     2.5550 
  162.3750    46.4980    19.2200    17.8650    14.9350    25.4510   -13.4530     2.5470 
