~V
VERS. 2.00: Ver 2.00
~W
STRT.M 51.0000:
STOP.M 263.0000:
STEP.M 0.1250:
NULL. -999.2500:
UWI. F10758:
~C
DEPT.M :
DEN.GM/CC :
GR.API :
RML.OHMM :
RI. :
RXO.OHMM :
CALI.CM :
SP.MV :
~A
# ...
  208.5000     2.2920    54.4810    17.9170    15.4730    14.7060    24.1440   -14.8080 
  208.6250     2.3000    52.2940    18.2410    15.6970    14.7820    23.9080   -14.9600 
  208.7500     2.2870    53.3410    18.2880    15.8420    15.2610    23.9690   -15.1010 
  208.8750     2.2610    56.6210    18.2400    15.9920    16.3170    23.9740   -15.2360 
  209.0000     2.2340    58.2350    18.4660    16.2950    17.7200    23.9300   -15.3570 
  209.1250     2.2210    57.0600    19.5760    17.0780    17.8010    24.0350   -15.4180 
  209.2500     2.2280    58.3740    21.6770    18.5130    17.5030    24.1010   -15.4550 
  209.3750     2.2550    60.6880    24.3980    20.5220    19.2810    24.1390   -15.4410 
  209.5000     2.2990    59.1400    26.6300    22.4440    23.5810    24.2110   -15.4300 
  209.6250     2.3550    53.5030    26.2500    22.5830    28.0390    24.2090   -15.3420 
  209.7500     2.4080    49.1780    22.9430    20.2850    30.2150    24.1540   -15.2290 
  209.8750     2.4450    48.2000    17.9140    16.3170    24.8540    24.1060   -15.0750 
  210.0000     2.4530    48.4690    13.0130    12.1980    13.5180    23.9750   -14.9110 
  210.1250     2.4320    48.9230     9.6360     9.1650     7.2290    23.9040   -14.7370 
  210.2500     2.3990    49.8090     7.5770     7.2210     6.4080    23.8030   -14.5480 
  210.3750     2.3660    51.9540     6.4810     6.1600     6.1150    23.7980   -14.3590 
  210.5000     2.3400    54.1430     6.0730     5.7640     5.5220    23.9880   -14.1420 
  210.6250     2.3260    54.3900     6.2200     5.8830     5.1600    24.0280   -13.9700 
  210.7500     2.3210    55.5420     6.6280     6.2300     5.2910    24.0690   -13.8280 
  210.8750     2.3220    59.8890     7.1060     6.6520     5.6150    24.1150   -13.7550 
  211.0000     2.3290    65.6430     7.5230     7.0490     6.1110    24.1950   -13.7270 
  211.1250     2.3380    69.1640     7.7850     7.3410     6.3890    24.2640   -13.7820 
  211.2500     2.3480    69.9250     7.8830     7.4920     6.4830    24.2860   -13.8800 
  211.3750     2.3580    69.2930     7.8310     7.4890     6.5520    24.3100   -14.0370 
  211.5000     2.3690    68.2800     7.6720     7.3600     6.4560    24.3790   -14.2640 
  211.6250     2.3800    66.6650     7.4470     7.1580     6.2550    24.3460   -14.5360 
  211.7500     2.3890    64.2090     7.2460     6.9620     6.1650    24.2950   -14.8590 
  211.8750     2.3970    61.7490     7.1510     6.8090     6.1630    24.2650   -15.1830 
  212.0000     2.4010    61.6440     7.2020     6.7170     6.2270    24.1990   -15.5400 
  212.1250     2.4040    63.9250     7.4090     6.7020     6.6200    24.1500   -15.9250 
  212.2500     2.4100    67.6350     7.7290     6.7680     7.4610    24.2080   -16.3430 
  212.3750     2.4190    70.9500     8.1610     6.9480     8.4430    24.1530   -16.7930 
  212.5000     2.4280    71.4830     8.7520     7.2970     8.4060    24.1210   -17.2490 
  212.6250     2.4310    70.9060     9.6650     7.9310     8.4180    24.2560   -17.7310 
  212.7500     2.4230    71.5210    10.9730     8.8570     8.8590    24.2660   -18.1890 
  212.8750     2.4020    72.0890    12.6800    10.0650    10.4880    24.2280   -18.6380 
  213.0000     2.3700    69.2450    14.6560    11.4650    13.5510    24.2020   -19.0130 
  213.1250     2.3340    64.1830    16.5370    12.8190    15.9850    24.2010   -19.3350 
  213.2500     2.3020    60.4220    17.9520    13.8770    16.9980    24.2080   -19.6050 
  213.3750     2.2820    58.2260    18.7900    14.5570    17.0280    24.2210   -19.8110 
  213.5000     2.2790    58.5260    19.2190    14.9640    16.8200    24.2210   -19.9710 
  213.6250     2.2970    60.4300    19.5580    15.3060    16.8810    24.2300   -20.0600 
  213.7500     2.3290    60.7020    20.0400    15.7430    17.4650    24.2240   -20.0780 
  213.8750     2.3610    59.1300    20.6860    16.2960    18.3460    24.2220   -20.0410 
  214.0000     2.3790    57.8670    21.3970    16.9050    19.0500    24.2090   -19.9710 
  214.1250     2.3700    59.1750    21.9430    17.4080    19.1900    24.2400   -19.8160 
  214.2500     2.3440    61.2720    22.1090    17.6210    18.7610    24.2390   -19.6350 
  214.3750     2.3180    61.1840    21.6510    17.3550    18.5000    24.2070   -19.3960 
  214.5000     2.3080    58.3200    20.3780    16.4800    19.6610    24.1450   -19.1170 
  214.6250     2.3240    57.3110    18.2390    14.9550    19.6560    23.9660   -18.8120 
  214.7500     2.3530    59.8750    15.8130    13.1580    16.0870    23.7970   -18.5280 
  214.8750     2.3800    62.7190    13.6310    11.4160    12.2450    23.7550   -18.2710 
  215.0000     2.3940    65.4770    12.0620     9.9790     9.8520    23.6890   -18.0490 
  215.1250     2.3900    69.4140    11.2630     9.0420     9.3220    23.6960   -17.9190 
  215.2500     2.3780    72.1570    10.8970     8.5270     9.0230    23.7330   -17.8070 
  215.3750     2.3630    71.2480    10.7360     8.3590     8.6810    23.7520   -17.7600 
  215.5000     2.3500    69.1180    10.6690     8.4410     8.4220    23.7250   -17.7310 
  215.6250     2.3390    69.9600    10.7060     8.6950     8.7420    23.6230   -17.7020 
  215.7500     2.3310    72.2190    10.7870     8.9750     9.4420    23.4140   -17.6090 
  215.8750     2.3280    72.4900    10.7380     9.1250     9.7550    23.1320   -17.4200 
  216.0000     2.3330    70.6560    10.3410     8.9870     9.7030    22.9110   -17.1150 
  216.1250     2.3450    70.3920     9.4590     8.4320     9.5890    22.8630   -16.6590 
  216.2500     2.3600    73.4710     8.3980     7.6250     8.7480    22.8900   -16.1440 
  216.3750     2.3710    77.0820     7.4880     6.7660     6.9070    22.9150   -15.5520 
  216.5000     2.3760    78.8830     6.9370     6.0430     5.1640    23.0070   -14.9600 
  216.6250     2.3750    81.4190     6.7940     5.6090     4.9230    23.4000   -14.3710 
  216.7500     2.3730    83.7240     6.8500     5.4310     5.2310    23.5760   -13.8770 
  216.8750     2.3700    84.1650     6.9630     5.4590     5.4840    23.5230   -13.4880 
  217.0000     2.3680    82.4210     7.0320     5.6150     5.6090    23.4130   -13.2450 
  217.1250     2.3640    81.2170     7.0050     5.8000     5.5650    23.1990   -13.1470 
  217.2500     2.3600    83.2990     6.9280     5.9430     5.5380    23.1440   -13.1290 
  217.3750     2.3560    87.8990     6.8340     6.0310     5.6130    23.1670   -13.2120 
  217.5000     2.3530    92.6130     6.7290     6.0780     5.7650    23.2810   -13.3240 
  217.6250     2.3510    93.5820     6.6060     6.0910     5.9200    23.3230   -13.5010 
  217.7500     2.3490    92.4190     6.5000     6.0920     5.9780    23.3350   -13.6780 
  217.8750     2.3470    95.5110     6.4550     6.1020     6.0040    23.3540   -13.8740 
  218.0000     2.3460   102.8360     6.4930     6.1410     6.0590    23.2680   -14.0930 
  218.1250     2.3470   108.2950     6.6230     6.2290     6.0630    23.1400   -14.3330 
  218.2500     2.3460   110.2790     6.8110     6.3610     6.2920    23.1200   -14.6120 
  218.3750     2.3440   110.7980     7.0770     6.5460     6.5200    23.1000   -14.8870 
  218.5000     2.3400   110.0430     7.4790     6.8100     6.6410    23.1230   -15.1980 
  218.6250     2.3350   104.5700     8.1150     7.2050     6.8350    23.1020   -15.4770 
  218.7500     2.3330    97.3630     8.9510     7.7180     7.2720    23.0940   -15.7480 
  218.8750     2.3380    91.8550     9.9110     8.3090     8.0220    23.0980   -15.9760 
  219.0000     2.3470    89.1520    10.8460     8.8950     9.0170    23.1260   -16.1630 
  219.1250     2.3530    89.6590    11.4680     9.3110     9.4920    23.2480   -16.3370 
  219.2500     2.3510    90.1430    11.6580     9.4780     9.2110    23.3430   -16.4770 
  219.3750     2.3390    88.8050    11.4840     9.4410     9.1580    23.4150   -16.6130 
  219.5000     2.3250    87.1090    11.2180     9.3620     9.9030    23.4650   -16.7240 
  219.6250     2.3210    85.3870    11.3600     9.5190    10.2960    23.4760   -16.8870 
