~V
VERS. 2.00: Ver 2.00
~W
STRT.M 50.0000:
STOP.M 226.0000:
STEP.M 0.1250:
NULL. -999.2500:
UWI. F10778:
~C
DEPT.M :
DEN.GM/CC :
GR.API :
RML.OHMM :
RI. :
RXO.OHMM :
CALI.CM :
SP.MV :
~A
# ...
   72.5000     2.1650    83.2660     8.7610     7.5640     6.7250    24.1540   -14.7240 
   72.6250     2.1740    82.0780     8.9390     7.7650     6.8360    24.2050   -14.5660 
   72.7500     2.1890    80.9380     9.1380     7.9800     6.9950    24.2360   -14.2430 
   72.8750     2.2030    79.8410     9.4970     8.2850     7.1560    24.2370   -13.8010 
   73.0000     2.2070    78.2230    10.1760     8.8050     7.1740    24.2370   -13.2430 
   73.1250     2.1890    75.8260    11.3200     9.7140     7.2830    24.2830   -12.5640 
   73.2500     2.1570    72.7560    12.6930    10.9170     8.1740    24.3760   -11.8730 
   73.3750     2.1230    70.1600    13.8750    12.1290     9.6310    24.4520   -11.2790 
   73.5000     2.1030    70.4590    14.3300    12.8670    10.9410    24.4780   -10.8090 
   73.6250     2.1120    74.0580    13.5070    12.5080    10.9310    24.4170   -10.5490 
   73.7500     2.1450    79.2320    11.7740    11.2170     9.8600    24.2670   -10.5350 
   73.8750     2.1900    87.5450     9.7040     9.4390     7.9350    24.1150   -10.7050 
   74.0000     2.2320    99.5260     7.8980     7.7180     6.1440    24.1500   -11.0250 
   74.1250     2.2560   110.0990     6.8490     6.5310     5.4960    24.2320   -11.4720 
   74.2500     2.2600   113.3260     6.5210     5.9260     5.3470    24.1760   -11.9680 
   74.3750     2.2460   108.6950     6.8400     5.8820     5.5470    24.0490   -12.4010 
   74.5000     2.2210    98.9270     7.6930     6.3470     5.9130    23.9210   -12.6440 
   74.6250     2.1910    88.3000     8.9530     7.2810     6.5600    24.0010   -12.6410 
   74.7500     2.1680    80.2880    10.3000     8.4350     7.1650    24.2610   -12.4950 
   74.8750     2.1540    74.9430    11.4850     9.5870     7.5210    24.4570   -12.2260 
   75.0000     2.1460    71.5690    12.3290    10.5290     7.5910    24.4000   -11.8710 
   75.1250     2.1340    68.8680    12.7520    11.0980     7.4240    24.0840   -11.5370 
   75.2500     2.1150    66.4780    12.9610    11.4070     7.1870    23.8110   -11.2520 
   75.3750     2.0930    65.7000    13.1340    11.5930     7.3450    23.8680   -10.9990 
   75.5000     2.0800    66.3810    13.3900    11.7800     7.6950    24.3160   -10.8410 
   75.6250     2.0840    66.5360    13.7490    12.0260     8.0440    24.7680   -10.8490 
   75.7500     2.1010    65.4310    14.0940    12.2770     8.1050    24.9230   -10.8880 
   75.8750     2.1200    65.0910    14.3080    12.4510     8.0420    24.9210   -10.9540 
   76.0000     2.1340    65.9430    14.3010    12.4770     7.9630    24.8810   -11.1240 
   76.1250     2.1400    66.0030    13.9910    12.2790     7.8340    24.8660   -11.4370 
   76.2500     2.1420    66.4490    13.4280    11.8790     7.6760    24.8610   -11.7780 
   76.3750     2.1460    68.9850    12.6380    11.2860     7.4900    24.8660   -12.1460 
   76.5000     2.1560    71.5600    11.6690    10.5270     7.3620    24.8830   -12.6150 
   76.6250     2.1760    71.2070    10.6050     9.6550     7.5150    24.9140   -13.1920 
   76.7500     2.2000    72.0720     9.5860     8.7860     7.3050    24.9220   -13.7690 
   76.8750     2.2210    75.6370     8.7120     8.0050     6.5310    24.9010   -14.2820 
   77.0000     2.2330    79.2300     8.0380     7.3710     5.8330    24.8580   -14.7100 
   77.1250     2.2330    82.4920     7.5840     6.9240     6.0750    24.8240   -15.0080 
   77.2500     2.2300    88.2360     7.2500     6.5950     6.3190    24.6800   -15.2300 
   77.3750     2.2310    94.1950     6.9520     6.3180     6.4340    24.3740   -15.4150 
   77.5000     2.2390    97.1430     6.6200     6.0270     6.3130    24.1400   -15.5300 
   77.6250     2.2530    98.6120     6.2130     5.6680     5.9970    24.0540   -15.4830 
   77.7500     2.2690   101.0120     5.7720     5.2610     5.4450    24.0560   -15.3660 
   77.8750     2.2820   103.4100     5.3650     4.8570     4.8950    24.0970   -15.2760 
   78.0000     2.2940   105.8570     5.0650     4.5210     4.5300    24.1210   -15.2260 
   78.1250     2.3030   110.2950     4.9550     4.3310     4.4230    23.9910   -15.1930 
   78.2500     2.3090   112.8740     5.0150     4.2900     4.4470    23.7420   -15.2460 
   78.3750     2.3130   108.1790     5.2110     4.3810     4.7360    23.4140   -15.3710 
   78.5000     2.3150    99.4790     5.4770     4.5620     5.3510    23.0510   -15.4850 
   78.6250     2.3140    96.6230     5.7350     4.7750     5.9390    22.8260   -15.6220 
   78.7500     2.3100    98.1970     5.9420     4.9620     6.1230    22.8510   -15.8430 
   78.8750     2.3020    97.7940     6.1170     5.1190     5.9790    23.2320   -16.0630 
   79.0000     2.2880    95.2080     6.3310     5.2850     5.7650    23.9460   -16.2370 
   79.1250     2.2670    95.0010     6.7030     5.5510     5.8990    24.4180   -16.4450 
   79.2500     2.2420    92.6170     7.2410     5.9550     6.2300    24.5870   -16.6350 
   79.3750     2.2140    86.8750     7.8590     6.4670     6.8330    24.5830   -16.7280 
   79.5000     2.1910    80.7370     8.3660     6.9570     8.0550    24.5580   -16.7640 
   79.6250     2.1840    76.7570     8.4660     7.1790     8.8180    24.5870   -16.8030 
   79.7500     2.1950    75.5400     8.1170     7.0340     8.1960    24.6380   -16.8410 
   79.8750     2.2210    78.0980     7.4340     6.5600     7.0750    24.6730   -16.8750 
   80.0000     2.2520    85.2220     6.6470     5.9190     5.9830    24.6620   -16.9060 
   80.1250     2.2720    93.1790     6.0250     5.3310     5.2950    24.6400   -16.9330 
   80.2500     2.2790    98.9370     5.6580     4.9170     5.1180    24.6390   -16.9290 
   80.3750     2.2750   101.6130     5.5270     4.6980     5.3060    24.6770   -16.9200 
   80.5000     2.2710   100.0440     5.5680     4.6470     5.4390    24.7100   -16.9630 
   80.6250     2.2730    95.2820     5.7250     4.7290     5.6320    24.7360   -17.0230 
   80.7500     2.2800    92.2850     5.9360     4.8820     5.7240    24.7670   -17.0280 
   80.8750     2.2870    93.7170     6.1830     5.0830     5.6740    24.7810   -17.0150 
   81.0000     2.2870    95.8300     6.4510     5.3160     5.7890    24.7510   -17.0260 
   81.1250     2.2740    91.9520     6.6970     5.5520     6.4400    24.7690   -16.9750 
   81.2500     2.2570    85.7530     6.8690     5.7460     6.8490    24.7740   -16.8800 
   81.3750     2.2420    82.2430     6.9320     5.8590     6.8590    24.7510   -16.8230 
   81.5000     2.2390    81.1830     6.8970     5.8800     6.7680    24.6840   -16.7470 
   81.6250     2.2500    78.1440     6.8510     5.8480     6.6930    24.6340   -16.5960 
   81.7500     2.2640    75.0070     6.9380     5.8750     6.8680    24.5830   -16.4310 
   81.8750     2.2750    74.4750     7.2630     6.0610     7.1530    24.5370   -16.2830 
   82.0000     2.2790    74.8700     7.8480     6.4650     6.9570    24.4950   -16.0900 
   82.1250     2.2800    73.0990     8.5750     7.0670     7.2640    24.4110   -15.8610 
   82.2500     2.2840    70.7200     9.1420     7.6440     8.7450    24.2360   -15.6700 
   82.3750     2.2900    69.1110     9.2810     7.9580    12.1570    23.9770   -15.4910 
   82.5000     2.2950    68.8830     8.8610     7.8280    13.4090    23.7360   -15.3040 
   82.6250     2.2940    73.5100     7.9510     7.2100     9.9320    23.5910   -15.1430 
   82.7500     2.2910    81.5850     6.9610     6.4100     6.9020    23.5500   -15.0580 
   82.8750     2.2890    88.1960     6.1800     5.6790     5.7330    23.5550   -15.0230 
   83.0000     2.2880    90.4140     5.7690     5.1920     5.1610    23.6110   -15.0130 
   83.1250     2.2870    90.0240     5.7990     5.0700     5.1770    23.6900   -15.0370 
   83.2500     2.2800    88.4750     6.1020     5.2230     5.5350    23.7320   -15.0900 
   83.3750     2.2650    83.4000     6.5400     5.5620     5.9280    23.7790   -15.1080 
   83.5000     2.2480    78.1920     6.9740     5.9720     6.3640    23.8790   -15.0880 
   83.6250     2.2350    77.3240     7.2670     6.3230     6.5450    24.0810   -15.1020 
