~V
VERS. 2.00: Ver 2.00
~W
STRT.M 20.0000:
STOP.M 266.0000:
STEP.M 0.1250:
NULL. -999.2500:
UWI. F10773:
~C
DEPT.M :
DEN.GM/CC :
GR.API :
RML.OHMM :
RI. :
RXO.OHMM :
CALI.CM :
SP.MV :
~A
# ...
   65.0000     2.1140    65.9290     7.1540     6.2870     7.1980    24.2610   -29.3350 
   65.1250     2.1200    63.6070     7.2730     6.4060     7.1200    24.4180   -29.4980 
   65.2500     2.1160    58.0090     7.3990     6.5470     7.1420    24.5230   -29.5520 
   65.3750     2.1080    54.6290     7.4690     6.6170     7.2180    24.5280   -29.4910 
   65.5000     2.1140    55.8260     7.4140     6.5360     7.3330    24.4340   -29.2310 
   65.6250     2.1560    59.9000     7.2310     6.2640     7.3690    24.3100   -28.6910 
   65.7500     2.2250    67.3450     7.0510     5.8980     7.0380    24.2610   -28.0140 
   65.8750     2.2980    78.6620     6.9730     5.5350     6.3030    24.2470   -27.2770 
   66.0000     2.3470    88.3800     6.9970     5.2540     6.0520    24.2160   -26.5150 
   66.1250     2.3460    87.8530     7.0030     5.1090     5.7510    24.2720   -25.8270 
   66.2500     2.3030    82.6990     6.8930     5.0660     5.5240    24.3900   -25.2820 
   66.3750     2.2330    79.7580     6.6880     5.1020     5.6760    24.4660   -24.9530 
   66.5000     2.1590    78.8920     6.4960     5.2010     6.0550    24.3980   -24.8980 
   66.6250     2.1020    76.0660     6.4540     5.3570     6.9310    24.2330   -25.1310 
   66.7500     2.0690    71.6160     6.5640     5.5380     7.1000    24.1810   -25.4960 
   66.8750     2.0560    67.9570     6.7700     5.7240     6.9160    24.2510   -25.9060 
   67.0000     2.0570    67.0390     6.9930     5.9010     6.8490    24.4070   -26.2960 
   67.1250     2.0660    67.9580     7.1540     6.0580     8.4880    24.5260   -26.6390 
   67.2500     2.0800    67.0120     7.2280     6.1780    12.8530    24.4890   -26.9240 
   67.3750     2.0960    64.2990     7.2230     6.2320    15.7660    24.3400   -27.1130 
   67.5000     2.1130    62.1530     7.1750     6.1960    10.8420    24.2310   -27.1990 
   67.6250     2.1270    62.3620     7.1460     6.0730     8.0000    24.2050   -27.2220 
   67.7500     2.1400    62.5380     7.1620     5.9330     7.2130    24.2070   -27.1960 
   67.8750     2.1570    61.9640     7.1970     5.8370     7.2090    24.2220   -27.1150 
   68.0000     2.1830    61.3570     7.2130     5.8230     7.1390    24.2660   -27.0100 
   68.1250     2.2160    58.9980     7.2110     5.9100     7.1320    24.2960   -26.8940 
   68.2500     2.2440    57.0090     7.2280     6.0600     7.1410    24.2280   -26.7080 
   68.3750     2.2560    58.8860     7.2670     6.2360     7.1920    24.0630   -26.4250 
   68.5000     2.2460    63.1940     7.3140     6.3890     7.2490    23.8950   -26.1120 
   68.6250     2.2140    63.8130     7.3620     6.4600     7.3340    23.7890   -25.8070 
   68.7500     2.1750    60.7280     7.4010     6.4490     7.4180    23.7530   -25.4560 
   68.8750     2.1430    58.5140     7.4240     6.3840     7.4460    23.7460   -25.1010 
   69.0000     2.1270    57.8420     7.4290     6.3050     7.4800    23.7460   -24.7390 
   69.1250     2.1410    59.1940     7.4090     6.2320     7.6240    23.7460   -24.2520 
   69.2500     2.1770    63.3440     7.3450     6.1490     7.6780    23.7460   -23.7200 
   69.3750     2.2250    69.3850     7.2330     6.0440     7.4240    23.7460   -23.2700 
   69.5000     2.2680    76.4730     7.1020     5.9370     6.9700    23.7460   -22.9200 
   69.6250     2.2900    82.0040     7.0280     5.8910     7.0800    23.7640   -22.6580 
   69.7500     2.2890    80.9690     7.0620     5.9280     7.5870    23.7840   -22.5750 
   69.8750     2.2660    73.0310     7.1740     6.0330     8.0660    23.7620   -22.6760 
   70.0000     2.2240    64.9480     7.3040     6.1730     8.1380    23.6960   -22.9080 
   70.1250     2.1710    63.5550     7.4290     6.3220     8.0190    23.6820   -23.2740 
   70.2500     2.1190    63.2960     7.5450     6.4700     7.9330    23.6980   -23.7780 
   70.3750     2.0850    60.3770     7.6380     6.6160     7.9420    23.7420   -24.3500 
   70.5000     2.0850    54.4750     7.6940     6.7450     8.0280    23.8030   -24.8800 
   70.6250     2.1280    48.7250     7.7180     6.8140     8.1590    23.8460   -25.3650 
   70.7500     2.1920    48.9730     7.7010     6.8040     8.1750    23.8510   -25.7550 
   70.8750     2.2510    54.3360     7.6300     6.7170     8.0940    23.8020   -25.9720 
   71.0000     2.2810    60.3160     7.5350     6.5740     7.9630    23.6990   -26.0700 
   71.1250     2.2710    63.3000     7.4570     6.4130     7.7520    23.5830   -26.1610 
   71.2500     2.2400    64.2010     7.4040     6.2840     7.5500    23.5270   -26.1860 
   71.3750     2.2040    65.1210     7.3910     6.2190     7.5510    23.4750   -26.1320 
   71.5000     2.1730    64.7930     7.4410     6.2270     7.5910    23.3410   -26.0820 
   71.6250     2.1440    63.6320     7.5610     6.3000     7.5710    23.1610   -25.9690 
   71.7500     2.1110    62.4600     7.6800     6.3910     7.5550    23.0610   -25.8410 
   71.8750     2.0790    61.1430     7.7480     6.4700     7.6180    23.0200   -25.8640 
   72.0000     2.0540    59.5380     7.7660     6.5190     7.7140    23.0300   -25.9600 
   72.1250     2.0500    59.0910     7.7660     6.5320     7.8180    23.1800   -25.9870 
   72.2500     2.0610    60.8630     7.7600     6.5170     7.8120    23.3640   -25.9630 
   72.3750     2.0810    62.9050     7.7330     6.4740     7.8010    23.4610   -25.9290 
   72.5000     2.1040    62.9630     7.6890     6.4100     7.7890    23.5160   -25.8870 
   72.6250     2.1290    61.8340     7.6390     6.3580     7.7210    23.6080   -25.9020 
   72.7500     2.1530    60.8000     7.5910     6.3560     7.6620    23.7320   -25.8900 
   72.8750     2.1740    60.1380     7.5510     6.4100     7.6450    23.7650   -25.7260 
   73.0000     2.1850    61.7860     7.5220     6.4870     7.6590    23.7600   -25.5690 
   73.1250     2.1810    63.7350     7.5130     6.5160     7.6890    23.7770   -25.4410 
   73.2500     2.1680    60.9360     7.5400     6.4710     7.6460    23.8140   -25.2950 
   73.3750     2.1510    57.0370     7.6320     6.3800     7.6270    23.8450   -25.1800 
   73.5000     2.1370    59.1820     7.7750     6.3030     7.6800    23.8780   -25.0750 
   73.6250     2.1290    65.3050     7.8840     6.2980     7.6980    23.9100   -24.8720 
   73.7500     2.1300    67.2180     7.8770     6.3400     7.6690    23.9380   -24.6900 
   73.8750     2.1440    65.2360     7.7280     6.3760     7.6200    23.9480   -24.5500 
   74.0000     2.1760    65.6900     7.4690     6.3460     7.5660    23.9500   -24.2450 
   74.1250     2.2220    69.6690     7.1650     6.2120     7.5350    23.9560   -23.7840 
   74.2500     2.2660    72.5700     6.8800     6.0120     7.3180    23.9760   -23.2800 
   74.3750     2.2950    73.4950     6.6410     5.7980     6.8110    24.0120   -22.6300 
   74.5000     2.3020    75.3240     6.4750     5.6170     6.1210    24.0500   -21.8710 
   74.6250     2.2810    80.0190     6.4410     5.5200     6.2360    24.0670   -21.1920 
   74.7500     2.2440    81.8280     6.5610     5.5130     6.5240    24.0600   -20.5370 
   74.8750     2.2020    76.9110     6.8340     5.5970     6.7220    23.9680   -19.9280 
   75.0000     2.1650    69.9480     7.2100     5.7550     6.5030    23.7140   -19.4960 
   75.1250     2.1480    66.7870     7.5880     5.9560     7.0140    23.4900   -19.2230 
   75.2500     2.1510    65.1650     7.8560     6.1460     7.3040    23.4800   -18.9960 
   75.3750     2.1720    63.4360     7.9390     6.2810     7.3520    23.5920   -18.8100 
   75.5000     2.2020    64.3790     7.7990     6.3230     7.2860    23.7200   -18.6300 
   75.6250     2.2360    68.4870     7.4190     6.2090     7.2050    23.8060   -18.2730 
   75.7500     2.2710    71.2770     6.9020     5.9320     6.8840    23.9020   -17.7110 
   75.8750     2.3090    74.6400     6.3280     5.5000     6.3550    24.1040   -16.9850 
   76.0000     2.3450    82.1560     5.7640     4.9640     5.5510    24.4180   -16.0970 
   76.1250     2.3700    89.1870     5.2710     4.4230     4.9560    24.7100   -15.1480 
