~V
VERS. 2.00: Ver 2.00
~W
STRT.M 59.0000:
STOP.M 239.0000:
STEP.M 0.1250:
NULL. -999.2500:
UWI. F10784:
~C
DEPT.M :
DEN.GM/CC :
GR.API :
RML.OHMM :
RI. :
RXO.OHMM :
CALI.CM :
SP.MV :
~A
# ...
   92.7500     2.2600    85.2600     8.7810     7.4880     6.8090    24.2620   -17.3970 
   92.8750     2.2480    83.1100     9.9230     8.4470     7.9140    24.2620   -17.1750 
   93.0000     2.2420    79.3420    10.7560     9.3250     9.7040    24.2620   -16.9220 
   93.1250     2.2440    75.0650    10.6700     9.5620     9.3000    24.2620   -16.6880 
   93.2500     2.2500    71.5770     9.6800     9.0050     7.8400    24.2620   -16.4400 
   93.3750     2.2550    70.4320     8.1400     7.8410     6.4350    24.2740   -16.2240 
   93.5000     2.2570    72.0970     6.6170     6.5110     5.0440    24.3090   -16.0500 
   93.6250     2.2560    77.6040     5.7240     5.5380     4.0370    24.3760   -15.9200 
   93.7500     2.2520    80.6730     5.5900     5.1140     3.8690    24.3860   -15.7700 
   93.8750     2.2440    76.7800     6.2240     5.3000     4.3860    24.3430   -15.5640 
   94.0000     2.2280    69.7780     7.5600     6.1060     5.4240    24.3010   -15.2880 
   94.1250     2.2010    67.1360     9.5070     7.5810     6.5480    24.2840   -14.8710 
   94.2500     2.1660    68.4060    11.6400     9.4390     7.1930    24.2830   -14.3180 
   94.3750     2.1280    69.3950    13.5710    11.3620     7.5310    24.2840   -13.6220 
   94.5000     2.1010    69.0900    14.9720    12.9830     7.5900    24.2810   -12.8780 
   94.6250     2.0970    70.1300    15.6230    13.9450     7.3820    24.2990   -12.1170 
   94.7500     2.1150    70.9540    15.7870    14.3570     7.1840    24.3370   -11.4710 
   94.8750     2.1470    68.6960    15.7080    14.4010     7.1550    24.3710   -10.9450 
   95.0000     2.1830    63.5710    15.5920    14.2780     7.3030    24.3890   -10.5720 
   95.1250     2.2100    61.9890    15.5710    14.1360     7.4690    24.4020   -10.3190 
   95.2500     2.2200    64.8150    15.6540    14.0510     7.5700    24.4060   -10.1840 
   95.3750     2.2100    68.6010    15.8200    14.0410     7.5230    24.4060   -10.1790 
   95.5000     2.1810    69.4620    16.0450    14.1130     7.4590    24.4080   -10.2800 
   95.6250     2.1530    69.7530    16.3360    14.2910     7.4210    24.4100   -10.4890 
   95.7500     2.1460    72.8210    16.7090    14.5790     7.3430    24.4110   -10.6430 
   95.8750     2.1660    76.6050    17.1860    14.9920     7.2690    24.4130   -10.7880 
   96.0000     2.2010    76.8980    17.7430    15.5230     7.3990    24.4110   -10.9210 
   96.1250     2.2210    72.2050    18.2140    16.0760     7.7050    24.4050   -11.1290 
   96.2500     2.2160    66.4490    18.3160    16.4170     7.8920    24.3980   -11.4100 
   96.3750     2.1970    62.9890    17.7620    16.2690     7.8250    24.3920   -11.7140 
   96.5000     2.1890    63.0840    16.4020    15.4240     7.5720    24.4100   -12.0640 
   96.6250     2.2090    67.4790    14.3010    13.8240     7.3980    24.4670   -12.4160 
   96.7500     2.2480    73.1040    12.0260    11.9230     7.1000    24.5290   -12.8880 
   96.8750     2.2840    78.1700    10.0160    10.1150     6.6470    24.5560   -13.4380 
   97.0000     2.3020    82.7570     8.5620     8.6920     6.3240    24.5590   -14.0730 
   97.1250     2.2960    85.0500     7.8370     7.8620     6.2170    24.5610   -14.7640 
   97.2500     2.2800    85.7610     7.6150     7.4960     6.2270    24.5610   -15.4370 
   97.3750     2.2650    84.5300     7.6980     7.4690     6.4020    24.5610   -16.1100 
   97.5000     2.2590    81.4360     7.8590     7.6050     6.6270    24.5580   -16.6860 
   97.6250     2.2600    79.6380     7.8400     7.6740     6.6410    24.5560   -17.1790 
   97.7500     2.2630    82.6170     7.5410     7.5150     6.6250    24.5570   -17.5350 
   97.8750     2.2660    88.6800     6.9920     7.0960     6.4230    24.5610   -17.8130 
   98.0000     2.2700    93.2590     6.3380     6.5030     5.8350    24.5630   -17.9810 
   98.1250     2.2780    95.9250     5.8110     5.9250     5.4640    24.5610   -18.0570 
   98.2500     2.2880    97.1910     5.5580     5.5290     5.0650    24.5500   -18.0700 
   98.3750     2.2950    95.6530     5.6410     5.3990     4.7280    24.5190   -18.0450 
   98.5000     2.2930    91.9550     6.0550     5.5590     4.9950    24.4530   -18.0850 
   98.6250     2.2790    87.0680     6.7770     6.0190     5.8940    24.4200   -18.1190 
   98.7500     2.2580    81.6140     7.6820     6.6720     6.3690    24.4090   -18.1470 
   98.8750     2.2340    77.6460     8.7490     7.4790     6.4740    24.4090   -18.0600 
   99.0000     2.2080    79.0070    10.0510     8.4560     6.6910    24.4100   -17.8910 
   99.1250     2.1820    81.7330    11.8440     9.7670     7.2290    24.4040   -17.5840 
   99.2500     2.1610    78.9890    14.2210    11.5410     8.6080    24.3480   -17.1710 
   99.3750     2.1530    72.1740    17.1340    13.8530    12.4430    24.2050   -16.6530 
   99.5000     2.1640    64.8060    20.2130    16.5380    23.1890    24.0550   -16.0000 
   99.6250     2.1940    60.6270    22.5690    18.9480    46.6300    23.9510   -15.3100 
   99.7500     2.2270    62.2660    23.5670    20.3650    63.9300    23.8110   -14.6020 
   99.8750     2.2490    68.3860    23.0700    20.4650    45.4800    23.6270   -13.9820 
  100.0000     2.2540    74.4580    21.5340    19.4780    21.1270    23.5190   -13.4490 
  100.1250     2.2440    77.2740    19.7670    18.0250    11.4710    23.4980   -13.1050 
  100.2500     2.2340    80.0380    18.3560    16.7510     8.3330    23.5090   -12.9430 
  100.3750     2.2350    83.6860    17.2980    15.7830     7.4930    23.5690   -12.9830 
  100.5000     2.2530    86.5510    16.2740    14.9370     7.5810    23.7260   -13.1760 
  100.6250     2.2830    88.5680    14.8270    13.8350     7.8300    23.9330   -13.4990 
  100.7500     2.3130    89.0310    12.9000    12.3280     7.8700    24.0840   -13.9330 
  100.8750     2.3310    88.3610    10.7140    10.5270     7.4240    24.2580   -14.4530 
  101.0000     2.3320    88.2880     8.6350     8.7100     6.5700    24.4870   -15.0200 
  101.1250     2.3190    89.3700     7.0650     7.2270     5.7140    24.7310   -15.5980 
  101.2500     2.3030    89.9090     6.0320     6.1690     5.1560    24.8230   -16.1650 
  101.3750     2.2930    89.0110     5.4680     5.5220     4.9900    24.8210   -16.6900 
  101.5000     2.2940    88.4000     5.2530     5.2110     5.5450    24.7670   -17.1450 
  101.6250     2.3020    89.2470     5.2980     5.1760     5.7040    24.7280   -17.5320 
  101.7500     2.3100    90.2770     5.4700     5.2920     5.3110    24.7130   -17.8840 
  101.8750     2.3150    91.0600     5.7070     5.4960     4.9640    24.7110   -18.1430 
  102.0000     2.3120    91.6820     5.9520     5.7300     5.2390    24.7110   -18.3540 
  102.1250     2.3050    90.8250     6.1170     5.9160     5.7310    24.7110   -18.4640 
  102.2500     2.2990    87.3420     6.1350     5.9860     6.1290    24.7070   -18.5310 
  102.3750     2.2950    83.5680     5.9700     5.8930     6.0510    24.6720   -18.5120 
  102.5000     2.2940    83.4450     5.6600     5.6420     5.5530    24.5570   -18.4770 
  102.6250     2.2960    88.0000     5.3560     5.3230     5.2590    24.3720   -18.3690 
  102.7500     2.3010    93.3500     5.2610     5.1130     4.9940    24.2880   -18.2360 
  102.8750     2.3070    97.3640     5.5210     5.1540     4.6900    24.4110   -18.0990 
  103.0000     2.3130    97.5960     6.1850     5.5380     4.7570    24.6540   -17.9530 
  103.1250     2.3160    91.7340     7.1820     6.2990     6.6630    24.7990   -17.7850 
  103.2500     2.3140    82.9680     8.1650     7.1950    11.4520    24.8440   -17.5960 
  103.3750     2.3090    77.6940     8.8040     7.9390    15.7250    24.8490   -17.4070 
  103.5000     2.3020    78.6590     8.8760     8.2600    11.3690    24.8490   -17.2150 
  103.6250     2.2930    83.3880     8.3390     7.9850     7.8990    24.8490   -17.0570 
  103.7500     2.2810    86.4230     7.5560     7.3710     6.5350    24.8490   -16.9140 
  103.8750     2.2660    88.1820     6.7760     6.6490     6.5910    24.8490   -16.7980 
