~V
VERS. 2.00: Ver 2.00
~W
STRT.M 50.0000:
STOP.M 229.0000:
STEP.M 0.1250:
NULL. -999.2500:
UWI. F10777:
~C
DEPT.M :
DEN.GM/CC :
GR.API :
RML.OHMM :
RI. :
RXO.OHMM :
CALI.CM :
SP.MV :
~A
# ...
  162.5000     2.6030    45.9530    30.1870    25.4030    24.8860    25.4100   -19.5570 
  162.6250     2.6210    44.1950    29.7990    25.1660    24.9790    25.4140   -19.4540 
  162.7500     2.6450    42.1480    29.2950    24.8000    24.6520    25.4130   -19.3350 
  162.8750     2.6650    40.6730    28.6260    24.2780    24.1000    25.4020   -19.2080 
  163.0000     2.6740    41.3190    27.8520    23.6500    23.2290    25.3650   -19.0900 
  163.1250     2.6720    42.8880    27.2290    23.1120    21.9140    25.3360   -19.0030 
  163.2500     2.6590    44.3040    27.0230    22.8760    20.6930    25.3150   -18.9520 
  163.3750     2.6460    45.8700    27.3790    23.0740    20.1720    25.2960   -18.9320 
  163.5000     2.6420    48.1600    28.1980    23.6790    21.5470    25.2750   -18.9270 
  163.6250     2.6490    49.4270    28.9810    24.3820    23.5490    25.2600   -18.9230 
  163.7500     2.6580    47.9680    29.0230    24.6250    24.7490    25.2890   -18.9150 
  163.8750     2.6560    44.3590    27.9040    24.0160    23.7000    25.3270   -18.9060 
  164.0000     2.6380    42.7130    25.7000    22.5250    21.8620    25.3350   -18.8880 
  164.1250     2.6090    46.5440    22.9240    20.4710    19.5860    25.5620   -18.8570 
  164.2500     2.5770    50.8410    20.3070    18.4310    16.4310    25.8410   -18.8250 
  164.3750     2.5510    51.9780    18.1440    16.6610    13.8140    25.5560   -18.8140 
  164.5000     2.5320    51.5690    16.4600    15.2210    12.7060    25.0790   -18.8330 
  164.6250     2.5170    52.4900    15.2120    14.1100    12.6680    24.8210   -18.8640 
  164.7500     2.5040    54.0920    14.2620    13.2430    11.6710    24.8340   -18.8580 
  164.8750     2.4960    55.7080    13.6030    12.6220    10.3230    24.8380   -18.7910 
  165.0000     2.4910    56.0130    13.2430    12.2600     9.5820    24.8170   -18.6670 
  165.1250     2.4930    53.2210    13.2430    12.2100     9.5290    24.7700   -18.5260 
  165.2500     2.5040    50.2900    13.5130    12.4080    10.3570    24.7330   -18.4100 
  165.3750     2.5180    49.5130    13.9470    12.7710    11.4860    24.7260   -18.3340 
  165.5000     2.5260    50.8730    14.4090    13.1840    11.4910    24.7460   -18.2860 
  165.6250     2.5250    52.3700    14.8030    13.5470    11.2710    24.7650   -18.2450 
  165.7500     2.5170    55.1180    15.1450    13.8500    11.6200    24.7360   -18.1940 
  165.8750     2.5110    58.0420    15.4800    14.1260    12.0100    24.6860   -18.1330 
  166.0000     2.5150    57.0550    15.8360    14.4010    11.5760    24.6610   -18.0650 
  166.1250     2.5280    52.0020    16.1450    14.6270    11.9910    24.6500   -18.0080 
  166.2500     2.5470    47.1410    16.2690    14.6980    12.6120    24.6270   -17.9700 
  166.3750     2.5620    44.8290    16.1250    14.5430    12.6310    24.6050   -17.9540 
  166.5000     2.5650    45.5270    15.7570    14.1890    11.9750    24.6020   -17.9540 
  166.6250     2.5560    49.8010    15.3250    13.7570    10.8620    24.5900   -17.9690 
  166.7500     2.5340    54.5380    15.0190    13.4050    10.0570    24.5060   -17.9990 
  166.8750     2.5070    56.5670    14.9230    13.2150    10.6180    24.3030   -18.0480 
  167.0000     2.4830    55.5780    15.0150    13.1880    12.3280    24.0800   -18.1090 
  167.1250     2.4660    54.8170    15.2130    13.2790    12.6330    23.9760   -18.1600 
  167.2500     2.4570    56.3240    15.4510    13.4300    12.4800    24.0090   -18.1820 
  167.3750     2.4560    59.3990    15.7800    13.6640    11.9580    24.1350   -18.1820 
  167.5000     2.4610    61.2590    16.3030    14.0480    11.2710    24.2890   -18.1800 
  167.6250     2.4660    59.9050    17.1400    14.6820    11.6060    24.4020   -18.2040 
  167.7500     2.4630    58.8200    18.1860    15.5120    13.2400    24.4030   -18.2590 
  167.8750     2.4510    59.5900    19.2370    16.4020    15.4280    24.3300   -18.3370 
  168.0000     2.4350    61.9150    20.0430    17.1510    16.5550    24.2670   -18.4180 
  168.1250     2.4230    65.0980    20.3830    17.5440    15.6630    24.2160   -18.4680 
  168.2500     2.4210    65.8120    20.3910    17.6360    15.0630    24.1860   -18.4650 
  168.3750     2.4280    61.7620    20.2250    17.5310    15.4550    24.1620   -18.4010 
  168.5000     2.4390    55.3140    19.9810    17.3210    15.6510    24.1450   -18.2930 
  168.6250     2.4500    53.4160    19.6420    17.0150    15.6630    24.1150   -18.1750 
  168.7500     2.4580    54.9690    19.1790    16.6080    15.7450    24.0990   -18.0690 
  168.8750     2.4620    56.8260    18.6090    16.1100    14.4080    24.0800   -17.9680 
  169.0000     2.4650    57.7180    18.0230    15.5840    12.5460    24.0430   -17.8560 
  169.1250     2.4670    58.7000    17.5640    15.1330    11.8620    23.9730   -17.7260 
  169.2500     2.4710    59.6730    17.2850    14.8160    12.2270    23.9470   -17.6020 
  169.3750     2.4760    59.7590    17.2110    14.6710    13.4240    23.9380   -17.5030 
  169.5000     2.4790    57.9350    17.3830    14.7380    14.3520    24.0020   -17.4300 
  169.6250     2.4780    55.9550    17.9390    15.1220    14.3450    24.2530   -17.3720 
  169.7500     2.4750    55.9440    18.9250    15.8470    14.4020    24.5860   -17.3270 
  169.8750     2.4740    58.4400    20.3970    16.9600    15.3520    24.7930   -17.3080 
  170.0000     2.4780    61.8200    22.2950    18.4410    17.7120    24.8650   -17.3380 
  170.1250     2.4870    63.7480    24.3190    20.1120    20.8790    24.8050   -17.4350 
  170.2500     2.5020    63.6520    25.9240    21.5450    23.3680    24.8120   -17.5690 
  170.3750     2.5200    61.9390    26.6770    22.3560    24.5380    25.2570   -17.7030 
  170.5000     2.5380    60.1610    26.3940    22.3350    23.7460    25.8240   -17.8140 
  170.6250     2.5550    59.3610    25.0700    21.4130    23.1680    26.0730   -17.8810 
  170.7500     2.5630    57.7670    23.1720    19.9580    21.8870    25.9820   -17.9110 
  170.8750     2.5590    55.3800    20.9880    18.2110    19.9050    25.8120   -17.9090 
  171.0000     2.5450    53.8480    18.7880    16.4040    18.0280    25.7450   -17.8830 
  171.1250     2.5240    55.7400    16.9090    14.8170    15.3380    25.6910   -17.8410 
  171.2500     2.5030    57.6100    15.5430    13.6130    12.8410    25.5770   -17.7880 
  171.3750     2.4850    56.3490    14.7930    12.8890    11.3930    25.4120   -17.7240 
  171.5000     2.4700    52.6250    14.6490    12.6580    10.8150    25.2460   -17.6440 
  171.6250     2.4570    50.8640    15.0320    12.9090    11.6910    25.1500   -17.5400 
  171.7500     2.4460    52.0220    15.6150    13.4000    12.8400    25.1730   -17.4250 
  171.8750     2.4400    53.9640    16.1230    13.9140    13.5090    25.3420   -17.3100 
  172.0000     2.4430    53.7360    16.3120    14.2230    13.7300    25.5930   -17.2000 
  172.1250     2.4540    51.8750    16.0020    14.1220    12.4800    25.7830   -17.0980 
  172.2500     2.4670    50.4210    15.3680    13.7060    11.6270    25.8630   -16.9980 
  172.3750     2.4740    49.2570    14.5940    13.1170    10.9940    25.8730   -16.8970 
  172.5000     2.4730    48.2430    13.8430    12.4910    10.2650    25.8710   -16.7940 
  172.6250     2.4700    47.4890    13.2450    11.9430     9.9680    25.8290   -16.6880 
  172.7500     2.4690    48.2870    12.7970    11.5020     9.8860    25.7350   -16.5870 
  172.8750     2.4720    50.1040    12.4580    11.1530    10.1340    25.6090   -16.5030 
  173.0000     2.4750    52.4240    12.1650    10.8610    10.3870    25.4000   -16.4580 
  173.1250     2.4760    53.0010    11.8800    10.5950     9.8930    25.0370   -16.4790 
  173.2500     2.4720    50.8290    11.6040    10.3450     9.3810    24.6370   -16.5610 
  173.3750     2.4670    48.0620    11.3820    10.1370     8.9060    24.4440   -16.6870 
  173.5000     2.4660    45.4700    11.2690    10.0090     8.8430    24.6300   -16.8270 
  173.6250     2.4680    43.7410    11.3510    10.0280     9.0860    25.0990   -16.9410 
