~V
VERS. 2.00: Ver 2.00
~W
STRT.M 20.0000:
STOP.M 266.0000:
STEP.M 0.1250:
NULL. -999.2500:
UWI. F10773:
~C
DEPT.M :
DEN.GM/CC :
GR.API :
RML.OHMM :
RI. :
RXO.OHMM :
CALI.CM :
SP.MV :
~A
# ...
  245.0000     2.2840    70.8010     7.7960     6.7140     7.7260    24.7290   -13.2680 
  245.1250     2.2810    72.6580     7.6400     6.5670     7.3260    24.7560   -12.9000 
  245.2500     2.2840    75.3300     7.4720     6.4090     7.0800    24.7400   -12.3370 
  245.3750     2.2910    75.1800     7.3190     6.2650     6.8120    24.7690   -11.6330 
  245.5000     2.2980    72.3390     7.1760     6.1310     6.9520    24.8080   -10.9360 
  245.6250     2.3050    69.6100     7.0280     5.9910     6.8350    24.8220   -10.2710 
  245.7500     2.3100    68.0460     6.8650     5.8380     6.7720    24.8840    -9.6450 
  245.8750     2.3150    65.8520     6.7020     5.6850     5.9970    24.9630    -9.1580 
  246.0000     2.3200    62.3890     6.5870     5.5770     5.5000    25.0680    -8.8520 
  246.1250     2.3290    59.6470     6.5670     5.5580     5.3330    25.0210    -8.6780 
  246.2500     2.3420    60.7680     6.6610     5.6460     5.6160    24.8720    -8.5890 
  246.3750     2.3550    64.4460     6.8370     5.8110     6.0870    24.6860    -8.5440 
  246.5000     2.3640    67.4070     6.9920     5.9570     6.5310    24.6220    -8.5680 
  246.6250     2.3670    67.4760     7.0560     6.0180     6.8950    24.5910    -8.7160 
  246.7500     2.3630    64.3220     7.0150     5.9790     7.1330    24.6030    -8.9800 
  246.8750     2.3520    61.3900     6.9140     5.8840     6.9060    24.7280    -9.3640 
  247.0000     2.3390    60.8880     6.8350     5.8090     6.3700    24.8770    -9.8010 
  247.1250     2.3260    63.5470     6.8190     5.7950     5.9600    24.9700   -10.2690 
  247.2500     2.3170    68.9220     6.8830     5.8550     6.1360    24.9160   -10.7870 
  247.3750     2.3110    76.1650     7.0300     5.9930     6.9230    24.8290   -11.2980 
  247.5000     2.3070    81.7050     7.2370     6.1880     7.1910    24.7480   -11.7050 
  247.6250     2.3020    84.2780     7.4730     6.4100     6.8650    24.7210   -11.9940 
  247.7500     2.2960    85.1010     7.6620     6.5870     6.6150    24.6920   -12.1660 
  247.8750     2.2860    85.2870     7.6400     6.5670     7.0910    24.6700   -12.1520 
  248.0000     2.2700    84.5590     7.3530     6.2970     7.5840    24.6790   -11.9890 
  248.1250     2.2520    80.3750     6.8450     5.8190     7.1360    24.7050   -11.7430 
  248.2500     2.2400    71.5590     6.2610     5.2700     6.4800    24.7690   -11.4520 
  248.3750     2.2450    62.0910     5.8140     4.8490     5.9580    24.8050   -11.1650 
  248.5000     2.2650    57.1210     5.6040     4.6510     5.5230    24.7490   -10.7870 
  248.6250     2.2900    57.9850     5.6360     4.6820     5.3270    24.6890   -10.1930 
  248.7500     2.3120    60.7460     5.8550     4.8880     5.2700    24.6890    -9.5290 
  248.8750     2.3260    62.8650     6.1820     5.1950     5.2940    24.6550    -8.9720 
  249.0000     2.3340    64.3680     6.5010     5.4960     5.6500    24.5910    -8.5220 
  249.1250     2.3360    66.4360     6.7200     5.7010     6.0620    24.5250    -8.0860 
  249.2500     2.3330    69.0210     6.7640     5.7430     6.3470    24.5580    -7.6550 
  249.3750     2.3320    68.5870     6.6010     5.5900     6.2670    24.6470    -7.3270 
  249.5000     2.3390    63.5200     6.3440     5.3480     5.9280    24.7060    -7.2530 
  249.6250     2.3580    55.8220     6.1020     5.1200     5.5930    24.8040    -7.5400 
  249.7500     2.3860    49.9320     5.9610     4.9870     5.4180    24.8680    -7.9670 
  249.8750     2.4120    48.2320     5.9630     4.9900     5.5010    24.8840    -8.2930 
  250.0000     2.4270    46.5910     6.0300     5.0520     5.5860    24.8740    -8.5620 
  250.1250     2.4250    44.1050     6.0750     5.0950     5.5840    24.8620    -8.8720 
  250.2500     2.4050    43.8080     6.0410     5.0630     5.5710    24.8520    -9.1940 
  250.3750     2.3700    46.7390     5.9090     4.9380     5.6550    24.9260    -9.4210 
  250.5000     2.3360    47.1630     5.7310     4.7710     5.6840    25.1960    -9.4770 
  250.6250     2.3140    43.5460     5.5520     4.6030     5.5540    25.5820    -9.3510 
  250.7500     2.3100    39.9360     5.4140     4.4730     5.3230    25.7070    -9.1750 
  250.8750     2.3210    42.1230     5.3770     4.4380     5.2940    25.5670    -9.1290 
  251.0000     2.3360    47.3560     5.4760     4.5310     5.4420    25.2210    -9.2000 
  251.1250     2.3470    51.6750     5.7480     4.7870     5.7600    25.0070    -9.3520 
  251.2500     2.3520    56.1510     6.2120     5.2240     6.3150    24.9320    -9.6090 
  251.3750     2.3470    64.4150     6.8820     5.8540     7.2970    24.8860    -9.9610 
  251.5000     2.3380    72.6390     7.6760     6.6010     8.4090    24.8640   -10.3530 
  251.6250     2.3310    75.7510     8.5170     7.3920     8.9960    24.8330   -10.7410 
  251.7500     2.3390    75.6780     9.2930     8.1220     9.4610    24.8420   -11.1470 
  251.8750     2.3650    77.9860     9.8130     8.6110    10.5260    24.8260   -11.6060 
  252.0000     2.3920    79.9630     9.9940     8.7820    11.5630    24.7820   -12.0100 
  252.1250     2.4030    78.1480     9.8180     8.6160    11.0740    24.7870   -12.3050 
  252.2500     2.3890    75.6170     9.3520     8.1780     9.6050    24.8150   -12.4280 
  252.3750     2.3520    76.1670     8.7160     7.5800     8.7810    24.8430   -12.3690 
  252.5000     2.3140    77.4260     8.0820     6.9830     8.7690    24.8690   -12.2640 
  252.6250     2.2890    77.3860     7.5670     6.4990     8.5900    24.8720   -12.2220 
  252.7500     2.2810    77.0470     7.2840     6.2320     8.2920    24.8990   -12.2940 
  252.8750     2.2910    77.2700     7.4050     6.3460     8.1710    24.8930   -12.3990 
  253.0000     2.3140    76.4900     7.9770     6.8840     7.6050    24.8810   -12.3060 
  253.1250     2.3520    74.8280     9.0730     7.9150     7.5090    24.8200   -11.9840 
  253.2500     2.4050    72.6430    10.7020     9.4470     8.6350    24.7620   -11.6650 
  253.3750     2.4680    70.1220    12.6600    11.2900    12.5200    24.6880   -11.4880 
  253.5000     2.5280    67.6220    14.2940    12.8280    18.8670    24.7530   -11.3660 
  253.6250     2.5750    65.3430    14.9800    13.4720    22.2910    24.7620   -11.2030 
  253.7500     2.6010    65.3810    14.4260    12.9520    21.9060    24.7230   -10.8780 
  253.8750     2.5960    68.0300    12.8310    11.4500    17.4820    24.6620   -10.3390 
  254.0000     2.5640    70.7580    11.0410     9.7670    12.1150    24.7700    -9.8770 
  254.1250     2.5100    72.0810     9.5230     8.3380     8.1970    24.9180    -9.5750 
  254.2500     2.4430    71.8980     8.4400     7.3200     7.0250    25.0510    -9.3220 
  254.3750     2.3800    72.2120     7.7970     6.7150     7.3600    25.1580    -9.0040 
  254.5000     2.3350    71.9830     7.4070     6.3470     7.2680    25.2360    -8.6200 
  254.6250     2.3160    71.9360     7.1800     6.1350     6.7220    25.3170    -8.2260 
  254.7500     2.3220    72.9030     7.0630     6.0240     6.2470    25.3600    -7.9240 
  254.8750     2.3460    73.4760     7.0300     5.9940     6.1350    25.3290    -7.7200 
  255.0000     2.3690    74.0830     7.0420     6.0050     6.2230    25.2470    -7.6430 
  255.1250     2.3810    74.2310     7.0730     6.0340     6.5140    25.1180    -7.6720 
  255.2500     2.3770    74.1720     7.1020     6.0610     7.0120    24.9870    -7.6490 
  255.3750     2.3610    73.4810     7.1190     6.0770     7.1770    24.9250    -7.6040 
  255.5000     2.3490    72.1110     7.1250     6.0830     7.0230    24.9120    -7.7040 
  255.6250     2.3460    71.5010     7.1170     6.0750     6.8090    24.8960    -7.8970 
  255.7500     2.3520    70.7070     7.0900     6.0490     6.6630    24.8990    -8.0460 
  255.8750     2.3600    69.6810     7.0430     6.0050     6.6440    24.8760    -8.1960 
  256.0000     2.3610    69.6810     6.9920     5.9570     6.8830    24.8530    -8.3570 
  256.1250     2.3570    69.6810     6.9480     5.9160     7.2040    24.8370    -8.5790 
