~V
VERS. 2.00: Ver 2.00
~W
STRT.M 50.0000:
STOP.M 261.0000:
STEP.M 0.1250:
NULL. -999.2500:
UWI. F10772:
~C
DEPT.M :
GR.API :
RML.OHMM :
RI. :
RXO.OHMM :
CALI.CM :
SP.MV :
DEN.GM/CC :
~A
# ...
  117.5000    79.3650     7.5270     7.3380     7.2320    24.5340    -3.1400     2.3160 
  117.6250    79.9840     7.3160     7.1460     7.1230    24.5250    -3.1520     2.3030 
  117.7500    81.6830     7.0930     6.8910     6.8690    24.5980    -3.2280     2.2990 
  117.8750    86.5580     6.8980     6.6160     6.3670    24.6880    -3.3320     2.3010 
  118.0000    91.6280     6.7660     6.3760     6.0250    24.7270    -3.4760     2.3050 
  118.1250    91.6750     6.7280     6.2360     5.8530    24.7170    -3.7160     2.3120 
  118.2500    88.3320     6.7700     6.1920     6.2100    24.6830    -3.9430     2.3230 
  118.3750    85.4000     6.8940     6.2300     6.6890    24.6210    -4.1200     2.3360 
  118.5000    84.8770     7.1260     6.3490     6.6890    24.5510    -4.3370     2.3470 
  118.6250    84.4560     7.5510     6.6180     6.7160    24.4790    -4.6910     2.3470 
  118.7500    81.5660     8.2070     7.0900     6.9450    24.4320    -5.0940     2.3330 
  118.8750    77.4680     9.1400     7.8130     7.8540    24.3720    -5.4920     2.3090 
  119.0000    74.2120    10.3970     8.8020     9.0710    24.2780    -5.8020     2.2800 
  119.1250    73.6570    12.0910    10.0970    11.8040    24.2380    -5.9410     2.2550 
  119.2500    71.8070    14.1240    11.6470    13.3270    24.2800    -5.9860     2.2370 
  119.3750    67.2750    16.3450    13.4330    11.9010    24.4040    -5.9840     2.2360 
  119.5000    63.0050    18.5290    15.3980    10.5130    24.5690    -5.8880     2.2670 
  119.6250    60.3670    20.3250    17.3210    12.1150    24.6610    -5.6930     2.3450 
  119.7500    58.3770    21.4970    18.7910    16.4760    24.6750    -5.4310     2.4480 
  119.8750    56.2300    21.8720    19.4270    19.0830    24.6670    -5.1090     2.5340 
  120.0000    54.6270    21.4870    19.1220    15.2320    24.6420    -4.7350     2.5600 
  120.1250    56.3900    20.6290    18.1560    11.8810    24.5770    -4.4180     2.4950 
  120.2500    59.4520    19.8610    17.2230    11.0500    24.5010    -4.1950     2.3760 
  120.3750    61.2210    19.5000    16.7130    11.3990    24.4680    -4.0180     2.2520 
  120.5000    60.7080    19.6360    16.7590    11.9150    24.4640    -3.8320     2.1620 
  120.6250    59.0330    20.1690    17.3010    12.2910    24.4640    -3.6320     2.1280 
  120.7500    56.9680    20.7820    17.9860    12.6280    24.4640    -3.5210     2.1280 
  120.8750    52.8480    21.2950    18.5920    13.0960    24.4590    -3.5150     2.1390 
  121.0000    49.7950    21.6140    19.0080    13.0570    24.4410    -3.6250     2.1470 
  121.1250    51.0140    21.6820    19.2070    12.4670    24.4170    -3.7640     2.1460 
  121.2500    52.8690    21.5420    19.2300    12.4460    24.4280    -3.9280     2.1390 
  121.3750    54.2250    21.2040    19.0450    13.0320    24.4630    -4.1820     2.1280 
  121.5000    55.3400    20.7030    18.6400    13.1070    24.5010    -4.5660     2.1170 
  121.6250    54.3470    20.1250    18.0720    12.5480    24.5100    -4.9200     2.1140 
  121.7500    51.7380    19.6210    17.5220    12.0230    24.4830    -5.1670     2.1260 
  121.8750    51.9490    19.3040    17.1370    11.4140    24.4330    -5.3730     2.1500 
  122.0000    55.6940    19.2230    17.0070    10.8300    24.4030    -5.5850     2.1780 
  122.1250    57.6940    19.3550    17.1530    11.2070    24.3960    -5.7840     2.1900 
  122.2500    56.9210    19.5350    17.3940    11.7550    24.3960    -5.9880     2.1840 
  122.3750    55.7350    19.6340    17.5750    11.8310    24.3960    -6.1880     2.1650 
  122.5000    54.6960    19.5650    17.5980    11.5110    24.3960    -6.3670     2.1470 
  122.6250    54.2050    19.2650    17.4140    11.0430    24.3960    -6.5500     2.1410 
  122.7500    55.3600    18.7770    17.0690    10.6930    24.4020    -6.6880     2.1450 
  122.8750    58.4620    18.1260    16.5620    10.4760    24.4240    -6.8020     2.1520 
  123.0000    61.0290    17.3510    15.8930    10.5800    24.4670    -6.9350     2.1580 
  123.1250    61.8000    16.5300    15.0930    10.7050    24.5090    -7.1020     2.1700 
  123.2500    62.3260    15.7990    14.3090    10.4030    24.5140    -7.1760     2.1910 
  123.3750    62.5900    15.2770    13.6970     9.6450    24.4810    -7.1000     2.2210 
  123.5000    62.1240    15.0400    13.3880     9.6040    24.4250    -6.9480     2.2460 
  123.6250    60.8500    15.1240    13.4800     9.9630    24.3450    -6.8400     2.2500 
  123.7500    60.9100    15.3750    13.8370    10.2330    24.2900    -6.7950     2.2350 
  123.8750    60.7230    15.6580    14.3170    10.3960    24.2740    -6.7280     2.2070 
  124.0000    57.3680    15.8520    14.7520    10.8510    24.3140    -6.6060     2.1820 
  124.1250    53.8450    15.8600    14.9640    11.4600    24.3710    -6.5380     2.1720 
  124.2500    54.5820    15.7120    14.9610    11.2210    24.3940    -6.5730     2.1760 
  124.3750    57.5400    15.4270    14.7990    10.4990    24.3830    -6.6950     2.1900 
  124.5000    58.2160    15.0020    14.5090    10.3400    24.3480    -6.7960     2.2060 
  124.6250    57.7590    14.3710    14.0060    10.0090    24.3130    -6.8010     2.2190 
  124.7500    60.7510    13.5430    13.2490     9.8170    24.2870    -6.7690     2.2340 
  124.8750    64.7930    12.5670    12.2550     9.6650    24.2830    -6.7460     2.2560 
  125.0000    66.1990    11.5750    11.1480     9.4350    24.3090    -6.6620     2.2880 
  125.1250    66.9440    10.8270    10.1740     8.7800    24.3670    -6.4490     2.3220 
  125.2500    70.6400    10.5160     9.5600     8.0420    24.4080    -6.1560     2.3390 
  125.3750    75.2030    10.7620     9.4760     7.9310    24.3810    -5.8400     2.3310 
  125.5000    75.1890    11.5500    10.0090     8.3230    24.3170    -5.5520     2.3060 
  125.6250    69.4410    12.6840    11.1860     8.5300    24.2700    -5.3870     2.2940 
  125.7500    64.5580    13.6700    12.5730     9.1750    24.2070    -5.3050     2.3210 
  125.8750    62.5140    14.0890    13.5680    11.0940    24.1530    -5.2500     2.3890 
  126.0000    61.8130    13.7020    13.5530    13.4290    24.1380    -5.2170     2.4730 
  126.1250    61.6070    12.5310    12.3290    12.2500    24.2730    -5.2230     2.5250 
  126.2500    63.8430    11.1500    10.7450     9.0770    24.5150    -5.3210     2.5230 
  126.3750    68.5790    10.0160     9.4020     7.6910    24.7470    -5.5280     2.4710 
  126.5000    72.1290     9.4280     8.6050     7.1830    24.8400    -5.8030     2.3890 
  126.6250    71.1970     9.5470     8.5220     7.4300    24.7510    -5.9480     2.3090 
  126.7500    67.6330    10.1040     8.9560     8.1320    24.5820    -5.9900     2.2490 
  126.8750    63.8790    10.8540     9.7110     8.8270    24.4330    -6.0400     2.2160 
  127.0000    60.6950    11.5330    10.5210     9.2020    24.3530    -6.1700     2.2110 
  127.1250    61.2460    11.8600    11.0380     9.3280    24.3390    -6.2810     2.2310 
  127.2500    66.4810    11.7860    11.1100     9.4740    24.3420    -6.2710     2.2590 
  127.3750    72.9360    11.3670    10.7300     9.8680    24.3550    -6.1280     2.2860 
  127.5000    75.5330    10.7840    10.0490     9.3270    24.3570    -5.9260     2.3040 
  127.6250    74.3420    10.3860     9.3740     8.8490    24.3680    -5.8230     2.3080 
  127.7500    72.4260    10.5300     9.0370     8.5750    24.3930    -5.7890     2.2950 
  127.8750    69.7630    11.5270     9.3320     8.6040    24.4130    -5.7010     2.2700 
  128.0000    65.9830    13.5470    10.5720     9.4660    24.4210    -5.5480     2.2460 
  128.1250    62.6400    16.4860    13.2270    14.7200    24.4900    -5.4310     2.2590 
  128.2500    61.1400    19.3720    16.8690    29.7080    24.6290    -5.3380     2.3240 
  128.3750    60.3030    21.1270    20.2500    51.9930    24.7980    -5.2630     2.4350 
  128.5000    59.3190    20.9210    21.3200    52.5280    24.8560    -5.2190     2.5580 
  128.6250    61.2240    18.4870    18.7770    31.6870    24.8550    -5.2350     2.6330 
