~V
VERS. 2.00: Ver 2.00
~W
STRT.M 50.0000:
STOP.M 261.0000:
STEP.M 0.1250:
NULL. -999.2500:
UWI. F10772:
~C
DEPT.M :
GR.API :
RML.OHMM :
RI. :
RXO.OHMM :
CALI.CM :
SP.MV :
DEN.GM/CC :
~A
# ...
  241.2500    34.1860     4.3930     3.8360     4.3250    24.6950     0.6130     2.3990 
  241.3750    34.3090     4.4130     3.8460     4.2370    24.6960     0.8420     2.4030 
  241.5000    32.3290     4.4570     3.8800     4.2530    24.6950     1.0340     2.4060 
  241.6250    30.6670     4.5080     3.9310     4.4520    24.7050     1.1240     2.4120 
  241.7500    29.7190     4.5430     3.9790     4.5690    24.7340     1.1860     2.4220 
  241.8750    28.8300     4.5510     3.9990     4.6200    24.7610     1.2490     2.4330 
  242.0000    29.5940     4.5390     3.9750     4.7060    24.7710     1.2410     2.4420 
  242.1250    32.1710     4.5310     3.9010     4.7460    24.7270     1.1650     2.4390 
  242.2500    33.5000     4.5460     3.8120     4.3030    24.6880     1.0820     2.4280 
  242.3750    31.8660     4.5830     3.7380     3.9640    24.6300     0.9860     2.4140 
  242.5000    28.4230     4.6260     3.7040     3.9270    24.5910     0.8740     2.4060 
  242.6250    27.3970     4.6500     3.7240     4.2350    24.5960     0.7230     2.4100 
  242.7500    29.1960     4.6440     3.7730     4.4930    24.6230     0.5290     2.4230 
  242.8750    31.7670     4.6080     3.8240     4.4560    24.6440     0.3310     2.4390 
  243.0000    31.9170     4.5530     3.8510     4.3250    24.6630     0.2330     2.4530 
  243.1250    29.6840     4.4940     3.8400     4.2300    24.6400     0.3050     2.4620 
  243.2500    28.0490     4.4480     3.8080     4.2120    24.5780     0.4710     2.4670 
  243.3750    28.2090     4.4230     3.7740     4.2080    24.4940     0.7060     2.4720 
  243.5000    29.2500     4.4220     3.7550     4.1420    24.4630     1.0200     2.4800 
  243.6250    28.5220     4.4500     3.7550     4.0890    24.5070     1.3890     2.4890 
  243.7500    26.4860     4.5010     3.7670     4.0840    24.5760     1.7520     2.4940 
  243.8750    24.8360     4.5670     3.7890     4.1530    24.5800     2.0100     2.4890 
  244.0000    24.9170     4.6430     3.8200     4.2580    24.5310     2.1610     2.4730 
  244.1250    26.0300     4.7240     3.8550     4.2930    24.5250     2.2230     2.4490 
  244.2500    27.5580     4.8040     3.8870     4.4210    24.5640     2.2090     2.4270 
  244.3750    28.9180     4.8690     3.9090     4.5120    24.6150     2.1450     2.4160 
  244.5000    28.4660     4.8810     3.9100     4.4770    24.6410     2.0560     2.4170 
  244.6250    26.3690     4.7840     3.8760     4.3760    24.6540     1.9890     2.4270 
  244.7500    25.2510     4.6050     3.8110     4.3390    24.6580     1.9920     2.4360 
  244.8750    24.7670     4.4150     3.7270     4.3460    24.6680     2.0960     2.4410 
  245.0000    24.4640     4.3090     3.6510     4.3970    24.6750     2.2210     2.4420 
  245.1250    24.9080     4.4600     3.6700     4.4760    24.6720     2.2420     2.4440 
  245.2500    27.1590     4.9940     4.0230     4.5890    24.6810     2.1230     2.4480 
  245.3750    31.4240     6.0100     4.9880     4.7890    24.6790     1.8890     2.4530 
  245.5000    37.6060     7.4310     6.5870     5.3950    24.6520     1.6040     2.4570 
  245.6250    45.1640     8.8790     8.3990     7.7890    24.6240     1.3290     2.4580 
  245.7500    50.2240     9.8790     9.5760    11.7190    24.5950     1.0700     2.4600 
  245.8750    50.8490    10.2410     9.7210    13.5060    24.6070     0.8600     2.4670 
  246.0000    48.9780    10.1020     9.1960    12.8530    24.6770     0.7000     2.4850 
  246.1250    47.8930     9.8000     8.7620    11.0550    24.7360     0.6050     2.5160 
  246.2500    48.9600     9.5770     8.6990     9.8110    24.7710     0.5930     2.5490 
  246.3750    51.1350     9.3790     8.7090    10.1890    24.7640     0.6860     2.5730 
  246.5000    52.4760     9.0470     8.4270    11.8330    24.8130     0.7730     2.5740 
  246.6250    51.0250     8.4580     7.7700    11.6330    24.8470     0.6890     2.5460 
  246.7500    47.2910     7.7260     6.9560     9.9680    24.8980     0.5100     2.5030 
  246.8750    43.3460     6.9920     6.1740     7.7010    24.9390     0.2540     2.4630 
  247.0000    41.5230     6.3830     5.5590     6.5150    24.9440    -0.0820     2.4400 
  247.1250    41.9700     6.0060     5.2050     6.2280    24.9030    -0.5230     2.4400 
  247.2500    42.8080     5.8370     5.0660     6.2240    24.8450    -0.9920     2.4510 
  247.3750    43.7190     5.8510     5.1050     6.2980    24.8220    -1.4240     2.4610 
  247.5000    45.0560     6.0100     5.2780     6.6300    24.8540    -1.7370     2.4620 
  247.6250    46.5110     6.2870     5.5610     7.2160    24.8880    -1.8650     2.4540 
  247.7500    47.6830     6.6230     5.9050     7.2390    24.8980    -1.8930     2.4460 
  247.8750    48.4840     6.9780     6.2710     7.5220    24.8810    -1.8290     2.4440 
  248.0000    48.2700     7.3100     6.6150     7.9550    24.8360    -1.6700     2.4530 
  248.1250    47.5120     7.5620     6.8730     8.3850    24.7690    -1.3740     2.4730 
  248.2500    46.9300     7.7140     7.0260     8.6570    24.7630    -1.0140     2.5000 
  248.3750    45.6780     7.7430     7.0590     8.4450    24.7740    -0.7040     2.5270 
  248.5000    44.6210     7.6240     6.9610     8.3360    24.8090    -0.4860     2.5460 
  248.6250    47.7460     7.3020     6.7010     8.2900    24.8790    -0.3280     2.5450 
  248.7500    52.1350     6.8290     6.3140     7.4640    24.9190    -0.1910     2.5240 
  248.8750    52.3360     6.2800     5.8380     6.9230    24.8940    -0.1040     2.4880 
  249.0000    47.5530     5.7470     5.3380     6.5830    24.8350    -0.0600     2.4490 
  249.1250    42.8350     5.3220     4.8990     5.8540    24.8090    -0.0950     2.4210 
  249.2500    41.1680     5.0330     4.5680     5.1260    24.8100    -0.2310     2.4100 
  249.3750    41.7300     4.9020     4.3740     4.6720    24.8390    -0.5090     2.4150 
  249.5000    43.2790     4.9310     4.3240     4.6170    24.8790    -0.9760     2.4290 
  249.6250    44.7920     5.1210     4.4400     4.9220    24.8990    -1.4580     2.4410 
  249.7500    45.0970     5.4060     4.6810     5.3730    24.8960    -2.4280     2.4400 
  249.8750    44.9830     5.7440     5.0160     5.8970    24.8930    -2.9340     2.4250 
  250.0000    44.9830     6.0880     5.3940     6.4780    24.8860    -3.3440     2.4000 
  250.1250    44.9830     6.3720     5.7340     7.3550    24.2670    -3.6360     2.3790 
  250.2500    44.9830     6.5590     5.9760     7.5670    24.2670    -3.7660     2.3700 
  250.3750    44.9830     6.6370     6.1000     7.7360    24.2670    -3.7500     2.3750 
  250.5000    44.9830     6.6350     6.1230     7.2810    24.2670    -3.6410     2.3910 
  250.6250    44.9830     6.6080     6.0890     7.1220    24.2670    -3.5400     2.4150 
  250.7500    44.9830     6.6070     6.0520     6.9610    24.2670    -3.5160     2.4440 
  250.8750    44.9830     6.6290     6.0160     7.0200    24.2670    -3.4660     2.4730 
  251.0000    44.9830     6.6330     5.9570     7.4130    24.2670    -3.3420     2.4930 
  251.1250    44.9830     6.5460     5.8090     7.7520    24.2670    -3.2370     2.4940 
  251.2500    44.9830     6.3650     5.5650     7.3150    24.2670    -3.1380     2.4790 
  251.3750    44.9830     6.1390     5.2710     6.4910    24.2670    -3.0680     2.4580 
  251.5000    44.9830     5.9660     5.0170     5.7500    24.4000    -3.0130     2.4420 
  251.6250    44.9830     5.9940     4.9420     5.4780    24.5190    -2.9770     2.4390 
  251.7500    44.9830     6.2590     5.0970     5.9020    24.8900    -3.0350     2.4430 
  251.8750    44.9830     6.7400     5.4890     7.2530    24.9240    -3.3190     2.4430 
  252.0000    44.9830     7.3480     6.0720     9.6510    24.9420    -3.7490     2.4350 
  252.1250    44.9830     7.8370     6.6070    10.9580    24.9380    -4.2570     2.4180 
  252.2500    44.9830     8.5660     7.5120    10.3720    24.8810    -4.8840     2.3960 
  252.3750    44.9830     8.8180     7.8270     9.6420    24.8370    -5.4570     2.3760 
