~V
VERS. 2.00: Ver 2.00
~W
STRT.M 51.0000:
STOP.M 263.0000:
STEP.M 0.1250:
NULL. -999.2500:
UWI. F10758:
~C
DEPT.M :
DEN.GM/CC :
GR.API :
RML.OHMM :
RI. :
RXO.OHMM :
CALI.CM :
SP.MV :
~A
# ...
  163.5000     2.5170    49.0830    57.9110    52.3010    70.5520    23.7080   -13.6780 
  163.6250     2.5620    49.9230    62.8270    58.4210    82.7070    23.8470   -13.3110 
  163.7500     2.5950    51.5800    62.7090    59.7870    73.1400    23.9980   -13.0530 
  163.8750     2.6130    52.5410    59.0210    57.1760    54.0070    24.0400   -12.8410 
  164.0000     2.6170    52.5840    54.2950    52.7980    41.3320    24.0130   -12.7020 
  164.1250     2.6100    50.8320    50.4330    48.6240    40.5200    23.9030   -12.6330 
  164.2500     2.5960    49.2650    47.6510    45.3140    44.9870    23.8460   -12.6230 
  164.3750     2.5770    50.0890    45.6750    42.7950    47.5830    23.8070   -12.6580 
  164.5000     2.5580    51.6590    44.3400    40.9460    41.4330    23.7390   -12.7020 
  164.6250     2.5470    51.1780    44.0290    40.0640    33.9650    23.7190   -12.7640 
  164.7500     2.5420    49.3070    45.0270    40.3880    31.3190    23.7150   -12.8150 
  164.8750     2.5450    46.6900    47.4590    42.1140    35.3200    23.7150   -12.9020 
  165.0000     2.5550    43.7460    50.9740    45.0710    43.7430    23.7080   -13.0010 
  165.1250     2.5730    41.7430    54.6300    48.6030    54.6780    23.6440   -13.1380 
  165.2500     2.5960    42.0170    57.2800    51.6300    62.7250    23.4430   -13.2820 
  165.3750     2.6220    43.2190    58.2520    53.4810    59.5750    23.2770   -13.4620 
  165.5000     2.6410    43.5230    57.3010    53.8290    48.1980    23.2210   -13.6300 
  165.6250     2.6430    43.4950    54.1290    52.2220    43.6320    23.2650   -13.7670 
  165.7500     2.6280    43.0670    49.1130    48.6950    47.3410    23.3230   -13.9260 
  165.8750     2.5990    41.9880    42.4890    43.1300    50.0970    23.2360   -14.0660 
  166.0000     2.5590    41.7110    35.0180    36.0430    41.1440    23.0980   -14.2160 
  166.1250     2.5080    44.2940    28.1190    28.8990    26.5910    22.7980   -14.3300 
  166.2500     2.4540    47.8860    22.7400    23.0850    17.9850    22.4780   -14.4380 
  166.3750     2.4040    50.4480    19.1540    19.0700    13.2600    22.2520   -14.4960 
  166.5000     2.3690    52.9830    17.2400    16.8010    10.4020    22.1000   -14.5270 
  166.6250     2.3560    56.4900    16.8760    16.2030    10.2020    22.1140   -14.5150 
  166.7500     2.3610    57.2680    17.4220    16.6480    12.0200    22.4010   -14.4080 
  166.8750     2.3720    54.4360    18.4960    17.7760    14.4040    22.8030   -14.2460 
  167.0000     2.3820    51.1100    19.7830    19.2490    15.4890    23.0000   -14.0080 
  167.1250     2.3890    49.8490    21.1200    20.8310    16.0840    23.0080   -13.7580 
  167.2500     2.4050    50.1960    22.6060    22.4770    17.2370    22.9850   -13.4800 
  167.3750     2.4380    50.9800    24.4360    24.3040    17.7460    23.1010   -13.2340 
  167.5000     2.4890    50.0660    26.6190    26.3740    18.4900    23.2530   -13.0250 
  167.6250     2.5380    46.7200    28.6640    28.3910    25.7990    23.4400   -12.8880 
  167.7500     2.5590    44.0310    29.7530    29.6530    30.0500    23.5320   -12.8180 
  167.8750     2.5350    44.2310    29.2870    29.5220    30.7430    23.6630   -12.7930 
  168.0000     2.4720    45.2660    27.2320    27.8280    26.6840    23.7010   -12.8300 
  168.1250     2.3900    45.9350    24.1330    24.9310    24.0220    23.6910   -12.8480 
  168.2500     2.3230    48.8070    21.1300    21.8820    21.9470    23.5870   -12.8730 
  168.3750     2.2900    54.8680    18.8620    19.3300    18.3570    23.3230   -12.8420 
  168.5000     2.3010    60.8820    17.5980    17.6440    15.4200    23.1020   -12.7570 
  168.6250     2.3500    60.9660    17.5880    17.1220    13.9450    23.4960   -12.6420 
  168.7500     2.4020    56.7860    18.7030    17.6010    14.2470    23.7610   -12.4970 
  168.8750     2.4360    53.8730    20.9220    19.0240    17.4380    23.8880   -12.3520 
  169.0000     2.4400    53.3030    23.9780    21.2420    24.7410    23.9860   -12.1890 
  169.1250     2.4220    52.5080    27.1620    23.9000    27.3990    24.0120   -12.0470 
  169.2500     2.4080    50.7920    29.5620    26.2970    26.4110    23.9170   -11.9150 
  169.3750     2.4090    49.5940    30.7120    27.9290    25.9320    23.9640   -11.8140 
  169.5000     2.4270    50.1560    30.7840    28.6510    27.2000    23.9500   -11.7860 
  169.6250     2.4460    50.4710    30.4790    28.7210    30.6800    23.8650   -11.7880 
  169.7500     2.4540    50.6130    30.4940    28.7450    29.9590    23.7730   -11.8290 
  169.8750     2.4520    52.2060    30.9720    28.9920    26.4620    23.7220   -11.8750 
  170.0000     2.4530    54.5580    31.7600    29.4810    26.3850    23.7050   -11.9450 
  170.1250     2.4680    54.9390    32.5210    30.0040    29.7930    23.6430   -12.0000 
  170.2500     2.4950    52.3000    32.9260    30.2730    32.1940    23.5150   -12.0760 
  170.3750     2.5200    48.8100    32.8470    30.1390    31.3580    23.6380   -12.1660 
  170.5000     2.5300    47.2930    32.4070    29.6670    27.0870    23.8310   -12.2380 
  170.6250     2.5220    46.5520    31.9590    29.1450    25.2830    23.8050   -12.2580 
  170.7500     2.5060    45.4960    31.7930    28.8740    24.0230    23.8040   -12.2350 
  170.8750     2.4960    45.6830    31.8920    28.9000    24.6730    23.8220   -12.1940 
  171.0000     2.4960    47.5640    31.9840    29.0280    27.4880    23.8610   -12.1220 
  171.1250     2.4980    49.4860    31.5820    28.8220    30.5860    23.7850   -12.0900 
  171.2500     2.4940    50.7780    30.5410    28.0400    28.1720    23.7000   -12.0520 
  171.3750     2.4800    52.4180    29.0160    26.7310    24.1580    23.5070   -12.0370 
  171.5000     2.4660    52.3170    27.3860    25.2290    21.2960    23.0170   -12.0240 
  171.6250     2.4610    48.3610    26.1500    24.0450    20.5070    23.3880   -12.0460 
  171.7500     2.4700    46.2070    25.4840    23.4080    20.7050    23.7180   -12.0790 
  171.8750     2.4920    47.1250    25.3270    23.3140    19.9580    23.8880   -12.1080 
  172.0000     2.5190    48.3240    25.4460    23.5850    19.9550    24.0270   -12.1460 
  172.1250     2.5430    47.7420    25.5600    23.9620    21.5070    23.9050   -12.1450 
  172.2500     2.5560    47.8560    25.5630    24.2370    22.7570    24.0580   -12.1590 
  172.3750     2.5540    49.1440    25.5670    24.3870    22.1520    24.1630   -12.1400 
  172.5000     2.5430    50.9010    25.8170    24.5110    20.9680    24.2260   -12.1340 
  172.6250     2.5330    53.1750    26.6170    24.8200    21.5250    24.2640   -12.1070 
  172.7500     2.5320    54.9230    27.8080    25.3970    23.5870    24.2660   -12.1070 
  172.8750     2.5420    54.0610    29.0010    26.1110    27.0230    24.3510   -12.1070 
  173.0000     2.5550    51.2020    29.7300    26.6430    27.2070    24.3090   -12.1100 
  173.1250     2.5600    49.5040    29.5670    26.5670    28.9820    24.0640   -12.1210 
  173.2500     2.5510    49.4830    28.7450    25.9290    29.9360    24.0720   -12.0850 
  173.3750     2.5350    50.0310    27.6610    25.0070    25.8590    23.9840   -12.0370 
  173.5000     2.5180    49.8500    26.7670    24.1920    18.8730    23.7740   -11.9390 
  173.6250     2.5090    48.6310    26.4390    23.8490    18.4900    23.6470   -11.8840 
  173.7500     2.5060    47.7470    26.6060    23.9480    21.2210    23.5020   -11.8050 
  173.8750     2.5070    47.9630    27.1340    24.3600    22.7010    23.5000   -11.7120 
  174.0000     2.5070    49.5740    27.8440    24.9140    22.5110    23.5190   -11.6030 
  174.1250     2.5080    49.4040    28.6050    25.4760    21.4160    23.6870   -11.4490 
  174.2500     2.5160    47.5080    29.4520    26.0580    20.3280    23.8180   -11.3320 
  174.3750     2.5300    47.4790    30.4780    26.7650    21.8350    23.9530   -11.2650 
  174.5000     2.5490    50.4160    31.6100    27.6110    23.9710    23.9680   -11.2800 
  174.6250     2.5690    52.1140    32.4710    28.3710    26.1300    24.0210   -11.2940 
