~V
VERS. 2.00: Ver 2.00
~W
STRT.M 40.0000:
STOP.M 236.0000:
STEP.M 0.1250:
NULL. -999.2500:
UWI. F10781:
~C
DEPT.M :
GR.API :
RML.OHMM :
RI. :
RXO.OHMM :
CALI.CM :
SP.MV :
DEN.GM/CC :
~A
# ...
   96.2500    58.9240    18.3300    15.2450    10.9420    25.2440    -4.4110     2.2300 
   96.3750    61.5360    19.1210    15.6930    10.8210    25.2180    -4.3630     2.2360 
   96.5000    63.3600    20.4400    16.5800    11.0020    25.1390    -4.2870     2.2340 
   96.6250    63.6870    21.9810    17.7800    12.1370    25.0460    -4.1780     2.2230 
   96.7500    62.3990    23.1850    18.9040    13.9510    24.9330    -4.0680     2.2100 
   96.8750    59.5150    23.6790    19.6390    14.2210    24.8350    -3.9920     2.2010 
   97.0000    57.3390    23.4100    19.8500    12.9180    24.7410    -3.9670     2.2010 
   97.1250    57.4380    22.5440    19.5540    11.9170    24.6850    -4.0270     2.2060 
   97.2500    56.2830    21.3620    18.9340    11.5130    24.6380    -4.1430     2.2120 
   97.3750    53.6920    19.8500    17.9730    11.5230    24.6000    -4.3160     2.2170 
   97.5000    54.9170    17.9400    16.6240    11.5420    24.5660    -4.5670     2.2230 
   97.6250    62.0060    15.6760    14.9050    11.2120    24.5510    -4.9060     2.2340 
   97.7500    67.5310    13.4520    13.1220    10.1040    24.5400    -5.3060     2.2470 
   97.8750    68.2360    11.6090    11.5450     8.5760    24.5390    -5.7300     2.2580 
   98.0000    67.1480    10.3270    10.3480     8.0340    24.5470    -6.1440     2.2660 
   98.1250    67.2420     9.6490     9.6100     8.2330    24.5610    -6.4980     2.2730 
   98.2500    68.3160     9.2870     9.1410     8.6990    24.5730    -6.7470     2.2830 
   98.3750    69.7150     9.0290     8.7800     8.7400    24.5740    -6.8660     2.2970 
   98.5000    72.3200     8.7030     8.3800     8.4570    24.5780    -6.8420     2.3130 
   98.6250    74.9620     8.2800     7.8940     8.4380    24.5680    -6.6890     2.3260 
   98.7500    75.1470     7.9970     7.5020     8.5360    24.5690    -6.4750     2.3330 
   98.8750    72.6510     8.2150     7.4740     8.2320    24.5640    -6.2330     2.3330 
   99.0000    70.6840     9.3540     8.1050     8.0150    24.5800    -5.9710     2.3350 
   99.1250    70.5880    12.1410     9.9160    10.1330    24.6060    -5.6920     2.3490 
   99.2500    67.3240    16.6330    13.0560    18.9590    24.6670    -5.3810     2.3780 
   99.3750    60.3810    22.4230    17.4490    45.5570    24.7440    -5.0410     2.4210 
   99.5000    54.0070    27.9320    22.1200    78.6000    24.8370    -4.6810     2.4700 
   99.6250    52.4100    29.9210    24.5210    58.7510    24.9170    -4.3120     2.4980 
   99.7500    53.2970    28.0160    23.8310    28.6950    24.9990    -3.9610     2.4770 
   99.8750    54.6900    24.2140    21.3020    16.2520    25.0730    -3.6550     2.4050 
  100.0000    56.7510    20.8400    18.6970    12.4760    25.1280    -3.4070     2.3090 
  100.1250    58.2030    19.2000    17.1470    12.1800    25.1620    -3.2210     2.2230 
  100.2500    57.4430    18.8370    16.5420    12.1200    25.1790    -3.0770     2.1660 
  100.3750    54.5090    19.2040    16.5760    11.9310    25.1800    -2.9870     2.1440 
  100.5000    51.4900    19.8200    16.9260    11.5130    25.1620    -2.9650     2.1460 
  100.6250    51.3360    20.2950    17.3120    11.1560    25.1440    -3.0500     2.1540 
  100.7500    52.2260    20.4220    17.5310    10.9580    25.1100    -3.2510     2.1600 
  100.8750    50.6450    20.1060    17.4560    10.9220    25.0640    -3.5750     2.1660 
  101.0000    48.1610    19.3360    17.0030    10.8750    25.0030    -4.0350     2.1720 
  101.1250    48.9600    18.1410    16.1150    10.9350    24.9620    -4.6490     2.1850 
  101.2500    50.6450    16.7330    14.9500    10.8530    24.9160    -5.3490     2.2060 
  101.3750    51.5810    15.2440    13.6370    10.3660    24.8820    -6.0720     2.2360 
  101.5000    54.2930    13.7840    12.3010     9.8480    24.8330    -6.7730     2.2690 
  101.6250    60.3260    12.4360    11.0620     9.6570    24.8010    -7.4080     2.3020 
  101.7500    66.0660    11.2070     9.9680     9.2250    24.7640    -7.9510     2.3330 
  101.8750    70.5600    10.1240     9.0460     8.5780    24.7330    -8.3870     2.3580 
  102.0000    74.2930     9.2360     8.3080     7.2770    24.6950    -8.7080     2.3710 
  102.1250    76.3900     8.6680     7.8020     6.8990    24.6600    -8.9250     2.3690 
  102.2500    77.1090     8.4290     7.5120     6.9780    24.6270    -9.0950     2.3580 
  102.3750    77.9510     8.4870     7.4300     7.5810    24.6090    -9.2430     2.3450 
  102.5000    77.8420     8.7170     7.4970     7.8240    24.6140    -9.3670     2.3400 
  102.6250    77.1150     8.8920     7.5930     8.3560    24.6290    -9.4680     2.3490 
  102.7500    78.9400     8.8360     7.5780     9.3680    24.6580    -9.5760     2.3620 
  102.8750    82.3960     8.5290     7.4070     9.1130    24.6920    -9.7060     2.3730 
  103.0000    84.2970     8.1020     7.1390     7.5620    24.7340    -9.8600     2.3770 
  103.1250    82.8820     7.7950     6.9140     6.0680    24.7570   -10.0380     2.3730 
  103.2500    80.5700     7.7330     6.8300     5.7770    24.7790   -10.2360     2.3720 
  103.3750    79.1400     7.9050     6.9000     6.8620    24.7840   -10.4510     2.3790 
  103.5000    77.9570     8.1980     7.0630     8.8760    24.7970   -10.6800     2.3930 
  103.6250    77.2590     8.4210     7.1940     9.7120    24.8000   -10.9200     2.4000 
  103.7500    77.1050     8.4790     7.2170     8.8190    24.8180   -11.1460     2.3940 
  103.8750    76.9070     8.4270     7.1520     7.9670    24.8410   -11.3530     2.3780 
  104.0000    75.5110     8.4210     7.0940     7.4970    24.8870   -11.5320     2.3590 
  104.1250    73.9990     8.6450     7.1700     7.4970    24.9250   -11.6760     2.3400 
  104.2500    73.8630     9.0810     7.3930     8.0280    24.9750   -11.7890     2.3230 
  104.3750    73.8010     9.6080     7.7080     8.8340    25.0370   -11.8740     2.3090 
  104.5000    72.7010    10.0410     8.0120     9.6180    25.1100   -11.9330     2.3020 
  104.6250    71.8630    10.1760     8.1710    10.1650    25.1770   -11.9650     2.3040 
  104.7500    74.0060    10.0460     8.1660     9.9730    25.2430   -11.9740     2.3110 
  104.8750    76.7910     9.7890     8.0480     9.4980    25.3030   -11.9580     2.3160 
  105.0000    76.9090     9.5820     7.9180     9.6770    25.3460   -11.8970     2.3140 
  105.1250    73.6120     9.5750     7.8900     9.4830    25.3910   -11.7390     2.3080 
  105.2500    72.1890     9.7440     7.9870     9.3930    25.4180   -11.4680     2.3010 
  105.3750    74.5150     9.9860     8.1650     9.2360    25.4220   -11.0850     2.2910 
  105.5000    76.4750    10.1320     8.3160     9.1740    25.4040   -10.6220     2.2770 
  105.6250    76.6760     9.9390     8.2530     9.2170    25.3900   -10.1240     2.2650 
  105.7500    78.7090     9.4010     7.9340     8.7790    25.3620    -9.6460     2.2620 
  105.8750    82.8310     8.6540     7.4280     8.0330    25.3370    -9.2210     2.2710 
  106.0000    86.5920     7.9320     6.8900     7.6720    25.2900    -8.8670     2.2910 
  106.1250    89.4360     7.5230     6.5280     6.5880    25.2470    -8.5970     2.3160 
  106.2500    91.7580     7.5070     6.4290     6.0870    25.1930    -8.3800     2.3360 
  106.3750    91.5450     7.8530     6.5960     6.5760    25.1520    -8.1950     2.3470 
  106.5000    87.1120     8.4030     6.9460     7.8590    25.1020    -8.0230     2.3480 
  106.6250    82.3090     8.8480     7.2840     8.6800    25.0730    -7.8760     2.3390 
  106.7500    80.0110     8.9170     7.3970     8.1430    25.0470    -7.7630     2.3280 
  106.8750    78.9420     8.5150     7.1790     7.2480    25.0410    -7.6960     2.3200 
  107.0000    78.1620     7.7610     6.6710     7.0790    25.0490    -7.6690     2.3200 
  107.1250    81.9390     6.9500     6.0560     6.5730    25.0890    -7.6780     2.3250 
  107.2500    90.6420     6.3690     5.5640     5.8910    25.1210    -7.6920     2.3260 
  107.3750    97.0390     6.1460     5.3130     4.9980    25.1490    -7.6900     2.3200 
