~V
VERS. 2.00: Ver 2.00
~W
STRT.M 50.0000:
STOP.M 261.0000:
STEP.M 0.1250:
NULL. -999.2500:
UWI. F10772:
~C
DEPT.M :
GR.API :
RML.OHMM :
RI. :
RXO.OHMM :
CALI.CM :
SP.MV :
DEN.GM/CC :
~A
# ...
  196.2500    75.3790     9.1220     7.8960     8.1160    24.5530    -4.4130     2.3940 
  196.3750    73.1500     9.4580     8.3280     9.3280    24.7070    -4.4700     2.3950 
  196.5000    72.4240     9.5700     8.5310    10.9830    24.7810    -4.5390     2.4020 
  196.6250    71.0990     9.3860     8.3610    10.1150    24.7620    -4.6210     2.4110 
  196.7500    69.9270     9.0040     7.9200     8.4590    24.7550    -4.7340     2.4150 
  196.8750    70.4870     8.5330     7.3410     7.9610    24.7300    -4.8610     2.4140 
  197.0000    72.6190     8.1180     6.7730     8.4620    24.7060    -5.0090     2.4080 
  197.1250    73.4040     8.0080     6.4110     8.6180    24.6920    -5.2060     2.4030 
  197.2500    71.4020     8.4050     6.3960     7.7700    24.6900    -5.3730     2.3980 
  197.3750    68.2240     9.5390     6.8890     7.6130    24.6530    -5.4750     2.4000 
  197.5000    63.5420    11.6020     8.0890     8.5590    24.5560    -5.5830     2.4170 
  197.6250    58.7910    14.7680    10.4320    11.8320    24.5490    -5.7350     2.4560 
  197.7500    56.7060    18.4870    13.8890    19.1070    24.6660    -5.8580     2.5050 
  197.8750    57.4950    21.9870    18.0460    29.8280    24.8610    -5.8810     2.5400 
  198.0000    59.2960    24.3370    21.6690    37.9010    24.9760    -5.7980     2.5390 
  198.1250    59.6250    24.5970    22.8250    33.2270    24.9680    -5.6270     2.4860 
  198.2500    59.9400    23.2600    21.7860    25.7630    24.9580    -5.3950     2.4070 
  198.3750    60.6600    21.0760    19.6940    20.6080    24.9650    -5.0940     2.3330 
  198.5000    61.1540    18.8170    17.5690    17.7790    24.9520    -4.7050     2.2940 
  198.6250    61.9500    16.9850    15.8950    16.2970    24.8400    -4.2360     2.3090 
  198.7500    63.5230    15.5070    14.5340    15.1580    24.6530    -3.7570     2.3520 
  198.8750    66.3430    14.2210    13.3110    14.0080    24.5710    -3.3420     2.3950 
  199.0000    68.6020    13.0270    12.1260    12.8740    24.7080    -2.9970     2.4180 
  199.1250    69.9830    11.9740    11.0330    11.9590    24.9100    -2.6780     2.4100 
  199.2500    72.8280    11.1400    10.1320    10.9360    25.0130    -2.4330     2.3900 
  199.3750    76.4590    10.5750     9.5000     9.9770    25.0480    -2.3060     2.3710 
  199.5000    76.6160    10.2460     9.1440     9.1740    25.0740    -2.2590     2.3590 
  199.6250    69.9920    10.0500     9.0030     9.2580    25.0620    -2.1570     2.3520 
  199.7500    64.3010     9.8290     8.8910     9.6470    25.0250    -1.9690     2.3470 
  199.8750    64.1150     9.5050     8.6800     9.4780    24.9920    -1.7950     2.3430 
  200.0000    67.2070     9.0790     8.3090     8.5370    24.9670    -1.7040     2.3420 
  200.1250    69.4200     8.6280     7.8180     7.6080    24.9520    -1.6950     2.3470 
  200.2500    71.1860     8.2840     7.3730     7.0290    24.9630    -1.7070     2.3570 
  200.3750    74.6100     8.1490     7.1090     6.8730    24.9660    -1.6830     2.3690 
  200.5000    77.2790     8.2800     7.1140     6.9350    24.9580    -1.6130     2.3820 
  200.6250    75.1530     8.7200     7.4570     7.4640    24.9350    -1.5990     2.3870 
  200.7500    70.1620     9.3610     8.0410     8.8540    24.9170    -1.6710     2.3830 
  200.8750    66.7560    10.1150     8.7760    10.8870    24.8870    -1.7700     2.3690 
  201.0000    67.0130    10.8900     9.5540    12.4840    24.8880    -1.8880     2.3500 
  201.1250    68.3000    11.5800    10.2570    12.0060    24.9030    -2.0900     2.3310 
  201.2500    69.0550    12.1220    10.8240    11.8330    24.9090    -2.3250     2.3150 
  201.3750    69.7000    12.4660    11.2090    12.5350    24.8800    -2.5230     2.3050 
  201.5000    69.6250    12.5820    11.3770    13.5350    24.7820    -2.6940     2.3060 
  201.6250    69.8700    12.4420    11.2810    13.9700    24.5780    -2.8500     2.3210 
  201.7500    70.5650    12.1460    10.9920    13.5920    24.4400    -2.9900     2.3430 
  201.8750    69.6790    11.7990    10.5890    12.6800    24.3920    -3.1450     2.3580 
  202.0000    67.1250    11.5240    10.1980    11.6940    24.3870    -3.2620     2.3570 
  202.1250    66.0650    11.4620     9.9880    11.2670    24.3870    -3.2040     2.3380 
  202.2500    68.2200    11.6240    10.0190    11.5320    24.3870    -3.0180     2.3200 
  202.3750    70.3860    11.9750    10.2970    11.7920    24.3880    -2.8090     2.3150 
  202.5000    69.9780    12.4260    10.7710    12.0650    24.4040    -2.6160     2.3250 
  202.6250    68.0800    12.8380    11.3340    13.6360    24.4630    -2.4530     2.3410 
  202.7500    67.5140    13.0970    11.8210    14.6460    24.5470    -2.3570     2.3480 
  202.8750    68.2810    13.1370    12.1250    14.6280    24.5730    -2.3020     2.3410 
  203.0000    69.9370    12.9410    12.1850    14.0590    24.5090    -2.2870     2.3260 
  203.1250    71.8120    12.5110    11.9530    13.6390    24.4400    -2.3540     2.3140 
  203.2500    72.7360    11.9510    11.5200    12.9000    24.3840    -2.5000     2.3120 
  203.3750    71.8820    11.3310    10.9620    12.1820    24.3670    -2.7070     2.3200 
  203.5000    70.5900    10.7110    10.3540    11.5930    24.4240    -2.9040     2.3330 
  203.6250    72.1690    10.1490     9.7660    10.7520    24.5730    -3.0300     2.3510 
  203.7500    73.4240     9.6640     9.2340    10.0890    24.7710    -3.0960     2.3760 
  203.8750    71.7250     9.2570     8.7750     9.6190    24.9230    -3.1390     2.4030 
  204.0000    70.0180     8.9240     8.3880     9.3660    25.0000    -3.2030     2.4260 
  204.1250    72.1560     8.6710     8.0770     8.9130    24.9970    -3.2930     2.4360 
  204.2500    75.1420     8.5050     7.8340     8.6100    24.9820    -3.4020     2.4310 
  204.3750    75.4750     8.4690     7.6880     8.3890    24.9740    -3.4370     2.4170 
  204.5000    74.2040     8.6190     7.6900     8.3600    24.9680    -3.3320     2.4000 
  204.6250    74.6260     9.0560     7.9440     8.6810    24.9590    -3.1470     2.3850 
  204.7500    75.6740     9.7730     8.4650     9.2510    24.9490    -2.9510     2.3700 
  204.8750    74.2870    10.7510     9.2750    10.4090    24.9430    -2.7220     2.3530 
  205.0000    68.9960    11.9230    10.3550    12.1630    24.9590    -2.4590     2.3300 
  205.1250    62.1400    13.1700    11.6420    13.9030    24.9680    -2.1680     2.3030 
  205.2500    59.2150    14.3270    12.9430    14.5610    24.9740    -1.8370     2.2820 
  205.3750    60.5870    15.2870    14.0840    15.1270    24.9740    -1.5560     2.2730 
  205.5000    61.7960    15.9990    14.9340    16.5820    24.9800    -1.3980     2.2770 
  205.6250    61.3270    16.4400    15.4040    18.1070    25.0080    -1.3140     2.2900 
  205.7500    60.7110    16.7130    15.6190    17.6150    25.0550    -1.2880     2.2980 
  205.8750    61.5990    16.8680    15.6670    17.4600    25.0860    -1.3490     2.2950 
  206.0000    63.3630    16.9310    15.6090    17.5610    25.0850    -1.4470     2.2810 
  206.1250    64.6310    16.8860    15.4530    17.7010    25.0620    -1.5110     2.2630 
  206.2500    64.9970    16.7370    15.2160    17.7220    25.0500    -1.5360     2.2510 
  206.3750    64.9020    16.4930    14.8930    17.0480    25.0330    -1.5150     2.2460 
  206.5000    66.0260    16.1960    14.5010    16.1370    25.0050    -1.5210     2.2490 
  206.6250    66.0620    15.9450    14.1100    15.3620    24.9830    -1.6020     2.2590 
  206.7500    64.9520    15.8530    13.8420    15.0870    24.9750    -1.6980     2.2720 
  206.8750    62.5880    16.0190    13.8070    15.0130    24.9740    -1.7620     2.2860 
  207.0000    59.1780    16.5060    14.0890    14.9360    24.9660    -1.7960     2.2950 
  207.1250    56.6250    17.3420    14.7790    15.2140    24.9540    -1.8560     2.3010 
  207.2500    56.7850    18.3510    15.7560    16.3340    24.9500    -1.9640     2.3100 
  207.3750    59.0960    19.3470    16.8630    18.1200    24.9570    -2.1230     2.3300 
