~V
VERS. 2.00: Ver 2.00
~W
STRT.M 40.0000:
STOP.M 236.0000:
STEP.M 0.1250:
NULL. -999.2500:
UWI. F10781:
~C
DEPT.M :
GR.API :
RML.OHMM :
RI. :
RXO.OHMM :
CALI.CM :
SP.MV :
DEN.GM/CC :
~A
# ...
  197.5000    50.8150    38.2690    34.1170    37.2390    25.3100    -8.8730     2.2570 
  197.6250    50.1490    38.1850    34.2480    37.2520    25.3070    -8.9060     2.2600 
  197.7500    50.3820    38.1120    34.4110    36.9460    25.2930    -8.9670     2.2650 
  197.8750    51.3200    38.0150    34.5510    36.4300    25.2860    -9.0530     2.2690 
  198.0000    53.0740    37.8730    34.6350    37.1660    25.2720    -9.1560     2.2710 
  198.1250    54.6780    37.6790    34.6450    38.0690    25.2720    -9.2590     2.2720 
  198.2500    55.2010    37.4450    34.6020    37.7480    25.2680    -9.3430     2.2700 
  198.3750    54.8800    37.1860    34.5190    36.8600    25.2710    -9.3980     2.2590 
  198.5000    53.5640    36.9220    34.4180    36.1400    25.2530    -9.4310     2.2430 
  198.6250    51.0540    36.6600    34.3080    34.6400    25.2330    -9.4310     2.2410 
  198.7500    48.8530    36.4010    34.1980    31.7210    25.1960    -9.3950     2.2600 
  198.8750    49.7370    36.1840    34.1200    27.5560    25.1660    -9.3220     2.2950 
  199.0000    53.0020    36.0810    34.1220    26.5000    25.1290    -9.2180     2.3310 
  199.1250    54.9880    36.1880    34.2650    29.0190    25.0860    -9.0980     2.3470 
  199.2500    54.3550    36.4620    34.5190    31.2780    25.0240    -8.9730     2.3440 
  199.3750    51.8230    36.8060    34.8140    33.0970    24.9640    -8.8470     2.3330 
  199.5000    50.0980    37.0930    35.0440    36.3110    24.9070    -8.7310     2.3210 
  199.6250    50.0670    37.2550    35.1250    36.5550    24.8780    -8.6490     2.3140 
  199.7500    49.5590    37.4660    35.1740    34.5820    24.8590    -8.6030     2.3190 
  199.8750    48.2490    37.9770    35.3880    31.9760    24.8770    -8.5860     2.3430 
  200.0000    48.0210    39.0150    35.9870    31.7130    24.9160    -8.5910     2.3780 
  200.1250    50.3130    40.8430    37.2660    33.9650    25.0090    -8.6250     2.3970 
  200.2500    51.9330    43.3290    39.1750    38.7770    25.1090    -8.6770     2.3860 
  200.3750    51.7450    46.2810    41.5620    44.5070    25.2260    -8.7500     2.3540 
  200.5000    51.1010    49.4490    44.1670    46.7960    25.3180    -8.8530     2.3190 
  200.6250    52.4010    52.6100    46.7280    47.4030    25.3990    -8.9810     2.3010 
  200.7500    53.1620    55.6370    49.1280    50.4510    25.4360    -9.1360     2.2990 
  200.8750    50.3360    58.5160    51.3850    55.2150    25.4590    -9.3090     2.3070 
  201.0000    46.2280    61.3580    53.6230    58.5940    25.4580    -9.4880     2.3140 
  201.1250    46.3970    64.3970    56.0300    59.1760    25.4560    -9.6650     2.3080 
  201.2500    49.6060    67.7960    58.6970    63.0560    25.4290    -9.8380     2.2930 
  201.3750    52.0020    71.7330    61.7380    66.9790    25.4060   -10.0070     2.2750 
  201.5000    52.3950    76.3640    65.2910    71.7890    25.3790   -10.1680     2.2640 
  201.6250    52.9860    81.6670    69.3930    78.4930    25.3710   -10.3240     2.2610 
  201.7500    53.4820    87.0270    73.5930    83.7620    25.3490   -10.4800     2.2580 
  201.8750    51.2990    91.8330    77.4000    89.4260    25.3230   -10.6410     2.2520 
  202.0000    47.9260    95.4640    80.2810    95.2530    25.2800   -10.8280     2.2410 
  202.1250    48.3460    97.1100    81.4690    95.9980    25.2540   -11.0490     2.2290 
  202.2500    51.6180    97.2350    81.1760    88.1980    25.2180   -11.2930     2.2220 
  202.3750    52.5970    96.6650    79.9610    80.0580    25.2010   -11.5470     2.2180 
  202.5000    49.8450    96.3540    78.6220    79.1290    25.1920   -11.8030     2.2140 
  202.6250    49.1980    97.2420    78.0540    75.9780    25.2240   -12.0640     2.2060 
  202.7500    51.0540    99.6600    78.7440    76.4270    25.2610   -12.3350     2.2020 
  202.8750    51.8470   103.6280    80.8690    88.5000    25.3120   -12.6250     2.2070 
  203.0000    50.6530   108.5430    84.1030    99.3030    25.3470   -12.9300     2.2260 
  203.1250    50.2590   113.3070    87.7140    93.6260    25.3840   -13.2500     2.2520 
  203.2500    51.5890   117.4050    91.1380    90.1260    25.4010   -13.5860     2.2730 
  203.3750    52.5910   121.2850    94.5390   101.7650    25.4090   -13.9380     2.2800 
  203.5000    52.2830   125.9220    98.4980   112.8400    25.3960   -14.2680     2.2680 
  203.6250    52.2130   131.7830   103.3520   116.4570    25.3960   -14.5480     2.2380 
  203.7500    52.0040   136.6780   107.6640   125.1860    25.3740   -14.7700     2.2090 
  203.8750    50.9340   136.8990   108.9360   143.5900    25.3510   -14.9360     2.2000 
  204.0000    49.8080   129.1230   104.6870   136.8470    25.3070   -15.0480     2.2270 
  204.1250    49.3480   111.8180    92.9940   101.9840    25.2690   -15.1080     2.3020 
  204.2500    49.2000    90.1760    76.9080    76.4210    25.2200   -15.1020     2.4010 
  204.3750    48.3090    68.8530    59.9040    57.8960    25.1890   -15.0000     2.5040 
  204.5000    46.1260    51.0580    44.9950    41.7830    25.1510   -14.7670     2.5950 
  204.6250    45.2630    38.3250    33.9670    27.2670    25.1370   -14.3290     2.6750 
  204.7500    47.4130    29.0130    25.8370    21.1110    25.1230   -13.6690     2.7390 
  204.8750    50.8250    21.9860    19.7730    18.2520    25.1090   -12.7980     2.7590 
  205.0000    53.2860    16.4080    15.0730    15.3350    25.0550   -11.7600     2.7120 
  205.1250    55.9860    12.1160    11.5100    11.6830    25.0020   -10.6260     2.6070 
  205.2500    61.5610     8.9370     8.8230     7.8200    24.9370    -9.5290     2.4890 
  205.3750    67.4310     6.8540     6.9750     5.3560    24.8900    -8.5710     2.3870 
  205.5000    68.7250     5.7270     5.8890     4.3100    24.8540    -7.8230     2.3230 
  205.6250    66.5210     5.4700     5.5690     4.2610    24.8680    -7.3510     2.3200 
  205.7500    65.2000     5.7860     5.8100     5.2080    24.8940    -7.0790     2.3600 
  205.8750    64.7080     6.5060     6.4990     7.2440    24.9450    -6.9520     2.4170 
  206.0000    63.2830     7.3900     7.4460     9.4540    25.0050    -6.9140     2.4600 
  206.1250    63.4750     8.0950     8.3300     8.6830    25.0790    -6.9280     2.4700 
  206.2500    68.1170     8.4320     8.8850     7.7020    25.1250    -6.9680     2.4600 
  206.3750    74.7010     8.4100     9.0360     7.2820    25.1560    -7.0290     2.4470 
  206.5000    78.9480     8.1650     8.8770     7.2640    25.1720    -7.1290     2.4380 
  206.6250    80.5170     7.8840     8.5780     7.3590    25.2000    -7.3020     2.4330 
  206.7500    82.0610     7.7080     8.3070     7.5460    25.2250    -7.5510     2.4230 
  206.8750    84.2610     7.6670     8.1040     7.6970    25.2550    -7.8610     2.4100 
  207.0000    87.1310     7.7330     7.9550     7.7080    25.2640    -8.2080     2.3950 
  207.1250    92.3910     7.8590     7.8420     7.6690    25.2830    -8.5750     2.3840 
  207.2500    97.9510     7.9930     7.7530     7.8160    25.2990    -8.9530     2.3780 
  207.3750   100.7050     8.1270     7.6990     8.0280    25.3230    -9.3390     2.3830 
  207.5000   101.7930     8.2880     7.6970     8.0350    25.3130    -9.7300     2.3990 
  207.6250   104.3220     8.5370     7.7890     8.1110    25.3050   -10.1190     2.4230 
  207.7500   106.0620     8.9300     8.0040     8.5800    25.2830   -10.4940     2.4450 
  207.8750   104.8150     9.5470     8.3960     9.3810    25.2730   -10.8250     2.4570 
  208.0000   103.4340    10.4620     9.0210    10.1160    25.2510   -11.0840     2.4600 
  208.1250   102.7260    11.7780     9.9650    10.9220    25.2420   -11.2220     2.4640 
  208.2500    99.0420    13.4080    11.1740    12.4670    25.2300   -11.2380     2.4750 
  208.3750    93.0520    15.1730    12.5430    15.2500    25.2330   -11.1380     2.4960 
  208.5000    87.5810    16.7150    13.8200    18.3320    25.2350   -10.9500     2.5210 
  208.6250    85.5320    17.4820    14.5540    19.1650    25.2470   -10.7190     2.5410 
