~V
VERS. 2.00: Ver 2.00
~W
STRT.M 50.0000:
STOP.M 226.0000:
STEP.M 0.1250:
NULL. -999.2500:
UWI. F10778:
~C
DEPT.M :
DEN.GM/CC :
GR.API :
RML.OHMM :
RI. :
RXO.OHMM :
CALI.CM :
SP.MV :
~A
# ...
  207.5000     2.1700    62.9510   138.6430   124.6260   144.5260    24.7710   -11.3760 
  207.6250     2.1720    64.4770   133.1030   118.6650   119.2600    24.7850   -11.3100 
  207.7500     2.1750    65.1950   124.5190   111.8200    91.6050    24.7490   -11.3030 
  207.8750     2.1770    64.2280   113.6700   104.8160    80.1570    24.6980   -11.3330 
  208.0000     2.1820    62.5190   103.0040    98.2330    88.2530    24.6860   -11.4140 
  208.1250     2.1900    62.1830    94.8720    92.4900    99.9490    24.6560   -11.5290 
  208.2500     2.2020    63.4510    88.2570    87.2720    91.1140    24.6060   -11.6100 
  208.3750     2.2130    65.8370    81.7940    82.0660    74.8670    24.5280   -11.7510 
  208.5000     2.2200    68.1270    75.0500    76.3640    75.4970    24.4720   -11.9900 
  208.6250     2.2230    69.5710    68.1760    70.0220    80.9270    24.4640   -12.2020 
  208.7500     2.2260    69.5330    61.9930    63.8210    74.5380    24.4750   -12.4330 
  208.8750     2.2310    69.0080    57.5010    58.7980    53.1120    24.4650   -12.7140 
  209.0000     2.2350    69.9290    55.6030    56.0000    41.5800    24.5040   -12.9740 
  209.1250     2.2330    73.1510    57.5040    56.8180    42.0030    24.6250   -13.2140 
  209.2500     2.2250    76.4520    62.9160    61.1680    46.3520    24.7460   -13.5090 
  209.3750     2.2130    77.1190    71.6860    68.9510    57.1870    24.9120   -13.7720 
  209.5000     2.2020    74.3250    83.2820    79.5780    83.1770    25.1070   -13.9650 
  209.6250     2.1950    69.3130    97.1620    92.3440   102.7470    25.2150   -14.1640 
  209.7500     2.1910    65.2610   112.5040   106.3780    98.8630    25.2990   -14.2830 
  209.8750     2.1870    63.0830   129.6450   122.0550    96.5500    25.3970   -14.2930 
  210.0000     2.1820    61.8010   149.1720   139.9750   116.4970    25.4700   -14.3270 
  210.1250     2.1760    61.0340   170.0170   159.1640   175.2150    25.4040   -14.3330 
  210.2500     2.1690    59.9630   186.8080   174.8950   230.8100    25.1930   -14.2360 
  210.3750     2.1640    58.5710   193.1620   181.6000   254.3060    24.9650   -14.1620 
  210.5000     2.1630    58.0800   185.8130   176.0230   255.8430    24.7710   -14.1150 
  210.6250     2.1640    59.6080   167.3870   159.3140   221.6890    24.6630   -14.0190 
  210.7500     2.1680    61.8340   148.4390   140.5280   167.8940    24.6460   -13.9330 
  210.8750     2.1710    64.1120   135.2930   125.9290   124.2500    24.7550   -13.8830 
  211.0000     2.1700    66.3450   130.9760   118.9470   106.3950    24.8720   -13.7380 
  211.1250     2.1640    67.7740   136.1920   121.5750    95.3490    24.9290   -13.5440 
  211.2500     2.1560    67.4200   145.7130   131.0070   107.7720    24.9090   -13.2690 
  211.3750     2.1510    66.4270   156.8160   144.6390   145.6750    24.8640   -12.8670 
  211.5000     2.1490    63.7390   168.4880   159.0450   165.2130    24.8380   -12.4770 
  211.6250     2.1470    59.6390   178.9860   170.2770   164.4870    24.8760   -12.1130 
  211.7500     2.1420    56.9310   185.8490   177.3360   162.0420    24.9430   -11.7420 
  211.8750     2.1380    55.9420   188.3000   180.8540   168.2270    25.0240   -11.3130 
  212.0000     2.1500    55.8570   187.3730   181.6560   178.0050    25.1170   -10.8550 
  212.1250     2.2080    56.6930   180.9520   177.9610   189.1500    25.1540   -10.4610 
  212.2500     2.3100    58.7500   166.0350   167.0140   192.8350    24.9340   -10.1420 
  212.3750     2.4400    58.9660   140.8620   146.3430   192.8510    24.5160    -9.9340 
  212.5000     2.5640    54.5680   108.1920   116.8840   171.1770    24.2450    -9.7400 
  212.6250     2.6350    49.2020    75.4880    84.0900   121.9780    24.1720    -9.5900 
  212.7500     2.6460    46.7880    49.1980    55.5020    72.8290    24.1250    -9.4050 
  212.8750     2.6110    47.7150    30.8750    34.4990    43.9110    24.0930    -9.2080 
  213.0000     2.5530    51.7990    19.2490    21.0960    26.7890    24.1200    -9.1010 
  213.1250     2.4980    59.7600    12.8630    13.9990    17.2450    24.2940    -8.9900 
  213.2500     2.4550    70.0320     9.3180    10.0560     9.9300    24.4110    -8.9770 
  213.3750     2.4250    77.7530     7.6270     7.9910     7.4560    24.6050    -8.9870 
  213.5000     2.4040    80.6150     7.0810     7.1020     7.1800    24.7590    -9.0180 
  213.6250     2.3920    81.2050     7.3810     7.1580     7.1120    24.7960    -9.0820 
  213.7500     2.3910    83.5320     8.2080     7.8400     8.3470    24.7930    -9.2110 
  213.8750     2.4030    87.7320     9.3600     8.9980     9.6780    24.8580    -9.4540 
  214.0000     2.4290    90.4510    10.5590    10.3870    10.2570    24.9700    -9.6850 
  214.1250     2.4640    88.1560    11.3420    11.5140    11.6780    25.0100    -9.9000 
  214.2500     2.4910    84.7880    11.4240    11.9320    13.2130    24.9380   -10.0180 
  214.3750     2.4990    84.2720    10.7350    11.4440    14.8980    24.8610    -9.9990 
  214.5000     2.4820    86.1760     9.4710    10.1960    15.1040    24.7950    -9.8640 
  214.6250     2.4450    86.3860     8.0280     8.6000    13.9740    24.7180    -9.6720 
  214.7500     2.4060    84.6140     6.8220     7.1580    10.3380    24.6940    -9.4650 
  214.8750     2.3750    81.2860     6.0310     6.0930     7.3330    24.6470    -9.2710 
  215.0000     2.3520    78.0610     5.6820     5.4650     5.9590    24.6140    -9.2060 
  215.1250     2.3330    76.5320     5.7520     5.2950     5.8920    24.6340    -9.2310 
  215.2500     2.3150    77.2180     6.0540     5.4230     6.4430    24.6880    -9.3870 
  215.3750     2.2990    78.1780     6.4680     5.7470     7.3250    24.7300    -9.6990 
  215.5000     2.2870    79.1750     6.8870     6.1640     7.4770    24.7050   -10.0690 
  215.6250     2.2820    80.6600     7.2180     6.5710     7.3920    24.7760   -10.5180 
  215.7500     2.2820    81.7280     7.4430     6.9080     7.7270    24.9350   -11.0100 
  215.8750     2.2850    81.7790     7.5650     7.1530     8.2460    25.0720   -11.3960 
  216.0000     2.2930    81.7790     7.5890     7.2980     8.6190    25.1240   -11.6090 
  216.1250     2.3050    81.7790     7.4930     7.3100     8.6920    25.1170   -11.6470 
  216.2500     2.3170    81.7790     7.2880     7.1900     8.2960    25.2240   -11.5090 
  216.3750     2.3280    81.7790     6.9830     6.9310     8.1820    25.3390   -11.2650 
  216.5000     2.3360    81.7790     6.6050     6.5550     8.6310    25.3730   -10.9820 
  216.6250     2.3420    81.7790     6.1940     6.1010     8.9150    25.3990   -10.5490 
  216.7500     2.3470    81.7790     5.7990     5.6380     8.1810    25.3340   -10.0400 
  216.8750     2.3520    81.7790     5.4450     5.2070     6.8160    25.1560    -9.5760 
  217.0000     2.3570    81.7790     5.1490     4.8340     5.8600    24.8830    -9.1220 
  217.1250     2.3630    81.7790     4.9280     4.5400     5.5260    24.7170    -8.6890 
  217.2500     2.3740    81.7790     4.7660     4.3140     5.3160    24.6600    -8.3540 
  217.3750     2.3900    81.7790     4.6530     4.1450     5.1880    24.6250    -8.0650 
  217.5000     2.4060    81.7790     4.5860     4.0260     5.0860    24.5820    -7.8060 
  217.6250     2.4110    81.7790     4.5940     3.9790     5.1700    24.5820    -7.6490 
  217.7500     2.4060    81.7790     4.7190     4.0310     5.2410    24.5570    -7.5500 
  217.8750     2.4070    81.7790     5.0240     4.2310     5.3040    24.5170    -7.5070 
  218.0000     2.4290    81.7790     5.5660     4.6310     5.6560    24.4720    -7.5570 
  218.1250     2.4760    81.7790     6.4020     5.3030     6.8680    24.4120    -7.6980 
  218.2500     2.5220    81.7790     7.4080     6.1730     9.0230    24.3180    -8.1990 
  218.3750     2.5420    81.7790     8.4190     7.1220    11.4940    24.2370    -8.7510 
  218.5000     2.5220    81.7790     9.2410     7.9760    11.5380    24.2370    -9.4850 
  218.6250     2.4700    81.7790     9.6710     8.5090    10.7400    24.3040   -10.3290 
