~V
VERS. 2.00: Ver 2.00
~W
STRT.M 50.0000:
STOP.M 240.0000:
STEP.M 0.1250:
NULL. -999.2500:
UWI. F10736:
~C
DEPT.M :
DEN.GM/CC :
GR.API :
RML.OHMM :
RI. :
RXO.OHMM :
CALI.CM :
SP.MV :
~A
# ...
  196.2500     2.4600    70.5010     6.5960     6.6000     7.5750    26.6460    -7.8470 
  196.3750     2.4470    72.6200     6.6510     6.7190     7.4200    26.6340    -7.8960 
  196.5000     2.4320    72.2940     6.8320     6.7160     7.5990    26.6350    -7.9760 
  196.6250     2.4220    74.1360     6.9600     6.8020     7.8570    26.6490    -8.0900 
  196.7500     2.4240    81.3590     7.0910     6.8990     7.7330    26.6610    -8.1740 
  196.8750     2.4360    89.8410     7.1980     6.9900     7.6140    26.6350    -8.2660 
  197.0000     2.4470    94.3300     7.2580     7.0530     7.9190    26.5680    -8.3590 
  197.1250     2.4500    95.0340     7.2800     7.0880     8.0390    26.5150    -8.4490 
  197.2500     2.4490    97.2720     7.3420     7.1510     8.1340    26.4950    -8.5390 
  197.3750     2.4530    99.9540     7.5280     7.3040     8.2740    26.4900    -8.6340 
  197.5000     2.4650    98.4660     7.8990     7.6000     8.3850    26.4800    -8.7400 
  197.6250     2.4870    92.5950     8.5090     8.0980     9.4040    26.4280    -8.8540 
  197.7500     2.5190    86.7110     9.2820     8.7540    11.7590    26.3340    -8.9710 
  197.8750     2.5430    82.3510    10.1330     9.5110    14.1660    26.2610    -9.0900 
  198.0000     2.5470    78.8760    10.9670    10.2920    14.4650    26.2540    -9.2080 
  198.1250     2.5340    75.2570    11.7110    11.0190    13.3680    26.2650    -9.3270 
  198.2500     2.5140    71.4520    12.3910    11.6780    13.4490    26.2700    -9.4490 
  198.3750     2.4940    69.7400    13.0470    12.2870    14.2450    26.2700    -9.5760 
  198.5000     2.4750    70.7850    13.7150    12.8790    15.3370    26.2770    -9.7060 
  198.6250     2.4580    70.6590    14.4510    13.5130    16.6670    26.2970    -9.8320 
  198.7500     2.4450    66.0430    15.3580    14.2800    17.5880    26.3240    -9.9530 
  198.8750     2.4330    62.2730    16.6430    15.3490    18.1530    26.3340   -10.0720 
  199.0000     2.4260    63.0410    18.6070    16.9770    19.0790    26.2990   -10.1920 
  199.1250     2.4230    62.9900    21.8350    19.7360    23.2960    26.1690   -10.3240 
  199.2500     2.4170    58.8000    26.5630    23.9730    33.8420    25.9900   -10.4720 
  199.3750     2.4000    55.1770    33.1160    30.1450    49.2050    25.9450   -10.6390 
  199.5000     2.3690    54.3700    41.6510    38.5260    64.2160    26.1400   -10.8240 
  199.6250     2.3310    51.3960    52.0880    49.1330    76.1810    26.5850   -11.0150 
  199.7500     2.3030    46.9800    61.8730    61.6510    89.7160    26.9710   -11.1950 
  199.8750     2.2930    44.4430    71.0830    72.9190   110.2720    27.2000   -11.3620 
  200.0000     2.2990    43.7810    79.3790    80.2450   124.9220    27.2800   -11.5170 
  200.1250     2.3090    42.2800    83.7690    83.4470   116.2400    27.2760   -11.6750 
  200.2500     2.3130    40.6920    84.7370    83.3230   102.4930    27.2480   -11.8450 
  200.3750     2.3130    40.2210    83.1030    80.9570    94.6300    27.2280   -12.0210 
  200.5000     2.3120    40.6690    80.1940    77.7700    91.0250    27.2200   -12.1900 
  200.6250     2.3140    42.1250    77.4870    75.1290    83.8630    27.2000   -12.3280 
  200.7500     2.3160    43.5300    75.8130    73.5370    76.3810    27.1490   -12.4280 
  200.8750     2.3160    44.4070    75.3060    72.9560    70.1600    27.0760   -12.4920 
  201.0000     2.3140    46.1660    75.7090    73.1030    66.7700    26.9700   -12.5310 
  201.1250     2.3110    48.9110    76.5460    73.5560    69.9060    26.8290   -12.5570 
  201.2500     2.3040    50.6710    77.2000    73.8270    76.9630    26.7070   -12.5780 
  201.3750     2.2980    50.9420    77.4000    73.7330    81.0850    26.6850   -12.5910 
  201.5000     2.2990    50.0010    77.1880    73.3500    78.7010    26.6900   -12.5930 
  201.6250     2.3030    49.2590    76.9000    72.9410    73.7410    26.5690   -12.5850 
  201.7500     2.3030    50.1340    76.9790    72.8170    72.5990    26.3660   -12.5830 
  201.8750     2.2980    52.7390    77.7200    73.1880    75.9370    26.1880   -12.5940 
  202.0000     2.2950    54.3260    79.2210    74.1180    78.8480    26.0820   -12.6220 
  202.1250     2.2960    52.6930    81.3710    75.5300    75.9760    26.0540   -12.6570 
  202.2500     2.3000    49.5270    83.6380    77.0320    68.5040    26.0440   -12.6870 
  202.3750     2.3010    46.6310    85.5420    78.2030    64.2600    26.0210   -12.7060 
  202.5000     2.2900    45.5880    86.6190    78.5560    64.7110    25.9630   -12.7120 
  202.6250     2.2700    46.1920    86.3050    77.4910    61.6640    25.9060   -12.7190 
  202.7500     2.2570    46.3410    84.6850    75.1950    59.3810    25.8680   -12.7390 
  202.8750     2.2610    45.6590    81.8800    71.9630    64.1910    25.8580   -12.7770 
  203.0000     2.2790    45.8780    78.2670    68.3010    70.0040    25.8780   -12.8320 
  203.1250     2.2930    48.3900    74.7160    65.0910    69.7430    25.8780   -12.8910 
  203.2500     2.2930    49.9200    72.2600    63.1020    66.0250    25.8510   -12.9360 
  203.3750     2.2870    49.9510    71.5560    62.7500    63.4980    25.8130   -12.9680 
  203.5000     2.2850    50.6480    72.8150    64.0370    64.3710    25.7760   -12.9930 
  203.6250     2.2880    52.7230    76.0240    66.8100    72.7760    25.7670   -13.0260 
  203.7500     2.2890    52.5570    80.1470    70.2420    84.7690    25.7790   -13.0730 
  203.8750     2.2840    50.0580    84.2550    73.6260    87.0160    25.7900   -13.1310 
  204.0000     2.2830    49.5430    87.4990    76.2840    76.7930    25.7690   -13.1910 
  204.1250     2.2960    52.1250    89.4200    77.8950    74.0800    25.7610   -13.2460 
  204.2500     2.3130    52.3330    90.9420    79.3680    78.2990    25.8380   -13.3000 
  204.3750     2.3170    50.0910    93.3660    81.9220    80.8280    25.9610   -13.3630 
  204.5000     2.3090    48.3950    98.0660    86.7400    83.0420    26.0340   -13.4370 
  204.6250     2.3010    47.0320   106.6800    95.1760    86.4930    26.0500   -13.5140 
  204.7500     2.2940    44.2600   118.8530   106.6860    99.6160    26.0510   -13.5810 
  204.8750     2.2860    41.9060   133.6930   120.2550   122.2530    26.0460   -13.6280 
  205.0000     2.2830    42.5300   149.1550   133.9330   147.3450    26.0190   -13.6550 
  205.1250     2.2870    44.1900   161.4500   144.3390   151.6450    25.9490   -13.6710 
  205.2500     2.2870    43.5180   168.3710   149.8190   140.1150    25.8790   -13.6910 
  205.3750     2.2810    41.4200   169.9570   150.7220   122.6340    25.8380   -13.7270 
  205.5000     2.2730    40.9230   168.5950   149.4470   111.4300    25.8150   -13.7830 
  205.6250     2.2670    42.8850   168.0830   149.3740   106.0130    25.8090   -13.8540 
  205.7500     2.2600    43.5880   170.7270   152.0930   108.6250    25.8720   -13.9260 
  205.8750     2.2610    42.5780   176.7740   157.4710   121.0320    25.9970   -13.9910 
  206.0000     2.2730    42.7850   184.9240   164.1010   134.4690    26.0690   -14.0430 
  206.1250     2.2910    45.4890   192.1690   169.0490   130.2340    26.0310   -14.0840 
  206.2500     2.3000    47.8940   195.4920   169.8880   129.2660    25.9430   -14.1150 
  206.3750     2.2960    48.0900   193.4430   165.8540   133.6110    25.8700   -14.1340 
  206.5000     2.2850    46.2350   186.7490   158.3200   134.2510    25.8290   -14.1390 
  206.6250     2.2780    43.7440   177.8860   149.9530   130.7110    25.7990   -14.1270 
  206.7500     2.2820    41.6800   169.7850   142.7910   121.0860    25.7750   -14.0990 
  206.8750     2.2860    40.9990   163.4180   137.2480   113.6590    25.7850   -14.0600 
  207.0000     2.2820    42.2380   158.7180   133.0790   114.0580    25.8560   -14.0140 
  207.1250     2.2710    43.5010   155.3590   130.0050   110.6460    25.9750   -13.9720 
  207.2500     2.2640    42.6210   152.8130   127.6360    90.2230    26.0520   -13.9370 
  207.3750     2.2620    41.1410   151.1310   126.0400    75.2200    25.9840   -13.9100 
