~V
VERS. 2.00: Ver 2.00
~W
STRT.M 50.0000:
STOP.M 261.0000:
STEP.M 0.1250:
NULL. -999.2500:
UWI. F10772:
~C
DEPT.M :
GR.API :
RML.OHMM :
RI. :
RXO.OHMM :
CALI.CM :
SP.MV :
DEN.GM/CC :
~A
# ...
  151.2500    44.9940    35.1050    31.3360    14.3370    25.3880     0.1950     2.1760 
  151.3750    45.8070    34.4050    30.6400    13.0760    25.3370     0.1580     2.1670 
  151.5000    45.5150    33.7760    29.9740    12.3070    25.2120    -0.1380     2.1570 
  151.6250    45.9700    33.4710    29.6900    12.2250    25.1710    -0.5460     2.1520 
  151.7500    49.1280    33.4080    29.7820    12.3150    25.1340    -0.9440     2.1570 
  151.8750    51.8640    33.3580    30.0780    13.3140    25.1130    -1.2830     2.1700 
  152.0000    51.1170    33.0130    30.2620    15.3540    25.1360    -1.6340     2.1880 
  152.1250    48.0400    31.9890    29.8270    16.4700    25.1170    -2.0780     2.2140 
  152.2500    46.6530    30.3060    28.6180    15.5750    25.0490    -2.5530     2.2550 
  152.3750    47.6890    28.1160    26.7350    13.6320    24.9710    -2.9500     2.3090 
  152.5000    50.5910    25.7140    24.4980    11.7320    24.8590    -3.1910     2.3600 
  152.6250    54.3930    23.4900    22.3450    10.5320    24.6120    -3.2980     2.3780 
  152.7500    56.3870    21.6770    20.5730    10.0350    24.3400    -3.3320     2.3600 
  152.8750    57.0030    20.3590    19.2850     9.9110    24.1980    -3.3150     2.3170 
  153.0000    56.5980    19.5110    18.4590     9.9250    24.1160    -3.2040     2.2730 
  153.1250    56.2840    19.0880    18.0570     9.8390    24.0230    -2.9310     2.2450 
  153.2500    56.7450    18.9060    17.9050     9.6520    23.9350    -2.4930     2.2310 
  153.3750    57.6100    18.8800    17.9060     9.5160    23.8450    -2.0090     2.2240 
  153.5000    59.9040    18.9610    17.9820     9.4120    23.7420    -1.6480     2.2180 
  153.6250    61.4000    19.1480    18.1250     9.2340    23.5710    -1.3280     2.2130 
  153.7500    59.9820    19.4180    18.3570     9.1020    23.3880    -0.9640     2.2110 
  153.8750    57.1220    19.7340    18.6830     9.1350    23.2670    -0.5920     2.2120 
  154.0000    57.8840    20.0160    19.0480     9.2290    23.2250    -0.3060     2.2140 
  154.1250    62.9020    20.1130    19.2720     9.4940    23.1890    -0.1900     2.2170 
  154.2500    66.1940    19.9650    19.1890     9.8370    23.1320    -0.1440     2.2210 
  154.3750    66.2010    19.5930    18.7510     9.8150    23.0720    -0.1030     2.2260 
  154.5000    64.7710    19.1320    18.0920     9.2910    23.0540     0.0480     2.2310 
  154.6250    63.9100    18.8420    17.5150     8.7300    23.0840     0.2710     2.2350 
  154.7500    62.9030    18.9180    17.2820     8.7380    23.1290     0.5120     2.2370 
  154.8750    60.7430    19.4480    17.5330     9.4050    23.1350     0.7760     2.2350 
  155.0000    56.1010    20.3950    18.2820     9.9100    23.1060     1.0240     2.2310 
  155.1250    50.8000    21.6190    19.4480    10.0130    23.0650     1.1510     2.2260 
  155.2500    49.5250    22.8440    20.7180    10.0990    23.0180     1.2190     2.2240 
  155.3750    52.1080    23.8900    21.8580    10.2930    23.0010     1.3610     2.2240 
  155.5000    53.5050    24.6480    22.6940    10.4350    23.0190     1.5300     2.2230 
  155.6250    50.0030    25.0480    23.1180    10.6420    23.0240     1.6050     2.2190 
  155.7500    46.4380    25.1960    23.2580    10.9130    23.0160     1.5730     2.2150 
  155.8750    45.9510    25.1760    23.2050    11.0570    23.0200     1.4670     2.2150 
  156.0000    48.0440    25.0850    23.0440    10.9640    23.0450     1.4200     2.2240 
  156.1250    49.9760    25.0410    22.8710    10.6120    23.1220     1.5050     2.2370 
  156.2500    49.2570    25.1270    22.7780    10.5230    23.2400     1.6060     2.2460 
  156.3750    46.0660    25.3920    22.8180    10.8970    23.3270     1.6330     2.2420 
  156.5000    44.5440    25.8670    23.0280    11.3560    23.3950     1.6090     2.2240 
  156.6250    47.4240    26.6180    23.4800    11.5650    23.5900     1.5730     2.1990 
  156.7500    49.8990    27.6300    24.1920    11.9740    23.9750     1.5630     2.1810 
  156.8750    49.7070    28.9000    25.2050    12.9890    24.4350     1.5660     2.1770 
  157.0000    48.6060    30.3610    26.5220    14.6680    24.7760     1.5470     2.1870 
  157.1250    48.1360    31.8230    28.0530    17.1660    24.9660     1.5100     2.1980 
  157.2500    48.0750    33.0190    29.4840    18.9460    25.0010     1.4370     2.1960 
  157.3750    48.4990    33.7430    30.4980    19.7300    25.0500     1.3090     2.1770 
  157.5000    48.7550    33.9000    30.8880    19.2460    25.1090     1.1190     2.1530 
  157.6250    48.7310    33.5180    30.5820    17.7360    25.2120     0.9710     2.1510 
  157.7500    49.4080    32.9580    29.9340    16.2890    25.3140     0.8260     2.1810 
  157.8750    50.6580    32.5230    29.3030    15.7480    25.1920     0.5990     2.2340 
  158.0000    49.9400    32.4510    29.0450    15.9650    24.6720     0.2460     2.2870 
  158.1250    47.7200    32.8690    29.4300    16.1240    23.9730    -0.1630     2.3150 
  158.2500    46.8850    33.4960    30.2380    16.4650    23.7340    -0.5930     2.3200 
  158.3750    46.8160    33.9710    31.1120    18.8140    23.8040    -0.9870     2.3170 
  158.5000    46.0590    33.9050    31.5520    28.7870    23.9520    -1.2920     2.3140 
  158.6250    46.0870    32.9160    30.9390    36.3340    23.8110    -1.5180     2.3170 
  158.7500    47.9020    31.2260    29.4190    26.7440    23.7570    -1.7570     2.3210 
  158.8750    49.8330    29.1890    27.4180    15.9470    23.9560    -1.8620     2.3200 
  159.0000    48.9790    27.2580    25.4570    12.1540    24.3170    -2.0920     2.3090 
  159.1250    46.9310    25.9400    24.0710    11.7490    24.2320    -2.3180     2.2800 
  159.2500    46.9120    25.3310    23.4070    11.5880    24.0230    -2.4130     2.2320 
  159.3750    47.3960    25.3820    23.4570    11.5620    23.9670    -2.3660     2.1730 
  159.5000    46.4260    25.9170    24.0670    11.8590    24.1480    -2.2940     2.1190 
  159.6250    46.6070    26.7110    25.0260    12.2690    24.4220    -2.2980     2.0970 
  159.7500    49.6280    27.4650    26.0390    12.8210    24.6170    -2.3430     2.1100 
  159.8750    52.2460    27.9610    26.9030    13.7970    24.5930    -2.3480     2.1520 
  160.0000    52.0470    28.0100    27.3660    14.4740    24.4270    -2.2700     2.2090 
  160.1250    51.6140    27.4040    27.0260    13.7670    24.2550    -2.1390     2.2660 
  160.2500    52.3990    26.3190    25.9580    13.4430    24.1650    -2.0080     2.3100 
  160.3750    52.9140    25.0140    24.4520    14.2840    24.1120    -1.8680     2.3370 
  160.5000    54.0930    23.8520    22.9560    14.3010    24.0200    -1.6540     2.3450 
  160.6250    56.9570    23.3010    22.0220    12.2040    23.8710    -1.4030     2.3330 
  160.7500    59.0680    23.4620    21.8450    10.5220    23.7680    -1.2580     2.3080 
  160.8750    58.8280    24.2780    22.4300    10.7110    23.7160    -1.2050     2.2770 
  161.0000    56.6360    25.5350    23.5870    11.8390    23.6360    -1.1240     2.2440 
  161.1250    53.5920    26.9650    25.0150    12.3390    23.5830    -1.0510     2.2170 
  161.2500    51.4050    28.3630    26.3750    12.4570    23.6470    -1.1420     2.2010 
  161.3750    49.5590    29.7390    27.5930    12.6170    23.9070    -1.3990     2.2000 
  161.5000    47.8590    31.2040    28.8190    12.7350    24.2570    -1.7160     2.2160 
  161.6250    47.4720    32.8830    30.3720    13.3130    24.3650    -1.8780     2.2520 
  161.7500    49.2470    34.6770    32.2670    14.7970    24.3410    -1.8300     2.3000 
  161.8750    51.0180    36.3940    34.2630    16.8690    24.2860    -1.6250     2.3480 
  162.0000    50.4500    37.8310    36.0140    17.4090    24.2280    -1.3380     2.3880 
  162.1250    50.1060    38.8280    37.2120    16.6390    24.1350    -0.9070     2.4050 
  162.2500    52.0430    39.5110    37.9680    15.8250    24.0200    -0.2890     2.4030 
  162.3750    53.8790    39.9980    38.4400    15.7720    23.9260     0.3930     2.3860 
