~V
VERS. 2.00: Ver 2.00
~W
STRT.M 50.0000:
STOP.M 240.0000:
STEP.M 0.1250:
NULL. -999.2500:
UWI. F10736:
~C
DEPT.M :
DEN.GM/CC :
GR.API :
RML.OHMM :
RI. :
RXO.OHMM :
CALI.CM :
SP.MV :
~A
# ...
  173.7500     2.4130    48.2350    12.8080    12.1310    20.1590    25.2660   -10.5000 
  173.8750     2.4030    50.8890    11.0760    10.6320    12.7970    25.2340   -10.5000 
  174.0000     2.3930    55.8060     9.5740     9.3060     8.5760    25.2490   -10.4990 
  174.1250     2.3890    57.2460     8.7490     8.4930     7.9190    25.2520   -10.5020 
  174.2500     2.3840    56.1260     8.6870     8.2930     8.5090    25.2350   -10.5050 
  174.3750     2.3720    55.6840     9.4290     8.7930     9.1970    25.2060   -10.5080 
  174.5000     2.3540    57.7200    10.9200    10.0240    10.3180    25.1870   -10.4880 
  174.6250     2.3370    59.2860    12.9430    11.9410    13.0590    25.1820   -10.4570 
  174.7500     2.3230    57.8490    14.7360    13.9120    17.0180    25.1870   -10.4020 
  174.8750     2.3140    54.6850    15.4450    15.0900    19.0550    25.2090   -10.3540 
  175.0000     2.3110    53.3330    14.5380    14.7490    18.6150    25.2490   -10.3650 
  175.1250     2.3190    55.9780    12.2570    12.8530    15.3720    25.2580   -10.4190 
  175.2500     2.3470    58.3170     9.8520    10.5990    10.9200    25.2790   -10.4710 
  175.3750     2.3860    58.6440     8.0120     8.7090     7.6440    25.3870   -10.4770 
  175.5000     2.4170    58.8790     6.9600     7.4660     6.4520    25.5010   -10.4310 
  175.6250     2.4310    61.9410     6.7080     6.9470     6.4660    25.5450   -10.3740 
  175.7500     2.4290    64.8590     6.9250     6.8990     6.7250    25.5500   -10.3330 
  175.8750     2.4230    64.1700     7.3750     7.1450     7.4790    25.5500   -10.3330 
  176.0000     2.4140    59.4390     7.7900     7.4670     7.9930    25.5500   -10.3330 
  176.1250     2.4070    54.3500     7.8760     7.6070     7.7410    25.5500   -10.3320 
  176.2500     2.4140    52.9900     7.6240     7.4870     7.0600    25.5490   -10.3340 
  176.3750     2.4330    54.8060     7.1370     7.1480     6.4540    25.5490   -10.3430 
  176.5000     2.4540    56.8280     6.5680     6.6980     6.0810    25.5500   -10.3450 
  176.6250     2.4670    59.6000     6.1160     6.2940     5.9650    25.5500   -10.3290 
  176.7500     2.4690    64.2880     5.9380     6.0850     5.9590    25.5500   -10.2800 
  176.8750     2.4670    67.7500     6.1580     6.1840     6.0360    25.5500   -10.2100 
  177.0000     2.4640    66.7500     6.6860     6.8690     6.2950    25.5500   -10.1540 
  177.1250     2.4550    62.5370     7.7210     8.1750     7.5560    25.5330   -10.1470 
  177.2500     2.4340    57.8540     9.1310     9.8210    10.5000    25.4620   -10.3060 
  177.3750     2.4130    53.6970    10.6050    11.3830    13.9190    25.3060   -10.4800 
  177.5000     2.4020    51.2750    11.6270    12.2810    15.2190    25.1080   -10.5400 
  177.6250     2.3920    52.8530    11.7290    12.1380    13.5670    25.0600   -10.6600 
  177.7500     2.3760    56.2820    11.3730    11.6470    11.9520    25.2160   -10.8150 
  177.8750     2.3700    57.2320    11.1720    11.5430    11.0340    25.4020   -10.9670 
  178.0000     2.3840    53.6860    11.6570    12.3760    11.3050    25.5240   -11.1060 
  178.1250     2.4120    49.7360    13.4360    14.7000    15.1250    25.6610   -11.2770 
  178.2500     2.4460    48.4320    16.5640    18.3680    23.3110    25.8590   -11.4680 
  178.3750     2.4850    48.1750    20.8910    22.9610    29.9950    26.0300   -11.6350 
  178.5000     2.5230    47.2420    25.5860    27.3420    31.0700    26.1730   -11.8250 
  178.6250     2.5390    46.1060    28.7980    29.5650    29.0710    26.2100   -12.0960 
  178.7500     2.5100    45.4260    29.7670    29.4460    27.7920    26.1620   -12.4490 
  178.8750     2.4530    44.7490    29.0310    27.9430    25.5640    26.0810   -12.7250 
  179.0000     2.3920    43.5280    27.6710    26.2420    22.9880    26.0050   -13.0810 
  179.1250     2.3420    43.9390    26.5630    25.1420    22.5840    25.9570   -13.4650 
  179.2500     2.3070    46.7590    26.0100    24.7340    23.5700    25.9260   -13.8670 
  179.3750     2.2860    49.6820    26.1000    24.9970    24.9800    25.9150   -14.2970 
  179.5000     2.2830    50.0220    26.8140    25.8370    25.0090    25.9090   -14.4810 
  179.6250     2.2870    48.5420    27.9350    27.0080    25.3690    25.8540   -14.7680 
  179.7500     2.2800    47.5740    28.9050    27.9990    28.2010    25.6900   -15.1310 
  179.8750     2.2680    47.1430    29.3330    28.4790    33.7200    25.4500   -15.5390 
  180.0000     2.2650    46.2320    29.1600    28.4230    37.6170    25.3470   -15.9740 
  180.1250     2.2790    43.3290    28.7600    28.2160    33.1690    25.5510   -16.2640 
  180.2500     2.3000    39.7530    28.7980    28.4680    27.1070    25.8940   -16.3420 
  180.3750     2.3100    38.7040    29.7500    29.5860    25.7410    26.1690   -16.3470 
  180.5000     2.3030    40.3920    31.8410    31.7050    30.0680    26.3080   -16.2840 
  180.6250     2.2860    40.6410    35.0710    34.6910    35.8350    26.4020   -16.0760 
  180.7500     2.2630    38.6460    38.6380    37.7370    38.2620    26.5020   -15.7640 
  180.8750     2.2360    37.3430    41.6070    40.0000    37.7590    26.6830   -15.4730 
  181.0000     2.2170    38.1970    43.0580    40.7850    36.4900    26.8280   -15.3420 
  181.1250     2.2150    40.1190    42.3810    39.7740    36.0410    26.8170   -15.1000 
  181.2500     2.2390    41.9060    40.4890    37.8780    36.4430    26.6790   -14.8030 
  181.3750     2.2760    43.0780    38.2360    35.8570    36.6690    26.4450   -14.4800 
  181.5000     2.3230    43.3360    36.3460    34.3290    35.8330    26.2320   -14.1300 
  181.6250     2.3800    42.7920    35.4630    33.8240    33.8660    25.9790   -13.7060 
  181.7500     2.4410    42.5210    35.5410    34.1970    36.9470    25.7910   -13.3970 
  181.8750     2.4850    42.7380    36.3090    35.1350    47.0420    25.6490   -12.9160 
  182.0000     2.4800    42.0030    37.2630    36.1090    52.9630    25.4880   -12.2890 
  182.1250     2.4090    40.2500    37.6870    36.3450    43.7040    25.3780   -11.6090 
  182.2500     2.3080    40.3140    37.2340    35.5940    31.3470    25.3870   -10.9370 
  182.3750     2.2470    41.8780    35.9070    34.0220    26.8560    25.5030   -10.4710 
  182.5000     2.2520    43.6820    33.9860    32.0190    28.2840    25.5730   -10.0910 
  182.6250     2.2970    45.5370    31.8150    29.9090    31.2340    25.6410    -9.7300 
  182.7500     2.3250    46.8140    29.6720    27.8580    32.5590    25.8630    -9.3770 
  182.8750     2.3170    46.5560    27.6700    25.9420    30.3550    26.1560    -8.9890 
  183.0000     2.3040    44.2550    25.9160    24.2680    26.4860    26.2980    -8.6060 
  183.1250     2.3070    42.1750    24.6180    23.0340    23.6960    26.1380    -7.9670 
  183.2500     2.3130    41.1730    23.8270    22.2700    22.4330    25.8470    -7.3590 
  183.3750     2.2950    41.5210    23.5870    22.0080    22.5720    25.6440    -6.9370 
  183.5000     2.2570    43.0330    23.8960    22.2400    24.1590    25.6160    -6.7560 
  183.6250     2.2310    43.9740    24.7640    22.9510    26.9010    25.7450    -6.5410 
  183.7500     2.2590    43.4670    25.8600    23.7820    29.6320    25.8820    -6.3430 
  183.8750     2.3300    42.0740    26.6300    24.1660    31.3650    25.9280    -6.1340 
  184.0000     2.4250    40.9520    26.2560    23.3780    32.4490    25.9040    -5.8390 
  184.1250     2.5240    40.2740    23.8400    20.7720    34.1300    25.8480    -5.5730 
  184.2500     2.5920    40.1050    20.1040    17.1660    31.6810    25.7920    -5.2040 
  184.3750     2.5950    41.3680    16.0920    13.5140    22.9200    25.7900    -4.8770 
  184.5000     2.5310    43.5300    12.6550    10.5200    13.6080    25.8400    -4.7840 
  184.6250     2.4550    46.4280    10.2760     8.5580     9.8460    25.7940    -4.6790 
  184.7500     2.4160    51.4940     8.7110     7.3550     8.6460    25.6090    -4.5530 
  184.8750     2.4090    57.5330     7.7720     6.7090     8.3660    25.4290    -4.4760 
