~V
VERS. 2.00: Ver 2.00
~W
STRT.M 51.0000:
STOP.M 263.0000:
STEP.M 0.1250:
NULL. -999.2500:
UWI. F10758:
~C
DEPT.M :
DEN.GM/CC :
GR.API :
RML.OHMM :
RI. :
RXO.OHMM :
CALI.CM :
SP.MV :
~A
# ...
  231.0000     2.5890    48.3960    39.8600    40.5350    82.6640    23.6300   -19.5380 
  231.1250     2.5490    45.7550    22.6040    23.3660    42.1680    23.6420   -19.0420 
  231.2500     2.4610    46.5620    13.2030    13.8620    18.9930    23.5480   -18.6350 
  231.3750     2.3660    47.9900     8.7580     9.2050     8.5430    23.1970   -18.2960 
  231.5000     2.2950    48.2690     7.2300     7.3040     5.2500    22.7440   -18.0490 
  231.6250     2.2800    46.4160     7.8210     7.2900     5.2910    22.4590   -17.9110 
  231.7500     2.3200    42.6980     9.4890     8.5350     6.3150    22.4660   -17.8380 
  231.8750     2.4050    37.5360    12.0380    10.8490     8.1840    22.7180   -17.8560 
  232.0000     2.5080    33.6800    14.9230    13.6450    12.2640    22.9460   -17.9020 
  232.1250     2.5930    34.3300    16.0840    15.2560    23.5040    23.1290   -17.9770 
  232.2500     2.6350    36.4740    14.8690    14.6520    33.5470    23.3200   -18.0670 
  232.3750     2.6270    38.7670    12.1010    12.4100    28.0440    23.6190   -18.1340 
  232.5000     2.5780    42.2900     9.2400     9.8800    15.1450    23.7090   -18.2010 
  232.6250     2.5050    49.7810     7.3720     8.0600     8.1040    23.5670   -18.2190 
  232.7500     2.4330    57.0910     6.4740     6.9850     5.9370    23.5090   -18.2130 
  232.8750     2.3750    60.8390     6.3210     6.5070     5.7050    23.4690   -18.1660 
  233.0000     2.3350    62.6870     6.6000     6.4180     5.7190    23.3650   -18.0910 
  233.1250     2.3180    64.5070     6.9310     6.4870     6.2010    23.1890   -18.0130 
  233.2500     2.3170    64.1660     7.0200     6.4860     6.2430    23.2000   -17.8930 
  233.3750     2.3310    58.9640     6.8170     6.3370     5.7160    23.4020   -17.7770 
  233.5000     2.3510    51.7680     6.4260     6.0550     5.1440    23.5120   -17.6460 
  233.6250     2.3670    48.0750     5.9930     5.7030     4.9210    23.5360   -17.5080 
  233.7500     2.3730    47.4360     5.6360     5.3600     4.7810    23.5280   -17.4050 
  233.8750     2.3680    47.1740     5.4340     5.0620     4.8250    23.4610   -17.3010 
  234.0000     2.3570    46.0810     5.4340     4.8150     4.8040    23.4350   -17.2120 
  234.1250     2.3460    45.4210     5.5950     4.6210     4.5680    23.4160   -17.1650 
  234.2500     2.3390    44.0220     5.7360     4.4850     4.4670    23.3240   -17.1610 
  234.3750     2.3380    40.7430     5.7450     4.4230     4.4060    23.1900   -17.2150 
  234.5000     2.3420    37.8080     5.6230     4.4540     4.3610    23.1200   -17.3340 
  234.6250     2.3520    39.4590     5.5190     4.6060     4.3990    23.0470   -17.5300 
  234.7500     2.3640    43.0670     5.6080     4.8660     4.8960    22.9890   -17.7400 
  234.8750     2.3780    45.8270     5.5430     5.2260     5.9030    23.0770   -17.9780 
  235.0000     2.3920    48.9930     5.8970     5.6540     6.6860    23.2880   -18.2440 
  235.1250     2.4060    53.8020     6.3520     6.0650     6.6050    23.3240   -18.4610 
  235.2500     2.4160    57.4160     6.6120     6.3550     6.8670    23.2590   -18.6860 
  235.3750     2.4170    58.3770     6.6510     6.4780     7.3510    23.4230   -18.8570 
  235.5000     2.4060    59.1110     6.5660     6.4670     7.6600    23.6280   -18.9760 
  235.6250     2.3830    60.3500     6.5650     6.4190     6.9670    23.6650   -19.0630 
  235.7500     2.3580    60.9510     6.7820     6.4380     7.1770    23.6710   -19.1040 
  235.8750     2.3420    59.6860     7.2340     6.5640     7.9510    23.6710   -19.1460 
  236.0000     2.3400    56.4730     7.8340     6.7820     8.5380    23.6700   -19.1470 
  236.1250     2.3540    55.7850     8.3750     7.0110     8.9260    23.6660   -19.1550 
  236.2500     2.3730    59.7200     8.6590     7.1440     9.7660    23.6710   -19.1440 
  236.3750     2.3860    64.9320     8.5970     7.1070    10.1580    23.6710   -19.1060 
  236.5000     2.3900    63.9230     8.2310     6.8730     8.8920    23.6560   -19.0740 
  236.6250     2.3840    56.9570     7.6650     6.4670     7.0990    23.5320   -19.0190 
  236.7500     2.3760    52.5130     7.0610     6.0150     5.7130    23.1590   -18.9550 
  236.8750     2.3700    51.3260     6.4990     5.5990     5.0820    22.9480   -18.8680 
  237.0000     2.3690    50.5000     6.0380     5.2730     5.0480    22.9760   -18.7690 
  237.1250     2.3720    48.8060     5.7460     5.0610     5.0120    23.0710   -18.7090 
  237.2500     2.3770    48.3030     5.6000     4.9250     4.7710    23.1500   -18.6770 
  237.3750     2.3810    48.1980     5.5390     4.8320     4.5990    23.2190   -18.7280 
  237.5000     2.3820    46.4720     5.4900     4.7630     4.6240    23.2710   -18.8300 
  237.6250     2.3770    44.4050     5.4240     4.7250     4.5840    23.1510   -19.0300 
  237.7500     2.3680    45.8960     5.3960     4.7260     4.5140    22.9510   -19.3490 
  237.8750     2.3580    51.1130     5.4470     4.7760     4.5230    22.8800   -19.7450 
  238.0000     2.3480    56.7140     5.5770     4.8710     4.6570    22.8010   -20.2520 
  238.1250     2.3390    59.9660     5.7330     4.9880     4.9000    22.6910   -20.7660 
  238.2500     2.3270    61.6140     5.8400     5.0810     5.2240    22.5600   -21.2650 
  238.3750     2.3110    62.0580     5.8690     5.1240     5.4240    22.4080   -21.7500 
  238.5000     2.2940    61.0620     5.8520     5.1180     5.4120    22.4050   -22.1930 
  238.6250     2.2890    58.9810     5.8810     5.1160     5.2740    22.6270   -22.5880 
  238.7500     2.3010    57.0930     6.0340     5.1840     5.3690    22.9090   -22.9280 
  238.8750     2.3270    55.7980     6.3360     5.3530     5.7880    23.1720   -23.2090 
  239.0000     2.3520    56.1570     6.7840     5.6310     6.5070    23.2010   -23.4440 
  239.1250     2.3620    59.0530     7.3880     6.0440     7.6780    23.3390   -23.6320 
  239.2500     2.3620    63.3180     8.1140     6.5690     8.4870    23.2730   -23.7580 
  239.3750     2.3650    67.7340     8.9420     7.1830     8.3750    23.1240   -23.8440 
  239.5000     2.3850    70.9450     9.8050     7.8430     8.3570    23.0250   -23.9020 
  239.6250     2.4240    73.6510    10.4940     8.4310    10.9610    22.9950   -23.8770 
  239.7500     2.4590    74.6160    10.7430     8.7530    14.3830    23.0550   -23.8040 
  239.8750     2.4700    72.3490    10.3430     8.6190    14.1580    23.0790   -23.6810 
  240.0000     2.4500    68.3330     9.3450     8.0030    12.6690    23.0030   -23.4990 
  240.1250     2.4080    66.8850     8.1370     7.1100     9.8900    23.0100   -23.3140 
  240.2500     2.3670    67.2460     7.2250     6.3300     9.0090    23.0480   -23.1600 
  240.3750     2.3420    66.5320     6.8610     5.8880     8.3530    23.3330   -23.0200 
  240.5000     2.3410    63.7940     7.1030     5.8960     7.4390    23.5160   -22.8760 
  240.6250     2.3600    62.0190     7.8900     6.4170     8.7360    23.4080   -22.7570 
  240.7500     2.3830    61.8060     8.8350     7.2130    11.8780    23.1980   -22.6510 
  240.8750     2.3970    62.8450     9.5390     7.9900    13.0750    23.2760   -22.5580 
  241.0000     2.3960    63.7790     9.6190     8.3670    13.3950    23.3430   -22.4740 
  241.1250     2.3800    63.0610     8.8350     7.9870    13.8180    23.1700   -22.3610 
  241.2500     2.3570    61.1070     7.7660     7.1190    13.1230    23.2100   -22.2080 
  241.3750     2.3340    57.3320     6.7210     6.1100    10.4290    23.4040   -22.0190 
  241.5000     2.3170    52.0070     5.7530     5.2300     7.2880    23.4790   -21.8210 
  241.6250     2.3090    47.2640     5.1070     4.6430     5.2450    23.4660   -21.6180 
  241.7500     2.3100    43.9120     4.7480     4.3160     4.4990    23.4300   -21.4480 
  241.8750     2.3170    40.9830     4.6340     4.2130     4.3410    23.4630   -21.3150 
  242.0000     2.3280    37.8360     4.7010     4.2740     4.3540    23.4910   -21.1800 
  242.1250     2.3360    36.3910     4.8760     4.4330     4.4480    23.5030   -21.1000 
