~V
VERS. 2.00: Ver 2.00
~W
STRT.M 50.0000:
STOP.M 261.0000:
STEP.M 0.1250:
NULL. -999.2500:
UWI. F10772:
~C
DEPT.M :
GR.API :
RML.OHMM :
RI. :
RXO.OHMM :
CALI.CM :
SP.MV :
DEN.GM/CC :
~A
# ...
  185.0000    51.9300    18.5440    17.7870    19.3670    25.0310    -3.0630     2.5930 
  185.1250    53.3050    17.2210    16.2960    16.3760    25.0500    -2.9780     2.5760 
  185.2500    51.5590    16.1860    15.1000    14.1030    25.0430    -2.8770     2.5580 
  185.3750    47.7260    15.5680    14.3440    13.4150    25.0060    -2.7450     2.5480 
  185.5000    44.1020    15.3620    14.0260    14.4270    24.9670    -2.5940     2.5470 
  185.6250    42.3750    15.5270    14.1040    15.4270    24.9440    -2.3890     2.5490 
  185.7500    41.8820    15.8960    14.4150    15.2060    24.8700    -2.1360     2.5500 
  185.8750    42.0600    16.3800    14.8870    14.6270    24.7160    -1.9190     2.5470 
  186.0000    42.2700    16.8870    15.4500    14.4420    24.5570    -1.7520     2.5450 
  186.1250    42.0730    17.2720    15.9770    15.7780    24.4600    -1.6650     2.5470 
  186.2500    42.5030    17.4330    16.3100    16.9200    24.4150    -1.6570     2.5510 
  186.3750    45.0350    17.3210    16.3350    17.7150    24.4330    -1.7140     2.5510 
  186.5000    47.5610    16.9830    16.0480    18.3640    24.5330    -1.7950     2.5440 
  186.6250    46.6670    16.5660    15.5690    18.0120    24.7030    -1.9600     2.5300 
  186.7500    44.8970    16.2670    15.1420    16.2360    24.7760    -2.1800     2.5180 
  186.8750    45.7950    16.1920    14.9070    15.2920    24.7010    -2.4180     2.5110 
  187.0000    46.8740    16.3590    14.9160    16.1470    24.5170    -2.6680     2.5070 
  187.1250    43.9740    16.7180    15.1610    16.5270    24.4940    -2.8560     2.5050 
  187.2500    41.1470    17.1240    15.5210    16.4060    24.6850    -2.9770     2.5040 
  187.3750    41.8860    17.4850    15.8960    16.2020    24.8760    -3.0560     2.5090 
  187.5000    43.9030    17.7420    16.1940    15.9830    24.9290    -3.1510     2.5200 
  187.6250    44.2480    17.8570    16.3300    16.4290    24.8580    -3.2620     2.5340 
  187.7500    45.0730    17.8750    16.3280    16.9650    24.8460    -3.4560     2.5430 
  187.8750    47.6810    17.8550    16.2360    16.7120    24.9140    -3.7460     2.5450 
  188.0000    49.1430    17.8790    16.1360    16.2920    24.9840    -4.0120     2.5420 
  188.1250    46.7470    18.0640    16.1550    15.5020    24.9920    -4.1370     2.5410 
  188.2500    43.8630    18.4390    16.3520    16.0570    24.9770    -4.2500     2.5420 
  188.3750    42.8990    18.9800    16.7360    19.0990    24.9440    -4.3720     2.5420 
  188.5000    43.8660    19.6060    17.2540    24.2100    24.9390    -4.4580     2.5390 
  188.6250    45.8310    20.1830    17.7960    21.2570    25.0480    -4.4500     2.5350 
  188.7500    48.3030    20.6120    18.2350    19.3310    25.1120    -4.2960     2.5340 
  188.8750    50.2450    20.8510    18.4950    18.6740    25.1220    -4.0100     2.5380 
  189.0000    49.9760    20.9080    18.5620    19.5720    25.1090    -3.7630     2.5470 
  189.1250    49.0840    20.8100    18.4620    19.7650    25.1020    -3.7380     2.5590 
  189.2500    49.1300    20.6350    18.2920    19.6660    25.1010    -3.8240     2.5670 
  189.3750    49.7820    20.4090    18.1020    17.8290    25.1060    -3.9600     2.5690 
  189.5000    49.9550    20.1250    17.9140    16.8530    25.1160    -4.0870     2.5600 
  189.6250    49.7250    19.7310    17.6760    17.1950    25.1390    -4.2480     2.5430 
  189.7500    51.9160    19.2230    17.3050    17.3940    25.1500    -4.5630     2.5230 
  189.8750    56.6740    18.6530    16.7780    17.5040    25.1630    -5.0150     2.5060 
  190.0000    61.7600    18.1640    16.1950    17.8200    25.1600    -5.5580     2.4960 
  190.1250    62.8920    18.0500    15.8360    16.6600    25.1160    -6.1790     2.4950 
  190.2500    60.6120    18.4360    15.9440    15.0510    25.0360    -6.8670     2.4980 
  190.3750    58.0310    19.2700    16.6460    14.9230    24.9600    -7.6150     2.5030 
  190.5000    57.7360    20.2080    17.8040    16.3680    24.8820    -8.3720     2.5080 
  190.6250    57.0190    20.5050    18.7100    20.5310    24.8000    -8.9840     2.5110 
  190.7500    54.9310    19.7040    18.4410    23.3990    24.6830    -9.3700     2.5140 
  190.8750    54.6240    17.7860    16.6490    23.0600    24.5620    -9.5180     2.5190 
  191.0000    57.4960    15.2300    13.9220    18.3330    24.4590    -9.4530     2.5230 
  191.1250    61.1530    12.9300    11.4260    12.1960    24.4120    -9.1540     2.5160 
  191.2500    63.8400    11.5360     9.8180     9.1030    24.4490    -8.6140     2.4990 
  191.3750    66.8780    11.2530     9.2380     8.0320    24.5690    -7.9140     2.4820 
  191.5000    68.7260    11.9150     9.6320     8.4050    24.6730    -7.2320     2.4840 
  191.6250    65.0070    13.0450    10.8730    10.6490    24.6700    -6.5930     2.5190 
  191.7500    60.0850    13.8680    12.2450    13.8600    24.6220    -5.9260     2.5750 
  191.8750    57.4610    13.8760    12.9230    16.9180    24.6390    -5.2870     2.6260 
  192.0000    57.9710    12.9000    12.3310    17.9230    24.7300    -4.6750     2.6520 
  192.1250    60.8550    11.1360    10.6160    14.0730    24.8600    -4.0370     2.6380 
  192.2500    64.2690     9.2670     8.7500     9.9720    24.9350    -3.4270     2.5990 
  192.3750    64.9560     7.7100     7.2110     7.1980    24.9260    -2.8210     2.5470 
  192.5000    58.4090     6.6500     6.1540     5.7290    24.8210    -2.1730     2.4950 
  192.6250    46.5170     6.1300     5.6110     5.2610    24.6760    -1.6070     2.4550 
  192.7500    37.8920     5.9400     5.3950     5.1090    24.5700    -1.2060     2.4310 
  192.8750    34.7350     5.9620     5.3990     5.1300    24.5370    -0.9330     2.4220 
  193.0000    34.9580     6.1030     5.5300     5.2150    24.5230    -0.7330     2.4210 
  193.1250    36.5200     6.2990     5.7260     5.3080    24.5460    -0.5790     2.4180 
  193.2500    37.9980     6.4840     5.9250     5.4070    24.6350    -0.4590     2.4100 
  193.3750    40.0510     6.6140     6.0840     5.4960    24.7340    -0.3520     2.4000 
  193.5000    44.1030     6.6500     6.1500     5.5880    24.8210    -0.2330     2.3930 
  193.6250    48.3220     6.5530     6.0400     5.7010    24.8300    -0.1140     2.3950 
  193.7500    50.1600     6.3730     5.7780     5.7970    24.8150    -0.0260     2.4000 
  193.8750    52.9500     6.1920     5.4500     5.7260    24.7890     0.0120     2.4030 
  194.0000    60.6580     6.1280     5.1910     5.3900    24.7820    -0.0140     2.4020 
  194.1250    68.0260     6.3530     5.1890     5.0420    24.8070    -0.1400     2.4010 
  194.2500    70.4630     6.8940     5.5080     5.4500    24.8460    -0.3400     2.4080 
  194.3750    70.3860     7.7160     6.1640     7.2980    24.8460    -0.6320     2.4230 
  194.5000    70.4600     8.6820     7.0860     9.5870    24.7910    -1.0460     2.4380 
  194.6250    69.9540     9.5330     8.0650    10.9920    24.7120    -1.6000     2.4400 
  194.7500    69.4480    10.0580     8.7900    11.1090    24.6670    -2.1230     2.4260 
  194.8750    69.3470    10.1650     9.0670    10.5530    24.6580    -2.5000     2.4010 
  195.0000    69.2830     9.8970     8.8890     9.9630    24.6830    -2.7860     2.3740 
  195.1250    68.0000     9.3820     8.3990     9.3750    24.6990    -3.0650     2.3510 
  195.2500    67.1330     8.8300     7.8500     8.6440    24.7080    -3.3750     2.3340 
  195.3750    68.2490     8.3410     7.3500     8.0480    24.6890    -3.7030     2.3240 
  195.5000    71.0100     7.9640     6.9550     7.5330    24.6270    -3.9890     2.3260 
  195.6250    72.3720     7.7510     6.7080     7.3290    24.4970    -4.1150     2.3410 
  195.7500    72.2830     7.7080     6.6050     7.6690    24.4090    -4.1780     2.3640 
  195.8750    73.4630     7.8560     6.6730     7.5200    24.3470    -4.2680     2.3850 
  196.0000    76.5740     8.1880     6.9320     7.3300    24.3230    -4.3490     2.3960 
  196.1250    77.2690     8.6570     7.3840     7.5930    24.3890    -4.3840     2.3960 
