~V
VERS. 2.00: Ver 2.00
~W
STRT.M 10.0000:
STOP.M 237.0000:
STEP.M 0.1250:
NULL. -999.2500:
UWI. F10776:
~C
DEPT.M :
DEN.GM/CC :
GR.API :
RML.OHMM :
RI. :
RXO.OHMM :
CALI.CM :
SP.MV :
~A
# ...
   77.5000     2.2370    46.5160     9.1490     6.9340     6.6530    24.1060   -11.5830 
   77.6250     2.2220    45.5650     9.7100     7.1750     7.0400    24.1800   -11.3690 
   77.7500     2.2420    44.9420    10.9220     7.8150     7.6820    24.4410   -11.1180 
   77.8750     2.2960    44.3780    13.1170     9.1040     9.0340    24.7790   -10.8170 
   78.0000     2.3740    45.0130    16.5890    11.3270    11.8980    25.0480   -10.4340 
   78.1250     2.4620    45.8670    21.6210    14.9050    18.0400    25.1390    -9.9020 
   78.2500     2.5280    44.7890    27.2740    19.3460    28.1830    25.1470    -9.2790 
   78.3750     2.5470    42.6200    31.6890    23.3830    39.4770    25.0860    -8.5780 
   78.5000     2.5130    41.0640    32.4800    25.0620    40.6130    24.8720    -7.8500 
   78.6250     2.4400    40.3540    28.7730    23.1030    26.9160    24.3660    -7.1720 
   78.7500     2.3550    39.3260    23.9530    19.6860    16.2970    23.7350    -6.5820 
   78.8750     2.2700    38.0560    20.1070    16.5140    10.6990    23.2770    -6.0980 
   79.0000     2.2020    39.3760    17.8190    14.3280     8.6770    23.0640    -5.7420 
   79.1250     2.1750    44.5960    16.9690    13.2960     8.1680    22.9880    -5.5230 
   79.2500     2.1780    49.0550    16.8450    12.9770     7.9790    22.9370    -5.3840 
   79.3750     2.1900    49.2340    17.0950    13.1130     7.9100    22.9040    -5.2950 
   79.5000     2.1930    45.6720    17.5010    13.4860     7.8470    22.9070    -5.2400 
   79.6250     2.1810    44.8180    17.9560    13.9420     7.8280    22.9570    -5.1660 
   79.7500     2.1680    46.9120    18.4080    14.3880     7.8670    23.0260    -5.0890 
   79.8750     2.1700    47.2650    18.8230    14.7970     7.9160    23.0920    -4.9850 
   80.0000     2.1950    44.7650    19.1480    15.1350     7.9850    23.1440    -4.8840 
   80.1250     2.2390    43.2260    19.2460    15.3030     7.9660    23.2100    -4.8330 
   80.2500     2.2820    44.8920    18.9650    15.1870     7.9110    23.2690    -4.8460 
   80.3750     2.3130    47.4770    18.1000    14.6350     7.9050    23.3080    -4.9550 
   80.5000     2.3310    47.8540    16.5680    13.5660     7.8480    23.3350    -5.1870 
   80.6250     2.3440    44.4490    14.5780    12.0750     7.5470    23.3530    -5.5650 
   80.7500     2.3480    41.0830    12.7080    10.5680     7.1310    23.3990    -5.9940 
   80.8750     2.3310    41.3660    11.3270     9.3300     6.6790    23.4460    -6.4560 
   81.0000     2.2950    45.4580    10.5960     8.5260     6.1300    23.4310    -6.8810 
   81.1250     2.2570    50.0520    10.5920     8.2840     6.1050    23.2980    -7.1950 
   81.2500     2.2230    52.1150    11.0810     8.4850     6.6510    23.1120    -7.4020 
   81.3750     2.1910    51.0220    11.9180     9.0530     7.2790    22.9830    -7.5040 
   81.5000     2.1670    48.1140    12.9480     9.8720     7.6610    22.9310    -7.4900 
   81.6250     2.1660    45.7990    13.9970    10.7850     7.9290    22.9190    -7.3950 
   81.7500     2.1780    44.1540    14.9240    11.6120     8.2750    22.9180    -7.3030 
   81.8750     2.1980    41.8570    15.6560    12.2670     8.5900    22.9260    -7.2010 
   82.0000     2.2240    39.2390    16.1540    12.7300     8.6530    22.9480    -7.1520 
   82.1250     2.2460    39.1210    16.3410    12.9680     8.5380    22.9960    -7.2340 
   82.2500     2.2500    41.8680    16.2210    12.9900     8.4460    23.0350    -7.4470 
   82.3750     2.2400    45.9360    15.7510    12.7530     8.3600    23.0520    -7.8070 
   82.5000     2.2360    48.9870    14.8910    12.2110     8.1580    23.0540    -8.3040 
   82.6250     2.2580    48.6530    13.5900    11.3000     7.8590    23.0540    -8.9070 
   82.7500     2.3010    46.4780    12.0290    10.1360     7.5970    23.0820    -9.5080 
   82.8750     2.3600    44.4670    10.4030     8.8530     7.2280    23.2480   -10.1040 
   83.0000     2.4230    44.9600     8.9260     7.6190     6.6370    23.7190   -10.6640 
   83.1250     2.4590    48.6710     7.8100     6.6240     6.1040    24.4260   -11.1650 
   83.2500     2.4500    53.8150     7.0470     5.9030     5.7020    24.9610   -11.5900 
   83.3750     2.4000    58.2720     6.6120     5.4590     5.4950    25.1730   -11.9380 
   83.5000     2.3330    60.9070     6.4670     5.2690     5.5920    25.1660   -12.1930 
   83.6250     2.2740    63.2960     6.6110     5.3320     5.6670    25.0470   -12.3380 
   83.7500     2.2370    64.1670     6.9460     5.5660     5.6450    24.9340   -12.4270 
   83.8750     2.2260    60.4120     7.4020     5.9250     5.5160    24.8730   -12.4890 
   84.0000     2.2320    54.9130     7.8900     6.3490     5.6730    24.6240   -12.5030 
   84.1250     2.2450    53.9950     8.2850     6.7460     6.0990    24.1320   -12.4500 
   84.2500     2.2550    55.4590     8.5090     7.0310     6.4130    23.7500   -12.3280 
   84.3750     2.2650    53.6100     8.5250     7.1460     6.3370    23.7860   -12.1270 
   84.5000     2.2750    48.1360     8.3350     7.0660     6.0450    24.1640   -11.8840 
   84.6250     2.2770    44.5720     7.9340     6.7660     5.9200    24.5090   -11.6440 
   84.7500     2.2670    45.0920     7.3880     6.3120     5.9630    24.6900   -11.4100 
   84.8750     2.2550    48.0850     6.7620     5.7610     5.8840    24.7800   -11.1850 
   85.0000     2.2450    51.2840     6.1670     5.1990     5.6400    24.8780   -10.9910 
   85.1250     2.2240    54.8280     5.7950     4.7600     5.4130    24.8790   -10.8390 
   85.2500     2.1870    58.5720     5.7720     4.5410     5.2910    24.7160   -10.7610 
   85.3750     2.1450    59.3620     6.2120     4.6290     5.3420    24.3320   -10.7150 
   85.5000     2.1150    54.6890     7.2000     5.0950     5.8450    23.7850   -10.6660 
   85.6250     2.1130    48.3240     8.8720     6.0610     6.6850    23.2570   -10.5700 
   85.7500     2.1250    45.0240    11.0590     7.4520     7.4290    23.0480   -10.4300 
   85.8750     2.1440    43.5990    13.5220     9.1540     8.2660    23.0510   -10.2380 
   86.0000     2.1730    42.1680    15.8350    10.9020     9.0480    23.0830    -9.9920 
   86.1250     2.2100    43.2490    17.3280    12.2220     9.2770    23.0790    -9.7000 
   86.2500     2.2380    49.0400    17.8900    12.9250     9.1710    23.1020    -9.3410 
   86.3750     2.2430    53.3140    17.7580    13.0950     8.9840    23.1730    -8.9410 
   86.5000     2.2320    51.0980    17.3660    12.9920     8.7680    23.2860    -8.5070 
   86.6250     2.2220    45.9520    17.1550    12.9270     8.6260    23.2950    -8.0330 
   86.7500     2.2220    43.4580    17.3220    13.0890     8.5720    23.2100    -7.5630 
   86.8750     2.2260    42.3720    17.9010    13.5340     8.5510    23.1030    -7.1380 
   87.0000     2.2320    40.0580    18.8130    14.2410     8.4320    23.0540    -6.8020 
   87.1250     2.2470    38.5410    19.8300    15.1110     8.2530    23.0370    -6.6180 
   87.2500     2.2670    39.0700    20.4730    15.8430     8.0960    22.9870    -6.6030 
   87.3750     2.2810    39.2400    20.1670    16.0200     7.9900    22.8810    -6.7650 
   87.5000     2.2920    36.9330    18.4830    15.2220     7.8780    22.7620    -7.1360 
   87.6250     2.3130    34.9790    15.4450    13.2460     7.7170    22.7130    -7.7870 
   87.7500     2.3470    37.5800    12.1160    10.7960     7.2620    22.8430    -8.6330 
   87.8750     2.3810    44.1490     9.2340     8.4650     6.3880    23.3190    -9.5750 
   88.0000     2.4000    50.0450     7.1460     6.6090     5.3190    24.1540   -10.5390 
   88.1250     2.4020    53.6490     5.9580     5.4030     4.8450    24.9280   -11.4350 
   88.2500     2.4080    56.3700     5.3490     4.6690     4.8580    25.3570   -12.2350 
   88.3750     2.4190    57.5940     5.1640     4.3100     4.9830    25.5190   -12.9350 
   88.5000     2.4170    57.1990     5.3150     4.2580     4.9900    25.5730   -13.4970 
   88.6250     2.3810    57.5020     5.8570     4.5380     5.2400    25.5660   -13.8890 
