~V
VERS. 2.00: Ver 2.00
~W
STRT.M 51.0000:
STOP.M 263.0000:
STEP.M 0.1250:
NULL. -999.2500:
UWI. F10758:
~C
DEPT.M :
DEN.GM/CC :
GR.API :
RML.OHMM :
RI. :
RXO.OHMM :
CALI.CM :
SP.MV :
~A
# ...
  186.0000     2.4350    54.5830    13.0170    11.8520    11.8340    23.8510   -12.2560 
  186.1250     2.4240    53.2230    12.4860    11.4120    10.1790    23.9950   -12.1130 
  186.2500     2.4180    50.0290    12.2850    11.1720     9.7050    23.8820   -11.9760 
  186.3750     2.4190    46.9290    12.3000    11.0920    10.2530    23.7720   -11.8060 
  186.5000     2.4270    46.8070    12.3450    11.1040    11.5630    23.7040   -11.6150 
  186.6250     2.4400    49.7510    12.2310    11.1090    12.9930    23.7000   -11.4290 
  186.7500     2.4510    51.0220    11.9460    11.0270    12.5890    23.7310   -11.2860 
  186.8750     2.4540    49.2980    11.6050    10.8570    11.0640    23.7330   -11.1840 
  187.0000     2.4500    47.0520    11.4010    10.6730    10.1030    23.7690   -11.1270 
  187.1250     2.4400    47.1380    11.5420    10.6070    10.4530    23.8150   -11.1040 
  187.2500     2.4300    47.5280    11.9730    10.7090    10.5210    23.9370   -11.0600 
  187.3750     2.4210    47.2740    12.5630    10.9740    10.6710    23.9770   -11.0200 
  187.5000     2.4160    48.2090    13.1390    11.3360    11.3120    23.9790   -10.9500 
  187.6250     2.4170    51.6390    13.4990    11.6710    12.1280    24.0660   -10.9180 
  187.7500     2.4240    53.9080    13.6220    11.8980    12.0370    24.1420   -10.8770 
  187.8750     2.4330    53.2880    13.5970    12.0360    12.2960    24.2190   -10.8360 
  188.0000     2.4410    51.5550    13.5920    12.1620    12.5250    24.2730   -10.7490 
  188.1250     2.4420    49.8400    13.8080    12.3750    12.3020    24.2760   -10.6710 
  188.2500     2.4370    48.7990    14.2650    12.7010    12.2910    24.2570   -10.6020 
  188.3750     2.4280    47.3850    14.8750    13.1100    13.4150    24.2640   -10.5340 
  188.5000     2.4190    46.0920    15.4630    13.5240    15.2480    24.2060   -10.4990 
  188.6250     2.4150    46.6190    15.8160    13.8260    15.5130    24.1850   -10.4360 
  188.7500     2.4200    48.5670    15.9370    13.9800    14.7760    24.1750   -10.4040 
  188.8750     2.4310    51.5230    15.9270    13.9800    15.0450    24.3140   -10.3950 
  189.0000     2.4430    53.8670    15.8740    13.8390    15.4440    24.4220   -10.4380 
  189.1250     2.4480    53.7550    15.7220    13.5630    14.4750    24.3380   -10.4990 
  189.2500     2.4450    52.5550    15.3730    13.1940    13.1350    24.2340   -10.6110 
  189.3750     2.4380    52.3790    14.8050    12.7690    12.4790    24.2700   -10.7560 
  189.5000     2.4320    53.8020    14.1470    12.3530    12.5410    24.2580   -10.9260 
  189.6250     2.4320    53.8140    13.7080    12.0520    12.3960    24.2270   -11.1290 
  189.7500     2.4360    51.7990    13.6680    11.9210    12.2590    24.2950   -11.3230 
  189.8750     2.4410    49.9830    14.0110    11.9950    12.1830    24.3060   -11.5030 
  190.0000     2.4450    49.2380    14.5810    12.2880    12.6980    24.3350   -11.6400 
  190.1250     2.4470    49.8940    15.2430    12.8290    13.4220    24.3060   -11.7600 
  190.2500     2.4470    52.6890    15.9310    13.5630    13.4300    24.2940   -11.8320 
  190.3750     2.4470    56.5000    16.6270    14.4230    14.2530    24.2680   -11.8900 
  190.5000     2.4450    57.9270    17.2610    15.2590    15.9120    24.1260   -11.9330 
  190.6250     2.4420    55.6360    17.6260    15.7850    17.2130    23.7250   -11.9500 
  190.7500     2.4360    54.3900    17.6140    15.8770    17.5450    23.3250   -11.9630 
  190.8750     2.4250    55.4140    17.2170    15.5410    16.6340    23.0350   -11.9590 
  191.0000     2.4080    56.5780    16.5250    14.8980    14.1400    22.9310   -11.9630 
  191.1250     2.3900    57.8280    15.6540    14.1330    12.5160    22.9190   -11.9500 
  191.2500     2.3740    59.1280    14.7450    13.4230    12.5790    22.9500   -11.9480 
  191.3750     2.3670    59.3180    13.8920    12.8150    13.1790    23.1230   -11.9420 
  191.5000     2.3700    58.3120    13.1900    12.2990    11.7540    23.5660   -11.9080 
  191.6250     2.3830    57.7120    12.7410    11.8700    10.5290    23.8160   -11.8150 
  191.7500     2.4000    57.5470    12.5160    11.5310    10.1560    23.9220   -11.6830 
  191.8750     2.4170    56.4640    12.4940    11.3170     9.9720    23.9530   -11.5320 
  192.0000     2.4310    53.5910    12.6310    11.2590     9.4690    24.1530   -11.3770 
  192.1250     2.4400    50.6160    12.8670    11.3750     9.5660    24.1880   -11.2460 
  192.2500     2.4430    50.4920    13.0890    11.5710    10.0880    24.1950   -11.1150 
  192.3750     2.4410    52.2760    13.2190    11.7480    10.7380    24.1600   -10.9980 
  192.5000     2.4350    52.6600    13.2300    11.8370    11.2070    24.1330   -10.8950 
  192.6250     2.4280    50.7520    13.0950    11.8100    10.9610    24.1590   -10.8650 
  192.7500     2.4210    49.7060    12.8690    11.7240    10.7540    24.1430   -10.8220 
  192.8750     2.4160    50.5100    12.6420    11.6410    10.7750    24.1850   -10.7790 
  193.0000     2.4130    53.2260    12.5320    11.6280    10.6970    24.2090   -10.7300 
  193.1250     2.4140    56.0260    12.6910    11.7460    11.1020    24.2320   -10.6950 
  193.2500     2.4140    56.5590    13.1260    11.9590    11.8880    24.2300   -10.6970 
  193.3750     2.4120    53.8780    13.7720    12.2180    12.5600    24.1590   -10.7080 
  193.5000     2.4050    50.0100    14.4690    12.4780    12.8860    24.0920   -10.7550 
  193.6250     2.3960    49.4040    15.0090    12.6990    12.9090    24.0960   -10.7810 
  193.7500     2.3900    51.3890    15.3430    12.8900    12.3760    24.1510   -10.8650 
  193.8750     2.3910    52.8490    15.4970    13.0670    12.4550    24.2190   -10.9530 
  194.0000     2.3980    52.1420    15.5220    13.2430    13.1250    24.2640   -11.0360 
  194.1250     2.4090    52.8990    15.4890    13.4000    13.8000    24.1890   -11.0720 
  194.2500     2.4160    55.2310    15.4810    13.5230    13.9060    24.1690   -11.0780 
  194.3750     2.4200    56.3050    15.5200    13.6230    13.7060    24.2240   -11.0800 
  194.5000     2.4220    54.1710    15.6150    13.7350    13.2270    24.1590   -11.0660 
  194.6250     2.4260    51.1730    15.7990    13.9120    13.4230    24.2000   -11.0740 
  194.7500     2.4360    50.7310    16.0430    14.1530    14.0540    24.2380   -11.0540 
  194.8750     2.4470    51.9190    16.2860    14.4110    14.7850    24.2720   -11.0480 
  195.0000     2.4570    53.2980    16.4350    14.5980    15.2080    24.2600   -11.0230 
  195.1250     2.4550    54.5080    16.3780    14.6070    14.4190    24.2420   -11.0130 
  195.2500     2.4440    55.3030    16.1510    14.4630    13.5340    24.3090   -10.9750 
  195.3750     2.4280    54.2080    15.8390    14.2330    12.9610    24.3470   -10.9320 
  195.5000     2.4150    51.9450    15.5590    14.0030    13.1260    24.3340   -10.9070 
  195.6250     2.4130    50.1840    15.4260    13.8570    13.6960    24.3760   -10.8880 
  195.7500     2.4220    47.4490    15.4360    13.8040    13.8570    24.3390   -10.9170 
  195.8750     2.4390    44.8880    15.5450    13.8340    13.5490    24.3820   -10.9640 
  196.0000     2.4560    45.5950    15.6840    13.9380    13.5730    24.3650   -11.0780 
  196.1250     2.4660    50.5410    15.7840    14.1260    14.2140    24.3260   -11.2360 
  196.2500     2.4640    53.8080    15.8370    14.3640    14.7290    24.3600   -11.4320 
  196.3750     2.4470    53.8840    15.8680    14.6050    15.0220    24.3460   -11.6380 
  196.5000     2.4200    51.8270    15.9170    14.7920    15.0300    24.2840   -11.8050 
  196.6250     2.3950    48.8420    15.9990    14.8870    15.2150    24.3870   -11.9770 
  196.7500     2.3840    48.3920    16.0900    14.9500    14.7020    24.4280   -12.1040 
  196.8750     2.3920    51.2900    16.2100    15.0570    15.0070    24.2890   -12.2440 
  197.0000     2.4130    55.6950    16.4100    15.2580    15.2680    23.8960   -12.3660 
  197.1250     2.4340    59.1050    16.7400    15.5550    15.4240    24.0730   -12.4940 
