~V
VERS. 2.00: Ver 2.00
~W
STRT.M 10.0000:
STOP.M 237.0000:
STEP.M 0.1250:
NULL. -999.2500:
UWI. F10776:
~C
DEPT.M :
DEN.GM/CC :
GR.API :
RML.OHMM :
RI. :
RXO.OHMM :
CALI.CM :
SP.MV :
~A
# ...
  167.5000     2.4140    60.7790     7.3090     5.5160     6.8160    25.5300    -9.6810 
  167.6250     2.3930    62.4860     7.8550     5.9150     7.2420    25.5900   -10.0180 
  167.7500     2.3810    62.2110     8.3530     6.2960     7.4420    25.6070   -10.3430 
  167.8750     2.3820    59.7020     8.7550     6.6260     7.7390    25.6130   -10.6490 
  168.0000     2.3910    57.9730     9.0070     6.8640     8.2300    25.6220   -10.9240 
  168.1250     2.4010    57.5770     9.0330     6.9430     8.5940    25.6320   -11.1420 
  168.2500     2.4020    56.5440     8.8880     6.8800     8.5270    25.6500   -11.3290 
  168.3750     2.3870    55.2790     8.6680     6.7290     8.0860    25.6900   -11.5030 
  168.5000     2.3640    55.8190     8.4970     6.5830     7.6640    25.7370   -11.6670 
  168.6250     2.3480    56.6940     8.4870     6.5440     7.4490    25.7550   -11.8180 
  168.7500     2.3430    55.6380     8.6170     6.6230     7.4580    25.7600   -11.9410 
  168.8750     2.3470    54.4180     8.8200     6.7840     7.8140    25.7530   -12.0360 
  169.0000     2.3520    54.6790     9.0020     6.9530     8.4920    25.7400   -12.0980 
  169.1250     2.3550    56.9030     9.0650     7.0420     8.8570    25.7400   -12.1330 
  169.2500     2.3570    58.6520     9.0010     7.0260     8.3510    25.7500   -12.1250 
  169.3750     2.3610    57.9790     8.8400     6.9200     7.7400    25.7530   -12.0750 
  169.5000     2.3710    55.8580     8.6320     6.7620     7.5830    25.7590   -11.9990 
  169.6250     2.3840    54.5670     8.4400     6.6050     7.8290    25.7940   -11.9000 
  169.7500     2.3940    55.8500     8.3270     6.5010     7.8530    25.8610   -11.7870 
  169.8750     2.3920    57.3700     8.3510     6.4840     7.4750    25.9210   -11.6460 
  170.0000     2.3820    57.4840     8.5660     6.5870     7.1650    25.9190   -11.4960 
  170.1250     2.3730    56.5180     9.0400     6.8710     7.5180    25.8430   -11.3570 
  170.2500     2.3610    56.3800     9.7330     7.3250     8.3430    25.7870   -11.2360 
  170.3750     2.3390    55.3090    10.6010     7.9260     9.3300    25.7570   -11.1330 
  170.5000     2.3110    52.6470    11.5390     8.6100     9.9290    25.7470   -11.0490 
  170.6250     2.2880    52.6250    12.3650     9.2560    10.3710    25.7490   -10.9960 
  170.7500     2.2750    55.2440    12.9320     9.7430    10.4360    25.7610   -10.9740 
  170.8750     2.2660    55.6060    13.1400     9.9810    10.0910    25.7860   -10.9750 
  171.0000     2.2550    51.6800    12.9490     9.9290     9.5950    25.8210   -10.9850 
  171.1250     2.2450    46.8110    12.3740     9.5710     9.0360    25.8060   -10.9990 
  171.2500     2.2450    44.9790    11.6510     9.0660     8.9390    25.7590   -11.0240 
  171.3750     2.2550    46.3900    11.0200     8.5730     8.7720    25.7010   -11.0500 
  171.5000     2.2690    50.8000    10.7180     8.2650     8.6320    25.6260   -11.0810 
  171.6250     2.2780    55.5480    11.0210     8.3500     8.9540    25.5930   -11.0940 
  171.7500     2.2830    55.9560    11.9140     8.8590     9.7430    25.5620   -11.0980 
  171.8750     2.2860    52.2420    13.3410     9.7960    11.1690    25.5390   -11.1210 
  172.0000     2.2910    47.6090    15.1030    11.0850    13.4730    25.5160   -11.1520 
  172.1250     2.3080    45.2720    16.7550    12.4860    14.8350    25.5300   -11.1900 
  172.2500     2.3390    45.5730    17.7500    13.5590    15.3210    25.4950   -11.2150 
  172.3750     2.3660    45.9990    17.7000    13.9130    14.9940    25.4250   -11.2360 
  172.5000     2.3590    46.1100    16.5630    13.3850    14.1950    25.3800   -11.2480 
  172.6250     2.3120    48.4160    14.6540    12.1050    12.9360    25.3770   -11.2600 
  172.7500     2.2690    54.2160    12.6590    10.6180    11.2140    25.3860   -11.2740 
  172.8750     2.2490    61.1800    10.9290     9.2310     9.4000    25.3970   -11.2840 
  173.0000     2.2480    64.7340     9.6160     8.1040     8.5510    25.4010   -11.3010 
  173.1250     2.2590    63.5990     8.8040     7.3410     7.8580    25.3590   -11.3110 
  173.2500     2.2830    61.5000     8.3720     6.8840     7.3750    25.2950   -11.3210 
  173.3750     2.3140    60.7800     8.2840     6.7240     6.8710    25.3010   -11.3310 
  173.5000     2.3390    60.6270     8.4980     6.8390     6.7290    25.4020   -11.3410 
  173.6250     2.3530    57.3500     8.9560     7.2090     7.0910    25.4920   -11.3500 
  173.7500     2.3610    52.2810     9.4590     7.6810     7.7930    25.5340   -11.3500 
  173.8750     2.3640    49.3530     9.8210     8.1090     8.6230    25.5290   -11.3400 
  174.0000     2.3580    50.2870     9.8800     8.3330     8.9890    25.5080   -11.3210 
  174.1250     2.3460    50.9580     9.5400     8.2110     8.5130    25.4980   -11.2930 
  174.2500     2.3320    51.3800     9.0150     7.8630     7.5270    25.5070   -11.2680 
  174.3750     2.3160    54.0650     8.5210     7.4480     6.9800    25.5410   -11.2520 
  174.5000     2.3020    57.1900     8.2210     7.1170     6.7290    25.6130   -11.2460 
  174.6250     2.3020    57.4750     8.2090     6.9780     6.9250    25.6560   -11.2610 
  174.7500     2.3160    55.6890     8.3820     6.9920     7.5240    25.7360   -11.2970 
  174.8750     2.3350    54.1830     8.6320     7.0930     8.2750    25.8120   -11.3420 
  175.0000     2.3500    52.0200     8.8570     7.2070     8.9030    25.8490   -11.3960 
  175.1250     2.3660    50.0140     9.0170     7.2920     9.0850    25.8400   -11.4690 
  175.2500     2.3780    51.2970     9.2160     7.4040     8.8030    25.8520   -11.5450 
  175.3750     2.3760    54.1120     9.6050     7.6490     9.0330    25.8680   -11.6210 
  175.5000     2.3600    54.8290    10.3290     8.1420     9.9390    25.8520   -11.7060 
  175.6250     2.3490    52.8550    11.5220     9.0110    11.3260    25.8010   -11.7770 
  175.7500     2.3570    50.6350    13.0270    10.1780    13.4640    25.7730   -11.8600 
  175.8750     2.3750    49.0850    14.6120    11.4950    16.4270    25.7820   -11.9660 
  176.0000     2.3790    48.1970    15.9670    12.7270    17.2400    25.8210   -12.0700 
  176.1250     2.3500    48.5510    16.7340    13.5570    16.3730    25.8660   -12.1640 
  176.2500     2.3130    49.2010    16.9470    13.9440    15.8720    25.9030   -12.2610 
  176.3750     2.2940    50.1080    16.7470    13.9590    16.1360    25.9230   -12.3540 
  176.5000     2.2930    50.8650    16.3330    13.7420    16.5750    25.9290   -12.4400 
  176.6250     2.2960    50.1780    15.8820    13.4310    16.6140    25.9290   -12.5300 
  176.7500     2.2950    48.7530    15.5000    13.1270    15.8790    25.9240   -12.5890 
  176.8750     2.2940    48.7690    15.2240    12.8700    14.5870    25.9050   -12.6110 
  177.0000     2.2950    50.5570    15.0700    12.6860    13.7070    25.8890   -12.6150 
  177.1250     2.2990    50.7500    15.0140    12.5940    13.7910    25.8920   -12.6250 
  177.2500     2.3040    48.6830    14.9530    12.5340    14.3000    25.9070   -12.6380 
  177.3750     2.3060    47.9190    14.8130    12.4420    14.1420    25.9160   -12.6610 
  177.5000     2.3050    51.5360    14.5820    12.2820    13.9770    25.9000   -12.6740 
  177.6250     2.3080    57.0350    14.3630    12.0910    13.9150    25.8950   -12.6960 
  177.7500     2.3170    57.7710    14.3410    12.0010    13.6500    25.8940   -12.7430 
  177.8750     2.3270    53.5990    14.7170    12.1630    13.0380    25.8840   -12.8270 
  178.0000     2.3310    50.2600    15.6600    12.7220    13.1440    25.8730   -12.9650 
  178.1250     2.3290    50.4600    17.3560    13.8530    15.2320    25.8820   -13.1370 
  178.2500     2.3240    51.3030    19.6210    15.4610    18.2880    25.9100   -13.3120 
  178.3750     2.3150    51.6080    22.2410    17.4270    20.7460    25.9270   -13.4910 
  178.5000     2.3010    51.4970    24.8960    19.5320    22.8190    25.9380   -13.7010 
  178.6250     2.2910    49.4970    27.1460    21.4360    24.4870    25.9590   -13.9240 
