~V
VERS. 2.00: Ver 2.00
~W
STRT.M 59.0000:
STOP.M 248.0000:
STEP.M 0.1250:
NULL. -999.2500:
UWI. F10727:
~C
DEPT.M :
GR.API :
RML.OHMM :
RI. :
RXO.OHMM :
CALI.CM :
SP.MV :
DEN.GM/CC :
~A
# ...
  227.7500    76.3810     8.3640     8.0020     8.0130    24.8340   -27.3280     2.2800 
  227.8750    78.9840     7.8800     7.5840     7.5910    24.8770   -26.8350     2.2690 
  228.0000    82.6960     7.3660     7.1340     7.2130    24.9180   -26.3510     2.2590 
  228.1250    84.3160     6.8560     6.6840     6.7250    24.9210   -25.8890     2.2510 
  228.2500    81.4970     6.4000     6.2700     6.2440    24.9320   -25.4770     2.2440 
  228.3750    74.7700     6.0770     5.9570     5.9200    25.0580   -25.1150     2.2380 
  228.5000    70.0200     5.9200     5.7810     5.7940    25.0910   -24.8080     2.2330 
  228.6250    68.7420     5.9590     5.7740     5.8740    25.1620   -24.5190     2.2320 
  228.7500    69.1970     6.1950     5.9380     6.0570    25.2810   -24.2790     2.2340 
  228.8750    71.2300     6.5840     6.2400     6.4190    25.1970   -24.0800     2.2430 
  229.0000    74.8630     6.9540     6.5570     7.0070    25.0540   -23.8300     2.2580 
  229.1250    76.8260     7.1480     6.7770     7.4920    24.9570   -23.5470     2.2770 
  229.2500    73.5290     7.0710     6.8130     7.1730    24.8580   -23.2460     2.2950 
  229.3750    67.3140     6.7230     6.6290     6.3490    24.8990   -22.9770     2.3080 
  229.5000    64.2670     6.2960     6.3360     6.0690    24.9220   -22.7720     2.3130 
  229.6250    64.2530     5.9210     6.0260     5.8920    24.9780   -22.6130     2.3090 
  229.7500    64.4400     5.6660     5.7680     5.7380    24.9380   -22.5060     2.3020 
  229.8750    64.0780     5.5480     5.6090     5.6050    24.9070   -22.4720     2.2940 
  230.0000    64.0450     5.5170     5.5220     5.5000    24.8890   -22.4990     2.2870 
  230.1250    63.7330     5.5440     5.4820     5.3680    24.8540   -22.5680     2.2810 
  230.2500    62.7520     5.6020     5.4670     5.2350    24.7260   -22.6330     2.2770 
  230.3750    61.7280     5.6660     5.4630     5.2620    24.8100   -22.6930     2.2760 
  230.5000    62.1500     5.7250     5.4650     5.5000    24.8610   -22.7450     2.2800 
  230.6250    63.5350     5.7950     5.4860     5.8010    24.8640   -22.7780     2.2870 
  230.7500    64.2090     5.9200     5.5570     6.0830    24.9190   -22.7780     2.2960 
  230.8750    63.7980     6.1790     5.7400     6.2840    24.9210   -22.8170     2.3050 
  231.0000    63.0920     6.5980     6.0590     6.5190    24.9160   -22.8720     2.3150 
  231.1250    63.8160     7.1900     6.5340     6.8930    24.9210   -22.8990     2.3290 
  231.2500    65.8190     7.9290     7.1540     7.4530    24.9550   -22.9290     2.3460 
  231.3750    68.3820     8.7220     7.8640     7.5850    24.9390   -22.9300     2.3670 
  231.5000    69.8680     9.3900     8.5190     7.8140    24.9010   -22.9250     2.3860 
  231.6250    70.7230     9.7570     8.9630     8.3970    24.8040   -22.8880     2.3960 
  231.7500    72.8280     9.6980     9.0640     9.2190    24.7110   -22.8230     2.3920 
  231.8750    77.4930     9.1690     8.7290     8.8610    24.5750   -22.7060     2.3770 
  232.0000    82.6670     8.3990     8.1260     7.8340    24.5570   -22.5720     2.3530 
  232.1250    86.4150     7.5740     7.4080     6.7390    24.6770   -22.4260     2.3250 
  232.2500    87.0650     6.8460     6.7190     6.0180    24.7740   -22.2540     2.2990 
  232.3750    82.9310     6.3380     6.1900     5.8890    24.8340   -22.0540     2.2760 
  232.5000    77.6810     6.0330     5.8430     5.8290    24.7820   -21.8020     2.2610 
  232.6250    74.3140     5.8970     5.6670     5.7750    24.6980   -21.5630     2.2560 
  232.7500    72.5260     5.8720     5.6280     5.7450    24.4850   -21.3680     2.2590 
  232.8750    73.1690     5.8970     5.6760     5.7510    24.4460   -21.1800     2.2680 
  233.0000    76.3090     5.9060     5.7410     5.7350    24.4040   -20.9640     2.2800 
  233.1250    78.6100     5.8810     5.7870     5.7580    24.3150   -20.7620     2.2890 
  233.2500    77.3890     5.8300     5.8020     5.8420    24.2530   -20.5790     2.2940 
  233.3750    77.0440     5.7730     5.7870     5.8240    24.2050   -20.4300     2.2970 
  233.5000    80.4120     5.7310     5.7630     5.6660    24.1970   -20.3400     2.2980 
  233.6250    83.6710     5.7160     5.7450     5.5780    24.1960   -20.2720     2.3020 
  233.7500    84.7380     5.7210     5.7350     5.6630    24.1940   -20.2170     2.3050 
  233.8750    84.6210     5.7380     5.7240     5.7330    24.1840   -20.1860     2.3080 
  234.0000    83.4170     5.7590     5.7050     5.6550    24.1670   -20.2010     2.3080 
  234.1250    82.0860     5.7910     5.6830     5.6030    24.0910   -20.2710     2.3080 
  234.2500    82.9240     5.8430     5.6750     5.6520    24.0840   -20.3870     2.3070 
  234.3750    85.3070     5.9190     5.7030     5.7450    24.0380   -20.5170     2.3050 
  234.5000    83.9210     6.0020     5.7640     5.8680    24.0330   -20.6630     2.3010 
  234.6250    79.9560     6.0810     5.8450     6.0210    24.0310   -20.8460     2.2940 
  234.7500    77.9590     6.1480     5.9260     6.1810    24.0390   -21.0440     2.2840 
  234.8750    77.9590     6.2030     5.9890     6.2080    24.0860   -21.2240     2.2740 
  235.0000    77.9590     6.2500     6.0310     6.2570    24.1810   -21.3760     2.2670 
  235.1250    77.9590     6.2920     6.0600     6.3750    24.2090   -21.4870     2.2620 
  235.2500    77.9590     6.3360     6.0880     6.5280    24.2250   -21.5250     2.2600 
  235.3750    77.9590     6.3920     6.1330     6.6960    24.3150   -21.5150     2.2600 
  235.5000    77.9590     6.4540     6.1940     6.6420    24.4380   -21.4630     2.2600 
  235.6250    77.9590     6.5070     6.2620     6.6360    24.4610   -21.3240     2.2600 
  235.7500    77.9590     6.5310     6.3200     6.8650    24.4730   -21.1200     2.2600 
  235.8750    77.9590     6.5130     6.3510     7.1860    24.5270   -20.8700     2.2610 
  236.0000    77.9590     6.4690     6.3540     7.0560    24.5180   -20.5730     2.2630 
  236.1250    77.9590     6.4190     6.3370     6.8130    24.6220   -20.2450     2.2650 
  236.2500    77.9590     6.3750     6.3120     6.4610    24.7640   -19.9040     2.2670 
  236.3750    77.9590     6.3230     6.2780     6.0480    24.8390   -19.5120     2.2680 
  236.5000    77.9590     6.2480     6.2280     5.7920    24.8420   -19.0760     2.2690 
  236.6250    77.9590     6.1510     6.1610     5.8780    24.7950   -18.6960     2.2690 
  236.7500    77.9590     6.0600     6.0920     6.0980    24.6430   -18.3770     2.2700 
  236.8750    77.9590     6.0130     6.0500     6.0980    24.8120   -18.1410     2.2720 
  237.0000    77.9590     6.0190     6.0480     6.3520    24.8550   -18.0160     2.2750 
  237.1250    77.9590     6.0660     6.0820     6.8720    24.8440   -17.9000     2.2760 
  237.2500    77.9590     6.1400     6.1400     7.1900    24.7100   -17.8080     2.2740 
  237.3750    77.9590     6.2590     6.2250     6.7140    24.4300   -17.8420     2.2680 
  237.5000    77.9590     6.4360     6.3480     6.1850    24.5760   -17.9320     2.2600 
  237.6250    77.9590     6.6640     6.5150     6.2380    24.6470   -18.0120     2.2520 
  237.7500    77.9590     6.9020     6.7000     6.6850    24.5860   -17.9890     2.2470 
  237.8750    77.9590     7.0800     6.8560     7.4970    24.7150   -17.8100     2.2470 
  238.0000    77.9590     7.1790     6.9530     8.2270    24.7230   -17.4940     2.2530 
  238.1250    77.9590     7.2150     6.9920     8.6660    24.7780   -17.1320     2.2650 
  238.2500    77.9590     7.2240     6.9970     8.5460    24.8540   -16.7360     2.2840 
  238.3750    77.9590     7.2300     6.9910     9.4150    24.7930   -16.2620     2.3090 
  238.5000    77.9590     7.2360     6.9860    11.8900    24.7280   -15.7260     2.3400 
  238.6250    77.9590     7.2390     6.9830    14.9100    24.5170   -15.1760     2.3770 
  238.7500    77.9590     7.2400     6.9810    19.8260    24.3740   -14.7210     2.4150 
  238.8750    77.9590     7.2440     6.9840    19.1780    24.2200   -14.3890     2.4490 
