~V
VERS. 2.00: Ver 2.00
~W
STRT.M 50.0000:
STOP.M 239.0000:
STEP.M 0.1250:
NULL. -999.2500:
UWI. F10783:
~C
DEPT.M :
GR.API :
RML.OHMM :
RI. :
RXO.OHMM :
CALI.CM :
SP.MV :
DEN.GM/CC :
~A
# ...
  140.0000    61.5810    15.2260    14.6310     9.8770    22.7740   -17.3600     2.2810 
  140.1250    60.3020    15.5130    14.8620    12.6640    23.4430   -17.7270     2.3090 
  140.2500    60.1990    15.7740    15.1160    12.6100    23.8030   -17.8080     2.3090 
  140.3750    60.8570    15.9270    15.2760     9.4520    23.6460   -17.6740     2.2840 
  140.5000    63.1030    15.9810    15.3130     7.7910    23.3010   -17.3840     2.2490 
  140.6250    65.8680    16.0380    15.2850     7.8310    23.1410   -16.9480     2.2250 
  140.7500    65.9010    16.2170    15.3160     8.0020    23.1130   -16.3680     2.2190 
  140.8750    64.8190    16.5780    15.4820     7.8990    23.0820   -15.6740     2.2310 
  141.0000    65.0760    17.1090    15.8020     7.9580    23.0460   -14.9610     2.2530 
  141.1250    65.5800    17.7400    16.2430     8.5570    23.0150   -14.3230     2.2740 
  141.2500    65.0350    18.3470    16.7090     9.2630    23.0040   -13.7490     2.2840 
  141.3750    63.2040    18.8520    17.1300     9.2840    22.9620   -13.2490     2.2820 
  141.5000    60.5270    19.2060    17.4560     9.0870    22.9360   -12.8190     2.2710 
  141.6250    59.3610    19.3580    17.6290     9.8360    22.9690   -12.4620     2.2570 
  141.7500    61.0810    19.3400    17.6540    10.3720    23.0280   -12.2170     2.2440 
  141.8750    63.4100    19.1700    17.5340     9.4670    23.0310   -12.1110     2.2280 
  142.0000    64.8600    18.8880    17.2890     8.1930    22.9650   -12.1170     2.2110 
  142.1250    65.4510    18.5790    16.9730     7.7200    22.9520   -12.2310     2.2000 
  142.2500    65.6650    18.3720    16.7010     7.5680    22.9730   -12.4310     2.2010 
  142.3750    64.3030    18.3680    16.5720     7.7000    22.9950   -12.6900     2.2170 
  142.5000    62.1470    18.6010    16.6490     7.7740    23.0240   -12.9960     2.2470 
  142.6250    61.7230    18.9890    16.9170     7.8650    23.0850   -13.3110     2.2910 
  142.7500    64.1070    19.2880    17.1850     8.0790    23.1520   -13.6000     2.3420 
  142.8750    67.8680    19.2990    17.2660     8.3440    23.1960   -13.8520     2.3870 
  143.0000    72.0410    18.9290    17.0360     8.4880    23.1970   -14.0390     2.4080 
  143.1250    74.7780    18.2310    16.4750     8.1690    23.1360   -14.1190     2.3840 
  143.2500    73.8100    17.5140    15.8180     7.6630    23.0790   -14.0760     2.3250 
  143.3750    70.8740    17.0200    15.2750     7.4410    23.0320   -13.9000     2.2540 
  143.5000    70.1760    16.8900    15.0020     7.5720    22.9820   -13.5880     2.1960 
  143.6250    70.8450    17.1660    15.0960     7.8370    22.9170   -13.1950     2.1740 
  143.7500    68.7520    17.6400    15.4260     8.0350    22.8490   -12.7910     2.1830 
  143.8750    65.3630    18.1450    15.8630     8.0810    22.7970   -12.3960     2.2060 
  144.0000    63.5340    18.5620    16.2870     8.1070    22.8130   -12.0370     2.2250 
  144.1250    62.5230    18.8410    16.6210     8.1240    22.8350   -11.7750     2.2240 
  144.2500    61.7230    19.0450    16.8940     8.0410    22.8500   -11.6410     2.2030 
  144.3750    61.9280    19.2100    17.1390     7.9690    22.8620   -11.6570     2.1750 
  144.5000    62.6870    19.3180    17.3520     7.9620    22.8740   -11.8180     2.1530 
  144.6250    64.1710    19.2680    17.4530     8.0400    22.8570   -12.1300     2.1490 
  144.7500    67.1500    19.0060    17.3740     8.1010    22.8470   -12.5810     2.1590 
  144.8750    68.5850    18.5170    17.0750     8.1470    22.8350   -13.1680     2.1760 
  145.0000    67.0730    17.8550    16.5810     8.1030    22.8070   -13.8680     2.1890 
  145.1250    66.7230    17.1310    15.9740     7.7990    22.7410   -14.6150     2.1940 
  145.2500    68.1470    16.4740    15.3820     7.5590    22.6760   -15.3390     2.1910 
  145.3750    69.0230    15.9440    14.8740     7.4380    22.6220   -16.0090     2.1870 
  145.5000    69.3990    15.5510    14.4800     7.4660    22.5890   -16.6150     2.1890 
  145.6250    71.2470    15.2790    14.2050     7.6340    22.6030   -17.1030     2.2020 
  145.7500    72.6420    15.0670    14.0010     7.6910    22.6630   -17.4450     2.2200 
  145.8750    73.2070    14.8970    13.8490     7.6670    22.7450   -17.6130     2.2350 
  146.0000    74.3910    14.7780    13.7470     7.6120    22.8140   -17.6040     2.2410 
  146.1250    75.4520    14.7560    13.7280     7.5660    22.8400   -17.4240     2.2390 
  146.2500    75.8180    14.8590    13.8100     7.5140    22.8440   -17.1280     2.2320 
  146.3750    76.6230    15.1180    14.0180     7.5820    22.8320   -16.7310     2.2260 
  146.5000    77.4710    15.5510    14.3690     7.7900    22.7900   -16.2550     2.2210 
  146.6250    76.2260    16.1720    14.8870     7.8910    22.7070   -15.6870     2.2160 
  146.7500    73.4690    16.8840    15.5020     7.8630    22.6500   -15.0680     2.2110 
  146.8750    69.8870    17.5820    16.1340     7.9350    22.6180   -14.4390     2.2060 
  147.0000    66.2220    18.1520    16.6810     8.3090    22.5860   -13.8380     2.2050 
  147.1250    66.3660    18.4710    17.0260     8.7100    22.5960   -13.2750     2.2040 
  147.2500    70.9020    18.5670    17.1700     8.1430    22.6750   -12.7210     2.2010 
  147.3750    75.9600    18.5050    17.1560     6.9940    22.7660   -12.1720     2.1950 
  147.5000    76.6730    18.3850    17.0670     6.3800    22.7100   -11.6100     2.1900 
  147.6250    72.7080    18.3560    17.0230     7.1950    22.4780   -11.0330     2.1880 
  147.7500    70.6220    18.5580    17.1370     7.5820    22.3160   -10.4170     2.1890 
  147.8750    72.8970    19.1430    17.5320     7.6740    22.2680    -9.7270     2.1890 
  148.0000    75.4710    20.2700    18.3440     7.8200    22.2540    -8.9790     2.1840 
  148.1250    73.1450    22.1280    19.7910     8.1410    22.2170    -8.2300     2.1730 
  148.2500    69.9010    24.4770    21.7740     8.6660    22.1830    -7.5850     2.1580 
  148.3750    68.6830    26.9250    24.0430     9.3880    22.1900    -7.0860     2.1440 
  148.5000    67.9750    28.8830    26.1010    10.9410    22.2590    -6.7400     2.1360 
  148.6250    66.0390    29.5370    27.1150    13.7610    22.3770    -6.5850     2.1410 
  148.7500    64.0880    28.8890    26.8630    12.8620    22.4670    -6.6140     2.1600 
  148.8750    63.5400    27.3580    25.5720     9.9760    22.5290    -6.8450     2.1870 
  149.0000    64.2640    25.7410    23.8980     8.3110    22.5540    -7.2280     2.2150 
  149.1250    64.1780    25.1620    22.8030     8.0010    22.5930    -7.7220     2.2370 
  149.2500    62.3200    26.1980    22.9020     8.2890    22.7060    -8.2230     2.2540 
  149.3750    59.6530    29.1860    24.6080     9.0780    22.9190    -8.6640     2.2660 
  149.5000    58.9300    34.1600    28.1600    10.7910    23.2100    -9.0410     2.2660 
  149.6250    59.8830    40.8500    33.6770    14.5020    23.5330    -9.3330     2.2460 
  149.7500    60.7720    47.7720    39.9850    19.3690    23.7730    -9.5440     2.2090 
  149.8750    60.5690    53.3810    45.6970    23.6230    23.8300    -9.6490     2.1670 
  150.0000    58.8600    56.3330    49.4100    25.4250    23.7520    -9.6690     2.1400 
  150.1250    59.0570    55.7060    49.9670    23.8450    23.6900    -9.6220     2.1450 
  150.2500    60.5150    52.7960    48.2740    20.5970    23.6380    -9.5260     2.1790 
  150.3750    60.4180    48.6360    45.2020    17.9580    23.5780    -9.3980     2.2280 
  150.5000    58.7180    43.9390    41.4240    16.9080    23.4820    -9.2540     2.2740 
  150.6250    57.8050    39.0270    37.2310    16.1850    23.3260    -9.0920     2.2950 
  150.7500    59.1080    34.2100    32.9330    14.9190    23.1900    -8.8820     2.2880 
  150.8750    61.8180    29.8780    28.8830    12.9600    23.1050    -8.6480     2.2590 
  151.0000    66.0840    26.4890    25.5210    10.4890    23.0710    -8.3940     2.2260 
  151.1250    69.4210    24.6420    23.4230     8.9380    23.0670    -8.0640     2.2090 
