~V
VERS. 2.00: Ver 2.00
~W
STRT.M 50.0000:
STOP.M 229.0000:
STEP.M 0.1250:
NULL. -999.2500:
UWI. F10777:
~C
DEPT.M :
DEN.GM/CC :
GR.API :
RML.OHMM :
RI. :
RXO.OHMM :
CALI.CM :
SP.MV :
~A
# ...
   95.0000     2.3050    75.3380     9.3250     8.0960     9.2100    25.3460   -22.3690 
   95.1250     2.2940    77.0810     8.2490     7.1630     7.1790    25.3680   -22.6420 
   95.2500     2.2840    79.5740     7.7800     6.6460     6.5880    25.3550   -22.9290 
   95.3750     2.2790    77.8660     7.7920     6.5020     7.2200    25.3560   -23.1680 
   95.5000     2.2830    72.4560     8.0890     6.6230     7.8160    25.5660   -23.2990 
   95.6250     2.2930    69.4710     8.4570     6.8760     8.2280    26.0320   -23.2650 
   95.7500     2.3060    70.0220     8.7360     7.1160     8.0490    26.2010   -23.1120 
   95.8750     2.3130    70.9040     8.9110     7.2970     8.5830    25.6870   -22.9030 
   96.0000     2.3090    69.7600     9.0450     7.4380     9.6420    25.1940   -22.7000 
   96.1250     2.2900    66.7730     9.2760     7.6310    10.2470    24.9920   -22.5510 
   96.2500     2.2620    64.5700     9.7760     8.0020     9.4500    24.9590   -22.4330 
   96.3750     2.2430    64.7260    10.7470     8.6940     9.4460    24.9330   -22.3010 
   96.5000     2.2510    66.2660    12.4040     9.8590    10.6100    24.9130   -22.1110 
   96.6250     2.2890    64.3140    15.0500    11.7400    14.9430    24.8800   -21.8300 
   96.7500     2.3380    59.9540    18.4140    14.2120    23.1800    24.8300   -21.4870 
   96.8750     2.3580    57.8760    21.8630    16.8960    28.6580    24.7970   -21.1070 
   97.0000     2.3330    58.2880    24.2290    18.9430    28.1130    24.7890   -20.7230 
   97.1250     2.2860    57.8150    23.8110    18.9530    20.9500    24.7990   -20.3830 
   97.2500     2.2550    56.5620    20.9260    17.0190    15.4260    24.8100   -20.1270 
   97.3750     2.2550    58.2680    16.7670    14.0000    12.2110    24.8370   -19.9980 
   97.5000     2.2790    64.6390    12.7250    10.9320     9.7780    24.8860   -20.0240 
   97.6250     2.3080    72.1160     9.8150     8.5650     7.4290    24.9760   -20.2330 
   97.7500     2.3220    75.4640     8.0010     6.9480     5.8610    25.0550   -20.5590 
   97.8750     2.3180    74.6730     7.1580     6.0410     5.5040    25.0830   -20.9340 
   98.0000     2.2980    73.7260     7.2020     5.8100     5.8830    25.0360   -21.2600 
   98.1250     2.2670    73.3250     8.3150     6.4020     6.1140    24.8940   -21.3850 
   98.2500     2.2320    69.9890    10.4050     7.7640     7.6060    24.6790   -21.2460 
   98.3750     2.2020    65.0910    13.3650     9.8740    10.9760    24.4720   -20.8260 
   98.5000     2.1830    61.8130    16.7440    12.4880    15.1090    24.3510   -20.1680 
   98.6250     2.1770    60.7790    19.4660    14.8750    18.8920    24.2730   -19.3710 
   98.7500     2.1780    60.6940    20.7390    16.2730    20.2930    24.2110   -18.6050 
   98.8750     2.1770    61.0480    20.5370    16.4890    18.7580    24.1790   -18.0030 
   99.0000     2.1810    60.0810    19.4710    15.8850    14.4630    24.1900   -17.6630 
   99.1250     2.2000    56.7410    18.1770    14.9240    12.2580    24.2640   -17.6780 
   99.2500     2.2440    55.2930    16.8490    13.8540    14.6030    24.3620   -17.9670 
   99.3750     2.2920    59.0550    15.3610    12.6440    21.2210    24.4510   -18.4570 
   99.5000     2.3220    66.1670    13.6850    11.3010    23.2390    24.5870   -19.0640 
   99.6250     2.3230    70.6450    12.0740    10.0040    15.7700    24.7720   -19.7120 
   99.7500     2.3090    70.2240    10.8520     8.9660    10.9990    24.8990   -20.3340 
   99.8750     2.3080    69.0340    10.1480     8.2870     9.4280    24.8430   -20.8900 
  100.0000     2.3290    69.9090     9.8890     7.9490    10.1700    24.7640   -21.3520 
  100.1250     2.3600    72.1680     9.8380     7.8370    12.1330    24.7130   -21.7010 
  100.2500     2.3820    72.7640     9.6890     7.7290    12.3500    24.6670   -21.9750 
  100.3750     2.3850    72.2160     9.3520     7.5280    10.3460    24.6460   -22.2060 
  100.5000     2.3730    74.1630     8.9220     7.2470     8.0490    24.6650   -22.4260 
  100.6250     2.3530    78.5870     8.6190     7.0040     7.2400    24.7500   -22.6520 
  100.7500     2.3340    80.7590     8.5390     6.8880     8.1000    24.8690   -22.8750 
  100.8750     2.3170    80.6360     8.6480     6.9110    10.3660    25.0090   -23.0720 
  101.0000     2.3050    80.8750     8.8400     7.0250    10.9990    24.7890   -23.2110 
  101.1250     2.3010    81.9070     8.9880     7.1400     9.0500    24.5910   -23.2600 
  101.2500     2.3050    81.1900     9.0460     7.1920     8.4450    24.4780   -23.2370 
  101.3750     2.3110    79.5330     9.0460     7.1820     8.8830    24.4530   -23.1580 
  101.5000     2.3140    77.4050     9.0770     7.1620     9.4080    24.4630   -23.0510 
  101.6250     2.3040    72.7750     9.2830     7.2380     8.8500    24.5120   -22.9400 
  101.7500     2.2760    68.0290     9.7300     7.4760     8.6810    24.5240   -22.8420 
  101.8750     2.2440    66.1220    10.4220     7.8940     9.0130    24.5210   -22.7620 
  102.0000     2.2270    67.2120    11.2590     8.4410     9.7880    24.4940   -22.6910 
  102.1250     2.2400    68.8100    11.9420     8.9400    10.8210    24.4400   -22.6020 
  102.2500     2.2820    70.1010    12.1730     9.1780    10.7560    24.4290   -22.4760 
  102.3750     2.3260    72.1950    11.8370     9.0490     9.6940    24.4050   -22.3170 
  102.5000     2.3460    73.6980    11.0980     8.6170     8.5750    24.3660   -22.1470 
  102.6250     2.3340    72.5600    10.3440     8.1010     7.9910    24.4250   -22.0130 
  102.7500     2.2990    70.0740     9.8780     7.7210     8.2030    24.5630   -21.9340 
  102.8750     2.2690    68.6430     9.7380     7.5400     8.6350    24.7300   -21.9120 
  103.0000     2.2520    67.6240     9.7840     7.5140     9.3280    24.8650   -21.9260 
  103.1250     2.2510    65.9060     9.7360     7.4950     9.3840    24.9150   -21.9470 
  103.2500     2.2650    68.2710     9.4080     7.3380     9.0920    24.9250   -21.9620 
  103.3750     2.2890    76.4730     8.8060     7.0030     8.3950    24.9240   -21.9760 
  103.5000     2.3150    85.9570     8.0810     6.5530     7.2630    24.9220   -21.9980 
  103.6250     2.3340    90.7450     7.4670     6.1220     6.4850    24.9220   -22.0310 
  103.7500     2.3400    91.8300     7.0910     5.8200     5.7230    24.9240   -22.0700 
  103.8750     2.3360    90.5570     6.9860     5.6950     5.4370    24.9400   -22.1190 
  104.0000     2.3310    86.9080     7.1240     5.7490     5.4740    24.9660   -22.1870 
  104.1250     2.3300    83.7460     7.4410     5.9560     6.0340    24.9880   -22.2940 
  104.2500     2.3330    84.1030     7.7720     6.2040     6.6770    25.0190   -22.4360 
  104.3750     2.3340    87.4840     7.9690     6.3860     7.3260    25.0500   -22.5980 
  104.5000     2.3320    90.3770     7.9180     6.4040     7.8220    25.0650   -22.7580 
  104.6250     2.3300    92.3670     7.5730     6.1960     7.3910    25.0490   -22.8930 
  104.7500     2.3380    93.3350     7.1250     5.8790     6.8020    25.0210   -23.0000 
  104.8750     2.3520    93.1540     6.7800     5.5870     6.1100    24.9930   -23.0790 
  105.0000     2.3650    91.6420     6.7300     5.4580     5.2930    24.9800   -23.1340 
  105.1250     2.3670    89.2260     7.1590     5.6360     5.3120    24.9810   -23.1620 
  105.2500     2.3510    86.6650     7.9740     6.0910     6.2430    24.9800   -23.1630 
  105.3750     2.3240    83.2210     9.0120     6.7440     7.9240    24.9620   -23.1250 
  105.5000     2.2960    79.8940     9.9850     7.4230     9.5150    24.9120   -23.0410 
  105.6250     2.2770    79.3920    10.4380     7.8280     9.9460    24.8500   -22.8980 
  105.7500     2.2730    80.0230    10.2640     7.8270     9.6900    24.8130   -22.7140 
  105.8750     2.2750    80.7720     9.6470     7.4850     9.2700    24.8200   -22.5000 
  106.0000     2.2750    83.0910     8.9990     7.0470     8.7830    24.8620   -22.2710 
  106.1250     2.2710    87.4940     8.9060     6.8930     8.4440    24.9040   -22.0480 
