~V
VERS. 2.00: Ver 2.00
~W
STRT.M 45.0000:
STOP.M 272.0000:
STEP.M 0.1250:
NULL. -999.2500:
UWI. F10774:
~C
DEPT.M :
DEN.GM/CC :
SP.MV :
GR.API :
RML.OHMM :
RI. :
RXO.OHMM :
CALI.CM :
~A
# ...
   56.2500  -999.2500    90.1810    38.6910     8.1060     0.7460     1.1640    25.5800 
   56.3750  -999.2500    89.6120    37.0270     8.1670     0.7260     1.4490    25.6640 
   56.5000  -999.2500    89.1070    36.2890     8.3390     0.7120     1.4990    25.6900 
   56.6250  -999.2500    88.6650    35.8880     8.4660     0.7120     1.3370    25.6880 
   56.7500  -999.2500    88.2710    35.8030     8.4450     0.7260     1.0940    25.6460 
   56.8750  -999.2500    87.9020    35.9670     8.2890     0.7460     0.8410    25.4920 
   57.0000  -999.2500    87.5440    36.9210     8.0150     0.7680     0.6960    25.1800 
   57.1250  -999.2500    87.1590    39.2350     7.6540     0.7830     0.7030    24.8010 
   57.2500  -999.2500    86.7290    41.5180     7.2980     0.7860     0.8020    24.4940 
   57.3750  -999.2500    86.2380    41.6560     7.0570     0.7800     0.8770    24.3020 
   57.5000  -999.2500    85.6570    39.9690     6.9570     0.7700     0.8690    24.2160 
   57.6250     0.0000    84.9440    38.8600     6.9510     0.7610     0.7940    24.1820 
   57.7500     0.0000    84.0150    39.3630     6.9710     0.7590     0.7110    24.1670 
   57.8750     0.3170    82.8130    39.9050     6.9840     0.7630     0.6720    24.1570 
   58.0000     1.6860    81.2510    40.2140     7.0080     0.7750     0.6620    24.1930 
   58.1250     2.0910    79.2260    40.4280     7.0580     0.7870     0.6490    24.3110 
   58.2500     2.0840    76.5900    41.4130     7.1130     0.7980     0.6700    24.4340 
   58.3750     2.0900    73.3730    42.0240     7.1470     0.8020     0.7020    24.5000 
   58.5000     2.1030    69.5630    41.0550     7.1640     0.7960     0.7040    24.6470 
   58.6250     2.1170    65.1940    38.7130     7.0490     0.7750     0.6930    24.9890 
   58.7500     2.1390    60.3110    36.0610     6.3710     0.7260     0.7370    25.3620 
   58.8750     2.1830    55.0910    34.9070     4.8970     0.6460     0.8860    25.5930 
   59.0000     2.2590    49.6530    35.6580     3.1350     0.5460     1.1630    25.6760 
   59.1250     2.3640    44.1220    37.1770     1.8210     0.4540     1.4400    25.6920 
   59.2500     2.4700    38.6090    38.0690     1.1620     0.3980     1.4860    25.6920 
   59.3750     2.5350    33.1550    38.6860     0.8740     0.3750     1.3160    25.6840 
   59.5000     2.5120    27.7670    40.3240     0.7980     0.3810     1.0260    25.6400 
   59.6250     2.3930    22.4550    41.7410     0.8470     0.4140     0.7100    25.5200 
   59.7500     2.2240    17.2800    40.4470     1.0080     0.4950     0.5650    25.4580 
   59.8750     2.0780    12.3060    38.9780     1.2970     0.6640     0.8840    25.9780 
   60.0000     1.9880     7.5970    39.0830     1.7880     0.9830     1.9850    27.5680 
   60.1250     1.9520     3.2010    39.7020     2.5710     1.5260     3.6020    29.8780 
   60.2500     1.9510    -0.7850    39.2070     3.6400     2.3370     4.6910    31.8700 
   60.3750     1.9630    -4.3140    37.8830     4.6730     3.3040     5.0970    32.7180 
   60.5000     1.9760    -7.3020    37.8680     5.3850     4.2860     5.0680    32.6240 
   60.6250     1.9910    -9.7060    40.3490     5.8050     5.1630     4.8660    31.6010 
   60.7500     2.0180   -11.5160    42.8320     6.1710     5.8880     5.0400    29.8880 
   60.8750     2.0630   -12.9030    43.3420     6.6010     6.4850     5.4370    28.2510 
   61.0000     2.1160   -13.9450    43.8350     7.0300     6.9550     5.6910    27.0990 
   61.1250     2.1470   -14.6910    47.4390     7.3680     7.2950     5.7810    26.3560 
   61.2500     2.1430   -15.1810    52.3400     7.5890     7.5400     5.8970    25.8440 
   61.3750     2.1390   -15.5220    54.4110     7.7800     7.7650     6.0210    25.4820 
   61.5000     2.1670   -15.7530    53.3540     7.9990     8.0010     6.1120    25.2600 
   61.6250     2.2310   -15.8860    51.8790     8.2360     8.2390     6.1470    25.1060 
   61.7500     2.3020   -15.9250    52.9980     8.4190     8.4170     6.0620    24.9350 
   61.8750     2.3310   -15.8850    55.8190     8.4750     8.4720     5.9520    24.7680 
   62.0000     2.2930   -15.7590    58.8700     8.3940     8.3760     5.8740    24.6740 
   62.1250     2.2190   -15.5430    61.8140     8.2320     8.1410     5.8120    24.6240 
   62.2500     2.1740   -15.2350    65.0440     8.0430     7.8020     5.6900    24.5670 
   62.3750     2.1810   -14.8450    68.9800     7.8010     7.4040     5.5900    24.5080 
   62.5000     2.2280   -14.4100    73.2140     7.4140     6.9530     5.4680    24.4660 
   62.6250     2.2800   -13.9690    77.4010     6.8170     6.4600     5.2520    24.4620 
   62.7500     2.3050   -13.5400    81.3700     6.0800     5.9490     4.8060    24.5160 
   62.8750     2.2950   -13.1340    86.6270     5.4210     5.4810     4.0430    24.6680 
   63.0000     2.2660   -12.7760    93.0510     4.9760     5.1040     3.5080    24.9830 
   63.1250     2.2400   -12.4780    97.0420     4.7520     4.8450     3.2800    25.4740 
   63.2500     2.2310   -12.2660    96.9850     4.6600     4.7040     3.2290    25.8810 
   63.3750     2.2410   -12.1440    96.1920     4.5900     4.6400     3.2310    25.9290 
   63.5000     2.2630   -12.1230    94.9180     4.5450     4.6400     3.2530    25.6390 
   63.6250     2.2820   -12.2100    91.8060     4.5890     4.7110     3.2930    25.3660 
   63.7500     2.2910   -12.4330    88.1600     4.8020     4.8770     3.5350    25.2240 
   63.8750     2.2920   -12.7660    85.1150     5.1620     5.1300     4.0250    25.1870 
   64.0000     2.2860   -13.1560    80.2030     5.5960     5.4300     4.5550    25.1730 
   64.1250     2.2680   -13.5670    73.4270     5.9830     5.7050     4.7050    25.1490 
   64.2500     2.2400   -13.9930    70.8030     6.1940     5.8690     4.5800    25.1040 
   64.3750     2.2190   -14.4330    74.5770     6.1950     5.8860     4.4600    25.0750 
   64.5000     2.2140   -14.8880    78.5800     6.0050     5.7550     4.3140    25.0860 
   64.6250     2.2220   -15.3510    77.9320     5.7190     5.5180     4.2730    25.1060 
   64.7500     2.2400   -15.8080    74.8460     5.4520     5.2450     4.3720    25.1180 
   64.8750     2.2560   -16.2370    74.1580     5.2700     5.0060     4.0920    25.0770 
   65.0000     2.2620   -16.6450    75.3150     5.2090     4.8510     3.8390    24.8910 
   65.1250     2.2530   -17.0620    73.9530     5.3130     4.8380     4.0270    24.5450 
   65.2500     2.2420   -17.5100    68.1590     5.6710     5.0560     4.5080    24.2310 
   65.3750     2.2420   -17.9950    62.5250     6.3410     5.5520     4.8500    24.1120 
   65.5000     2.2580   -18.5170    59.5450     7.4010     6.3810     5.4200    24.1650 
   65.6250     2.2870   -19.0760    58.3930     8.8630     7.5450     6.6430    24.2850 
   65.7500     2.3210   -19.6790    57.2250    10.5690     8.9170     8.5890    24.3650 
   65.8750     2.3320   -20.3370    56.4330    12.0630    10.1400    10.2080    24.3400 
   66.0000     2.3070   -21.0720    58.0940    12.8870    10.8550    10.3020    24.2420 
   66.1250     2.2470   -21.8660    61.8530    12.8050    10.8500     9.3090    24.1530 
   66.2500     2.1780   -22.6670    63.6580    11.9940    10.1980     8.0920    24.1060 
   66.3750     2.1270   -23.4190    61.4940    11.0270     9.3340     7.3210    24.1040 
   66.5000     2.1040   -24.1090    57.1700    10.1990     8.5270     6.8900    24.1290 
   66.6250     2.0980   -24.7470    54.3170     9.6070     7.9100     6.6460    24.1660 
   66.7500     2.0980   -25.3350    54.0060     9.2340     7.5130     6.5250    24.2850 
   66.8750     2.0960   -25.8760    53.6120     8.9930     7.2690     6.4630    24.5900 
   67.0000     2.0960   -26.3510    52.5980     8.8470     7.1330     6.3580    25.0470 
   67.1250     2.1070   -26.7460    51.5980     8.7840     7.0750     6.1310    25.4030 
   67.2500     2.1250   -27.0410    51.3470     8.8020     7.0750     5.9110    25.4980 
   67.3750     2.1380   -27.2680    51.5620     8.8640     7.1070     5.9550    25.4230 
