~V
VERS. 2.00: Ver 2.00
~W
STRT.M 10.0000:
STOP.M 237.0000:
STEP.M 0.1250:
NULL. -999.2500:
UWI. F10776:
~C
DEPT.M :
DEN.GM/CC :
GR.API :
RML.OHMM :
RI. :
RXO.OHMM :
CALI.CM :
SP.MV :
~A
# ...
   88.7500     2.3430    59.2840     6.8070     5.1450     5.8870    25.5150   -14.1590 
   88.8750     2.3310    60.1330     8.2480     6.1540     6.5720    25.3960   -14.3500 
   89.0000     2.3410    57.9080    10.2040     7.6220     7.3480    25.1660   -14.5090 
   89.1250     2.3500    53.3680    12.5270     9.5250     8.6620    24.7840   -14.6420 
   89.2500     2.3530    49.0470    14.5860    11.4000    10.3550    24.3880   -14.7430 
   89.3750     2.3500    47.0720    15.6500    12.6480    11.4040    24.0370   -14.8060 
   89.5000     2.3280    47.5430    15.2930    12.8190     9.8810    23.6610   -14.8420 
   89.6250     2.2770    49.8110    13.7030    11.8870     8.1650    23.5000   -14.8270 
   89.7500     2.2260    51.6910    11.8330    10.5570     7.4440    23.4270   -14.7920 
   89.8750     2.2070    52.2050    10.1380     9.2230     7.3580    23.3740   -14.7540 
   90.0000     2.2290    52.0610     8.7690     8.0600     7.0550    23.3710   -14.7060 
   90.1250     2.2940    52.2010     7.7630     7.1360     6.3590    23.7360   -14.6860 
   90.2500     2.3690    51.8850     7.0400     6.4100     5.6820    24.4240   -14.6990 
   90.3750     2.4160    50.8870     6.5830     5.8860     5.5230    25.0940   -14.7170 
   90.5000     2.4090    52.4020     6.3630     5.5660     5.6170    25.3870   -14.7280 
   90.6250     2.3620    59.6710     6.3240     5.4390     5.4790    25.3360   -14.7490 
   90.7500     2.3260    66.3450     6.3170     5.3920     5.4450    25.2110   -14.7430 
   90.8750     2.3190    67.1080     6.2400     5.3340     5.6260    25.1720   -14.7040 
   91.0000     2.3320    64.3620     6.0360     5.1960     5.7090    25.2700   -14.6350 
   91.1250     2.3450    62.6990     5.6910     4.9420     5.3180    25.4400   -14.5120 
   91.2500     2.3520    61.9390     5.2920     4.6220     4.7690    25.5260   -14.3680 
   91.3750     2.3540    62.6140     4.9330     4.3010     4.4440    25.4380   -14.2150 
   91.5000     2.3480    64.7890     4.7070     4.0490     4.3970    25.2440   -14.1020 
   91.6250     2.3350    66.5400     4.7050     3.9540     4.5920    25.1130   -13.9930 
   91.7500     2.3180    64.9850     4.8900     4.0120     4.6800    25.0200   -13.9080 
   91.8750     2.3020    61.5290     5.2180     4.2020     5.1140    24.9170   -13.8330 
   92.0000     2.2900    59.7090     5.6270     4.4810     6.0430    24.8020   -13.7520 
   92.1250     2.2860    61.8270     6.0720     4.8110     6.6710    24.8720   -13.6800 
   92.2500     2.2980    65.0340     6.5450     5.1740     6.2570    25.1310   -13.5950 
   92.3750     2.3240    64.0930     7.0690     5.5890     6.0350    25.3660   -13.5290 
   92.5000     2.3480    59.2770     7.6370     6.0630     6.2230    25.4570   -13.4510 
   92.6250     2.3510    56.2250     8.1360     6.5370     7.0580    25.4360   -13.4180 
   92.7500     2.3480    57.0550     8.3950     6.8760     7.9020    25.3760   -13.4160 
   92.8750     2.3530    59.9810     8.2850     6.9540     7.9620    25.2810   -13.4870 
   93.0000     2.3670    62.1220     7.8250     6.7280     7.0530    25.2100   -13.6320 
   93.1250     2.3670    62.8980     7.2230     6.2970     5.9610    25.1640   -13.7970 
   93.2500     2.3480    62.3090     6.7560     5.8890     5.5440    25.1260   -13.9660 
   93.3750     2.3210    61.6810     6.5260     5.6220     5.6270    25.0730   -14.1210 
   93.5000     2.2950    62.1160     6.5210     5.5260     5.8540    25.0520   -14.2640 
   93.6250     2.2700    63.8560     6.6620     5.5760     6.1290    25.1170   -14.3340 
   93.7500     2.2450    65.3130     6.8200     5.6720     6.0490    25.2480   -14.3340 
   93.8750     2.2200    65.3090     6.9340     5.7530     5.8300    25.3290   -14.2320 
   94.0000     2.1980    64.7450     6.9970     5.7960     5.7860    25.2760   -14.0240 
   94.1250     2.1760    65.8270     7.0560     5.8140     5.7700    25.0950   -13.7280 
   94.2500     2.1570    66.2370     7.1990     5.8680     5.9050    24.8530   -13.3730 
   94.3750     2.1450    63.8170     7.5260     6.0300     5.9790    24.5770   -12.9360 
   94.5000     2.1430    61.0970     8.1320     6.3810     6.2540    24.2350   -12.3800 
   94.6250     2.1540    61.9880     9.1460     7.0240     6.8700    24.0080   -11.7040 
   94.7500     2.1840    62.0150    10.5180     7.9360     7.9420    23.9070   -10.9360 
   94.8750     2.2440    56.6030    12.1580     9.0680     9.7890    23.8220   -10.0860 
   95.0000     2.3190    49.5340    13.8470    10.2770    11.6140    23.6570    -9.1680 
   95.1250     2.3430    48.4760    15.2190    11.3120    10.2490    23.5070    -8.2290 
   95.2500     2.2820    51.4930    16.1520    12.0570     9.1090    23.4200    -7.2930 
   95.3750     2.1720    53.9760    16.7450    12.5550     9.2630    23.3790    -6.4120 
   95.5000     2.0870    54.7800    17.2050    12.9430    10.2750    23.3540    -5.6200 
   95.6250     2.0640    52.9920    17.7160    13.3660    10.7720    23.3240    -4.9590 
   95.7500     2.0650    49.6080    18.2800    13.8550     9.9140    23.3100    -4.3950 
   95.8750     2.0600    47.3200    18.7820    14.3390     9.1550    23.3430    -3.9370 
   96.0000     2.0400    46.2890    19.0950    14.7210     8.8900    23.4300    -3.6220 
   96.1250     2.0060    44.6380    19.1350    14.9260     8.7280    23.5050    -3.4400 
   96.2500     1.9670    43.7380    18.9830    14.9940     8.4370    23.5360    -3.3860 
   96.3750     1.9350    45.3480    18.7020    14.9580     8.1510    23.5440    -3.4690 
   96.5000     1.9180    47.5570    18.3570    14.8520     8.0030    23.5460    -3.6990 
   96.6250     1.9190    47.1320    17.9860    14.6930     7.9740    23.5440    -4.0830 
   96.7500     1.9340    46.6920    17.6080    14.5020     7.9970    23.5410    -4.6010 
   96.8750     1.9630    47.3780    17.2280    14.2850     7.9610    23.5390    -5.2340 
   97.0000     2.0010    47.8820    16.8570    14.0480     7.8870    23.5390    -5.9010 
   97.1250     2.0320    46.4100    16.4990    13.7970     7.8260    23.5390    -6.5670 
   97.2500     2.0500    44.6470    16.1090    13.5220     7.8600    23.5390    -7.1690 
   97.3750     2.0690    43.5330    15.5940    13.1680     7.7750    23.5400    -7.6660 
   97.5000     2.1000    42.7920    14.8580    12.6710     7.6190    23.5420    -8.0410 
   97.6250     2.1420    42.7020    13.8790    11.9810     7.5860    23.5630    -8.2870 
   97.7500     2.1850    45.1400    12.8680    11.2170     7.5740    23.6320    -8.4370 
   97.8750     2.2270    50.6920    12.0680    10.5370     7.4090    23.7500    -8.4800 
   98.0000     2.2680    58.5450    11.6890    10.1070     7.2310    23.8180    -8.4170 
   98.1250     2.2920    62.6930    11.9320    10.1160     7.5470    23.7510    -8.2500 
   98.2500     2.2810    59.9570    12.6590    10.5150     8.1770    23.5290    -7.9860 
   98.3750     2.2390    53.3210    13.6890    11.2110     8.6320    23.2200    -7.6300 
   98.5000     2.1860    49.5930    14.7510    12.0250     8.9340    22.9790    -7.2070 
   98.6250     2.1500    50.0710    15.5020    12.6890     9.0090    22.8780    -6.7070 
   98.7500     2.1230    50.0540    15.8920    13.0950     8.6800    22.8490    -6.1280 
   98.8750     2.0840    49.2790    16.0970    13.3130     8.1830    22.8250    -5.4720 
   99.0000     2.0290    48.7470    16.3840    13.5220     7.8300    22.7580    -4.7690 
   99.1250     1.9830    48.2590    16.9650    13.9050     7.9530    22.6240    -4.0520 
   99.2500     1.9710    47.6190    17.7510    14.4530     8.4200    22.4380    -3.4130 
   99.3750     1.9910    46.8610    18.5620    15.0640     8.9130    22.2630    -2.8760 
   99.5000     2.0310    45.4180    19.2020    15.5930     9.2510    22.2300    -2.4240 
   99.6250     2.0680    45.4140    19.5140    15.8880     9.3560    22.4470    -2.0510 
   99.7500     2.0860    47.3720    19.5910    15.9780     9.1490    22.7380    -1.7210 
   99.8750     2.0870    47.7980    19.5490    15.9430     8.9940    22.9660    -1.4550 
