~V
VERS. 2.00: Ver 2.00
~W
STRT.M 55.0000:
STOP.M 262.0000:
STEP.M 0.1250:
NULL. -999.2500:
UWI. F10759:
~C
DEPT.M :
DEN.GM/CC :
GR.API :
RML.OHMM :
RI. :
RXO.OHMM :
CALI.CM :
SP.MV :
~A
# ...
  145.0000     2.1390    64.1450    15.6170    15.2160    12.8630    22.6180    -8.2250 
  145.1250     2.1830    62.1310    15.0600    14.5400    11.0980    22.6540    -8.1960 
  145.2500     2.2630    60.3680    15.4110    14.5820     9.9230    22.6670    -8.0820 
  145.3750     2.3690    59.1220    16.7950    15.5150    10.7370    22.6450    -7.9130 
  145.5000     2.4800    58.4420    19.0130    17.3410    14.2170    22.5390    -7.7310 
  145.6250     2.5580    58.2280    21.2980    19.6680    18.5450    21.9590    -7.6030 
  145.7500     2.5870    59.5980    22.4560    21.3440    21.2990    21.5320    -7.5200 
  145.8750     2.5630    63.1900    21.7330    21.3510    21.9350    21.4120    -7.4880 
  146.0000     2.4980    68.2990    19.3700    19.5670    19.9670    21.3290    -7.5300 
  146.1250     2.4120    72.7000    16.8890    16.9670    14.8380    21.1910    -7.6300 
  146.2500     2.3300    73.3040    15.7050    14.7970    10.8730    21.0720    -7.7590 
  146.3750     2.2680    70.1730    14.6360    13.4660     9.1420    21.0310    -7.8910 
  146.5000     2.2340    67.1320    14.6360    13.0120     9.3140    21.0110    -8.0180 
  146.6250     2.2200    67.8300    15.6060    13.4490    10.5960    21.0180    -8.0960 
  146.7500     2.2090    69.2020    17.1600    14.5040    12.3550    21.0070    -8.1130 
  146.8750     2.1940    66.8070    19.0830    16.0280    13.7280    21.0130    -8.0560 
  147.0000     2.1760    61.5570    21.1610    17.8480    13.2560    21.0470    -7.8900 
  147.1250     2.1690    58.3360    23.1270    19.7420    13.5600    21.2300    -7.6750 
  147.2500     2.1790    57.5630    24.7410    21.4450    15.1060    21.4980    -7.4380 
  147.3750     2.2010    57.6590    25.8190    22.7430    17.0630    21.6500    -7.2060 
  147.5000     2.2200    57.0510    26.2770    23.4880    18.3480    21.4910    -6.9750 
  147.6250     2.2240    58.7670    26.1640    23.6120    16.2800    21.3550    -6.7520 
  147.7500     2.2160    63.6840    25.8580    23.4110    14.1240    21.3360    -6.5600 
  147.8750     2.2020    67.1000    25.5820    23.1040    13.9470    21.3330    -6.4220 
  148.0000     2.1930    65.5950    25.3930    22.8120    16.1640    21.3340    -6.3830 
  148.1250     2.1950    60.3000    25.1480    22.5080    18.5550    21.3340    -6.4190 
  148.2500     2.2030    57.8330    24.6810    22.0790    19.2100    21.3340    -6.5110 
  148.3750     2.2100    60.1390    23.9950    21.4810    17.5480    21.3350    -6.6120 
  148.5000     2.2090    63.5330    23.3270    20.8260    15.2480    21.3430    -6.7120 
  148.6250     2.1950    63.3010    23.2320    20.5020    13.7280    21.3470    -6.8040 
  148.7500     2.1760    61.3720    24.0010    20.8180    12.8800    21.3630    -6.8710 
  148.8750     2.1600    60.8520    25.6670    21.9130    12.8200    21.3900    -6.9110 
  149.0000     2.1520    61.2210    27.9620    23.6920    13.5780    21.4000    -6.9200 
  149.1250     2.1530    61.2870    30.2660    25.7810    16.3400    21.4090    -6.9030 
  149.2500     2.1550    62.5880    31.8610    27.4980    20.2240    21.4090    -6.8680 
  149.3750     2.1550    64.9520    32.4630    28.4380    19.7590    21.4030    -6.8470 
  149.5000     2.1470    65.0640    32.4110    28.6990    15.6400    21.4000    -6.8470 
  149.6250     2.1320    62.1280    32.6460    28.9540    14.4790    21.4060    -6.8570 
  149.7500     2.1140    58.8780    33.8240    29.8780    16.4820    21.4450    -6.9050 
  149.8750     2.0990    56.8320    35.9660    31.6750    20.6150    21.4950    -6.9610 
  150.0000     2.0940    55.4960    38.4920    34.0520    22.7790    21.6000    -7.0300 
  150.1250     2.1070    54.1190    40.0490    35.9620    24.1560    21.8340    -7.0820 
  150.2500     2.1320    52.8760    39.7270    36.3540    23.6540    22.2270    -7.1460 
  150.3750     2.1600    53.6270    37.5160    34.9400    21.5670    22.2090    -7.2100 
  150.5000     2.1810    56.3920    34.2220    32.2780    18.4620    22.1260    -7.2800 
  150.6250     2.1810    58.9570    30.8800    29.2670    16.5460    22.1250    -7.3580 
  150.7500     2.1660    61.5530    28.0430    26.5560    15.2340    22.1200    -7.4300 
  150.8750     2.1460    65.1630    25.8260    24.3360    14.7620    22.1090    -7.5150 
  151.0000     2.1310    66.6410    24.2740    22.6870    14.5350    22.1290    -7.5980 
  151.1250     2.1300    63.2220    23.7230    21.8720    14.3910    22.2510    -7.6790 
  151.2500     2.1360    60.0090    24.3730    22.0220    13.2780    22.5160    -7.7230 
  151.3750     2.1430    59.7430    26.5130    23.4010    12.8640    22.6400    -7.7310 
  151.5000     2.1430    60.7860    30.2020    26.2060    14.5560    22.6340    -7.7020 
  151.6250     2.1380    60.3880    35.0650    30.4760    19.7210    22.6400    -7.6280 
  151.7500     2.1350    59.8670    39.5650    35.0550    26.2820    22.6580    -7.5190 
  151.8750     2.1410    59.8380    42.0730    38.4190    29.6930    22.6560    -7.3720 
  152.0000     2.1560    59.5950    41.5200    39.1760    28.4930    22.6420    -7.2010 
  152.1250     2.1710    58.8570    38.0930    36.8640    26.0160    22.5360    -7.0140 
  152.2500     2.1760    57.5740    34.0020    33.3650    21.0360    22.2930    -6.8200 
  152.3750     2.1670    55.7440    30.5210    29.9960    16.8950    22.1380    -6.6210 
  152.5000     2.1510    54.9460    28.1400    27.4290    14.9210    22.1120    -6.4200 
  152.6250     2.1370    57.4030    26.9340    25.9090    14.6270    22.1690    -6.2100 
  152.7500     2.1300    61.1140    26.4170    25.0850    14.6470    22.2420    -5.9840 
  152.8750     2.1260    62.6460    26.3060    24.7260    14.8470    22.2450    -5.7400 
  153.0000     2.1270    61.8970    26.3920    24.6310    14.7770    22.1670    -5.4860 
  153.1250     2.1330    61.5320    26.6570    24.7280    14.6430    22.1420    -5.2280 
  153.2500     2.1430    60.1210    27.2770    25.0900    14.5120    22.2030    -4.9710 
  153.3750     2.1560    59.8150    28.5810    25.9650    14.1860    22.1950    -4.7170 
  153.5000     2.1690    63.2690    30.8940    27.6440    13.7690    21.9230    -4.4730 
  153.6250     2.1770    66.0390    34.5630    30.5230    14.0470    21.7620    -4.2640 
  153.7500     2.1800    63.3850    39.1860    34.3910    15.8290    21.7250    -4.0860 
  153.8750     2.1780    58.3100    44.1870    38.8690    20.0460    21.7130    -3.9580 
  154.0000     2.1720    56.4770    48.6660    43.2250    24.8240    21.7310    -3.8690 
  154.1250     2.1630    58.2520    51.2790    46.2220    26.5240    21.7820    -3.8260 
  154.2500     2.1560    60.9620    51.8160    47.3890    26.0440    21.9300    -3.8200 
  154.3750     2.1560    62.5980    50.7050    46.8870    26.0140    22.1300    -3.8370 
  154.5000     2.1640    61.6370    48.8400    45.4070    26.9630    22.2330    -3.8750 
  154.6250     2.1770    59.4260    47.1850    43.8160    25.9580    22.3170    -3.9350 
  154.7500     2.1850    58.0710    46.1960    42.6930    22.1310    22.2840    -4.0130 
  154.8750     2.1820    58.9090    45.9000    42.1690    18.9690    22.1730    -4.1130 
  155.0000     2.1680    61.1770    46.1040    42.1440    19.9420    22.1300    -4.2230 
  155.1250     2.1470    62.3790    46.5570    42.4590    22.8090    22.1770    -4.3710 
  155.2500     2.1290    60.5720    47.0430    42.9190    24.5540    22.2590    -4.5250 
  155.3750     2.1200    56.2360    47.6130    43.5340    25.7120    22.2710    -4.6890 
  155.5000     2.1190    52.2610    48.5160    44.4800    28.1350    22.2640    -4.8520 
  155.6250     2.1250    51.9150    50.1790    46.1370    32.0020    22.2400    -4.9960 
  155.7500     2.1350    54.6390    52.5240    48.5030    31.5670    22.1480    -5.1450 
  155.8750     2.1450    57.4470    55.1860    51.3260    31.7430    22.0060    -5.2670 
  156.0000     2.1520    58.3130    57.5200    54.0570    31.0860    21.9670    -5.3830 
  156.1250     2.1520    59.4600    58.5470    55.7670    29.8840    21.9950    -5.4850 
