~V
VERS. 2.00: Ver 2.00
~W
STRT.M 60.0000:
STOP.M 239.0000:
STEP.M 0.1250:
NULL. -999.2500:
UWI. F10775:
~C
DEPT.M :
DEN.GM/CC :
SP.MV :
GR.API :
RML.OHMM :
RI. :
RXO.OHMM :
CALI.CM :
~A
# ...
  105.0000     2.1470    -4.1540    44.7750    26.5200    22.5130    12.5040    25.8050 
  105.1250     2.1530    -4.2660    44.5550    27.3410    23.3190    12.6280    25.7920 
  105.2500     2.1630    -4.4400    43.5190    27.7880    23.7660    12.9550    25.7720 
  105.3750     2.1780    -4.7030    43.5960    27.9370    23.9230    13.2850    25.7590 
  105.5000     2.1960    -5.1310    44.8490    27.8470    23.8220    13.4260    25.7540 
  105.6250     2.2100    -5.5890    46.0890    27.5640    23.4740    13.3730    25.7560 
  105.7500     2.2150    -5.9690    46.6100    27.2080    23.0120    13.3350    25.7570 
  105.8750     2.2100    -6.2550    46.3680    26.8770    22.5490    13.2870    25.7580 
  106.0000     2.1970    -6.3450    45.5820    26.6510    22.1950    13.2170    25.7650 
  106.1250     2.1800    -6.3620    44.6540    26.6080    22.0440    13.1290    25.7710 
  106.2500     2.1630    -6.2770    43.8910    26.7310    22.0750    12.9980    25.7710 
  106.3750     2.1520    -6.0890    44.4870    27.0010    22.2690    12.9060    25.7680 
  106.5000     2.1500    -5.7970    46.6580    27.3970    22.5990    12.9130    25.7680 
  106.6250     2.1580    -5.3320    47.4030    27.9100    23.0590    12.9910    25.7790 
  106.7500     2.1750    -4.8450    46.2330    28.4980    23.6060    13.1430    25.8200 
  106.8750     2.1970    -4.3440    43.9020    29.1330    24.2090    13.1950    25.9130 
  107.0000     2.2180    -3.8680    42.6940    29.7720    24.8280    13.0160    26.0450 
  107.1250     2.2260    -3.4160    44.6380    30.3430    25.3950    12.8830    26.1820 
  107.2500     2.2180    -2.9430    45.8140    30.7660    25.8490    12.8200    26.2770 
  107.3750     2.1990    -2.5210    44.2190    30.9360    26.1130    12.7440    26.3140 
  107.5000     2.1770    -2.1310    41.8060    30.7460    26.0880    12.5920    26.2550 
  107.6250     2.1680    -1.8080    41.1740    30.0690    25.6300    12.4300    25.9860 
  107.7500     2.1730    -1.5860    41.4910    29.0490    24.8430    12.3830    25.5950 
  107.8750     2.1860    -1.4100    41.6960    27.9030    23.8870    12.4520    25.3720 
  108.0000     2.2000    -1.2840    41.9330    26.9780    23.0070    12.4230    25.3780 
  108.1250     2.2090    -1.2370    42.1420    26.9510    22.6740    12.4410    25.3740 
  108.2500     2.2170    -1.2220    42.9410    28.3260    23.3090    12.8930    25.3240 
  108.3750     2.2330    -1.2060    43.9820    31.5780    25.4500    14.0160    25.2740 
  108.5000     2.2730    -1.1530    43.9230    36.7480    29.6270    15.6330    25.2950 
  108.6250     2.3560    -1.0460    42.4110    42.4440    35.8270    19.6760    25.5130 
  108.7500     2.4730    -0.8700    42.8820    45.2880    41.0970    29.3280    25.9010 
  108.8750     2.6060    -0.6010    45.1620    42.5540    41.1100    43.0330    26.3100 
  109.0000     2.7210    -0.3130    46.2680    34.2230    33.8650    52.1360    26.5370 
  109.1250     2.7740     0.0870    47.4160    23.5980    23.2530    40.7360    26.5680 
  109.2500     2.7580     0.4560    53.7960    14.9610    14.7630    22.2130    26.5330 
  109.3750     2.6830     0.7600    63.9740     9.5530     9.4350    10.2640    26.4800 
  109.5000     2.5750     1.0130    71.5450     6.8830     6.5970     6.2060    26.4350 
  109.6250     2.4650     1.0710    70.9740     6.1840     5.5150     5.3770    26.3930 
  109.7500     2.3770     1.0660    66.8430     6.4330     5.3460     5.7730    26.2570 
  109.8750     2.3190     1.0100    63.0210     7.1980     5.8130     7.1250    26.0250 
  110.0000     2.2960     0.9820    59.2470     8.0920     6.6420     9.1680    25.8010 
  110.1250     2.3080     1.0760    55.3980     8.6720     7.4190    10.7040    25.9500 
  110.2500     2.3390     1.2250    54.6300     8.7670     7.7950     9.4590    26.2410 
  110.3750     2.3750     1.4440    58.5640     8.4340     7.7050     7.6790    26.4660 
  110.5000     2.4010     1.6860    64.2740     7.8920     7.3150     6.7980    26.5640 
  110.6250     2.4080     1.9300    66.6040     7.4220     6.8840     6.6600    26.5390 
  110.7500     2.4050     2.1680    65.4900     7.1640     6.5860     6.4990    26.4300 
  110.8750     2.4000     2.3360    63.1890     7.1240     6.4470     6.4070    26.2630 
  111.0000     2.3990     2.4450    61.2720     7.2370     6.4270     6.4000    26.1090 
  111.1250     2.4000     2.4560    60.7920     7.4010     6.4620     6.7590    26.0400 
  111.2500     2.4000     2.4230    62.7250     7.5070     6.4770     7.1270    26.0270 
  111.3750     2.3970     2.4190    66.6780     7.4970     6.4190     7.0760    26.1120 
  111.5000     2.3900     2.4080    70.7170     7.3710     6.2700     6.8800    26.2780 
  111.6250     2.3850     2.4090    70.0590     7.1880     6.0650     6.7780    26.4430 
  111.7500     2.3860     2.4270    66.9430     7.0670     5.8920     6.6150    26.5060 
  111.8750     2.3920     2.3740    65.6520     7.0910     5.8230     6.3010    26.4960 
  112.0000     2.3970     2.2520    65.9050     7.3150     5.9060     6.2090    26.3980 
  112.1250     2.3910     1.9420    65.0150     7.7860     6.1940     6.5780    26.1820 
  112.2500     2.3730     1.5360    63.6730     8.4330     6.6570     7.0790    26.0260 
  112.3750     2.3520     1.0600    63.1350     9.1660     7.2600     7.3790    25.9750 
  112.5000     2.3380     0.5220    63.9820     9.8360     7.9090     7.7210    25.9360 
  112.6250     2.3390     0.1010    65.1500    10.1780     8.3840     8.3230    25.7610 
  112.7500     2.3490    -0.1980    65.8850    10.0690     8.4900     9.2460    25.5730 
  112.8750     2.3600    -0.2720    65.7800     9.5100     8.1450     9.2690    25.5890 
  113.0000     2.3660    -0.1700    64.9690     8.6670     7.4630     8.1500    25.9570 
  113.1250     2.3700     0.0560    64.7820     7.8540     6.7130     6.7410    26.3970 
  113.2500     2.3810     0.3850    65.6070     7.3400     6.1490     5.8580    26.6070 
  113.3750     2.4020     0.7080    66.7370     7.2440     5.8840     5.5280    26.6270 
  113.5000     2.4280     1.0510    66.4990     7.5570     5.9540     6.1060    26.5580 
  113.6250     2.4440     1.3030    64.2500     8.1760     6.3560     7.4360    26.3880 
  113.7500     2.4410     1.2970    62.0520     8.8310     6.9020     8.1000    26.1120 
  113.8750     2.4180     1.0660    60.6580     9.3230     7.4160     7.9870    25.7980 
  114.0000     2.3850     0.6960    59.9990     9.5190     7.7400     8.2200    25.4840 
  114.1250     2.3520     0.3130    61.2460     9.3740     7.7490     8.7170    25.3550 
  114.2500     2.3280    -0.1010    63.8210     9.0850     7.5610     8.2200    25.4890 
  114.3750     2.3120    -0.5940    66.6880     8.8390     7.3370     7.5280    25.7120 
  114.5000     2.3020    -1.1840    67.3910     8.7950     7.2330     7.1740    25.7960 
  114.6250     2.2990    -1.7940    66.4220     9.0600     7.3900     7.3080    25.7210 
  114.7500     2.3000    -2.3140    66.8460     9.5220     7.7670     7.5040    25.5880 
  114.8750     2.3050    -2.6610    68.3350    10.0280     8.2710     8.0940    25.4720 
  115.0000     2.3130    -2.8030    68.3620    10.4050     8.7450     8.9280    25.4350 
  115.1250     2.3310    -2.7640    68.1410    10.4800     8.9790     9.2300    25.6000 
  115.2500     2.3600    -2.6130    69.1920    10.3020     8.9530     8.3110    25.9770 
  115.3750     2.3960    -2.3780    69.3370     9.9650     8.7380     7.6140    26.4380 
  115.5000     2.4270    -2.0000    66.3560     9.5750     8.4350     8.0000    26.7720 
  115.6250     2.4350    -1.5240    64.6970     9.1960     8.1010     8.5540    26.8740 
  115.7500     2.4180    -0.9480    66.9170     8.8370     7.7520     8.1470    26.9230 
  115.8750     2.3820    -0.4140    68.3960     8.5130     7.3900     7.5990    26.9840 
  116.0000     2.3410    -0.1070    66.9320     8.2810     7.0550     7.1860    27.0810 
  116.1250     2.3080    -0.0480    64.7760     8.2900     6.8700     6.8540    27.1260 
