~V
VERS. 2.00: Ver 2.00
~W
STRT.M 50.0000:
STOP.M 230.0000:
STEP.M 0.1250:
NULL. -999.2500:
UWI. F10780:
~C
DEPT.M :
DEN.GM/CC :
GR.API :
RML.OHMM :
RI. :
RXO.OHMM :
CALI.CM :
SP.MV :
~A
# ...
  196.2500     2.3370    61.5870    34.5070    31.2960    29.8070    23.7030   -15.0100 
  196.3750     2.3490    60.1550    34.4050    31.3820    30.0580    23.6930   -14.8680 
  196.5000     2.3500    61.9030    34.1470    31.3340    29.3190    23.6740   -14.8050 
  196.6250     2.3340    61.9390    33.6970    31.1750    28.2520    23.5960   -14.8170 
  196.7500     2.3090    60.4630    33.1640    30.9870    27.2300    23.4540   -14.8570 
  196.8750     2.2830    60.7190    32.7090    30.8100    26.7560    23.4010   -14.9200 
  197.0000     2.2610    62.6160    32.4320    30.6520    28.2140    23.5240   -14.9940 
  197.1250     2.2470    62.4380    32.2570    30.4750    29.0740    23.7120   -15.0610 
  197.2500     2.2370    60.5640    32.0140    30.2370    28.3840    23.7960   -15.1320 
  197.3750     2.2330    59.1830    31.6880    29.9260    26.9330    23.7240   -15.2160 
  197.5000     2.2350    59.5170    31.3250    29.5780    25.9190    23.5470   -15.2690 
  197.6250     2.2450    61.6100    31.0290    29.2950    25.4030    23.3680   -15.2870 
  197.7500     2.2590    62.7290    30.9020    29.1740    24.6010    23.3330   -15.2840 
  197.8750     2.2720    61.4490    31.0070    29.2750    23.3910    23.4620   -15.3000 
  198.0000     2.2820    60.8510    31.3280    29.5810    23.5520    23.6170   -15.3540 
  198.1250     2.2890    62.7130    31.6890    29.9270    22.6720    23.7320   -15.4230 
  198.2500     2.2980    63.9440    31.7010    29.9380    22.6340    23.9700   -15.4860 
  198.3750     2.3090    62.6870    30.9270    29.1980    23.7080    24.3420   -15.5390 
  198.5000     2.3250    59.5020    29.0690    27.4210    25.1700    24.7160   -15.6050 
  198.6250     2.3420    57.4000    26.1170    24.5970    25.8820    24.9510   -15.6440 
  198.7500     2.3590    58.8410    22.8490    21.4700    24.0290    24.9470   -15.6630 
  198.8750     2.3720    64.2530    19.9160    18.6650    19.6140    24.8370   -15.6760 
  199.0000     2.3820    71.4110    17.7850    16.6260    13.4780    24.7710   -15.6720 
  199.1250     2.3850    74.5030    16.8470    15.7290    11.0010    24.7660   -15.7130 
  199.2500     2.3790    73.0790    16.9670    15.8440    12.7890    24.7700   -15.8060 
  199.3750     2.3660    70.6300    18.1180    16.9440    16.2130    24.7750   -15.9270 
  199.5000     2.3460    69.8850    20.2570    18.9900    16.4340    24.7800   -16.0750 
  199.6250     2.3260    70.7180    23.3870    21.9850    16.9470    24.8100   -16.2780 
  199.7500     2.3100    71.0270    27.0330    25.4730    22.6120    24.8580   -16.5290 
  199.8750     2.2990    70.8900    30.6910    28.9720    31.0770    24.8820   -16.7720 
  200.0000     2.2950    71.0110    33.7750    31.9220    36.1050    24.8640   -16.9900 
  200.1250     2.2930    70.0620    35.6600    33.7250    35.9250    24.8430   -17.1340 
  200.2500     2.2930    68.9950    36.6000    34.6240    35.9440    24.8390   -17.2280 
  200.3750     2.2910    68.5940    37.2030    35.1920    35.3510    24.8770   -17.2910 
  200.5000     2.2880    68.8770    38.2570    36.2550    32.8480    24.9210   -17.3500 
  200.6250     2.2860    67.4230    41.1060    38.9260    32.6280    24.9480   -17.4510 
  200.7500     2.2850    62.9200    46.6310    43.4740    38.0600    24.9400   -17.6130 
  200.8750     2.2810    58.6450    54.7240    49.7660    55.7040    24.9950   -17.8390 
  201.0000     2.2760    57.1370    63.7280    56.9880    83.5450    25.0550   -18.1500 
  201.1250     2.2690    58.9960    70.7650    63.3700    98.3010    25.1000   -18.5890 
  201.2500     2.2630    61.1170    74.5760    67.4170    98.5710    25.0830   -19.0930 
  201.3750     2.2590    60.7970    75.2560    68.6270    96.2210    24.9850   -19.6280 
  201.5000     2.2580    59.9850    73.8130    67.6570    88.9050    24.8600   -20.1640 
  201.6250     2.2550    62.1620    72.1430    66.0800    77.9430    24.7310   -20.6520 
  201.7500     2.2510    65.7690    71.9930    65.6350    72.8640    24.6400   -21.0920 
  201.8750     2.2470    66.2010    74.2330    67.2970    76.9670    24.6120   -21.4580 
  202.0000     2.2440    63.3030    79.2500    71.6020    94.0950    24.6270   -21.7140 
  202.1250     2.2420    63.2240    87.5370    79.1910   119.0450    24.5730   -21.8440 
  202.2500     2.2390    65.3670    98.3150    89.3850   116.0160    24.5070   -21.8880 
  202.3750     2.2340    66.3340   110.9350   101.6230   107.5330    24.4610   -21.8640 
  202.5000     2.2270    64.8330   124.0010   114.7310   119.9410    24.4710   -21.7690 
  202.6250     2.2200    62.9970   133.1250   125.1820   149.3840    24.5070   -21.5880 
  202.7500     2.2130    62.2300   132.7870   127.9560   173.0670    24.5620   -21.3420 
  202.8750     2.2070    61.7140   119.1980   118.7220   187.9260    24.5730   -21.0830 
  203.0000     2.2030    60.7070    94.2900    97.5780   198.0280    24.5620   -20.7990 
  203.1250     2.2100    61.0480    66.4870    70.7490   142.0580    24.5360   -20.4660 
  203.2500     2.2320    63.9790    44.7070    47.7580    73.7610    24.5010   -20.1240 
  203.3750     2.2660    68.2550    31.4770    32.4220    34.5670    24.4660   -19.8280 
  203.5000     2.2990    71.7600    25.8390    24.6100    18.8440    24.4470   -19.6150 
  203.6250     2.3120    72.0740    26.8850    23.4740    14.6380    24.4860   -19.5350 
  203.7500     2.3010    70.0530    32.5710    26.9450    23.9680    24.5670   -19.5570 
  203.8750     2.2760    66.9730    42.2040    34.6400    45.4190    24.5740   -19.6470 
  204.0000     2.2570    64.5070    54.2620    45.5810    64.0390    24.5330   -19.8220 
  204.1250     2.2590    65.0280    64.9760    56.7490    66.2240    24.5040   -20.0890 
  204.2500     2.2780    66.7630    70.5690    64.1170    67.9280    24.4910   -20.4330 
  204.3750     2.2970    68.8730    69.7750    65.7470    64.0350    24.4700   -20.7940 
  204.5000     2.3020    71.2340    64.2350    62.3510    53.6390    24.4610   -21.1470 
  204.6250     2.2880    73.6550    57.2280    56.3750    47.2670    24.4790   -21.4320 
  204.7500     2.2650    72.1940    51.4490    50.7010    43.7980    24.4750   -21.6650 
  204.8750     2.2510    65.9410    47.3990    46.2690    38.6010    24.4560   -21.8900 
  205.0000     2.2650    61.8310    44.3660    42.8460    31.1520    24.4420   -22.1110 
  205.1250     2.3300    64.0710    40.5830    39.0290    25.2960    24.3560   -22.3250 
  205.2500     2.4360    65.5080    34.7820    33.5410    25.5950    24.1450   -22.4990 
  205.3750     2.5580    63.7700    27.0880    26.3910    29.2520    23.9540   -22.6450 
  205.5000     2.6540    64.3460    18.9120    18.8090    25.7850    23.8220   -22.7030 
  205.6250     2.6710    71.4600    12.3980    12.6680    12.6840    23.7090   -22.5860 
  205.7500     2.6120    79.4270     8.1760     8.4940     5.8780    23.5850   -22.3090 
  205.8750     2.5080    86.0160     5.9640     6.0670     3.3890    23.4290   -21.8780 
  206.0000     2.4040    91.2740     5.1450     4.9160     2.9350    23.2990   -21.3240 
  206.1250     2.3460    93.5920     5.2800     4.7590     3.3970    23.2080   -20.6630 
  206.2500     2.3370    92.6090     5.8490     5.1830     4.4500    23.2820   -19.9260 
  206.3750     2.3600    90.9890     6.6040     5.9790     6.0520    23.7000   -19.1160 
  206.5000     2.3950    94.0280     7.3300     6.8980     7.0430    24.2400   -18.3150 
  206.6250     2.4220    99.6550     7.7870     7.6250     6.9390    24.4880   -17.6540 
  206.7500     2.4390   100.4230     7.9170     8.0130     6.5110    24.5350   -17.0970 
  206.8750     2.4460    97.9910     7.7840     8.0730     6.1390    24.5150   -16.6500 
  207.0000     2.4490    97.6660     7.5420     7.9250     5.9800    24.5070   -16.3130 
  207.1250     2.4490   100.1340     7.3360     7.7110     5.9680    24.5250   -16.0850 
  207.2500     2.4480   103.5420     7.2250     7.5310     5.9610    24.5460   -15.9560 
  207.3750     2.4450   108.9020     7.2090     7.4070     6.0290    24.5450   -15.9180 
