~V
VERS. 2.00: Ver 2.00
~W
STRT.M 50.0000:
STOP.M 230.0000:
STEP.M 0.1250:
NULL. -999.2500:
UWI. F10780:
~C
DEPT.M :
DEN.GM/CC :
GR.API :
RML.OHMM :
RI. :
RXO.OHMM :
CALI.CM :
SP.MV :
~A
# ...
  106.2500     2.2080    93.5200     8.3220     6.7190     5.7140    25.3590   -16.9290 
  106.3750     2.1990    89.2490     8.9270     7.1630     5.8590    25.0060   -17.0450 
  106.5000     2.2000    84.8700     9.6310     7.7250     6.4300    24.7170   -17.1060 
  106.6250     2.2090    83.1060    10.2780     8.3110     6.8430    24.5420   -17.1320 
  106.7500     2.2200    82.0430    10.7150     8.7800     6.8380    24.4640   -17.1760 
  106.8750     2.2280    80.4500    10.8600     9.0320     6.6710    24.4490   -17.1980 
  107.0000     2.2320    79.9140    10.7350     9.0400     6.4240    24.4750   -17.1180 
  107.1250     2.2370    82.4400    10.4600     8.8560     6.2200    24.5330   -16.8820 
  107.2500     2.2410    88.2060    10.2580     8.6610     6.5450    24.5520   -16.5810 
  107.3750     2.2430    92.9510    10.2900     8.5950     6.7190    24.5200   -16.2760 
  107.5000     2.2370    92.7800    10.6790     8.7760     6.8110    24.4630   -15.9590 
  107.6250     2.2230    89.6250    11.5370     9.3450     7.0660    24.4240   -15.6060 
  107.7500     2.2050    87.9650    12.6790    10.2370     7.3900    24.3890   -15.1590 
  107.8750     2.1920    87.9240    13.8170    11.2890     7.7480    24.3610   -14.6850 
  108.0000     2.1880    86.1920    14.5400    12.1790     8.2400    24.3410   -14.2680 
  108.1250     2.2020    82.1960    14.3300    12.3950     8.7890    24.3330   -13.9750 
  108.2500     2.2290    80.0340    13.2830    11.8490     8.9690    24.3930   -13.7830 
  108.3750     2.2600    81.7720    11.7150    10.7150     8.1960    24.5030   -13.6410 
  108.5000     2.2870    86.8190    10.0750     9.3550     6.5000    24.5640   -13.5360 
  108.6250     2.2990    90.1430     8.7960     8.1640     5.4680    24.4470   -13.5330 
  108.7500     2.3000    89.3880     7.9520     7.2960     5.3990    24.3110   -13.6760 
  108.8750     2.2940    89.3610     7.4950     6.7610     5.8450    24.1940   -13.8790 
  109.0000     2.2820    92.4870     7.3410     6.5140     6.0250    24.0800   -14.0540 
  109.1250     2.2640    96.4260     7.4720     6.5500     5.8560    24.0260   -14.1550 
  109.2500     2.2450    97.2600     7.8370     6.8170     5.8420    24.0940   -14.2340 
  109.3750     2.2410    95.9680     8.4290     7.3210     6.0930    24.2690   -14.3280 
  109.5000     2.2640    93.5540     9.1900     8.0410     6.4170    24.5110   -14.4270 
  109.6250     2.3110    89.3300     9.9530     8.8810     7.3120    24.6270   -14.4360 
  109.7500     2.3520    85.3970    10.4900     9.6050     9.2680    24.5230   -14.3500 
  109.8750     2.3650    84.4710    10.6480    10.0110    11.4450    24.3670   -14.2790 
  110.0000     2.3440    87.5590    10.4030     9.9920    10.5260    24.2880   -14.2860 
  110.1250     2.3040    92.6990     9.8490     9.5580     8.2570    24.3110   -14.3750 
  110.2500     2.2720    95.8570     9.2220     8.9510     7.2900    24.4190   -14.4270 
  110.3750     2.2580    94.8290     8.6340     8.3160     7.0720    24.5660   -14.4100 
  110.5000     2.2590    91.7370     8.1180     7.7290     6.6570    24.6340   -14.3530 
  110.6250     2.2690    91.2180     7.6850     7.2230     6.6060    24.5320   -14.3180 
  110.7500     2.2810    93.8750     7.3490     6.8040     6.2930    24.3980   -14.3440 
  110.8750     2.2900    95.8900     7.1980     6.5240     5.8200    24.2950   -14.3890 
  111.0000     2.2930    93.2050     7.3410     6.4710     5.7840    24.2270   -14.3350 
  111.1250     2.2860    91.0010     8.0360     6.8250     6.0570    24.1640   -14.1080 
  111.2500     2.2720    91.4490     9.4200     7.6430     6.5130    24.0820   -13.8040 
  111.3750     2.2560    88.9990    11.5150     8.9890     7.2260    24.0570   -13.4320 
  111.5000     2.2380    78.8690    14.1060    10.8590     8.4390    24.0400   -12.9920 
  111.6250     2.2210    68.3380    16.8360    13.1580    10.6350    23.9680   -12.4830 
  111.7500     2.2150    67.8480    19.3580    15.5180    12.5140    23.8260   -11.8790 
  111.8750     2.2310    72.5910    21.4520    17.6230    12.5460    23.7000   -11.1780 
  112.0000     2.2680    72.5530    22.9470    19.2400    11.5330    23.5830   -10.5020 
  112.1250     2.3080    65.4590    23.7280    20.1850    10.4910    23.6070    -9.9790 
  112.2500     2.3200    60.6740    23.9940    20.6070    10.1680    23.5790    -9.5500 
  112.3750     2.2950    62.4230    23.8510    20.5950    10.2550    23.6140    -9.1850 
  112.5000     2.2440    66.5370    23.4180    20.2540    10.4540    23.6710    -8.9030 
  112.6250     2.1950    68.1910    22.8560    19.7220    10.4940    23.6780    -8.7410 
  112.7500     2.1670    66.5000    22.3960    19.2280    10.3340    23.6710    -8.7080 
  112.8750     2.1580    64.1030    22.1850    18.9370    10.1980    23.6690    -8.7790 
  113.0000     2.1570    63.8040    22.2830    18.9460    10.0820    23.6800    -8.8850 
  113.1250     2.1540    66.7540    22.6620    19.2940    10.2470    23.7770    -8.9610 
  113.2500     2.1500    69.9890    23.1260    19.8220    10.6730    23.9740    -9.0620 
  113.3750     2.1470    69.2090    23.5230    20.3910    11.0590    24.1550    -9.2360 
  113.5000     2.1480    65.7680    23.7320    20.8650    11.0400    24.1630    -9.4520 
  113.6250     2.1540    65.2120    23.6430    21.1010    10.6050    24.0850    -9.6630 
  113.7500     2.1620    68.3450    23.3100    21.1010    10.4260    24.0020    -9.8060 
  113.8750     2.1700    70.2760    22.8050    20.9010    10.3990    23.9580    -9.9130 
  114.0000     2.1790    68.0240    22.1980    20.5630    10.2510    23.9260   -10.0320 
  114.1250     2.1860    67.0930    21.4590    20.0680     9.7770    23.8900   -10.2020 
  114.2500     2.1870    69.1850    20.4710    19.3180     9.4180    23.8660   -10.4010 
  114.3750     2.1830    71.4000    19.0940    18.1690     9.3200    23.8570   -10.5920 
  114.5000     2.1820    71.5150    17.3190    16.5930     9.3420    23.8990   -10.8440 
  114.6250     2.1910    71.5830    15.3840    14.7760     9.1680    23.9840   -11.2130 
  114.7500     2.2070    74.0830    13.7490    13.1370     8.3670    24.0700   -11.6860 
  114.8750     2.2220    77.1850    12.7660    11.9870     7.1600    24.1210   -12.1820 
  115.0000     2.2240    78.3080    12.6220    11.5200     6.4190    24.1400   -12.5830 
  115.1250     2.2130    75.3310    13.3850    11.8840     7.0630    24.1320   -12.8140 
  115.2500     2.1980    71.1250    14.6300    12.8110     7.9520    24.1000   -12.9560 
  115.3750     2.1890    67.6880    15.9880    14.0320     8.4150    24.0720   -13.0980 
  115.5000     2.1900    66.9320    17.1300    15.2260     8.6580    24.0950   -13.1880 
  115.6250     2.1990    69.2740    17.8440    16.0970     9.0620    24.1330   -13.1310 
  115.7500     2.2100    72.8180    18.3320    16.6950     9.2470    24.1700   -12.9250 
  115.8750     2.2190    73.1100    18.8470    17.2120     9.2820    24.2050   -12.6600 
  116.0000     2.2220    69.3880    19.5640    17.8440     9.5470    24.1670   -12.4860 
  116.1250     2.2140    66.0880    20.4570    18.6470    10.2550    24.0440   -12.4840 
  116.2500     2.2010    65.1060    21.2350    19.4080    10.3230    23.9140   -12.5830 
  116.3750     2.1880    66.5980    21.6280    19.8640    10.0350    23.8390   -12.7190 
  116.5000     2.1780    69.6960    21.4740    19.8130     9.6540    23.7840   -12.9130 
  116.6250     2.1740    71.1880    20.7540    19.1640     9.1800    23.7930   -13.2260 
  116.7500     2.1720    69.3250    19.8000    18.2180     8.6170    23.8380   -13.6790 
  116.8750     2.1710    67.7550    18.8720    17.2360     8.3440    23.8650   -14.2330 
  117.0000     2.1710    69.5000    18.1540    16.4210     8.3490    23.8810   -14.7560 
  117.1250     2.1750    70.2520    17.8040    15.9400     8.4240    23.9130   -15.1190 
  117.2500     2.1840    68.5380    17.8150    15.7950     8.4270    23.9730   -15.3420 
  117.3750     2.1950    66.4050    18.2200    16.0110     8.4570    24.0280   -15.4370 
