~V
VERS. 2.00: Ver 2.00
~W
STRT.M 10.0000:
STOP.M 237.0000:
STEP.M 0.1250:
NULL. -999.2500:
UWI. F10776:
~C
DEPT.M :
DEN.GM/CC :
GR.API :
RML.OHMM :
RI. :
RXO.OHMM :
CALI.CM :
SP.MV :
~A
# ...
  156.2500     2.5070    44.3470    13.3980    11.8840    12.5120    25.5630    -8.8090 
  156.3750     2.5180    43.0990    14.7040    12.8550    13.9990    25.5580    -8.8820 
  156.5000     2.5130    41.8300    16.5340    14.2770    15.8890    25.5450    -8.9330 
  156.6250     2.5030    43.6200    18.7550    16.1380    17.9300    25.5180    -8.9670 
  156.7500     2.4910    46.6440    20.7920    18.0190    20.5250    25.4700    -8.9620 
  156.8750     2.4780    48.9390    21.9500    19.3490    23.2420    25.3790    -8.9300 
  157.0000     2.4660    48.9610    21.6560    19.5480    24.5740    25.2740    -8.8880 
  157.1250     2.4550    46.6430    19.7800    18.2980    21.8760    25.2870    -8.8390 
  157.2500     2.4480    44.6570    17.3860    16.3840    19.2350    25.3040    -8.7960 
  157.3750     2.4490    45.2800    15.2560    14.4820    16.7420    25.3130    -8.7430 
  157.5000     2.4560    47.0390    13.8360    13.0480    14.1180    25.3100    -8.6720 
  157.6250     2.4590    46.7750    13.3670    12.3760    12.7710    25.2980    -8.5850 
  157.7500     2.4550    44.8390    13.5940    12.3330    13.1010    25.2760    -8.5100 
  157.8750     2.4550    42.3170    14.3180    12.7990    14.4170    25.2570    -8.4390 
  158.0000     2.4660    41.0620    15.2820    13.5950    16.2830    25.2520    -8.3650 
  158.1250     2.4820    41.5980    16.1380    14.4480    17.3220    25.2450    -8.3100 
  158.2500     2.4920    41.4930    16.6310    15.0650    17.1330    25.2240    -8.2730 
  158.3750     2.4930    40.1730    16.6960    15.3050    16.3110    25.1940    -8.2540 
  158.5000     2.4900    40.2010    16.4360    15.1970    15.0380    25.1650    -8.2720 
  158.6250     2.4800    43.0180    16.0420    14.8820    14.6810    25.1200    -8.3200 
  158.7500     2.4630    45.1650    15.7040    14.5610    14.1730    25.0170    -8.3710 
  158.8750     2.4410    45.8330    15.5140    14.3260    13.8040    24.8560    -8.4360 
  159.0000     2.4220    46.0310    15.5580    14.2430    13.7370    24.8520    -8.5200 
  159.1250     2.4110    43.6950    16.0020    14.4410    14.2920    25.0250    -8.5790 
  159.2500     2.4070    40.4570    16.8560    14.9640    14.6760    25.2110    -8.6200 
  159.3750     2.4060    39.0890    18.0530    15.8050    15.4470    25.3510    -8.6600 
  159.5000     2.4050    40.6450    19.3730    16.8210    17.1360    25.4210    -8.6890 
  159.6250     2.4030    41.2830    20.3500    17.6470    19.8030    25.4390    -8.7030 
  159.7500     2.4030    41.4000    20.6210    17.9510    21.9710    25.4400    -8.6940 
  159.8750     2.4070    42.6490    20.1370    17.6130    21.5470    25.4390    -8.6470 
  160.0000     2.4160    43.7280    19.2360    16.8000    18.4940    25.4380    -8.5650 
  160.1250     2.4220    43.5130    18.4560    15.9070    15.1900    25.4330    -8.4710 
  160.2500     2.4200    43.6350    18.0950    15.3060    14.6740    25.4310    -8.3470 
  160.3750     2.4130    43.5770    18.2080    15.1370    15.0610    25.4330    -8.1950 
  160.5000     2.4050    41.3090    18.6710    15.3630    15.4040    25.4070    -8.0190 
  160.6250     2.3970    38.9960    19.0970    15.7340    15.6930    25.3110    -7.8340 
  160.7500     2.3860    40.3580    18.9940    15.8150    15.8700    25.1760    -7.6700 
  160.8750     2.3720    43.0170    18.1520    15.3430    15.4310    25.1570    -7.5300 
  161.0000     2.3590    43.2030    16.7480    14.3450    14.2530    25.3640    -7.4130 
  161.1250     2.3520    41.3440    15.2370    13.1210    12.4570    25.8400    -7.3410 
  161.2500     2.3620    41.1700    14.0520    12.0640    10.5010    26.2940    -7.3170 
  161.3750     2.4020    42.6430    13.3870    11.3630     9.4090    26.4590    -7.3260 
  161.5000     2.4640    44.1070    13.2590    11.0690     9.5090    26.3310    -7.3740 
  161.6250     2.5010    43.7770    13.5800    11.1690     9.9020    26.0050    -7.4350 
  161.7500     2.4910    44.2200    14.0660    11.4630     9.6350    25.7660    -7.4800 
  161.8750     2.4560    47.1350    14.5550    11.8080     9.3380    25.5470    -7.5210 
  162.0000     2.4320    50.5140    14.9610    12.1020     9.3850    25.3330    -7.5490 
  162.1250     2.4330    51.5570    15.2890    12.3160     9.6050    25.4480    -7.5400 
  162.2500     2.4410    50.0770    15.6340    12.5150    10.1120    25.6490    -7.5090 
  162.3750     2.4470    46.8370    16.0520    12.7480    10.8650    25.7660    -7.4680 
  162.5000     2.4520    43.4190    16.5400    13.0250    11.8140    25.7280    -7.4130 
  162.6250     2.4570    42.9920    17.0230    13.3000    13.6620    25.6300    -7.3470 
  162.7500     2.4570    43.5630    17.4150    13.5130    14.8890    25.5790    -7.2810 
  162.8750     2.4490    42.3630    17.6890    13.6440    14.8880    25.5470    -7.2100 
  163.0000     2.4430    40.6090    17.8700    13.7190    14.4770    25.4340    -7.1420 
  163.1250     2.4440    41.0930    17.9840    13.7750    13.9510    25.1250    -7.0810 
  163.2500     2.4480    41.8880    18.0530    13.8290    13.7160    24.7090    -7.0010 
  163.3750     2.4530    41.1870    18.0470    13.8630    13.7210    24.3180    -6.8980 
  163.5000     2.4610    39.6720    17.9210    13.8390    13.8200    23.9660    -6.7680 
  163.6250     2.4660    38.3310    17.6390    13.7100    13.5120    24.0030    -6.6160 
  163.7500     2.4580    37.8790    17.2660    13.5150    12.9770    24.3230    -6.4560 
  163.8750     2.4330    39.5200    16.8160    13.2710    12.4330    24.6350    -6.2900 
  164.0000     2.3990    41.5200    16.1990    12.9270    12.3030    24.7370    -6.1250 
  164.1250     2.3610    41.5880    15.1600    12.2950    12.1380    24.8080    -5.9540 
  164.2500     2.3130    40.9950    13.6350    11.2940    11.6720    24.8460    -5.7880 
  164.3750     2.2530    40.7880    11.7230     9.9560    10.6920    24.7750    -5.6230 
  164.5000     2.1840    40.1320     9.7080     8.4610     8.8560    24.9170    -5.4700 
  164.6250     2.1200    36.5920     8.0040     7.1030     6.8450    26.1680    -5.3570 
  164.7500     2.0860    31.3130     6.7690     6.0440     5.8080    28.3770    -5.2830 
  164.8750     2.0950    27.1790     5.9980     5.3230     5.3270    30.7480    -5.2500 
  165.0000     2.1450    25.0960     5.5950     4.9070     5.0870    32.5550    -5.2420 
  165.1250     2.2130    24.7380     5.4590     4.7540     4.9470    33.0060    -5.2810 
  165.2500     2.2740    25.3740     5.4240     4.7290     4.8210    32.6000    -5.3630 
  165.3750     2.3200    27.6350     5.4120     4.7550     4.7010    31.9380    -5.5050 
  165.5000     2.3420    30.4070     5.3890     4.7810     4.5870    31.6520    -5.6800 
  165.6250     2.3360    30.8880     5.3540     4.7850     4.5370    32.1020    -5.8770 
  165.7500     2.3180    29.5090     5.3230     4.7740     4.5160    32.3200    -6.0870 
  165.8750     2.3120    28.6210     5.3040     4.7540     4.4930    31.4320    -6.2840 
  166.0000     2.3370    30.5810     5.3000     4.7280     4.5070    29.4400    -6.4830 
  166.1250     2.3930    36.0500     5.3120     4.6940     4.6660    27.1480    -6.6700 
  166.2500     2.4350    42.6250     5.3300     4.6480     4.7810    25.9490    -6.8640 
  166.3750     2.4320    48.8100     5.3380     4.5880     4.7440    25.8250    -7.0520 
  166.5000     2.3870    53.1810     5.3250     4.5090     4.6890    26.1750    -7.2560 
  166.6250     2.3370    53.2990     5.2960     4.4170     4.7910    26.4350    -7.4720 
  166.7500     2.3090    50.2220     5.2870     4.3380     4.9690    26.5980    -7.7010 
  166.8750     2.3140    48.4850     5.3450     4.3060     5.0100    26.5570    -7.9610 
  167.0000     2.3510    51.6290     5.5110     4.3550     4.9840    26.3120    -8.2550 
  167.1250     2.3970    57.2040     5.8270     4.5240     5.1000    25.8990    -8.5960 
  167.2500     2.4240    60.2480     6.2540     4.7910     5.5370    25.6010    -8.9560 
  167.3750     2.4280    60.3600     6.7610     5.1310     6.1910    25.4850    -9.3250 
