~V
VERS. 2.00: Ver 2.00
~W
STRT.M 55.0000:
STOP.M 262.0000:
STEP.M 0.1250:
NULL. -999.2500:
UWI. F10759:
~C
DEPT.M :
DEN.GM/CC :
GR.API :
RML.OHMM :
RI. :
RXO.OHMM :
CALI.CM :
SP.MV :
~A
# ...
  111.2500     2.2480    75.3090     9.4040     7.8990     6.6430    22.6900    -5.9300 
  111.3750     2.2350    75.6880     9.8280     8.3270     6.8460    22.6900    -5.9120 
  111.5000     2.2210    76.4760     9.9650     8.5780     7.8540    22.6940    -5.8390 
  111.6250     2.2120    78.4800     9.6350     8.4750     8.3030    22.7300    -5.6880 
  111.7500     2.2120    79.6360     8.9780     8.0770     7.5510    22.8560    -5.4910 
  111.8750     2.2220    81.9280     8.1950     7.5120     6.2650    23.1090    -5.2760 
  112.0000     2.2410    88.4490     7.4790     6.9340     5.5580    23.3970    -5.0570 
  112.1250     2.2610    93.9080     6.9780     6.4780     5.4460    23.4460    -4.7980 
  112.2500     2.2790    92.3700     6.6610     6.1660     5.6380    23.4560    -4.5300 
  112.3750     2.2940    88.1260     6.4690     5.9730     5.5810    23.4580    -4.2840 
  112.5000     2.3050    88.0270     6.3460     5.8550     5.1010    23.4670    -4.0810 
  112.6250     2.3120    88.8610     6.2880     5.7910     4.7910    23.4760    -3.9510 
  112.7500     2.3140    86.6120     6.2840     5.7640     4.9040    23.4770    -3.8860 
  112.8750     2.3110    85.5930     6.2950     5.7520     5.1160    23.4710    -3.8430 
  113.0000     2.3030    89.3090     6.2470     5.7050     5.1120    23.4710    -3.8120 
  113.1250     2.2970    92.0640     6.0530     5.5510     5.1190    23.4470    -3.8110 
  113.2500     2.2970    89.6050     5.7540     5.3030     5.0690    23.4090    -3.8670 
  113.3750     2.3040    86.7040     5.4600     5.0300     4.8030    23.3830    -3.9650 
  113.5000     2.3150    88.4260     5.3150     4.8360     4.4410    23.2980    -4.0930 
  113.6250     2.3230    93.2820     5.5120     4.8750     4.3600    23.1730    -4.2510 
  113.7500     2.3240    94.7540     6.1230     5.2190     4.8370    22.9710    -4.4140 
  113.8750     2.3200    91.0740     7.2260     5.9490     5.8250    22.6820    -4.5820 
  114.0000     2.3190    84.1950     8.8450     7.1220     6.9020    22.4240    -4.7400 
  114.1250     2.3210    76.4840    10.8830     8.7760     8.2770    22.2770    -4.8980 
  114.2500     2.3160    71.8210    12.8210    10.5680    10.5970    22.0290    -5.0240 
  114.3750     2.2940    71.1670    14.0410    11.9740    13.1580    21.8000    -5.1330 
  114.5000     2.2560    73.0310    14.0910    12.4660    12.5340    21.4600    -5.2170 
  114.6250     2.2190    75.3670    13.0810    11.9170    11.0980    20.7410    -5.2530 
  114.7500     2.2040    75.1050    11.9790    11.0970     9.5120    20.0710    -5.2690 
  114.8750     2.2230    72.7340    11.3550    10.5270     8.2690    19.6450    -5.2650 
  115.0000     2.2750    70.6510    11.3980    10.4540     8.2240    19.4950    -5.2350 
  115.1250     2.3410    70.5390    12.0070    10.9290    11.1360    19.6260    -5.2060 
  115.2500     2.3880    69.6770    12.6790    11.6140    15.9320    20.1430    -5.1590 
  115.3750     2.3920    67.6720    13.0050    12.1540    16.7650    20.8910    -5.0980 
  115.5000     2.3520    68.7970    12.7810    12.2670    11.2790    21.6320    -5.0400 
  115.6250     2.2910    73.6640    12.0850    11.8670     8.4720    22.2780    -4.9700 
  115.7500     2.2450    76.7450    11.2630    11.2170     8.8350    22.9040    -4.8810 
  115.8750     2.2290    75.9210    10.4300    10.4600     9.3920    23.1750    -4.7880 
  116.0000     2.2420    76.8440     9.5710     9.6400     8.5640    23.2270    -4.7160 
  116.1250     2.2730    83.3330     8.6260     8.7380     6.8780    23.1910    -4.6830 
  116.2500     2.2990    89.9630     7.6780     7.8090     6.2310    23.0940    -4.6740 
  116.3750     2.3130    93.0710     6.9130     6.9900     5.8210    22.9680    -4.6970 
  116.5000     2.3160    94.1610     6.5210     6.4460     5.4190    22.9340    -4.7290 
  116.6250     2.3210    95.2200     6.7110     6.3710     5.1870    22.9890    -4.7940 
  116.7500     2.3360    95.4110     7.4840     6.7710     5.2560    23.1570    -4.9060 
  116.8750     2.3550    90.2470     8.9120     7.7120     5.8450    23.2820    -5.0540 
  117.0000     2.3620    78.8470    10.9950     9.2390     7.4110    23.3130    -5.2290 
  117.1250     2.3290    69.7850    13.5620    11.3350    10.8370    23.3240    -5.3850 
  117.2500     2.2600    68.0770    16.0370    13.5570    12.8380    23.3300    -5.5410 
  117.3750     2.1770    68.6530    17.9810    15.4650    12.5110    23.3390    -5.6920 
  117.5000     2.1080    65.6570    19.2820    16.8100    12.1000    23.3610    -5.8400 
  117.6250     2.0870    62.8100    20.2710    17.7110    12.6590    23.3940    -5.9830 
  117.7500     2.1060    64.4310    21.5200    18.6610    14.5950    23.3960    -6.0960 
  117.8750     2.1470    66.7500    23.2370    19.9180    20.4030    23.3950    -6.1770 
  118.0000     2.1840    66.6090    25.2540    21.4490    36.5770    23.3910    -6.2300 
  118.1250     2.1940    62.6310    27.0460    22.9020    44.7790    23.3580    -6.2690 
  118.2500     2.1820    58.9140    28.2110    23.9140    34.2610    23.4220    -6.3160 
  118.3750     2.1620    57.7120    28.6560    24.3500    24.7380    23.4500    -6.3500 
  118.5000     2.1440    58.2240    28.5590    24.3110    22.5670    23.5550    -6.3710 
  118.6250     2.1330    58.9700    28.2180    24.0450    22.0180    23.6170    -6.3790 
  118.7500     2.1240    56.8260    27.8550    23.8050    21.5800    23.6280    -6.3710 
  118.8750     2.1160    54.0030    27.4350    23.6180    21.3990    23.6160    -6.3540 
  119.0000     2.1140    53.5340    26.8940    23.4280    21.0120    23.5480    -6.3340 
  119.1250     2.1200    55.8450    26.3090    23.2380    19.8720    23.4030    -6.3050 
  119.2500     2.1330    58.0240    25.9110    23.1580    18.3620    23.3130    -6.2430 
  119.3750     2.1470    58.1600    25.9060    23.3210    17.1760    23.1920    -6.1760 
  119.5000     2.1580    58.4420    26.3890    23.8210    16.6480    23.1380    -6.1090 
  119.6250     2.1620    58.0290    27.1330    24.5800    17.5240    23.0440    -6.0570 
  119.7500     2.1610    57.3920    27.3680    25.0230    18.9660    22.8690    -6.0320 
  119.8750     2.1600    59.1250    26.2690    24.3910    19.3900    22.7660    -6.0170 
  120.0000     2.1670    63.0680    23.4320    22.1750    18.1950    22.5190    -6.0110 
  120.1250     2.1870    66.1450    19.3010    18.6020    15.6650    22.3730    -6.0190 
  120.2500     2.2160    66.9510    15.3280    14.9760    11.5510    22.3200    -6.0510 
  120.3750     2.2460    67.6110    12.3640    12.0850     7.8870    22.4300    -6.1190 
  120.5000     2.2670    68.3330    10.7280    10.2580     6.2400    22.7150    -6.2310 
  120.6250     2.2690    68.2880    10.5940     9.6920     6.4770    22.9680    -6.3530 
  120.7500     2.2560    68.0090    11.6170    10.1550     7.3000    23.0480    -6.4660 
  120.8750     2.2320    68.0240    13.6730    11.6300     8.8230    23.0410    -6.5650 
  121.0000     2.2040    67.4090    16.5570    14.0730    11.4590    22.9990    -6.6400 
  121.1250     2.1790    63.8800    19.8480    17.3170    15.4040    23.0140    -6.7190 
  121.2500     2.1590    59.4770    22.7810    20.6130    18.4210    23.0630    -6.7830 
  121.3750     2.1430    56.9460    24.8000    23.2630    19.9320    23.1660    -6.8020 
  121.5000     2.1310    56.9310    25.6500    24.7830    19.9510    23.2600    -6.7620 
  121.6250     2.1240    58.9080    25.2440    24.8680    19.7360    23.3060    -6.6900 
  121.7500     2.1240    61.5790    23.9870    23.9060    18.8430    23.3170    -6.6130 
  121.8750     2.1340    64.2320    21.9670    22.0260    16.8320    23.3430    -6.5390 
  122.0000     2.1540    64.9010    19.2240    19.3210    14.7370    23.2810    -6.4880 
  122.1250     2.1800    63.9210    16.0410    16.1280    13.2570    23.1730    -6.4200 
  122.2500     2.2060    63.5930    13.1780    13.2140    11.5880    23.0620    -6.3470 
  122.3750     2.2260    65.0880    11.2130    11.0750     9.5350    23.0200    -6.2740 
