~V
VERS. 2.00: Ver 2.00
~W
STRT.M 55.0000:
STOP.M 262.0000:
STEP.M 0.1250:
NULL. -999.2500:
UWI. F10759:
~C
DEPT.M :
DEN.GM/CC :
GR.API :
RML.OHMM :
RI. :
RXO.OHMM :
CALI.CM :
SP.MV :
~A
# ...
  178.7500     2.5240    57.0350    20.2150    19.8590    16.6250    23.1390    -2.4120 
  178.8750     2.5160    54.0730    19.7020    19.3890    17.6010    23.1040    -2.4730 
  179.0000     2.4990    54.4560    18.7880    18.5350    17.7490    23.0500    -2.5250 
  179.1250     2.4780    56.1610    17.5800    17.3730    15.4890    23.0370    -2.5800 
  179.2500     2.4610    55.9460    16.4150    16.2000    14.1230    23.0390    -2.6200 
  179.3750     2.4520    55.5600    15.5390    15.2390    12.6510    23.0400    -2.6320 
  179.5000     2.4540    56.0590    15.0960    14.6400    11.7900    23.0410    -2.5860 
  179.6250     2.4620    56.3460    15.1560    14.5130    12.0380    23.0410    -2.5370 
  179.7500     2.4690    56.0460    15.5340    14.7280    12.8050    23.0060    -2.4980 
  179.8750     2.4730    55.0390    16.0890    15.1760    13.1940    22.9640    -2.4490 
  180.0000     2.4760    53.0320    16.6780    15.7200    13.3260    22.9170    -2.3970 
  180.1250     2.4790    50.8950    17.1590    16.2110    13.5500    22.8230    -2.3410 
  180.2500     2.4820    51.8150    17.5020    16.5790    13.9070    22.7960    -2.2990 
  180.3750     2.4820    55.0900    17.7330    16.8190    14.6220    22.7480    -2.2810 
  180.5000     2.4770    57.1190    17.9190    16.9760    14.7370    22.7270    -2.3060 
  180.6250     2.4680    56.4690    18.1420    17.1200    14.5140    22.7260    -2.3480 
  180.7500     2.4560    55.1990    18.3910    17.2810    15.1930    22.7460    -2.3940 
  180.8750     2.4470    55.1940    18.5790    17.4100    16.0600    22.8410    -2.4630 
  181.0000     2.4430    56.8070    18.6230    17.4390    15.5450    22.9510    -2.5500 
  181.1250     2.4460    60.3430    18.4960    17.3350    16.2790    22.9650    -2.6380 
  181.2500     2.4510    64.7260    18.3030    17.1680    16.9750    22.9430    -2.7270 
  181.3750     2.4580    66.4800    18.1430    17.0090    15.5480    22.8360    -2.7970 
  181.5000     2.4650    64.6710    18.0910    16.9270    14.0320    22.6970    -2.8250 
  181.6250     2.4730    62.1490    18.1690    16.9700    14.8880    22.8240    -2.8180 
  181.7500     2.4830    61.6370    18.2770    17.0730    16.8910    23.0610    -2.8120 
  181.8750     2.4940    62.1700    18.3160    17.1560    16.7290    23.1780    -2.8150 
  182.0000     2.5030    63.1900    18.2130    17.1350    15.1850    23.2090    -2.8310 
  182.1250     2.5070    63.4030    17.9090    16.9270    15.2570    23.2410    -2.8410 
  182.2500     2.5040    61.9340    17.4750    16.5670    15.9700    23.2760    -2.8460 
  182.3750     2.4970    61.1810    17.0050    16.1260    15.2550    23.2900    -2.8510 
  182.5000     2.4860    63.2990    16.6000    15.6930    13.7120    23.3450    -2.8740 
  182.6250     2.4750    65.1560    16.3780    15.3740    13.3240    23.3540    -2.9150 
  182.7500     2.4650    63.5900    16.3560    15.2100    13.3960    23.3520    -2.9470 
  182.8750     2.4580    60.9610    16.5170    15.2180    13.5580    23.3470    -2.9610 
  183.0000     2.4530    59.7510    16.7880    15.3640    13.5140    23.3460    -2.9530 
  183.1250     2.4500    58.7970    17.0860    15.5820    13.7430    23.3440    -2.9510 
  183.2500     2.4480    57.8420    17.4380    15.8330    14.0870    23.3430    -2.9440 
  183.3750     2.4510    56.5650    18.0020    16.2020    14.0020    23.3770    -2.9640 
  183.5000     2.4630    54.2850    18.9650    16.8230    13.9320    23.4150    -2.9960 
  183.6250     2.4870    52.7210    20.5070    17.8750    14.7530    23.4210    -3.0250 
  183.7500     2.5150    53.9620    22.3750    19.2560    16.9140    23.4160    -3.0360 
  183.8750     2.5400    58.4690    24.1070    20.6920    20.5130    23.3790    -3.0330 
  184.0000     2.5520    64.3150    25.0720    21.7080    24.3020    23.3620    -3.0200 
  184.1250     2.5450    67.4530    24.5710    21.6690    23.2360    23.3670    -2.9680 
  184.2500     2.5250    66.1590    22.9820    20.7100    19.8200    23.3680    -2.9010 
  184.3750     2.4990    62.0900    20.9260    19.2410    17.1250    23.3690    -2.8070 
  184.5000     2.4750    58.9630    19.0340    17.7480    15.7450    23.3750    -2.6910 
  184.6250     2.4600    58.3070    17.7560    16.6310    14.0490    23.3650    -2.5630 
  184.7500     2.4560    57.7570    16.9900    15.9070    13.9160    23.3530    -2.4190 
  184.8750     2.4580    55.2660    16.5620    15.4850    13.8390    23.3470    -2.2620 
  185.0000     2.4620    52.0420    16.2940    15.2410    13.6630    23.3500    -2.0810 
  185.1250     2.4580    52.1680    16.0220    15.0470    13.2720    23.3720    -1.9280 
  185.2500     2.4450    55.1570    15.6390    14.7810    13.2830    23.4150    -1.7970 
  185.3750     2.4270    58.0020    15.1100    14.3860    12.7710    23.4220    -1.6700 
  185.5000     2.4090    58.7700    14.4430    13.8500    12.4040    23.4230    -1.5500 
  185.6250     2.3980    59.1370    13.6840    13.1990    11.5820    23.4290    -1.4440 
  185.7500     2.3950    61.5510    12.9540    12.5350    10.8210    23.4620    -1.3760 
  185.8750     2.4010    62.6880    12.3660    11.9620    10.4130    23.5010    -1.3210 
  186.0000     2.4110    58.2850    11.9970    11.5580     9.8470    23.5080    -1.2930 
  186.1250     2.4220    50.0880    11.8870    11.3790    10.0620    23.5010    -1.2830 
  186.2500     2.4310    45.8550    11.9360    11.3590    10.2810    23.5000    -1.2780 
  186.3750     2.4340    46.4790    12.0780    11.4410     9.9270    23.5000    -1.2780 
  186.5000     2.4340    47.2180    12.2590    11.5750     9.3770    23.5000    -1.2870 
  186.6250     2.4320    47.9670    12.4620    11.7370     9.4990    23.5000    -1.2870 
  186.7500     2.4320    50.7820    12.6960    11.9240     9.7970    23.5040    -1.2690 
  186.8750     2.4350    53.4240    12.9660    12.1410    10.1860    23.5070    -1.2510 
  187.0000     2.4390    53.6210    13.2520    12.3770    10.7840    23.4940    -1.2330 
  187.1250     2.4400    53.9120    13.4940    12.5850    11.4380    23.4930    -1.2040 
  187.2500     2.4380    57.1760    13.6470    12.7240    11.4040    23.4620    -1.1690 
  187.3750     2.4350    58.5930    13.7010    12.7770    11.2400    23.4310    -1.1380 
  187.5000     2.4310    54.2680    13.6940    12.7710    11.4160    23.4050    -1.1170 
  187.6250     2.4290    47.7090    13.6940    12.7640    11.3880    23.3530    -1.1000 
  187.7500     2.4280    45.1950    13.7420    12.7990    11.1500    23.3230    -1.0950 
  187.8750     2.4260    46.6160    13.8270    12.8740    11.1990    23.2380    -1.0910 
  188.0000     2.4230    51.0380    13.9080    12.9550    11.9100    23.1990    -1.0920 
  188.1250     2.4190    55.6800    13.9180    12.9900    12.8120    23.1870    -1.1180 
  188.2500     2.4180    57.0180    13.8410    12.9560    12.6920    23.1880    -1.1780 
  188.3750     2.4200    56.0900    13.6900    12.8510    11.7850    23.1890    -1.2470 
  188.5000     2.4260    55.9700    13.5020    12.6930    11.6720    23.1860    -1.3120 
  188.6250     2.4330    55.6930    13.3190    12.5130    11.5110    23.2000    -1.3700 
  188.7500     2.4370    52.5350    13.1520    12.3360    11.4560    23.2140    -1.4430 
  188.8750     2.4350    49.6200    12.9780    12.1560    11.2630    23.2220    -1.5440 
  189.0000     2.4280    51.0890    12.7840    11.9620    10.9930    23.2260    -1.6540 
  189.1250     2.4200    54.5920    12.6020    11.7760    10.9200    23.2240    -1.7500 
  189.2500     2.4180    55.7590    12.4950    11.6480    10.6520    23.2130    -1.8250 
  189.3750     2.4250    55.2890    12.5040    11.6220    10.2910    23.1910    -1.9000 
  189.5000     2.4390    55.2680    12.6340    11.7110    10.3410    23.1830    -1.9720 
  189.6250     2.4530    56.2780    12.8930    11.9260    11.1190    23.1820    -2.0490 
  189.7500     2.4570    57.9430    13.2560    12.2340    11.6840    23.1830    -2.1180 
  189.8750     2.4520    60.6080    13.7200    12.6330    11.7960    23.1880    -2.1640 
