~V
VERS. 2.00: Ver 2.00
~W
STRT.M 50.0000:
STOP.M 230.0000:
STEP.M 0.1250:
NULL. -999.2500:
UWI. F10780:
~C
DEPT.M :
DEN.GM/CC :
GR.API :
RML.OHMM :
RI. :
RXO.OHMM :
CALI.CM :
SP.MV :
~A
# ...
  140.0000     2.2800    66.3990    17.5630    16.2370     9.0840    23.6520   -16.9600 
  140.1250     2.2770    66.4040    16.5560    15.3600     8.4270    23.6910   -17.3400 
  140.2500     2.2590    67.9970    15.5470    14.4520     7.8100    23.6850   -17.7500 
  140.3750     2.2360    71.7720    14.7100    13.6640     7.7090    23.6660   -18.1740 
  140.5000     2.2190    76.3700    14.1490    13.0960     7.8020    23.6390   -18.5650 
  140.6250     2.2070    78.6380    13.9260    12.8270     7.6870    23.6060   -18.8590 
  140.7500     2.1940    79.4210    13.9140    12.7670     7.3910    23.6080   -19.0930 
  140.8750     2.1800    79.6290    13.9970    12.8290     7.2610    23.6510   -19.2900 
  141.0000     2.1690    78.8270    14.0650    12.9120     7.3560    23.6940   -19.4870 
  141.1250     2.1700    76.5520    14.0380    12.9270     7.4940    23.6750   -19.6210 
  141.2500     2.1800    74.2860    13.9550    12.8740     7.5430    23.6080   -19.6450 
  141.3750     2.1950    73.2330    13.9060    12.8160     7.5420    23.5630   -19.5410 
  141.5000     2.2070    72.3290    14.0000    12.8490     7.6810    23.5730   -19.2970 
  141.6250     2.2050    70.4630    14.3600    13.1060     7.7560    23.6190   -18.9590 
  141.7500     2.1910    69.2730    14.9240    13.5790     8.0850    23.6290   -18.6230 
  141.8750     2.1690    69.6200    15.5700    14.1940     8.1940    23.6300   -18.3240 
  142.0000     2.1500    70.1910    16.1150    14.7980     8.2360    23.6410   -18.0400 
  142.1250     2.1460    69.7130    16.3160    15.1450     8.4190    23.6670   -17.8250 
  142.2500     2.1570    70.1740    16.1460    15.1370     8.5730    23.6880   -17.7380 
  142.3750     2.1760    72.8650    15.6700    14.7860     8.2910    23.6890   -17.7840 
  142.5000     2.1910    75.7790    15.0360    14.2040     7.8750    23.6670   -17.9910 
  142.6250     2.1930    77.3240    14.4060    13.5460     7.5320    23.6330   -18.3500 
  142.7500     2.1880    79.3250    13.8660    12.9360     7.3740    23.6020   -18.7240 
  142.8750     2.1860    81.8160    13.4260    12.4080     7.3410    23.6010   -19.0200 
  143.0000     2.1910    82.4120    13.0820    11.9690     7.6300    23.6280   -19.2000 
  143.1250     2.2040    80.3510    12.9050    11.6610     8.0210    23.6550   -19.2640 
  143.2500     2.2130    79.7800    13.0070    11.5480     7.8160    23.6620   -19.2060 
  143.3750     2.2110    80.1480    13.5710    11.7640     7.0910    23.6490   -19.0290 
  143.5000     2.1950    77.7310    14.7930    12.4780     6.6860    23.6150   -18.7170 
  143.6250     2.1670    71.1770    16.9260    13.9810     7.3950    23.5920   -18.2670 
  143.7500     2.1420    64.6020    19.7160    16.2050     8.7360    23.5830   -17.7810 
  143.8750     2.1310    60.6040    22.7240    18.9140    11.5290    23.5980   -17.2940 
  144.0000     2.1370    60.5160    25.2410    21.5360    14.8550    23.6290   -16.8250 
  144.1250     2.1540    63.6200    26.2690    23.0770    16.6780    23.6110   -16.3390 
  144.2500     2.1700    66.3710    25.7540    23.1970    14.5540    23.5540   -15.8730 
  144.3750     2.1800    67.4140    24.1040    22.0900    11.2260    23.5050   -15.4630 
  144.5000     2.1840    69.1210    22.0590    20.3720     9.0500    23.5030   -15.1710 
  144.6250     2.1850    71.6290    20.3910    18.7700     8.2650    23.4690   -15.0650 
  144.7500     2.1870    71.9430    19.3360    17.6390     8.1010    23.3820   -15.0280 
  144.8750     2.1930    70.3050    18.8220    16.9910     8.0880    23.3310   -15.0000 
  145.0000     2.2030    69.0420    18.6570    16.7030     8.1450    23.4720   -14.9330 
  145.1250     2.2120    68.3470    18.6640    16.6360     8.3360    23.5760   -14.8660 
  145.2500     2.2140    67.2580    18.7020    16.6370     8.3800    23.5820   -14.8480 
  145.3750     2.2050    66.9610    18.7460    16.6660     8.3400    23.5640   -14.8480 
  145.5000     2.1870    68.4750    18.8250    16.7330     8.3260    23.6060   -14.7870 
  145.6250     2.1710    71.2600    19.0010    16.8950     8.3510    23.6820   -14.5200 
  145.7500     2.1610    71.8290    19.2940    17.1720     8.4150    23.7280   -14.0940 
  145.8750     2.1600    69.2790    19.7010    17.5640     8.5040    23.7350   -13.6000 
  146.0000     2.1640    65.9560    20.1950    18.0460     8.5600    23.7210   -13.1390 
  146.1250     2.1680    63.3060    20.7290    18.5730     8.5880    23.6930   -12.6810 
  146.2500     2.1680    60.8930    21.2250    19.0730     8.6410    23.6760   -12.1260 
  146.3750     2.1650    59.0830    21.6050    19.4780     8.7560    23.6760   -11.4790 
  146.5000     2.1630    59.9900    21.7910    19.7130     8.9200    23.6940   -10.8130 
  146.6250     2.1710    63.4290    21.6890    19.6810     8.9460    23.7190   -10.3180 
  146.7500     2.1890    65.5260    21.3470    19.4150     8.9210    23.7290   -10.0320 
  146.8750     2.2110    66.9280    20.8230    18.9600     8.9410    23.7320    -9.8700 
  147.0000     2.2260    69.9500    20.1980    18.3870     8.9650    23.7320    -9.7270 
  147.1250     2.2240    73.9590    19.5710    17.7820     8.9150    23.7330    -9.6160 
  147.2500     2.2100    75.4210    19.0470    17.2370     8.8750    23.7390    -9.5560 
  147.3750     2.1930    73.7150    18.7290    16.8360     8.8400    23.7430    -9.4970 
  147.5000     2.1790    71.0140    18.7270    16.6700     8.7850    23.7210    -9.3670 
  147.6250     2.1680    70.0310    19.2120    16.8900     8.7080    23.6820    -9.0100 
  147.7500     2.1570    70.4180    20.1500    17.4990     8.9570    23.6340    -8.4000 
  147.8750     2.1450    69.7530    21.4760    18.4880     9.6260    23.5920    -7.6010 
  148.0000     2.1370    67.4550    23.0240    19.7570    10.5270    23.6080    -6.7120 
  148.1250     2.1400    64.7660    24.5130    21.0980    10.0830    23.6470    -5.8040 
  148.2500     2.1510    63.6780    25.6910    22.2430     9.7320    23.6710    -4.9660 
  148.3750     2.1650    65.2450    26.4440    23.0340     9.5940    23.7030    -4.2660 
  148.5000     2.1780    67.2670    26.8020    23.4410     9.7390    23.7750    -3.6910 
  148.6250     2.1910    67.2340    26.8880    23.5440     9.8150    23.8460    -3.2190 
  148.7500     2.2030    65.5060    26.9060    23.5580     9.7810    23.8670    -2.8540 
  148.8750     2.2170    64.6870    26.8960    23.5660     9.6820    23.8050    -2.6270 
  149.0000     2.2300    65.4340    26.7970    23.5460     9.5470    23.6750    -2.5550 
  149.1250     2.2390    67.1350    26.4530    23.3730     9.5230    23.6090    -2.5940 
  149.2500     2.2420    70.2430    25.8440    22.9860     9.8440    23.5920    -2.6230 
  149.3750     2.2390    73.8740    25.0300    22.3970     9.6090    23.6120    -2.6420 
  149.5000     2.2300    76.9290    24.1480    21.7030     8.9000    23.6560    -2.7390 
  149.6250     2.2140    77.3680    23.3900    21.0670     8.3050    23.6890    -2.9890 
  149.7500     2.1940    74.1590    22.8310    20.5900     8.3380    23.6950    -3.2940 
  149.8750     2.1770    69.2400    22.4370    20.2740     8.6050    23.6830    -3.5670 
  150.0000     2.1690    66.2070    22.0730    20.0240     8.8770    23.6850    -3.7760 
  150.1250     2.1750    66.6540    21.5200    19.6490     9.8710    23.7120    -3.9230 
  150.2500     2.1890    66.5100    20.6980    19.0350    11.0190    23.7110    -4.0260 
  150.3750     2.2020    66.0220    19.6700    18.1990    10.5370    23.6530    -4.0610 
  150.5000     2.2080    66.9490    18.6320    17.2840     9.9550    23.6060    -3.9590 
  150.6250     2.2000    67.5710    17.9050    16.5530     9.4770    23.6170    -3.6740 
  150.7500     2.1830    66.0300    17.6470    16.1750     9.1050    23.6620    -3.3520 
  150.8750     2.1650    62.6430    17.9020    16.2310     8.5180    23.6930    -3.0620 
  151.0000     2.1520    60.2640    18.5980    16.7070     8.3950    23.7190    -2.8120 
  151.1250     2.1490    61.5900    19.5840    17.5250     8.4410    23.7160    -2.5840 
