~V
VERS. 2.00: Ver 2.00
~W
STRT.M 45.0000:
STOP.M 272.0000:
STEP.M 0.1250:
NULL. -999.2500:
UWI. F10774:
~C
DEPT.M :
DEN.GM/CC :
SP.MV :
GR.API :
RML.OHMM :
RI. :
RXO.OHMM :
CALI.CM :
~A
# ...
  191.2500     2.4160   -23.2000    37.5480    11.4470     9.2940     6.1540    25.0820 
  191.3750     2.4010   -23.2650    36.9810    11.6160     9.3410     6.7250    25.0350 
  191.5000     2.3950   -23.3350    37.9910    11.9200     9.5180     7.9200    24.9520 
  191.6250     2.3920   -23.4120    39.3770    11.9640     9.5700     8.5570    24.8950 
  191.7500     2.3840   -23.4950    40.7050    11.3500     9.2170     8.4010    24.8720 
  191.8750     2.3700   -23.5730    43.2110    10.1500     8.4670     7.5810    24.8630 
  192.0000     2.3500   -23.6370    45.0300     8.6990     7.5100     6.1080    24.8970 
  192.1250     2.3290   -23.6800    44.1310     7.4260     6.6120     4.5530    24.9640 
  192.2500     2.3170   -23.7030    40.9680     6.6200     5.9820     3.8150    25.0050 
  192.3750     2.3150   -23.7110    38.3560     6.2280     5.6320     3.7260    24.9990 
  192.5000     2.3120   -23.7170    37.8680     6.1420     5.5160     3.8540    24.9580 
  192.6250     2.3020   -23.7180    39.2420     6.2380     5.5650     3.9560    25.0220 
  192.7500     2.2950   -23.7190    41.4090     6.3960     5.7040     3.9750    25.2510 
  192.8750     2.2960   -23.7280    41.8000     6.5270     5.8600     4.0030    25.4610 
  193.0000     2.2980   -23.7460    40.3630     6.6070     6.0090     4.0620    25.5600 
  193.1250     2.2980   -23.7580    38.6720     6.6410     6.1460     4.1140    25.6130 
  193.2500     2.3000   -23.7770    38.1980     6.6340     6.2550     4.1080    25.6060 
  193.3750     2.3050   -23.8050    39.8540     6.5900     6.3160     4.0740    25.5320 
  193.5000     2.3120   -23.8430    43.8070     6.5170     6.3040     3.9850    25.3870 
  193.6250     2.3200   -23.8970    48.7400     6.4200     6.2000     3.8840    25.1990 
  193.7500     2.3310   -23.9680    53.2630     6.2980     5.9980     3.8470    24.9840 
  193.8750     2.3350   -24.0570    56.3980     6.1520     5.7350     3.8850    24.8440 
  194.0000     2.3250   -24.1930    58.6760     5.9930     5.4630     3.9420    24.8130 
  194.1250     2.3070   -24.4040    61.6790     5.8680     5.2500     3.9570    24.8490 
  194.2500     2.2920   -24.7010    66.3260     5.8540     5.1660     3.9370    24.8880 
  194.3750     2.2860   -25.0570    69.8600     6.0220     5.2320     4.0870    24.9270 
  194.5000     2.2860   -25.4530    69.0800     6.4330     5.4710     4.6170    24.9520 
  194.6250     2.2860   -25.8670    65.1300     7.1110     5.9030     5.3880    24.9620 
  194.7500     2.2770   -26.3010    62.5900     8.0340     6.5340     6.0650    24.9790 
  194.8750     2.2590   -26.7370    61.3140     9.0920     7.2940     6.1710    24.9720 
  195.0000     2.2410   -27.1440    58.9100    10.1870     8.1170     6.9920    24.9570 
  195.1250     2.2240   -27.5130    56.6750    11.1840     8.9010     8.6940    24.9540 
  195.2500     2.2130   -27.8320    57.4140    11.9290     9.5220     9.3100    24.9570 
  195.3750     2.2120   -28.1080    59.3030    12.4260     9.9630     9.2470    24.9440 
  195.5000     2.2270   -28.3570    59.6290    12.8020    10.2880     9.4440    24.9310 
  195.6250     2.2540   -28.5980    59.0110    13.2880    10.6310     9.9410    24.9220 
  195.7500     2.2960   -28.8250    58.7130    14.1560    11.1710    10.5260    24.9050 
  195.8750     2.3530   -29.0500    56.9030    15.4810    12.0010    11.4510    24.8670 
  196.0000     2.4150   -29.2760    53.7370    17.1840    13.1200    13.1550    24.7970 
  196.1250     2.4550   -29.4870    51.3370    19.0250    14.4210    15.4450    24.6750 
  196.2500     2.4420   -29.6760    51.8560    20.6840    15.7230    15.5680    24.5220 
  196.3750     2.3790   -29.8580    54.2720    21.9830    16.8600    15.0270    24.4250 
  196.5000     2.2970   -30.0330    58.5340    22.9380    17.7780    14.7680    24.4580 
  196.6250     2.2300   -30.1940    63.9520    23.7150    18.5280    15.5170    24.5890 
  196.7500     2.1970   -30.3390    68.1080    24.5600    19.2530    17.0460    24.7070 
  196.8750     2.1850   -30.4630    69.3290    25.6930    20.1210    18.6800    24.7610 
  197.0000     2.1830   -30.5740    67.0110    27.2900    21.2730    19.9620    24.7710 
  197.1250     2.1820   -30.6880    63.1650    29.5460    22.8680    20.7950    24.7500 
  197.2500     2.1810   -30.8070    61.5030    32.6810    25.0980    21.6130    24.6980 
  197.3750     2.1730   -30.9100    62.4730    36.5400    27.9150    23.6320    24.6640 
  197.5000     2.1530   -30.9900    62.2770    40.6980    31.1090    28.0090    24.7230 
  197.6250     2.1260   -31.0420    58.0280    44.2360    34.1110    32.5280    24.8470 
  197.7500     2.1050   -31.0700    53.3570    45.8800    36.0180    33.9590    24.9250 
  197.8750     2.0990   -31.0900    52.0700    45.3150    36.3930    31.5220    24.9510 
  198.0000     2.1070   -31.0920    53.0730    43.0230    35.3440    28.1400    24.9880 
  198.1250     2.1250   -31.0640    54.1140    40.0040    33.4320    25.3890    25.0600 
  198.2500     2.1500   -31.0170    54.4860    37.1700    31.3020    23.6600    25.1640 
  198.3750     2.1770   -30.9680    54.6750    34.8390    29.3690    23.0490    25.2430 
  198.5000     2.2010   -30.9220    54.5860    32.9310    27.7010    23.3660    25.2850 
  198.6250     2.2130   -30.8910    54.6130    31.2930    26.2770    22.2650    25.3130 
  198.7500     2.2110   -30.8600    53.4230    29.8610    25.0980    20.1360    25.3610 
  198.8750     2.2090   -30.8060    50.0420    28.6370    24.1580    18.3570    25.4500 
  199.0000     2.2090   -30.7380    46.0450    27.6540    23.4690    18.1210    25.5760 
  199.1250     2.2070   -30.6740    44.1620    26.9110    23.0230    18.6110    25.6450 
  199.2500     2.1990   -30.6000    45.7100    26.3670    22.7940    19.2260    25.5780 
  199.3750     2.1900   -30.5140    48.4680    25.9340    22.6940    19.5280    25.4230 
  199.5000     2.1820   -30.4140    51.2150    25.5690    22.6660    18.9840    25.2760 
  199.6250     2.1720   -30.2790    53.8350    25.2370    22.6420    18.0690    25.1370 
  199.7500     2.1660   -30.1240    55.2590    24.8450    22.5110    17.0560    25.0130 
  199.8750     2.1640   -29.9630    54.6300    24.2280    22.1340    17.0560    24.9940 
  200.0000     2.1670   -29.7930    53.2790    23.2110    21.3660    17.4850    25.0900 
  200.1250     2.1720   -29.5980    54.0780    21.6970    20.1200    16.8700    25.1730 
  200.2500     2.1830   -29.3930    57.0380    19.7500    18.4470    14.4640    25.1490 
  200.3750     2.1950   -29.1810    58.9190    17.7140    16.6480    12.2610    25.1270 
  200.5000     2.2070   -28.9510    60.1640    15.8500    14.9600    10.7300    25.1330 
  200.6250     2.2150   -28.7260    61.4820    14.3290    13.5470     9.8360    25.1510 
  200.7500     2.2270   -28.4980    62.1560    13.2650    12.5360     9.4300    25.1480 
  200.8750     2.2440   -28.2740    61.6740    12.6870    11.9430     9.4190    25.1470 
  201.0000     2.2560   -28.0620    61.9570    12.7200    11.8390     9.6190    25.1630 
  201.1250     2.2570   -27.8780    63.9690    13.5190    12.3140    10.0500    25.1870 
  201.2500     2.2520   -27.7150    64.4150    15.1450    13.4520    11.4570    25.1660 
  201.3750     2.2490   -27.5690    61.0590    17.1390    15.0070    14.7450    25.0900 
  201.5000     2.2440   -27.4500    55.1730    18.8480    16.5450    18.1000    25.0640 
  201.6250     2.2290   -27.3520    51.1260    19.5540    17.4510    19.2240    25.1330 
  201.7500     2.2170   -27.2740    51.7380    18.9560    17.3030    18.1410    25.1910 
  201.8750     2.2300   -27.2090    54.3290    17.8520    16.5640    15.6350    25.1550 
  202.0000     2.2660   -27.1420    56.4370    17.1240    15.8970    12.8620    25.0810 
  202.1250     2.3180   -27.0710    57.2770    17.3990    15.8800    12.4980    25.0160 
  202.2500     2.3710   -26.9900    57.9550    18.8050    16.7950    15.9510    24.9280 
  202.3750     2.3940   -26.8970    57.4010    20.6300    18.2560    20.4090    24.8440 
