~V
VERS. 2.00: Ver 2.00
~W
STRT.M 50.0000:
STOP.M 261.0000:
STEP.M 0.1250:
NULL. -999.2500:
UWI. F10772:
~C
DEPT.M :
GR.API :
RML.OHMM :
RI. :
RXO.OHMM :
CALI.CM :
SP.MV :
DEN.GM/CC :
~A
# ...
  230.0000    50.7460   115.5700   103.8220    79.7840    25.0870   -12.9380     2.2000 
  230.1250    51.4820   115.9550   104.9140    78.2670    25.0700   -12.8800     2.1950 
  230.2500    51.6840   114.2990   104.1310    75.5700    25.0580   -12.8560     2.2090 
  230.3750    50.7750   111.0390   101.6700    74.0730    25.0590   -12.8960     2.2610 
  230.5000    49.0090   106.7570    97.9100    75.3440    25.0100   -12.9510     2.3510 
  230.6250    46.6150   102.4620    93.7120    81.7820    24.8620   -12.9970     2.4480 
  230.7500    45.5490    99.3160    90.4040    81.3530    24.7500   -13.0670     2.5060 
  230.8750    46.8210    98.1960    89.0530    72.7910    24.7640   -13.0870     2.5000 
  231.0000    49.2090    99.6160    90.4320    65.9610    24.8720   -13.0430     2.4370 
  231.1250    49.0290   103.8030    95.2960    70.2870    24.9660   -12.9380     2.3510 
  231.2500    48.0160   109.1730   102.5110    79.5270    25.0110   -12.8510     2.2820 
  231.3750    48.3220   113.7270   110.2890    86.1250    25.0210   -12.7920     2.2400 
  231.5000    49.6330   115.0420   115.4630    89.1220    25.0310   -12.7260     2.2200 
  231.6250    50.1090   110.3270   113.1320    89.7160    25.0900   -12.6120     2.2110 
  231.7500    49.4460   100.6680   103.4530    88.7800    25.1220   -12.4820     2.2070 
  231.8750    47.8520    88.2610    89.3350    80.7980    25.1020   -12.4400     2.2090 
  232.0000    46.3900    76.0740    75.0250    64.5710    25.0410   -12.5130     2.2160 
  232.1250    48.3260    67.3480    64.5560    46.9930    24.9180   -12.7430     2.2310 
  232.2500    50.8270    62.9310    58.7520    37.6650    24.8010   -12.9770     2.2470 
  232.3750    50.7930    62.9300    57.6470    38.2240    24.7330   -13.0870     2.2580 
  232.5000    47.6810    66.8630    60.8690    44.4050    24.7330   -13.0690     2.2600 
  232.6250    45.9080    74.0340    68.1400    54.0420    24.7910   -12.9800     2.2540 
  232.7500    47.3510    82.1710    77.1710    60.6970    24.8370   -12.8430     2.2450 
  232.8750    49.6550    89.3320    85.5980    63.8800    24.8720   -12.6050     2.2380 
  233.0000    50.9970    93.8400    90.9470    65.1740    24.8970   -12.3060     2.2350 
  233.1250    51.1050    94.4450    91.2530    67.8290    24.9100   -11.9050     2.2340 
  233.2500    51.8040    92.5360    88.3290    66.8940    24.8840   -11.4830     2.2340 
  233.3750    53.1090    89.7050    84.2530    62.6860    24.7890   -11.1470     2.2340 
  233.5000    53.2970    87.5740    80.9230    56.6520    24.6330   -10.8910     2.2340 
  233.6250    51.9010    87.6320    79.9820    51.9290    24.4940   -10.6470     2.2310 
  233.7500    51.0690    89.7710    81.4810    51.0690    24.3160   -10.3910     2.2260 
  233.8750    50.7890    93.3140    84.9210    54.4690    24.1430   -10.2120     2.2180 
  234.0000    50.4760    96.9850    89.0250    58.0630    24.0650   -10.1040     2.2090 
  234.1250    51.0200    98.8340    91.5390    63.7470    24.2090    -9.9620     2.2030 
  234.2500    52.8850    97.9880    91.0080    70.3260    24.5120    -9.6830     2.2030 
  234.3750    54.6000    94.4740    87.1900    70.2390    24.7800    -9.2670     2.2120 
  234.5000    54.9050    89.2370    81.1510    62.7600    24.8700    -8.8230     2.2250 
  234.6250    54.3260    83.9250    74.7810    56.9710    24.7950    -8.3770     2.2390 
  234.7500    54.6100    80.0890    69.8010    56.3360    24.7710    -7.9040     2.2540 
  234.8750    55.1090    78.5910    67.1490    57.3150    24.8170    -7.3400     2.2810 
  235.0000    54.0410    79.6860    67.3310    60.1610    24.8820    -6.6140     2.3320 
  235.1250    51.1370    82.9290    70.6160    64.0930    24.9170    -5.8420     2.4180 
  235.2500    49.1820    86.0420    75.1230    76.5560    24.8800    -5.1670     2.5220 
  235.3750    48.0140    86.6520    78.2790    98.1630    24.8440    -4.5940     2.6230 
  235.5000    46.0940    82.9010    77.0340   112.6030    24.8110    -4.0260     2.7010 
  235.6250    41.9030    74.0320    69.1430   106.7370    24.8190    -3.4970     2.7360 
  235.7500    36.7530    62.9260    58.0840    80.3900    24.8320    -3.0130     2.7300 
  235.8750    31.4570    52.0730    47.3760    51.9880    24.8350    -2.5250     2.6870 
  236.0000    26.0530    43.1040    39.1080    35.0150    24.7940    -2.0610     2.6230 
  236.1250    21.4070    36.5510    33.6550    25.1510    24.7930    -1.6420     2.5740 
  236.2500    18.4530    31.2140    29.2840    17.0960    24.7450    -1.2590     2.5690 
  236.3750    18.8280    26.2910    24.8170    12.6340    24.6760    -0.9080     2.6070 
  236.5000    23.0790    21.3800    19.8560    11.5760    24.6070    -0.6460     2.6640 
  236.6250    27.9520    16.6060    15.0270     9.3780    24.5420    -0.4660     2.6890 
  236.7500    30.6970    12.4030    11.0650     6.6690    24.5370    -0.3230     2.6600 
  236.8750    32.7620     9.1730     8.1920     5.7200    24.6800    -0.2710     2.5830 
  237.0000    35.7460     7.0660     6.2910     5.6570    24.7940    -0.3170     2.4840 
  237.1250    38.0540     6.0470     5.2160     5.5060    24.7650    -0.4470     2.3990 
  237.2500    37.7480     5.5480     4.6120     4.8580    24.6550    -0.6100     2.3440 
  237.3750    35.4660     5.2160     4.3200     4.3050    24.5920    -0.7690     2.3210 
  237.5000    34.2790     4.9320     4.2350     4.2770    24.5960    -0.8850     2.3200 
  237.6250    36.2620     4.8230     4.3140     4.6140    24.6900    -0.9170     2.3300 
  237.7500    40.6880     4.8980     4.4890     4.9680    24.8000    -0.9280     2.3380 
  237.8750    46.6560     5.0380     4.7160     5.1690    24.8620    -0.9340     2.3420 
  238.0000    53.0600     5.1520     4.9360     5.5170    24.8610    -0.8910     2.3440 
  238.1250    59.8320     5.2640     5.0870     5.8580    24.8670    -0.7680     2.3470 
  238.2500    64.1750     5.3820     5.1740     6.0270    24.8540    -0.6110     2.3530 
  238.3750    64.2290     5.4830     5.2300     5.8230    24.8150    -0.4910     2.3570 
  238.5000    61.4890     5.5690     5.2990     5.6670    24.7090    -0.4460     2.3560 
  238.6250    60.1800     5.6640     5.4060     5.8040    24.6450    -0.5410     2.3530 
  238.7500    60.9800     5.7650     5.5240     6.2320    24.6990    -0.6970     2.3530 
  238.8750    61.7610     5.8390     5.6100     6.8940    24.7890    -0.7890     2.3590 
  239.0000    61.5420     5.8420     5.6120     7.2650    24.8310    -0.8440     2.3680 
  239.1250    58.4180     5.7620     5.4820     6.6560    24.8080    -0.8590     2.3750 
  239.2500    51.7290     5.6510     5.2640     6.1190    24.7790    -0.7770     2.3790 
  239.3750    43.2100     5.5410     5.0130     5.7450    24.7680    -0.5750     2.3830 
  239.5000    37.3400     5.4490     4.7780     5.4870    24.7700    -0.2700     2.3910 
  239.6250    40.1840     5.3720     4.6000     5.3050    24.7520     0.1310     2.4010 
  239.7500    44.1500     5.2890     4.4760     5.2320    24.7440     0.5530     2.4100 
  239.8750    41.5340     5.1950     4.3980     5.1970    24.7100     0.8520     2.4150 
  240.0000    34.3230     5.0980     4.3580     5.0220    24.6590     1.0230     2.4140 
  240.1250    33.7830     5.0150     4.3560     4.9120    24.6240     1.0600     2.4070 
  240.2500    40.5390     4.9520     4.3730     5.0380    24.5700     0.9560     2.3970 
  240.3750    46.9190     4.8960     4.3820     5.1340    24.5000     0.7510     2.3830 
  240.5000    49.6200     4.8310     4.3530     5.0390    24.4910     0.5400     2.3680 
  240.6250    47.5080     4.7390     4.2650     4.8310    24.5220     0.4320     2.3590 
  240.7500    42.4690     4.6340     4.1420     4.5810    24.5870     0.3510     2.3590 
  240.8750    36.9600     4.5320     4.0150     4.3650    24.6500     0.2980     2.3670 
  241.0000    33.4530     4.4500     3.9120     4.2510    24.6860     0.3140     2.3790 
  241.1250    33.3250     4.4050     3.8550     4.3300    24.6930     0.4250     2.3910 
