~V
VERS. 2.00: Ver 2.00
~W
STRT.M 50.0000:
STOP.M 229.0000:
STEP.M 0.1250:
NULL. -999.2500:
UWI. F10777:
~C
DEPT.M :
DEN.GM/CC :
GR.API :
RML.OHMM :
RI. :
RXO.OHMM :
CALI.CM :
SP.MV :
~A
# ...
  151.2500     2.6950    41.7640    52.4580    43.7690    53.3040    24.7890   -21.2190 
  151.3750     2.7340    43.6840    50.0650    41.8860    41.4240    24.7830   -21.3530 
  151.5000     2.7470    46.7450    45.9490    38.3820    34.4310    24.7840   -21.5020 
  151.6250     2.7280    47.0270    40.9880    34.0430    32.0670    24.8150   -21.6430 
  151.7500     2.6850    44.4600    36.1690    29.8140    27.2690    24.8840   -21.7490 
  151.8750     2.6410    41.1890    31.9900    26.1890    22.5350    24.9380   -21.8040 
  152.0000     2.6100    39.4830    28.7220    23.4110    20.4760    24.9160   -21.8050 
  152.1250     2.6000    40.0910    26.6880    21.7170    19.2250    24.9590   -21.7600 
  152.2500     2.6170    41.5340    25.6780    20.8970    17.6190    25.1980   -21.7040 
  152.3750     2.6530    42.3090    25.4340    20.7650    17.6640    25.2810   -21.6560 
  152.5000     2.6920    42.1880    25.5480    21.0260    20.5710    25.0970   -21.6220 
  152.6250     2.7100    42.2480    25.5760    21.3380    25.0180    24.9280   -21.5990 
  152.7500     2.6860    42.2720    25.3180    21.4660    24.7850    24.7570   -21.5800 
  152.8750     2.6430    42.5990    24.8960    21.4290    20.9950    24.6710   -21.5610 
  153.0000     2.6070    45.0640    24.6270    21.4250    17.0250    24.6260   -21.5490 
  153.1250     2.6000    47.3090    24.7030    21.6350    15.4190    24.5860   -21.5660 
  153.2500     2.6350    46.5620    24.6370    21.7550    16.2090    24.5560   -21.6260 
  153.3750     2.6860    44.9600    23.7090    21.2040    18.3920    24.5620   -21.7290 
  153.5000     2.7120    48.0130    21.4050    19.4960    21.1680    24.6010   -21.8620 
  153.6250     2.6800    54.2700    17.8420    16.6410    21.0390    24.6220   -21.9930 
  153.7500     2.5890    58.5750    14.2300    13.6230    15.3290    24.6300   -22.1030 
  153.8750     2.4780    62.6210    11.3900    11.1210     9.4040    24.6810   -22.1860 
  154.0000     2.3750    68.2860     9.6280     9.4290     6.8160    24.7830   -22.2580 
  154.1250     2.2980    73.6850     8.9720     8.6540     6.4530    24.8720   -22.3330 
  154.2500     2.2580    75.1680     8.9920     8.5060     6.6910    24.9020   -22.4240 
  154.3750     2.2360    71.4330     9.4370     8.8020     6.7770    24.8880   -22.5280 
  154.5000     2.2220    67.3630    10.0510     9.3260     6.8600    24.8440   -22.6320 
  154.6250     2.2120    68.2220    10.6180     9.8600     7.7010    24.8070   -22.7140 
  154.7500     2.2100    72.7830    11.1310    10.3330     8.6250    24.7970   -22.7720 
  154.8750     2.2200    75.0380    11.7490    10.8420     8.7960    24.7960   -22.8070 
  155.0000     2.2490    72.2240    12.6950    11.5560     8.8740    24.7910   -22.8180 
  155.1250     2.3010    66.2580    14.2620    12.7140    10.3990    24.7860   -22.7770 
  155.2500     2.3750    60.2280    16.4100    14.3150    13.4480    24.7860   -22.6690 
  155.3750     2.4540    55.1290    18.9380    16.2370    17.8090    24.7960   -22.4840 
  155.5000     2.5250    50.1120    21.3980    18.1380    21.0990    24.8090   -22.2390 
  155.6250     2.5800    46.1420    23.0670    19.4090    20.5710    24.8370   -21.9570 
  155.7500     2.6130    45.1600    23.7820    19.8770    18.9240    24.8770   -21.6730 
  155.8750     2.6330    45.8340    23.7850    19.7290    17.3410    24.9770   -21.3990 
  156.0000     2.6410    45.3070    23.5540    19.3600    17.2770    25.1320   -21.1480 
  156.1250     2.6380    43.4090    23.5820    19.1730    16.5840    25.2870   -20.9350 
  156.2500     2.6270    43.3430    24.0020    19.3030    15.8600    25.3250   -20.7600 
  156.3750     2.6140    44.8700    24.7540    19.7240    16.0030    25.2460   -20.6240 
  156.5000     2.6030    46.8060    25.7180    20.3510    18.1570    25.0700   -20.5170 
  156.6250     2.5960    48.2810    26.7770    21.0970    20.5730    24.8740   -20.4330 
  156.7500     2.5950    49.4910    27.8000    21.8600    21.9450    24.7850   -20.3640 
  156.8750     2.6020    49.6750    28.6840    22.5660    20.6550    24.7470   -20.3070 
  157.0000     2.6150    47.9420    29.3470    23.1550    19.7930    24.7410   -20.2680 
  157.1250     2.6260    45.5000    29.7200    23.5680    21.0490    24.7640   -20.2550 
  157.2500     2.6190    44.4070    29.9120    23.8590    22.4440    24.8180   -20.2750 
  157.3750     2.6010    44.1550    30.0410    24.0960    22.1270    24.9190   -20.3340 
  157.5000     2.5850    43.4720    30.2410    24.3570    20.7100    25.0410   -20.4350 
  157.6250     2.5820    42.3150    30.6510    24.7380    21.0180    25.0610   -20.5760 
  157.7500     2.5950    43.1610    31.2050    25.2200    22.2050    24.9840   -20.7300 
  157.8750     2.6180    45.3710    31.7210    25.6910    22.5990    24.9410   -20.8690 
  158.0000     2.6390    47.6850    31.9370    25.9750    22.3460    24.8480   -20.9700 
  158.1250     2.6510    49.1690    31.5530    25.8350    20.7660    24.8080   -21.0070 
  158.2500     2.6500    48.6030    30.6990    25.3200    21.2080    24.7760   -20.9840 
  158.3750     2.6420    47.2960    29.7080    24.6390    21.2500    24.7630   -20.9000 
  158.5000     2.6310    46.9890    29.0230    24.1200    21.4300    24.7750   -20.7630 
  158.6250     2.6260    48.0230    29.0970    24.1240    22.2070    24.7950   -20.5850 
  158.7500     2.6330    48.4390    29.8980    24.6770    22.5420    24.7960   -20.4020 
  158.8750     2.6480    48.3080    31.2620    25.7060    23.5410    24.7790   -20.2420 
  159.0000     2.6620    49.0850    32.8130    26.9730    26.7180    24.7680   -20.1130 
  159.1250     2.6690    50.0780    33.9040    27.9900    28.3520    24.7620   -20.0110 
  159.2500     2.6620    49.9970    34.1550    28.3770    26.1610    24.7390   -19.9230 
  159.3750     2.6460    49.1250    33.5210    28.0280    25.0370    24.7300   -19.8450 
  159.5000     2.6250    48.3990    32.3030    27.1250    24.4020    24.7350   -19.7800 
  159.6250     2.6050    47.8210    31.1100    26.1110    23.2870    24.7420   -19.7340 
  159.7500     2.5960    46.3350    30.4560    25.4400    22.4040    24.7260   -19.7030 
  159.8750     2.6010    44.7540    30.4600    25.2550    22.3350    24.7180   -19.6860 
  160.0000     2.6180    46.1600    30.9760    25.4820    21.2150    24.7090   -19.6850 
  160.1250     2.6330    49.8030    31.7540    25.9670    21.9410    24.6860   -19.7060 
  160.2500     2.6310    50.4910    32.4900    26.4900    23.7090    24.6640   -19.7410 
  160.3750     2.6180    47.8350    33.0650    26.9400    24.4490    24.6710   -19.7870 
  160.5000     2.6040    46.0260    33.5650    27.3350    21.8020    24.6870   -19.8400 
  160.6250     2.6060    46.1880    34.2860    27.8630    20.9400    24.7120   -19.9070 
  160.7500     2.6330    45.1440    35.2700    28.5970    22.7570    24.7390   -19.9850 
  160.8750     2.6740    43.5300    36.2460    29.3740    24.7180    24.7830   -20.0620 
  161.0000     2.7070    43.5350    36.7590    29.8730    25.8080    24.8020   -20.1190 
  161.1250     2.7180    44.9390    36.2180    29.6200    27.4280    24.7890   -20.1380 
  161.2500     2.7010    45.5760    34.7560    28.6320    27.1540    24.8510   -20.1320 
  161.3750     2.6780    45.4670    32.8480    27.2050    22.7660    25.0260   -20.1170 
  161.5000     2.6610    44.5420    31.1360    25.8220    19.5080    25.1150   -20.1030 
  161.6250     2.6560    42.7890    30.1760    24.9470    19.1670    25.0520   -20.0800 
  161.7500     2.6570    42.5510    29.8990    24.6000    20.6030    25.1360   -20.0300 
  161.8750     2.6540    44.6260    30.1130    24.6950    22.3900    25.2960   -19.9530 
  162.0000     2.6410    46.7640    30.5210    25.0440    24.0440    25.3950   -19.8620 
  162.1250     2.6220    47.3560    30.7680    25.3810    23.8920    25.4090   -19.7810 
  162.2500     2.6050    46.9870    30.7380    25.5410    23.6790    25.4080   -19.7100 
  162.3750     2.5970    46.6330    30.5080    25.5290    23.4750    25.4080   -19.6400 
