~V
VERS. 2.00: Ver 2.00
~W
STRT.M 50.0000:
STOP.M 229.0000:
STEP.M 0.1250:
NULL. -999.2500:
UWI. F10777:
~C
DEPT.M :
DEN.GM/CC :
GR.API :
RML.OHMM :
RI. :
RXO.OHMM :
CALI.CM :
SP.MV :
~A
# ...
  207.5000     2.2580    64.5650    53.2790    42.7110    25.8800    24.5350   -20.6680 
  207.6250     2.2620    61.5210    57.4130    45.5650    41.6760    24.6430   -20.7110 
  207.7500     2.2520    58.5950    65.4490    51.4250    66.3720    24.8120   -20.7450 
  207.8750     2.2390    56.1600    76.9120    60.1740    82.6660    24.8970   -20.7900 
  208.0000     2.2270    54.6890    90.1080    70.6140    87.7660    24.9290   -20.8520 
  208.1250     2.2170    55.1320   101.8680    80.3360    87.4860    24.9300   -20.9300 
  208.2500     2.2090    55.9090   110.2850    87.7150    86.2370    24.9180   -21.0100 
  208.3750     2.2030    54.8000   115.5510    92.7610    90.0250    24.9060   -21.0940 
  208.5000     2.2020    52.2220   118.9240    96.3440    98.1560    24.8990   -21.1770 
  208.6250     2.2070    52.2580   121.2220    99.1040    97.0070    24.9060   -21.2480 
  208.7500     2.2160    55.9710   122.4500   101.0860    98.0540    24.9400   -21.2980 
  208.8750     2.2200    57.8400   121.7880   101.6360   101.2520    25.0300   -21.3180 
  209.0000     2.2180    55.5910   118.4830   100.0770   102.3110    25.2820   -21.3150 
  209.1250     2.2140    55.0950   112.2020    95.9520    99.5750    25.6560   -21.3130 
  209.2500     2.2120    56.8560   104.5360    90.4310    90.4290    25.8340   -21.3400 
  209.3750     2.2140    58.9160    96.9160    84.6460    74.3970    25.5170   -21.4020 
  209.5000     2.2190    60.2780    90.6510    79.7170    60.8090    25.2290   -21.4850 
  209.6250     2.2260    59.9000    87.2600    77.0250    55.2820    25.1860   -21.5560 
  209.7500     2.2350    58.4100    87.0310    77.0380    60.4690    25.2020   -21.6050 
  209.8750     2.2410    57.0100    90.1650    80.1110    69.7040    25.2250   -21.6360 
  210.0000     2.2410    56.5690    96.4210    86.1700    75.6450    25.2430   -21.6650 
  210.1250     2.2360    54.1960   104.9880    94.6810    84.2230    25.2610   -21.7000 
  210.2500     2.2270    50.7100   113.1830   103.2630    99.6570    25.2620   -21.7370 
  210.3750     2.2200    47.0240   118.2080   109.3360   111.6360    25.1790   -21.7620 
  210.5000     2.2170    44.5280   118.0660   110.7920   100.1060    25.0430   -21.7550 
  210.6250     2.2210    47.4300   112.7030   106.8600    85.3430    24.9370   -21.6970 
  210.7500     2.2280    54.5150   106.0370   100.7820    76.7470    24.9000   -21.6010 
  210.8750     2.2310    59.3800   101.1730    95.5560    69.3890    24.8880   -21.4870 
  211.0000     2.2320    57.8450   100.3760    93.7330    65.5560    24.8810   -21.3770 
  211.1250     2.2330    52.8030   105.7810    97.7790    74.6220    24.8640   -21.2900 
  211.2500     2.2420    49.2200   116.7140   107.2080    85.2030    24.8420   -21.2220 
  211.3750     2.2730    48.0930   132.6030   121.4280    86.7710    24.7910   -21.1630 
  211.5000     2.3360    48.5010   151.9450   138.9530    84.1500    24.7520   -21.1090 
  211.6250     2.4160    46.8850   171.6840   156.9980    96.4570    24.7670   -21.0560 
  211.7500     2.4590    44.3360   188.3840   172.4850   114.3690    24.8040   -20.9940 
  211.8750     2.4350    44.5280   200.7190   184.1760   143.4320    24.8280   -20.9230 
  212.0000     2.3590    48.5790   209.1140   192.3870   167.5230    24.8990   -20.8480 
  212.1250     2.2760    51.7300   213.2780   197.0080   186.0670    24.9580   -20.7820 
  212.2500     2.2520    51.2630   212.2850   197.3940   188.0290    24.9510   -20.7380 
  212.3750     2.3150    48.9410   204.0590   191.6190   185.7720    24.8270   -20.7310 
  212.5000     2.4340    46.5820   188.2060   178.7670   183.0000    24.6370   -20.7610 
  212.6250     2.5210    44.7760   166.9680   159.9180   156.0240    24.5490   -20.8120 
  212.7500     2.4910    44.5560   145.7460   139.9930   101.5050    24.5280   -20.8400 
  212.8750     2.3960    46.1490   127.4740   122.2000    69.6620    24.5590   -20.8140 
  213.0000     2.3050    48.3920   112.6210   107.6410    72.0520    24.6960   -20.7190 
  213.1250     2.2690    49.1410    99.6540    95.3450    87.6240    24.7660   -20.5560 
  213.2500     2.3240    48.4090    86.2910    83.0700    90.4710    24.7690   -20.3700 
  213.3750     2.4300    47.6720    71.8500    69.8690    76.7220    24.7230   -20.1990 
  213.5000     2.5280    47.3770    56.9120    55.9230    65.3690    24.6750   -20.0770 
  213.6250     2.5680    48.4610    43.2440    42.7870    54.2440    24.6810   -20.0210 
  213.7500     2.5460    51.3430    32.0670    31.9470    44.2490    24.7340   -19.9910 
  213.8750     2.5010    54.1180    23.7490    23.9110    34.5470    24.8250   -19.9510 
  214.0000     2.4500    53.9060    18.0410    18.4060    22.7900    24.9370   -19.8890 
  214.1250     2.4020    52.2630    14.7450    15.1560    14.7500    25.0220   -19.8190 
  214.2500     2.3640    53.2370    12.9410    13.2820    11.2890    25.0700   -19.7740 
  214.3750     2.3400    56.4100    12.1490    12.3680    10.3780    25.1110   -19.7680 
  214.5000     2.3280    59.7450    11.9560    12.0660    10.6310    25.1360   -19.7920 
  214.6250     2.3260    62.3130    11.9960    12.0650    10.9530    25.0620   -19.8240 
  214.7500     2.3320    63.0860    11.9010    11.9960    11.0460    24.9220   -19.8470 
  214.8750     2.3390    60.1680    11.5070    11.6640    10.9920    24.8290   -19.8450 
  215.0000     2.3410    55.5800    10.8570    11.0640    11.0930    24.8370   -19.8050 
  215.1250     2.3380    54.6090    10.1700    10.3640    10.0820    24.8970   -19.7130 
  215.2500     2.3350    56.4180     9.6560     9.7790     8.5540    24.9570   -19.5950 
  215.3750     2.3410    57.7490     9.4170     9.4180     7.3930    25.0130   -19.4590 
  215.5000     2.3570    57.0480     9.5050     9.3360     7.0290    25.0550   -19.3100 
  215.6250     2.3780    55.6050     9.9550     9.5870     8.1820    25.0690   -19.1660 
  215.7500     2.4030    54.7720    10.5900    10.0320     9.1190    25.0660   -19.0410 
  215.8750     2.4320    54.6900    11.2130    10.5040     8.6710    25.0830   -18.9540 
  216.0000     2.4610    54.6870    11.5830    10.7910     8.3160    25.0690   -18.9050 
  216.1250     2.4780    54.6870    11.3950    10.6250     9.9940    24.7760   -18.8670 
  216.2500     2.4630    54.6870    10.7030    10.0350    11.6370    24.2850   -18.7990 
  216.3750     2.4200    54.6870     9.7090     9.1840    10.9680    23.9860   -18.6770 
  216.5000     2.3690    54.6870     8.7040     8.3110     9.6300    24.1600   -18.5030 
  216.6250     2.3290    54.6870     7.9820     7.6590     7.6500    24.6030   -18.2910 
  216.7500     2.3120    54.6870     7.5970     7.2890     6.3770    24.8710   -18.0690 
  216.8750     2.3110    54.6870     7.4990     7.1820     5.9390    24.9400   -17.8480 
  217.0000     2.3190    54.6870     7.5510     7.2380     6.0740    24.9350   -17.6260 
  217.1250     2.3290    54.6870     7.5680     7.3010     6.2110    24.9330   -17.3940 
  217.2500     2.3380    54.6870     7.4390     7.2520     6.2990    24.9360   -17.1350 
  217.3750     2.3450    54.6870     7.1420     7.0470     6.0890    24.9300   -16.8330 
  217.5000     2.3540    54.6870     6.7200     6.7060     5.5920    24.8710   -16.4740 
  217.6250     2.3620    54.6870     6.2620     6.2870     5.3200    24.7810   -16.0560 
  217.7500     2.3690    54.6870     5.8580     5.8770     5.0500    24.8110   -15.6240 
  217.8750     2.3720    54.6870     5.5510     5.5230     4.5670    25.0190   -15.2190 
  218.0000     2.3730    54.6870     5.3550     5.2540     4.1030    25.2920   -14.8670 
  218.1250     2.3820    54.6870     5.2700     5.0870     3.8720    25.4320   -14.5960 
  218.2500     2.4110    54.6870     5.2490     4.9870     3.9010    25.4130   -14.4010 
  218.3750     2.4440    54.6870     5.2710     4.9370     4.0110    25.3160   -14.2970 
  218.5000     2.4590    54.6870     5.3350     4.9290     4.1340    25.2100   -14.3200 
  218.6250     2.4420    54.6870     5.4820     4.9920     4.3330    25.1390   -14.5450 
