~V
VERS. 2.00: Ver 2.00
~W
STRT.M 50.0000:
STOP.M 240.0000:
STEP.M 0.1250:
NULL. -999.2500:
UWI. F10736:
~C
DEPT.M :
DEN.GM/CC :
GR.API :
RML.OHMM :
RI. :
RXO.OHMM :
CALI.CM :
SP.MV :
~A
# ...
  185.0000     2.4140    59.6250     7.2770     6.4270     8.0990    25.4000    -4.4320 
  185.1250     2.4160    54.2990     7.1050     6.3780     7.6700    25.5550    -4.3790 
  185.2500     2.4190    50.3050     7.0960     6.4310     7.2450    25.7600    -4.3400 
  185.3750     2.4260    51.9850     7.1950     6.5500     7.3050    25.8910    -4.3270 
  185.5000     2.4340    55.8090     7.3630     6.7110     7.8130    25.9210    -4.3070 
  185.6250     2.4380    55.8980     7.5450     6.8700     8.2640    25.9150    -4.2540 
  185.7500     2.4360    53.8360     7.6820     6.9820     8.3730    25.8870    -4.1920 
  185.8750     2.4330    52.2940     7.7440     7.0320     8.1000    25.8340    -4.1600 
  186.0000     2.4290    49.9570     7.7500     7.0550     7.7470    25.7960    -4.1550 
  186.1250     2.4240    47.5000     7.7680     7.1280     7.9840    25.8670    -4.1760 
  186.2500     2.4150    48.2570     7.8660     7.3070     8.7350    25.9550    -4.2160 
  186.3750     2.4070    51.2910     8.0930     7.6270     9.5070    25.9800    -4.2870 
  186.5000     2.3970    53.4070     8.4830     8.1020    10.3520    25.9660    -4.3980 
  186.6250     2.3830    52.8080     9.0750     8.7520    11.3770    25.9490    -4.4570 
  186.7500     2.3610    52.6750     9.8140     9.5090    12.1890    25.9350    -4.5160 
  186.8750     2.3340    53.0740    10.6350    10.3030    13.0000    25.9270    -4.5530 
  187.0000     2.3090    51.9010    11.4370    11.0350    14.3060    25.8780    -4.6000 
  187.1250     2.2900    50.7300    12.0730    11.5700    15.2700    25.6810    -4.6760 
  187.2500     2.2870    51.3190    12.5020    11.8970    15.4830    25.4600    -4.7160 
  187.3750     2.3020    51.5000    12.7530    12.0730    15.2370    25.4210    -4.7870 
  187.5000     2.3280    49.0170    12.9120    12.1990    15.0410    25.6420    -4.8980 
  187.6250     2.3560    47.8740    13.0860    12.3980    15.0550    25.9620    -4.9570 
  187.7500     2.3790    50.5840    13.3290    12.6990    15.3540    26.1090    -5.0160 
  187.8750     2.4000    52.0650    13.6330    13.0590    16.2430    26.0930    -5.0540 
  188.0000     2.4150    49.6670    13.9360    13.3860    17.5890    26.0390    -5.1050 
  188.1250     2.4150    47.0360    14.1310    13.5660    17.7420    26.0260    -5.1820 
  188.2500     2.3990    47.3350    14.1740    13.5880    17.0170    26.0470    -5.2150 
  188.3750     2.3790    49.5820    14.0650    13.4760    16.5310    26.0630    -5.2640 
  188.5000     2.3600    51.7650    13.8460    13.2930    16.4690    26.0830    -5.3280 
  188.6250     2.3450    52.7810    13.5980    13.1240    15.8050    26.1230    -5.3310 
  188.7500     2.3430    51.7870    13.4170    13.0420    15.1150    26.1560    -5.3530 
  188.8750     2.3520    49.7170    13.3790    13.1170    14.9240    26.1600    -5.3910 
  189.0000     2.3620    48.2180    13.5710    13.4670    15.2580    26.1310    -5.4410 
  189.1250     2.3640    47.9050    14.2030    14.3770    15.8090    26.1190    -5.4950 
  189.2500     2.3600    47.2500    15.3960    15.9320    16.8110    26.1490    -5.5010 
  189.3750     2.3550    45.0060    17.2900    18.2160    18.4990    26.1950    -5.5190 
  189.5000     2.3480    43.4400    19.9260    21.1720    21.8410    26.2360    -5.5650 
  189.6250     2.3360    44.2400    23.1380    24.4140    26.9520    26.2660    -5.6240 
  189.7500     2.3250    44.9610    26.2370    27.1690    37.5600    26.3040    -5.6810 
  189.8750     2.3210    44.6120    28.6060    28.9390    44.3420    26.3790    -5.7170 
  190.0000     2.3250    44.2530    29.9510    29.6920    38.8400    26.4620    -5.7670 
  190.1250     2.3260    44.1990    30.3910    29.7830    30.4320    26.5680    -5.8550 
  190.2500     2.3210    42.8660    30.5240    29.7890    28.9740    26.7650    -5.9090 
  190.3750     2.3210    42.4120    30.5520    29.8330    34.5220    27.0060    -5.9940 
  190.5000     2.3380    44.4170    30.3520    29.7220    39.0210    27.1080    -6.1000 
  190.6250     2.3710    46.1660    29.5020    28.9440    37.4830    26.9760    -6.0970 
  190.7500     2.4090    45.9010    27.9990    27.4050    32.8350    26.7310    -6.0870 
  190.8750     2.4350    44.9790    26.1390    25.4530    28.3560    26.5490    -6.0860 
  191.0000     2.4490    45.5820    24.3960    23.6950    24.3350    26.4600    -6.1190 
  191.1250     2.4560    46.3130    23.2650    22.6690    22.6430    26.3850    -6.2290 
  191.2500     2.4520    45.5200    22.7670    22.2980    23.0970    26.3000    -6.4190 
  191.3750     2.4380    44.7630    22.7730    22.4040    24.5100    26.2310    -6.6930 
  191.5000     2.4150    45.0740    23.0620    22.7440    25.6060    26.1870    -6.9340 
  191.6250     2.3920    45.5440    23.4080    23.0980    25.3890    26.1520    -7.1350 
  191.7500     2.3710    45.4910    23.6770    23.3770    25.1460    26.1640    -7.3950 
  191.8750     2.3490    45.3770    23.8960    23.6360    24.8200    26.2400    -7.6300 
  192.0000     2.3270    44.5560    24.1810    23.9920    24.8440    26.3830    -7.8990 
  192.1250     2.3120    43.0710    24.7070    24.5830    26.4750    26.5730    -8.1470 
  192.2500     2.3140    43.4860    25.5090    25.4080    27.9390    26.7630    -8.4160 
  192.3750     2.3270    45.5330    26.6040    26.4700    28.9050    26.8560    -8.7940 
  192.5000     2.3430    46.0490    28.0130    27.7910    30.4950    26.8100    -9.2450 
  192.6250     2.3460    44.1480    29.8560    29.4740    34.7680    26.6980    -9.6550 
  192.7500     2.3230    43.0600    32.1940    31.5780    39.3250    26.7170   -10.0250 
  192.8750     2.2970    43.6720    35.2480    34.3160    43.3180    26.8310   -10.1930 
  193.0000     2.2890    44.0900    39.3920    38.0090    47.9460    26.9330   -10.3220 
  193.1250     2.3060    43.3690    45.1850    43.0240    55.0720    26.9440   -10.3040 
  193.2500     2.3430    42.2040    51.4590    48.0620    60.8770    26.8930   -10.2580 
  193.3750     2.3930    40.8280    54.7880    49.6700    64.9120    26.8130   -10.1880 
  193.5000     2.4630    39.0240    50.3340    43.6860    64.9670    26.6590   -10.1290 
  193.6250     2.5400    38.4220    37.3080    31.0260    58.3720    26.3540   -10.0280 
  193.7500     2.5910    41.7220    23.9920    19.3580    41.4850    25.8820    -9.8490 
  193.8750     2.5830    48.1940    14.3800    11.3920    20.8320    25.2120    -9.6230 
  194.0000     2.5110    52.4440     8.6330     6.7670     7.9130    24.4610    -9.4820 
  194.1250     2.4030    50.0820     5.7880     4.5620     4.3630    23.8290    -9.2530 
  194.2500     2.3060    46.5310     4.2810     3.4880     3.6230    23.2910    -9.0440 
  194.3750     2.2370    45.6120     3.5790     3.0840     3.5920    22.8580    -8.8930 
  194.5000     2.1930    46.4900     3.4150     3.0960     3.6570    22.6710    -8.7660 
  194.6250     2.1640    48.9310     3.6840     3.4280     3.6650    22.3410    -8.6430 
  194.7500     2.1420    54.2470     4.2110     3.9590     3.8710    21.5790    -8.4850 
  194.8750     2.1300    59.9790     4.9080     4.6280     4.3930    20.8600    -8.3220 
  195.0000     2.1530    60.8540     5.6660     5.3290     5.3930    20.7680    -8.1620 
  195.1250     2.2210    57.5270     6.2920     5.8640     6.2870    21.9620    -8.1320 
  195.2500     2.3120    55.4130     6.6580     6.1230     6.6550    23.8440    -8.0570 
  195.3750     2.3790    55.7320     6.7510     6.1330     6.6550    25.5400    -7.9550 
  195.5000     2.4140    57.0120     6.6640     6.0170     6.7430    26.4980    -7.8880 
  195.6250     2.4380    58.0610     6.5320     5.9360     6.9060    26.7170    -7.8340 
  195.7500     2.4610    59.6350     6.4550     5.9650     7.2140    26.7240    -7.8330 
  195.8750     2.4780    61.8430     6.4460     6.0940     7.6700    26.7100    -7.8300 
  196.0000     2.4810    63.9610     6.4850     6.2770     7.8800    26.7000    -7.8260 
  196.1250     2.4730    67.0880     6.5410     6.4550     7.8860    26.6750    -7.8270 
