~V
VERS. 2.00: Ver 2.00
~W
STRT.M 20.0000:
STOP.M 266.0000:
STEP.M 0.1250:
NULL. -999.2500:
UWI. F10773:
~C
DEPT.M :
DEN.GM/CC :
GR.API :
RML.OHMM :
RI. :
RXO.OHMM :
CALI.CM :
SP.MV :
~A
# ...
   76.2500     2.3820    90.4860     4.8670     3.9820     4.6150    24.8360   -14.2900 
   76.3750     2.3860    91.3700     4.5740     3.6950     4.5550    24.8010   -13.5290 
   76.5000     2.3870    95.3730     4.4030     3.5660     4.4350    24.6960   -12.7580 
   76.6250     2.3930    98.2910     4.3740     3.5710     3.9810    24.6640   -12.1170 
   76.7500     2.4010    96.7440     4.4530     3.6400     3.7810    24.6290   -11.8360 
   76.8750     2.4050    94.5080     4.6160     3.7450     3.8580    24.5920   -11.7840 
   77.0000     2.3990    93.4490     4.8350     3.8680     4.1170    24.5730   -11.8300 
   77.1250     2.3840    93.2280     5.0610     4.0020     4.4600    24.5860   -12.0590 
   77.2500     2.3650    93.6830     5.2510     4.1440     4.7740    24.5980   -12.4010 
   77.3750     2.3450    92.9160     5.4050     4.3040     4.8750    24.5970   -12.8160 
   77.5000     2.3240    90.1130     5.5570     4.4970     4.7870    24.5770   -13.4170 
   77.6250     2.3020    87.2170     5.7650     4.7390     4.7650    24.4710   -14.2030 
   77.7500     2.2820    84.4590     6.0190     4.9890     5.2160    24.2850   -14.8550 
   77.8750     2.2700    80.6240     6.2470     5.1810     6.0080    24.1250   -15.3550 
   78.0000     2.2670    77.2060     6.3400     5.2490     6.1130    24.0310   -15.8460 
   78.1250     2.2730    77.7690     6.2050     5.1590     5.4410    23.9670   -16.2810 
   78.2500     2.2830    80.0520     5.9510     4.9970     5.2320    23.8670   -16.5850 
   78.3750     2.2960    82.6320     5.7340     4.8550     5.2500    23.8000   -16.8240 
   78.5000     2.3130    84.3180     5.7100     4.8120     5.1630    23.8110   -17.0610 
   78.6250     2.3270    82.3760     6.0060     4.9520     4.9430    23.7640   -17.2640 
   78.7500     2.3270    76.3810     6.5300     5.2630     5.3550    23.6640   -17.5370 
   78.8750     2.3020    70.7470     7.1600     5.7160     6.2940    23.5810   -18.0160 
   79.0000     2.2520    68.0270     7.7450     6.2340     6.8110    23.5950   -18.6910 
   79.1250     2.1950    66.7420     8.0970     6.6730     6.9420    23.7680   -19.4050 
   79.2500     2.1520    66.5470     8.2070     6.9360     7.0800    23.9740   -20.1740 
   79.3750     2.1360    67.2750     8.1580     7.0130     7.3350    24.0840   -21.0250 
   79.5000     2.1440    68.4160     8.0700     6.9790     7.5990    24.0170   -21.8220 
   79.6250     2.1690    68.3340     8.0400     6.9450     7.8620    23.8310   -22.4400 
   79.7500     2.1960    68.2580     8.0810     6.9810     8.2110    23.6600   -22.9870 
   79.8750     2.2220    69.4260     8.1940     7.0880     8.4450    23.5540   -23.4530 
   80.0000     2.2450    70.8330     8.3510     7.2360     8.5810    23.4930   -23.7440 
   80.1250     2.2590    69.5000     8.4990     7.3750     8.7410    23.4430   -23.9670 
   80.2500     2.2590    67.0040     8.5900     7.4600     8.7380    23.4050   -24.1530 
   80.3750     2.2420    67.2970     8.5920     7.4630     8.4600    23.3800   -24.1650 
   80.5000     2.2140    69.9550     8.5060     7.3820     8.1470    23.3690   -24.0490 
   80.6250     2.1860    69.2840     8.3670     7.2510     8.0520    23.3610   -24.0250 
   80.7500     2.1700    64.5840     8.2370     7.1290     8.1430    23.3470   -24.0490 
   80.8750     2.1630    58.9710     8.1420     7.0390     8.2050    23.3410   -24.0690 
   81.0000     2.1570    55.3490     8.0820     6.9830     8.0570    23.3690   -24.1530 
   81.1250     2.1370    56.8310     8.0510     6.9540     7.9140    23.4010   -24.3290 
   81.2500     2.1070    61.3850     8.0430     6.9460     7.9390    23.4060   -24.5560 
   81.3750     2.0780    64.3300     8.0590     6.9610     8.0060    23.4590   -24.8750 
   81.5000     2.0660    62.7310     8.0960     6.9960     8.2380    23.6410   -25.3130 
   81.6250     2.0810    59.0330     8.1390     7.0370     8.4340    23.9370   -25.7450 
   81.7500     2.1100    57.6170     8.1710     7.0670     8.5150    24.0720   -26.0610 
   81.8750     2.1400    59.3260     8.1880     7.0830     8.4700    24.0760   -26.2620 
   82.0000     2.1630    62.0330     8.1870     7.0820     8.3810    24.0610   -26.3990 
   82.1250     2.1730    60.5210     8.1510     7.0480     8.2790    24.0670   -26.4340 
   82.2500     2.1780    58.2560     8.0730     6.9740     8.1510    24.1450   -26.3170 
   82.3750     2.1840    58.4770     7.9580     6.8660     8.0940    24.2830   -26.0940 
   82.5000     2.1920    60.4300     7.8240     6.7400     8.3400    24.3190   -25.8320 
   82.6250     2.1990    59.6480     7.6950     6.6190     8.8970    24.0760   -25.4980 
   82.7500     2.1990    58.5130     7.5870     6.5180     8.8760    23.8030   -25.1630 
   82.8750     2.1890    61.8740     7.5110     6.4460     8.4950    23.5480   -24.9020 
   83.0000     2.1730    66.2280     7.4790     6.4150     8.0030    23.3860   -24.6170 
   83.1250     2.1580    64.9730     7.5180     6.4520     7.6520    23.3670   -24.2920 
   83.2500     2.1500    61.0290     7.6180     6.5460     7.5350    23.3960   -24.1680 
   83.3750     2.1470    58.8780     7.7550     6.6750     7.6210    23.4270   -24.2550 
   83.5000     2.1480    57.9640     7.8920     6.8040     7.7750    23.4570   -24.3360 
   83.6250     2.1520    55.8970     7.9890     6.8950     7.7710    23.4820   -24.3790 
   83.7500     2.1600    56.7180     8.0220     6.9270     7.7590    23.4470   -24.4430 
   83.8750     2.1720    61.9130     7.9710     6.8790     7.7600    23.3670   -24.4800 
   84.0000     2.1900    67.2720     7.8190     6.7350     7.7260    23.3720   -24.4400 
   84.1250     2.2050    70.1070     7.5590     6.4910     7.5470    23.5320   -24.3180 
   84.2500     2.2110    72.7590     7.2560     6.2050     6.9630    23.8100   -24.1070 
   84.3750     2.2040    77.6560     6.9830     5.9490     6.0350    24.1600   -23.8420 
   84.5000     2.1860    82.0090     6.8190     5.7940     5.6150    24.3780   -23.6100 
   84.6250     2.1720    78.7830     6.8310     5.8060     5.9440    24.2500   -23.5670 
   84.7500     2.1680    70.0310     6.9640     5.9310     6.5560    23.9860   -23.6950 
   84.8750     2.1730    62.6490     7.1390     6.0950     7.0590    23.7870   -23.9150 
   85.0000     2.1780    60.1680     7.2650     6.2140     7.3250    23.6970   -24.2630 
   85.1250     2.1730    59.9650     7.2700     6.2190     7.5550    23.6630   -24.7610 
   85.2500     2.1630    58.2160     7.1910     6.1440     7.7660    23.6790   -25.2180 
   85.3750     2.1550    57.7420     7.0910     6.0510     7.7250    23.7820   -25.5480 
   85.5000     2.1540    60.8980     7.0420     6.0040     7.5390    23.9010   -25.8320 
   85.6250     2.1580    65.4900     7.1080     6.0660     7.4170    23.9320   -26.0360 
   85.7500     2.1620    65.9960     7.2840     6.2320     7.4190    23.8770   -26.0580 
   85.8750     2.1630    62.5030     7.5420     6.4750     7.4250    23.7950   -25.9960 
   86.0000     2.1600    61.0610     7.8230     6.7400     7.4420    23.7380   -25.9600 
   86.1250     2.1590    63.9530     8.0310     6.9350     7.3990    23.7120   -25.8930 
   86.2500     2.1600    66.1020     8.1100     7.0090     7.3800    23.7370   -25.7620 
   86.3750     2.1610    66.4400     8.0500     6.9520     7.4210    23.7980   -25.6530 
   86.5000     2.1570    66.4220     7.8830     6.7950     7.5010    23.8560   -25.5690 
   86.6250     2.1460    65.1790     7.6680     6.5940     7.4620    23.9090   -25.4650 
   86.7500     2.1350    62.7700     7.4750     6.4120     7.4230    24.0060   -25.4350 
   86.8750     2.1320    62.5290     7.3350     6.2800     7.3980    24.1370   -25.4270 
   87.0000     2.1430    64.9000     7.2580     6.2070     7.3530    24.2180   -25.2640 
   87.1250     2.1690    65.8280     7.2420     6.1930     7.3470    24.1840   -24.9070 
   87.2500     2.1960    64.0910     7.2600     6.2090     7.3440    24.0670   -24.5260 
   87.3750     2.2180    62.4970     7.2920     6.2400     7.3290    23.9110   -24.0980 
