~V
VERS. 2.00: Ver 2.00
~W
STRT.M 55.0000:
STOP.M 262.0000:
STEP.M 0.1250:
NULL. -999.2500:
UWI. F10759:
~C
DEPT.M :
DEN.GM/CC :
GR.API :
RML.OHMM :
RI. :
RXO.OHMM :
CALI.CM :
SP.MV :
~A
   55.0000  -999.2500    42.9420     0.1410     0.2140     1.2420    23.1640    27.6250 
   55.1250  -999.2500    44.7580     0.1170     0.2110     1.0950    23.8780    26.4990 
   55.2500  -999.2500    46.7170     0.1010     0.2090     1.1780    24.7760    25.5470 
   55.3750  -999.2500    46.3250     0.0970     0.2080     1.4720    25.2020    24.8150 
   55.5000     2.3030    44.4960     0.1050     0.2080     1.7280    25.2890    24.3720 
   55.6250     2.3030    45.7210     0.1180     0.2090     1.7850    25.2940    24.1920 
   55.7500     2.2460    48.4820     0.1270     0.2090     1.8330    25.2940    24.1860 
   55.8750     2.1880    49.1580     0.1310     0.2100     1.8530    25.2940    24.3720 
   56.0000     2.1370    48.5660     0.1300     0.2120     1.8100    25.2940    24.7630 
   56.1250     2.1020    48.8560     0.1260     0.2140     1.7610    25.2940    25.3410 
   56.2500     2.0800    48.5050     0.1220     0.2160     1.7090    25.2930    26.1090 
   56.3750     2.0720    45.5610     0.1190     0.2180     1.6200    25.2920    27.0640 
   56.5000     2.0760    42.3700     0.1160     0.2190     1.5150    25.2820    28.2170 
   56.6250     2.0900    42.3930     0.1110     0.2200     1.3410    25.2370    29.5950 
   56.7500     2.1060    43.0490     0.1020     0.2210     1.1380    25.0330    31.1380 
   56.8750     2.1160    42.8800     0.0890     0.2210     1.0550    24.6170    32.7720 
   57.0000     2.1180    42.9380     0.0760     0.2220     1.0830    24.1640    34.4550 
   57.1250     2.1100    45.6570     0.0680     0.2240     1.1370    23.8130    36.1750 
   57.2500     2.1010    48.1150     0.0680     0.2270     1.1370    23.6150    37.8880 
   57.3750     2.0990    47.7110     0.0730     0.2300     1.0650    23.6020    39.5830 
   57.5000     2.1140    46.4110     0.0760     0.2320     0.8740    23.4770    41.2720 
   57.6250     2.1550    47.1240     0.0720     0.2340     0.6190    23.4830    43.0500 
   57.7500     2.2130    47.7460     0.0640     0.2340     0.4670    23.5940    44.9620 
   57.8750     2.2740    46.0900     0.0560     0.2340     0.6540    23.6950    47.0390 
   58.0000     2.3220    42.9570     0.0510     0.2360     0.9990    23.7280    49.1640 
   58.1250     2.3440    40.9450     0.0510     0.2390     1.2190    23.6940    51.0420 
   58.2500     2.3450    40.4130     0.0510     0.2430     1.3010    23.6140    52.5120 
   58.3750     2.3340    40.7710     0.0520     0.2470     1.3330    23.5840    53.4910 
   58.5000     2.3160    42.6380     0.0540     0.2480     1.3420    23.5880    53.9680 
   58.6250     2.3000    44.3300     0.0600     0.2450     1.3250    23.6430    53.9570 
   58.7500     2.2870    44.0300     0.0670     0.2410     1.3030    23.6510    53.6040 
   58.8750     2.2770    42.4770     0.0710     0.2340     1.2920    23.6490    53.0370 
   59.0000     2.2670    41.8470     0.0710     0.2260     1.2980    23.6300    52.4540 
   59.1250     2.2580    43.8800     0.0590     0.2090     1.3170    23.4940    52.1330 
   59.2500     2.2500    45.8610     0.0410     0.1790     1.3310    23.2450    52.1240 
   59.3750     2.2480    46.4630     0.0220     0.1370     1.3260    23.0070    52.3120 
   59.5000     2.2620    47.5130     0.0090     0.0940     1.2760    22.9250    52.4720 
   59.6250     2.3000    49.5490     0.0030     0.0630     1.1630    23.0100    52.0720 
   59.7500     2.3530    51.4410     0.0070     0.0530     1.0780    23.2670    50.6960 
   59.8750     2.4000    55.4560     0.0310     0.0790     1.2400    23.7780    47.8230 
   60.0000     2.4220    64.1730     0.1010     0.1720     1.8400    24.0840    43.3040 
   60.1250     2.4130    75.5830     0.2960     0.4230     3.0090    23.9510    37.5400 
   60.2500     2.3900    84.6980     0.6920     0.8990     3.7670    23.5790    31.2770 
   60.3750     2.3650    90.3620     1.3340     1.6390     3.9010    23.3120    24.8600 
   60.5000     2.3460    91.1470     2.0710     2.5330     3.8390    23.1370    18.5420 
   60.6250     2.3350    88.7360     2.4900     3.2810     3.9100    23.1150    12.7260 
   60.7500     2.3270    89.7570     2.6010     3.7630     4.0210    23.1270     7.6720 
   60.8750     2.3240    93.8060     2.6110     4.0520     4.0460    23.1200     3.8270 
   61.0000     2.3260    95.1210     2.6320     4.2390     3.8980    23.1120     1.2880 
   61.1250     2.3340    93.5130     2.6480     4.3240     3.8090    23.1380    -0.3680 
   61.2500     2.3430    93.9940     2.6270     4.3120     3.8330    23.2310    -1.6910 
   61.3750     2.3490    95.4580     2.5710     4.2260     3.7500    23.3870    -2.8120 
   61.5000     2.3480    94.0870     2.5100     4.1160     3.5650    23.5690    -3.7900 
   61.6250     2.3400    93.2670     2.4940     4.0520     3.4970    23.4010    -4.6360 
   61.7500     2.3300    95.2410     2.5570     4.0780     3.6230    23.0790    -5.3740 
   61.8750     2.3220    97.7370     2.7340     4.2420     3.8380    22.9830    -6.0400 
   62.0000     2.3230    98.6220     3.0600     4.5920     4.0650    22.9920    -6.6470 
   62.1250     2.3370    94.6840     3.5820     5.1920     4.7140    23.1710    -7.2090 
   62.2500     2.3620    86.3610     4.2430     5.9670     5.5120    23.2560    -7.7300 
   62.3750     2.3930    77.4000     4.9570     6.7960     6.8000    23.2940    -8.2340 
   62.5000     2.4210    71.5660     5.5660     7.4850     9.2890    23.2140    -8.7470 
   62.6250     2.4270    69.3020     5.8570     7.7710    10.8600    23.2440    -9.2590 
   62.7500     2.4050    68.6610     5.8640     7.6890     8.2810    23.2470    -9.7540 
   62.8750     2.3600    69.1120     5.7430     7.4100     6.6380    23.2540   -10.2350 
   63.0000     2.3050    70.3020     5.6940     7.1540     6.0970    23.2820   -10.7060 
   63.1250     2.2520    70.5900     5.9740     7.2050     6.1000    23.3030   -11.1210 
   63.2500     2.2100    69.8870     6.7330     7.7360     6.4850    23.2400   -11.4900 
   63.3750     2.1890    68.5760     8.1580     8.9660     7.2170    23.1370   -11.8180 
   63.5000     2.2000    68.0020    10.4700    11.1830     8.1850    23.0810   -12.0920 
   63.6250     2.2630    68.8000    14.1140    14.9550    10.4680    22.9490   -12.3390 
   63.7500     2.3680    67.1850    18.8340    20.0360    16.3410    22.6640   -12.5920 
   63.8750     2.4920    62.4620    23.5680    25.4190    26.2300    22.2890   -12.8500 
   64.0000     2.5920    58.9790    26.0660    28.9570    32.7990    21.9060   -13.0930 
   64.1250     2.6110    59.6030    24.2090    28.0990    27.0010    21.6880   -13.3460 
   64.2500     2.5500    61.5460    20.3290    24.3990    18.1580    21.5360   -13.6360 
   64.3750     2.4370    62.9600    16.5950    20.0870    12.0920    21.5160   -13.9440 
   64.5000     2.3120    63.8850    13.9300    16.5960     9.6190    21.5430   -14.2830 
   64.6250     2.2120    63.0430    12.4990    14.4590     9.1300    21.6760   -14.6400 
   64.7500     2.1480    60.9930    11.8390    13.2680     9.2020    22.0350   -14.9640 
   64.8750     2.1150    59.2150    11.7030    12.7690     9.4240    22.5830   -15.2500 
   65.0000     2.1030    58.9140    11.8880    12.7420     9.5520    23.2480   -15.5040 
   65.1250     2.1050    58.1820    12.2510    13.0260     9.6660    23.4210   -15.7240 
   65.2500     2.1110    57.5560    12.6690    13.4350    10.2740    23.5920   -15.9040 
   65.3750     2.1220    57.1770    13.0880    13.8850    11.3560    23.8120   -16.0420 
   65.5000     2.1350    56.4690    13.4590    14.3030    12.0620    24.1020   -16.1450 
   65.6250     2.1490    56.2060    13.7270    14.6120    12.0640    24.3150   -16.1970 
   65.7500     2.1600    56.9610    13.9100    14.8070    12.1610    24.2580   -16.2270 
   65.8750     2.1680    58.1840    14.0480    14.9170    12.6040    23.9660   -16.2440 
   66.0000     2.1750    58.5580    14.1910    15.0000    12.9320    23.5870   -16.2300 
   66.1250     2.1870    57.5810    14.3790    15.1300    12.8090    23.1840   -16.1890 
