~V
VERS. 2.00: Ver 2.00
~W
STRT.M 40.0000:
STOP.M 236.0000:
STEP.M 0.1250:
NULL. -999.2500:
UWI. F10781:
~C
DEPT.M :
GR.API :
RML.OHMM :
RI. :
RXO.OHMM :
CALI.CM :
SP.MV :
DEN.GM/CC :
~A
# ...
  118.7500    65.9510    11.8650    11.2360    10.2200    25.1160    -7.5050     2.3040 
  118.8750    63.8970    12.3320    11.7050    12.0820    25.1390    -7.4790     2.2740 
  119.0000    63.3950    12.1930    11.6390    12.8330    25.1440    -7.5520     2.2570 
  119.1250    65.7270    11.2920    10.9110    11.5470    25.1610    -7.7340     2.2610 
  119.2500    69.0910    10.0610     9.8780    10.1290    25.1610    -7.9830     2.2810 
  119.3750    71.8860     8.9390     8.8830     9.3740    25.1690    -8.2520     2.3070 
  119.5000    73.4490     8.2640     8.2010     8.5040    25.1650    -8.5010     2.3350 
  119.6250    73.2520     8.2560     8.0360     8.6690    25.1800    -8.6980     2.3620 
  119.7500    71.3090     8.7100     8.2720    10.0670    25.1860    -8.8380     2.3840 
  119.8750    70.6160     9.3960     8.7460    11.1830    25.1980    -8.9230     2.3920 
  120.0000    74.1620    10.0250     9.2230    11.3410    25.1980    -8.9640     2.3870 
  120.1250    79.4690    10.2420     9.3990    10.7980    25.2230    -8.9570     2.3830 
  120.2500    82.8320     9.9750     9.1820    10.9540    25.2460    -8.9170     2.3880 
  120.3750    84.8440     9.3080     8.6220    10.9090    25.2720    -8.8390     2.4020 
  120.5000    85.9840     8.4480     7.8800     9.9210    25.2780    -8.7130     2.4140 
  120.6250    85.0710     7.6620     7.1570     7.7200    25.2900    -8.5420     2.4150 
  120.7500    82.6680     7.1290     6.5990     6.7060    25.2910    -8.3350     2.4100 
  120.8750    81.6110     6.9620     6.3000     6.5700    25.2840    -8.1020     2.4050 
  121.0000    83.0060     7.2530     6.3520     6.9020    25.2580    -7.8490     2.3980 
  121.1250    85.1140     8.1810     6.9100     7.2770    25.2170    -7.5640     2.3880 
  121.2500    83.0600     9.6820     7.9420     8.5060    25.1640    -7.2460     2.3790 
  121.3750    76.6180    11.6430     9.3840    11.5510    25.1110    -6.8890     2.3730 
  121.5000    69.8380    13.7540    11.0330    15.8860    25.0550    -6.4950     2.3680 
  121.6250    65.7310    15.4390    12.4690    18.4260    24.9940    -6.0760     2.3500 
  121.7500    63.4680    16.4390    13.4240    16.4420    24.9480    -5.6610     2.3180 
  121.8750    63.8170    16.9100    13.9550    13.6870    24.9180    -5.2790     2.2800 
  122.0000    66.9210    17.2840    14.3620    11.9250    24.9070    -4.9560     2.2460 
  122.1250    69.0270    17.9690    14.9590    12.1910    24.8880    -4.7470     2.2230 
  122.2500    69.5970    18.7720    15.6640    13.9770    24.8710    -4.6740     2.2070 
  122.3750    69.6100    19.1550    16.0930    16.0850    24.8610    -4.7500     2.1960 
  122.5000    68.3690    18.5760    15.8020    17.3270    24.8720    -4.9720     2.1990 
  122.6250    66.6930    16.7840    14.5490    15.8810    24.8860    -5.3260     2.2270 
  122.7500    68.6770    14.5380    12.9030    12.8950    24.8990    -5.7470     2.2680 
  122.8750    73.5080    12.5320    11.3830    10.3740    24.9140    -6.1970     2.3080 
  123.0000    77.0130    11.2090    10.3140     9.6340    24.9400    -6.6390     2.3300 
  123.1250    77.1060    10.7460     9.8440    10.2470    24.9650    -7.0200     2.3260 
  123.2500    75.7880    10.7790     9.7410    10.9670    24.9870    -7.3220     2.3080 
  123.3750    74.1670    10.9890     9.7810    10.8670    25.0050    -7.5360     2.2900 
  123.5000    73.9890    11.0470     9.7410    11.1160    25.0290    -7.6760     2.2820 
  123.6250    75.9180    10.7400     9.4850    11.2170    25.0430    -7.7470     2.2880 
  123.7500    78.2900    10.3180     9.1860    10.3550    25.0470    -7.7800     2.3010 
  123.8750    78.2450    10.1300     9.0680     9.9500    25.0350    -7.7860     2.3120 
  124.0000    74.9930    10.4830     9.3280    10.3490    25.0150    -7.7710     2.3150 
  124.1250    69.4970    11.6950    10.1900    11.9040    24.9810    -7.7470     2.3110 
  124.2500    64.0660    13.6050    11.5880    14.6380    24.9480    -7.7230     2.3090 
  124.3750    61.5410    15.8880    13.3440    18.5040    24.9190    -7.7080     2.3090 
  124.5000    62.1050    18.0030    15.0770    21.9470    24.9190    -7.7030     2.3040 
  124.6250    62.0970    19.2870    16.2180    24.8210    24.9560    -7.6960     2.2840 
  124.7500    59.3220    19.7110    16.6370    31.3700    25.0230    -7.6850     2.2520 
  124.8750    55.7200    19.4800    16.4730    30.1070    25.1000    -7.6650     2.2150 
  125.0000    54.8350    18.9110    16.0050    19.7870    25.1740    -7.6410     2.1860 
  125.1250    55.4720    18.2470    15.4710    14.5260    25.2040    -7.6170     2.1760 
  125.2500    54.9100    17.5960    14.9720    13.2330    25.2010    -7.5990     2.1830 
  125.3750    53.8930    17.0150    14.5500    12.8610    25.1620    -7.5800     2.2010 
  125.5000    55.4090    16.5980    14.2620    12.5980    25.1020    -7.5480     2.2190 
  125.6250    61.0930    16.4480    14.1880    12.5680    25.0210    -7.4880     2.2280 
  125.7500    68.0040    16.5290    14.2990    12.6880    24.9510    -7.3970     2.2260 
  125.8750    71.0400    16.8220    14.5830    12.8500    24.8960    -7.2840     2.2200 
  126.0000    67.6160    17.3090    15.0220    13.2440    24.8790    -7.1610     2.2170 
  126.1250    62.7830    17.9780    15.5860    13.7360    24.8990    -7.0620     2.2170 
  126.2500    62.1040    18.7220    16.1770    14.1400    24.9390    -7.0120     2.2180 
  126.3750    62.4360    19.4260    16.7000    14.4010    24.9800    -7.0500     2.2170 
  126.5000    59.5790    19.9340    17.0530    14.4710    25.0310    -7.2070     2.2170 
  126.6250    55.8630    20.0050    17.0900    14.4630    25.0760    -7.5260     2.2220 
  126.7500    56.4420    19.6220    16.8070    14.3050    25.1150    -7.9610     2.2300 
  126.8750    60.1370    18.8360    16.2190    14.1760    25.1380    -8.4710     2.2380 
  127.0000    62.3140    17.7840    15.3970    13.7990    25.1480    -9.0000     2.2410 
  127.1250    62.1770    16.7550    14.5260    13.5320    25.1440    -9.4890     2.2360 
  127.2500    62.7090    16.1460    13.9200    13.2450    25.1360    -9.8980     2.2270 
  127.3750    64.5490    16.3400    13.8670    13.0900    25.1220   -10.1960     2.2190 
  127.5000    65.7720    17.6560    14.6040    13.2430    25.1010   -10.3600     2.2230 
  127.6250    64.1250    20.4900    16.4600    16.0740    25.0710   -10.3810     2.2610 
  127.7500    61.6810    24.3990    19.2270    25.7350    25.0320   -10.3080     2.3350 
  127.8750    59.7250    28.5860    22.4470    46.4590    24.9850   -10.1800     2.4260 
  128.0000    59.2580    31.7830    25.2160    53.9030    24.9450   -10.0230     2.4980 
  128.1250    60.4110    32.5680    26.3150    36.3020    24.9250    -9.8570     2.5120 
  128.2500    59.9430    31.5510    25.9600    27.5520    24.9320    -9.7060     2.4870 
  128.3750    58.0950    29.9160    24.9390    26.5440    24.9520    -9.5950     2.4510 
  128.5000    56.4640    28.7620    24.0820    26.5990    24.9770    -9.5300     2.4280 
  128.6250    56.9600    28.6930    23.9260    27.3600    24.9950    -9.5060     2.4260 
  128.7500    58.3870    29.2720    24.2770    27.7590    25.0230    -9.4910     2.4330 
  128.8750    60.2420    29.9890    24.8010    27.7490    25.0490    -9.4670     2.4420 
  129.0000    62.0440    30.4240    25.1780    26.9090    25.0740    -9.4190     2.4480 
  129.1250    62.7560    30.2580    25.1520    28.0280    25.0920    -9.3200     2.4460 
  129.2500    62.4800    29.5550    24.7400    27.8620    25.1140    -9.1600     2.4360 
  129.3750    60.6800    28.4300    24.0060    27.6300    25.1400    -8.9320     2.4180 
  129.5000    58.7610    27.0690    23.0680    24.9880    25.1660    -8.6360     2.3940 
  129.6250    59.5490    25.7290    22.0920    22.5500    25.1690    -8.2940     2.3690 
  129.7500    61.1020    24.6600    21.2700    20.2270    25.1490    -7.9310     2.3480 
  129.8750    60.1590    24.0560    20.7630    18.4150    25.1170    -7.5710     2.3280 
