~V
VERS. 2.00: Ver 2.00
~W
STRT.M 59.0000:
STOP.M 239.0000:
STEP.M 0.1250:
NULL. -999.2500:
UWI. F10784:
~C
DEPT.M :
DEN.GM/CC :
GR.API :
RML.OHMM :
RI. :
RXO.OHMM :
CALI.CM :
SP.MV :
~A
# ...
  171.5000     2.5980    55.2410    15.0440    14.0650    13.3570    24.8400   -13.2920 
  171.6250     2.5890    57.9310    14.3230    13.3090    12.7430    24.8400   -13.3140 
  171.7500     2.5770    59.7740    13.8780    12.8380    11.8920    24.8400   -13.3690 
  171.8750     2.5610    57.8490    13.6540    12.5980    11.3170    24.8400   -13.4560 
  172.0000     2.5430    53.5250    13.6030    12.5410    11.1920    24.8400   -13.5370 
  172.1250     2.5280    51.2640    13.6970    12.6400    11.2260    24.3970   -13.6300 
  172.2500     2.5170    53.6320    13.8560    12.8220    11.2100    24.4840   -13.7300 
  172.3750     2.5040    58.9590    14.0330    13.0340    11.3050    24.6280   -13.8290 
  172.5000     2.4860    64.0730    14.1990    13.2290    11.9290    24.7720   -13.9160 
  172.6250     2.4630    65.4560    14.3730    13.3930    12.6340    24.7950   -14.0160 
  172.7500     2.4430    65.0410    14.6170    13.5700    12.2020    24.7970   -14.0790 
  172.8750     2.4320    66.0310    14.9880    13.8220    11.5140    24.7820   -14.1050 
  173.0000     2.4320    66.6940    15.5060    14.1940    11.4370    24.6810   -14.1000 
  173.1250     2.4410    64.0010    16.1100    14.6790    11.8680    24.6190   -14.0930 
  173.2500     2.4520    60.2040    16.6270    15.1470    12.1750    24.4980   -14.0700 
  173.3750     2.4620    57.6840    16.8940    15.4500    13.0970    24.5240   -14.0570 
  173.5000     2.4670    56.5950    16.8110    15.4670    13.8380    24.6600   -14.0280 
  173.6250     2.4700    56.9930    16.3710    15.1330    13.5700    24.7770   -13.9920 
  173.7500     2.4730    57.8600    15.8260    14.6370    13.0290    24.7970   -13.9400 
  173.8750     2.4790    57.1260    15.4130    14.1760    12.7740    24.7950   -13.8980 
  174.0000     2.4890    55.8730    15.3170    13.9340    13.0440    24.7790   -13.8640 
  174.1250     2.5020    56.9360    15.6560    14.0700    13.3800    24.6740   -13.8540 
  174.2500     2.5150    59.1430    16.2410    14.4850    14.1640    24.6030   -13.8740 
  174.3750     2.5240    59.8020    16.8510    15.0150    14.7640    24.5390   -13.8890 
  174.5000     2.5270    59.3100    17.2560    15.4520    16.0090    24.5120   -13.9020 
  174.6250     2.5190    61.3520    17.2560    15.5710    17.2720    24.4280   -13.9040 
  174.7500     2.5050    64.6560    16.9410    15.3850    16.6680    24.4700   -13.9180 
  174.8750     2.4900    65.7140    16.4570    14.9870    14.3400    24.5230   -13.9090 
  175.0000     2.4780    62.1590    15.9860    14.5270    12.9350    24.5330   -13.8970 
  175.1250     2.4710    59.3650    15.7230    14.1810    13.3980    24.5330   -13.8310 
  175.2500     2.4660    61.5150    15.7360    14.0490    14.3940    24.5300   -13.7380 
  175.3750     2.4650    65.0300    16.0590    14.1860    14.0480    24.5160   -13.6180 
  175.5000     2.4690    66.1940    16.6810    14.6050    13.9270    24.4280   -13.5250 
  175.6250     2.4780    66.5200    17.5750    15.3180    14.3670    24.4590   -13.4380 
  175.7500     2.4850    67.5610    18.5730    16.1930    15.9180    24.5890   -13.3760 
  175.8750     2.4880    66.5820    19.5240    17.1120    17.7650    24.6720   -13.3320 
  176.0000     2.4880    63.3170    20.2690    17.9280    18.7880    24.7790   -13.2940 
  176.1250     2.4920    63.1990    20.6010    18.4320    18.6830    24.7830   -13.2580 
  176.2500     2.5010    67.2120    20.5040    18.5510    18.5760    24.7190   -13.2310 
  176.3750     2.5120    70.6220    19.9920    18.2540    18.3030    24.5880   -13.1990 
  176.5000     2.5180    69.3890    19.1410    17.5850    17.7890    24.5400   -13.1180 
  176.6250     2.5160    66.0010    18.0750    16.6380    17.4440    24.5330   -13.0080 
  176.7500     2.5100    64.6850    17.0140    15.6290    15.0460    24.5380   -12.8870 
  176.8750     2.5050    65.7420    16.1250    14.7210    12.4310    24.6690   -12.7560 
  177.0000     2.5050    66.6970    15.5430    14.0490    11.1350    24.7110   -12.6120 
  177.1250     2.5090    64.5220    15.4060    13.7650    11.1530    24.7120   -12.4910 
  177.2500     2.5140    60.6520    15.6320    13.8330    11.1780    24.7140   -12.3930 
  177.3750     2.5180    57.8310    16.1210    14.1960    11.4520    24.7180   -12.3550 
  177.5000     2.5170    57.7490    16.7170    14.7330    12.2660    24.7190   -12.3810 
  177.6250     2.5090    57.9970    17.2200    15.2610    13.9690    24.7030   -12.4840 
  177.7500     2.4960    56.7360    17.5220    15.6280    15.6030    24.6950   -12.5770 
  177.8750     2.4830    56.9820    17.6280    15.7910    15.4050    24.6880   -12.6700 
  178.0000     2.4730    59.6170    17.6440    15.8050    13.7970    24.6500   -12.7970 
  178.1250     2.4700    61.1270    17.7500    15.8150    13.1240    24.5540   -12.9470 
  178.2500     2.4730    60.2060    18.0330    15.9460    14.1460    24.4550   -13.0850 
  178.3750     2.4800    58.8100    18.4580    16.2170    15.5850    24.4120   -13.1760 
  178.5000     2.4890    59.1020    18.8940    16.5520    16.2130    24.3820   -13.2190 
  178.6250     2.4940    60.0080    19.1440    16.7930    17.0320    24.2910   -13.2030 
  178.7500     2.4920    60.4860    19.1510    16.8480    17.0120    24.1580   -13.2350 
  178.8750     2.4810    61.0660    18.9590    16.7160    16.1320    24.0700   -13.3130 
  179.0000     2.4650    61.8940    18.6820    16.4700    15.0690    24.0420   -13.3850 
  179.1250     2.4540    63.1550    18.4600    16.2200    15.2290    24.0420   -13.4340 
  179.2500     2.4530    63.4160    18.3490    16.0390    15.7340    24.0400   -13.4740 
  179.3750     2.4640    61.9620    18.3290    15.9360    15.6650    24.0370   -13.5320 
  179.5000     2.4800    61.1600    18.3350    15.8780    15.3900    24.0550   -13.6240 
  179.6250     2.4910    63.7320    18.2700    15.7910    15.6520    24.1640   -13.7420 
  179.7500     2.4990    65.8700    18.1140    15.6290    15.5490    24.3830   -13.8080 
  179.8750     2.5040    63.6300    17.9170    15.4090    15.3450    24.6360   -13.8370 
  180.0000     2.5110    58.0990    17.8030    15.2090    14.9870    24.7820   -13.8630 
  180.1250     2.5190    57.0500    17.9870    15.2010    14.0420    24.8220   -13.8910 
  180.2500     2.5230    60.0570    18.5720    15.5050    13.5280    24.8220   -13.9030 
  180.3750     2.5230    63.9850    19.5840    16.1970    13.8000    24.8220   -13.9060 
  180.5000     2.5190    66.1370    20.9050    17.2470    15.8670    24.8220   -13.9130 
  180.6250     2.5110    67.0580    22.2250    18.4740    19.7910    24.8220   -13.9160 
  180.7500     2.5010    68.7250    23.1850    19.5340    22.2290    24.8220   -13.9250 
  180.8750     2.4880    69.6450    23.6010    20.1920    22.2650    24.8220   -13.9300 
  181.0000     2.4740    68.7900    23.5060    20.3770    20.7300    24.8220   -13.9260 
  181.1250     2.4630    67.1700    23.1160    20.1780    18.5320    24.8220   -13.9380 
  181.2500     2.4560    68.1000    22.7400    19.8790    17.2030    24.8220   -13.9840 
  181.3750     2.4520    72.2730    22.4320    19.5830    18.0420    24.8220   -14.0490 
  181.5000     2.4500    76.1820    22.0400    19.2260    20.0020    24.8220   -14.1100 
  181.6250     2.4520    76.6360    21.2220    18.5470    19.5030    24.7980   -14.1800 
  181.7500     2.4540    74.7020    19.8950    17.4470    17.9470    24.7370   -14.2960 
  181.8750     2.4590    71.8390    18.2300    16.0220    16.1360    24.6640   -14.4810 
  182.0000     2.4650    70.3520    16.6600    14.5760    14.0660    24.6250   -14.7520 
  182.1250     2.4680    71.4400    15.9550    13.6470    11.7970    24.6190   -15.1070 
  182.2500     2.4650    74.5060    16.5930    13.6210    10.4720    24.6170   -15.5210 
  182.3750     2.4510    76.6060    18.9240    14.8770    11.3040    24.6170   -16.0080 
  182.5000     2.4230    77.2420    22.9400    17.6770    15.3870    24.6190   -16.5650 
  182.6250     2.3840    77.1050    27.7190    21.7500    26.2240    24.5940   -17.2640 
