~V
VERS. 2.00: Ver 2.00
~W
STRT.M 50.0000:
STOP.M 229.0000:
STEP.M 0.1250:
NULL. -999.2500:
UWI. F10777:
~C
DEPT.M :
DEN.GM/CC :
GR.API :
RML.OHMM :
RI. :
RXO.OHMM :
CALI.CM :
SP.MV :
~A
# ...
   83.7500     2.3290    63.1850    13.5930     9.5090    11.3830    25.0330   -23.4120 
   83.8750     2.4430    59.6230    17.0880    11.9560    17.7710    24.8990   -23.4310 
   84.0000     2.5440    58.3130    20.1080    14.4140    31.2550    24.7590   -23.5030 
   84.1250     2.5760    58.5340    20.6600    15.4060    42.9260    24.5880   -23.6030 
   84.2500     2.5180    59.4050    18.6580    14.5050    28.7710    24.3470   -23.6880 
   84.3750     2.4270    59.9770    15.3980    12.4410    14.6540    24.1680   -23.7330 
   84.5000     2.3420    61.9190    12.4290    10.3050     9.4040    24.1010   -23.7350 
   84.6250     2.2830    65.3300    10.6760     8.8410     8.6740    24.1170   -23.7170 
   84.7500     2.2610    66.3660     9.8690     8.0260     8.9130    24.1830   -23.7160 
   84.8750     2.2570    64.1810     9.6630     7.7050     9.0750    24.3190   -23.7560 
   85.0000     2.2610    60.5810     9.7150     7.6710     8.8160    24.4980   -23.8420 
   85.1250     2.2640    61.2160     9.7560     7.7290     8.8610    24.7330   -23.9680 
   85.2500     2.2670    65.6340     9.7090     7.7560     9.2160    25.0190   -24.0960 
   85.3750     2.2710    69.1580     9.6190     7.7460     9.3680    25.2480   -24.1850 
   85.5000     2.2750    69.0730     9.5420     7.7230     9.4380    25.3430   -24.1930 
   85.6250     2.2760    65.9950     9.4970     7.6980     9.5640    25.3390   -24.0860 
   85.7500     2.2690    64.8920     9.4660     7.6680     9.6680    25.3180   -23.9140 
   85.8750     2.2580    66.7630     9.4510     7.6350     9.6820    25.3190   -23.7400 
   86.0000     2.2450    68.9300     9.4800     7.6240     9.5370    25.3480   -23.6170 
   86.1250     2.2310    69.2130     9.6090     7.6720     9.0460    25.3840   -23.5750 
   86.2500     2.2150    68.3280     9.8560     7.7950     8.6470    25.5080   -23.5760 
   86.3750     2.2010    66.2570    10.2200     7.9980     9.0210    25.6500   -23.5860 
   86.5000     2.1920    61.3860    10.6850     8.2750     9.5460    25.2260   -23.5820 
   86.6250     2.1940    56.6270    11.2780     8.6530     9.6700    24.9190   -23.5470 
   86.7500     2.2110    56.6660    12.0440     9.1580     9.6820    24.7660   -23.4770 
   86.8750     2.2380    58.5110    13.0750     9.8430     9.8880    24.7330   -23.3550 
   87.0000     2.2670    58.6450    14.4440    10.7520    10.8170    24.6790   -23.1580 
   87.1250     2.2870    57.8860    16.1360    11.8970    13.0900    24.5900   -22.8440 
   87.2500     2.2890    57.8330    17.8140    13.0830    15.3540    24.5530   -22.4260 
   87.3750     2.2760    57.0560    19.0840    14.0590    15.3880    24.5320   -21.9230 
   87.5000     2.2540    57.1380    19.6420    14.5910    13.5830    24.4930   -21.3750 
   87.6250     2.2320    59.0830    19.3940    14.5460    12.3380    24.4600   -20.8500 
   87.7500     2.2200    59.9450    18.8000    14.1910    11.7590    24.4520   -20.4140 
   87.8750     2.2160    59.6650    18.2130    13.7640    11.3830    24.4510   -20.1210 
   88.0000     2.2140    59.7800    17.8480    13.4380    11.2340    24.4590   -19.9990 
   88.1250     2.2060    59.2980    17.7750    13.3030    11.3580    24.4640   -20.0480 
   88.2500     2.1910    57.8710    17.8790    13.3050    11.4050    24.4690   -20.1610 
   88.3750     2.1770    57.6520    18.1080    13.4160    11.3850    24.4700   -20.2520 
   88.5000     2.1690    58.0520    18.4510    13.6220    11.4070    24.4740   -20.2430 
   88.6250     2.1690    56.5110    18.9670    13.9610    11.3840    24.4770   -20.0620 
   88.7500     2.1740    54.6310    19.6840    14.4450    11.4220    24.4790   -19.7310 
   88.8750     2.1800    54.6330    20.6060    15.0790    11.6390    24.4810   -19.2690 
   89.0000     2.1870    55.0430    21.6550    15.8200    12.0700    24.4830   -18.7100 
   89.1250     2.1980    54.1700    22.6170    16.5400    12.4520    24.4790   -18.0910 
   89.2500     2.2120    53.3160    23.2680    17.0880    12.6220    24.4660   -17.4810 
   89.3750     2.2190    54.2790    23.4740    17.3560    12.6880    24.4470   -16.9340 
   89.5000     2.2150    56.6220    23.2400    17.3240    12.7490    24.4220   -16.4910 
   89.6250     2.2000    57.5360    22.7080    17.0560    12.6810    24.4180   -16.1940 
   89.7500     2.1830    56.8660    22.1890    16.7580    12.4760    24.4210   -16.0190 
   89.8750     2.1730    56.1490    21.8740    16.5670    12.3830    24.4280   -15.9460 
   90.0000     2.1710    55.6680    21.8460    16.5630    12.4270    24.4330   -15.9570 
   90.1250     2.1740    55.3870    22.0330    16.7280    12.2390    24.4590   -16.0660 
   90.2500     2.1750    56.1060    22.0640    16.8290    12.0150    24.5050   -16.2740 
   90.3750     2.1730    58.3560    21.5170    16.5670    11.5510    24.5350   -16.5900 
   90.5000     2.1760    59.9930    20.0700    15.6820    10.9160    24.5410   -17.0060 
   90.6250     2.1920    60.3290    17.6330    14.0510    10.5500    24.5390   -17.5250 
   90.7500     2.2240    62.6270    14.8290    12.0950     9.7430    24.5760   -18.1330 
   90.8750     2.2610    68.3950    12.2070    10.1980     8.1660    24.6870   -18.8320 
   91.0000     2.2910    75.5060    10.1620     8.6500     6.8490    24.7820   -19.6030 
   91.1250     2.3080    78.7550     8.9470     7.6600     6.9550    24.7920   -20.4000 
   91.2500     2.3090    77.8560     8.3560     7.1300     7.3150    24.7750   -21.1550 
   91.3750     2.2990    75.2700     8.2330     6.9780     7.5960    24.7870   -21.8240 
   91.5000     2.2820    73.6180     8.4180     7.0980     7.7680    24.8180   -22.3850 
   91.6250     2.2590    73.3090     8.7780     7.3910     8.6680    24.8850   -22.7970 
   91.7500     2.2320    73.0460     9.1550     7.7140     9.2260    24.9120   -23.0640 
   91.8750     2.2140    72.0910     9.4530     7.9780     9.2580    24.9140   -23.1890 
   92.0000     2.2150    69.6060     9.5860     8.1060     9.0990    24.8980   -23.2040 
   92.1250     2.2420    67.0670     9.4470     8.0090     8.8870    24.8450   -23.1540 
   92.2500     2.2840    67.6110     9.0520     7.7020     8.8280    24.7990   -23.0890 
   92.3750     2.3190    71.9870     8.4570     7.2150     8.1780    24.8050   -23.0150 
   92.5000     2.3370    77.6090     7.7840     6.6370     7.4560    24.8680   -22.9220 
   92.6250     2.3400    79.7060     7.2330     6.1160     7.3200    24.9380   -22.7990 
   92.7500     2.3330    78.5520     6.9560     5.7780     6.7370    24.9460   -22.6680 
   92.8750     2.3170    76.2880     7.0570     5.7070     6.1250    24.8780   -22.5590 
   93.0000     2.2870    74.6440     7.5740     5.9450     6.3490    24.7240   -22.4970 
   93.1250     2.2470    73.9140     8.5100     6.5280     7.6540    24.5570   -22.4860 
   93.2500     2.2090    72.7610     9.6450     7.3210     8.7850    24.4600   -22.4970 
   93.3750     2.1820    70.6670    10.7720     8.1980     9.1260    24.4310   -22.5090 
   93.5000     2.1690    67.5390    11.6870     9.0070     9.1140    24.4430   -22.5130 
   93.6250     2.1700    65.1100    12.2440     9.5990     9.2830    24.4980   -22.5100 
   93.7500     2.1820    64.0630    12.5830    10.0020     9.8250    24.5600   -22.5030 
   93.8750     2.1960    63.5590    12.8630    10.3000    10.3240    24.6210   -22.4820 
   94.0000     2.2070    62.9050    13.2280    10.5970    10.3550    24.6920   -22.4390 
   94.1250     2.2090    63.2350    13.7880    10.9900    10.3570    24.7740   -22.3690 
   94.2500     2.2090    65.1990    14.4710    11.4760    10.4590    24.8060   -22.2830 
   94.3750     2.2200    66.3730    15.0710    11.9430    10.6390    24.8450   -22.1880 
   94.5000     2.2460    65.5880    15.2410    12.1610    10.9600    24.9400   -22.0980 
   94.6250     2.2770    66.8200    14.4870    11.7490    11.6160    25.0610   -22.0500 
   94.7500     2.3000    70.9550    12.9470    10.7450    12.0170    25.1720   -22.0680 
   94.8750     2.3080    74.4300    11.0470     9.4050    11.2700    25.2710   -22.1730 
