~V
VERS. 2.00: Ver 2.00
~W
STRT.M 50.0000:
STOP.M 239.0000:
STEP.M 0.1250:
NULL. -999.2500:
UWI. F10783:
~C
DEPT.M :
GR.API :
RML.OHMM :
RI. :
RXO.OHMM :
CALI.CM :
SP.MV :
DEN.GM/CC :
~A
# ...
  162.5000    54.0120    28.6440    29.5980    35.1150    24.7210   -13.3130     2.5370 
  162.6250    57.5770    24.5160    25.4210    25.6540    24.6710   -13.4410     2.5270 
  162.7500    62.0800    22.0060    22.5450    19.0460    24.6590   -13.6300     2.5380 
  162.8750    63.0290    21.3640    21.3340    19.0250    24.6620   -13.8330     2.5670 
  163.0000    59.2430    22.2450    21.6590    27.1840    24.6270   -14.0450     2.6050 
  163.1250    56.5470    23.9630    23.1470    33.5850    24.6000   -14.2480     2.6340 
  163.2500    57.0380    25.5110    24.8590    31.8400    24.6290   -14.4240     2.6430 
  163.3750    57.7420    26.3490    26.1370    27.0230    24.7290   -14.5310     2.6320 
  163.5000    56.1370    26.3880    26.6440    24.8970    24.8030   -14.5460     2.6070 
  163.6250    54.6020    26.0180    26.5090    24.4720    24.8150   -14.4680     2.5750 
  163.7500    54.4300    25.8930    26.3860    24.2680    24.7870   -14.3510     2.5490 
  163.8750    55.0440    26.2500    26.6300    22.7140    24.7170   -14.2280     2.5340 
  164.0000    56.0700    26.9380    27.2300    20.9770    24.5190   -14.1130     2.5320 
  164.1250    58.1160    27.4680    27.8060    24.5150    24.2400   -14.0240     2.5420 
  164.2500    60.6390    27.4500    27.9200    28.6100    24.0020   -13.9540     2.5460 
  164.3750    62.3210    26.8130    27.4140    28.5140    23.9970   -13.9290     2.5320 
  164.5000    63.4670    25.8130    26.4470    23.5210    24.1840   -13.9840     2.4930 
  164.6250    64.4710    25.0120    25.4990    20.1910    24.3560   -14.0930     2.4390 
  164.7500    64.6020    24.8460    25.0560    19.0630    24.4930   -14.2040     2.3980 
  164.8750    63.7720    25.4290    25.3290    19.0590    24.5770   -14.3060     2.3940 
  165.0000    62.1190    26.5430    26.2260    20.7850    24.5500   -14.3930     2.4340 
  165.1250    60.4930    27.6180    27.3080    25.2430    24.5340   -14.4680     2.5030 
  165.2500    58.9580    28.0560    27.9340    28.8480    24.5700   -14.5280     2.5620 
  165.3750    58.6110    27.5900    27.7340    28.4330    24.5950   -14.5500     2.5870 
  165.5000    59.2010    26.3370    26.6970    26.9260    24.5950   -14.5280     2.5750 
  165.6250    59.0680    24.7630    25.1640    23.2020    24.6120   -14.4600     2.5440 
  165.7500    59.4110    23.5060    23.7660    21.3270    24.5900   -14.3630     2.5230 
  165.8750    59.9310    22.9150    22.8800    20.7430    24.5670   -14.2420     2.5210 
  166.0000    58.4960    23.1200    22.7020    20.6910    24.5230   -14.0880     2.5380 
  166.1250    55.5110    24.1430    23.3580    20.8350    24.4770   -13.9310     2.5630 
  166.2500    55.1500    25.5810    24.5620    23.7610    24.4830   -13.7980     2.5860 
  166.3750    57.4360    27.0690    26.0160    28.0200    24.5540   -13.6970     2.6030 
  166.5000    59.1600    28.2190    27.3430    27.7640    24.5990   -13.5940     2.6130 
  166.6250    59.0080    28.6210    28.0730    28.2020    24.5820   -13.4760     2.6090 
  166.7500    58.6240    28.3360    28.1230    28.2010    24.5280   -13.3920     2.5930 
  166.8750    58.8220    27.5550    27.5860    26.1740    24.4990   -13.3630     2.5690 
  167.0000    59.6810    26.5720    26.7080    22.7800    24.5220   -13.3920     2.5440 
  167.1250    58.8900    25.7060    25.7990    22.0040    24.5490   -13.4090     2.5250 
  167.2500    56.1920    25.1110    25.0760    22.5770    24.5470   -13.3860     2.5170 
  167.3750    54.3340    24.8260    24.6140    22.5740    24.5120   -13.3180     2.5200 
  167.5000    56.6580    24.8350    24.4250    21.7210    24.4650   -13.2400     2.5290 
  167.6250    62.4600    25.1210    24.5190    23.0740    24.4890   -13.1950     2.5430 
  167.7500    66.4390    25.5610    24.8020    24.1990    24.5330   -13.1480     2.5560 
  167.8750    66.8370    26.0590    25.2050    23.6520    24.5540   -13.0690     2.5610 
  168.0000    65.8060    26.5000    25.6320    23.5900    24.4670   -12.9530     2.5490 
  168.1250    66.3070    26.7490    25.9420    23.4950    24.2180   -12.8290     2.5160 
  168.2500    67.7920    26.8170    26.0840    23.5510    24.0050   -12.7510     2.4740 
  168.3750    66.6740    26.7900    26.0910    22.6700    24.0010   -12.7470     2.4450 
  168.5000    61.7030    26.8090    26.0650    22.5490    24.1960   -12.8250     2.4440 
  168.6250    57.1300    27.0440    26.1540    22.6480    24.3540   -12.9790     2.4790 
  168.7500    56.3280    27.5120    26.4340    22.4830    24.3870   -13.1760     2.5300 
  168.8750    57.9450    28.1380    26.9000    24.2660    24.3650   -13.3820     2.5790 
  169.0000    58.0030    28.7540    27.4490    26.7930    24.3650   -13.6060     2.6170 
  169.1250    55.3620    29.0920    27.8600    27.1120    24.3590   -13.8530     2.6380 
  169.2500    54.8380    29.0310    27.9720    27.9530    24.3550   -14.0640     2.6470 
  169.3750    57.6310    28.5470    27.7090    28.5740    24.3260   -14.2150     2.6460 
  169.5000    60.1900    27.7090    27.0900    26.2700    24.3350   -14.3020     2.6390 
  169.6250    59.9830    26.6280    26.1830    22.3410    24.3640   -14.3140     2.6310 
  169.7500    58.1080    25.5010    25.1740    20.8610    24.3680   -14.2770     2.6240 
  169.8750    56.2280    24.4560    24.1830    21.6570    24.3460   -14.2360     2.6160 
  170.0000    54.1300    23.6250    23.3290    20.9730    24.3250   -14.2100     2.6040 
  170.1250    53.9060    23.1870    22.7740    18.6720    24.2480   -14.2190     2.5890 
  170.2500    57.3060    23.1270    22.5320    17.9640    24.1550   -14.2800     2.5790 
  170.3750    60.6250    23.3540    22.5440    18.1280    24.0400   -14.3780     2.5810 
  170.5000    60.1470    23.6800    22.6620    19.2430    23.9550   -14.5030     2.5970 
  170.6250    56.5060    23.8130    22.6460    20.9500    23.9730   -14.6660     2.6270 
  170.7500    54.4760    23.5980    22.3530    23.0270    24.0550   -14.8480     2.6590 
  170.8750    54.8860    23.0470    21.7770    22.4590    24.1480   -15.0340     2.6840 
  171.0000    55.3010    22.3290    21.0520    20.9120    24.2810   -15.1810     2.6950 
  171.1250    56.6250    21.7410    20.4240    20.0030    24.4090   -15.2540     2.6860 
  171.2500    59.9870    21.4810    20.0730    19.3760    24.4760   -15.2690     2.6640 
  171.3750    62.2320    21.6230    20.0810    19.2340    24.4600   -15.2520     2.6370 
  171.5000    61.2610    22.1430    20.4530    18.9580    24.3440   -15.2290     2.6110 
  171.6250    60.0010    22.9800    21.1700    18.6710    24.2020   -15.1960     2.5950 
  171.7500    61.5830    23.9360    22.0650    19.1210    24.1700   -15.1350     2.5900 
  171.8750    64.5860    24.8470    22.9940    21.0130    24.2620   -15.0370     2.5960 
  172.0000    65.1830    25.4990    23.7510    22.4750    24.3430   -14.9300     2.6130 
  172.1250    62.1180    25.5250    23.9630    22.7170    24.3250   -14.8330     2.6370 
  172.2500    58.6980    24.8270    23.4730    21.7340    24.2380   -14.7500     2.6610 
  172.3750    56.6330    23.4360    22.2760    20.6700    24.1740   -14.6910     2.6840 
  172.5000    56.3170    21.5760    20.5800    18.6400    24.0720   -14.6130     2.7020 
  172.6250    56.8410    19.5960    18.7310    15.7080    23.9570   -14.4680     2.7100 
  172.7500    57.2590    17.8210    17.0640    13.6320    23.9370   -14.2930     2.7020 
  172.8750    56.7420    16.3870    15.7200    13.7360    24.0250   -14.1310     2.6760 
  173.0000    54.5980    15.3280    14.7340    14.5710    24.2380   -13.9970     2.6350 
  173.1250    52.7840    14.6850    14.1440    14.0070    24.4970   -13.8790     2.5890 
  173.2500    52.4030    14.3620    13.8560    12.9910    24.6590   -13.7400     2.5530 
  173.3750    53.5930    14.3010    13.8240    12.5970    24.6490   -13.5830     2.5320 
  173.5000    55.9620    14.4110    13.9750    12.0520    24.6120   -13.4290     2.5250 
  173.6250    59.5010    14.5560    14.2000    12.5470    24.5980   -13.3080     2.5250 
