~V
VERS. 2.00: Ver 2.00
~W
STRT.M 20.0000:
STOP.M 266.0000:
STEP.M 0.1250:
NULL. -999.2500:
UWI. F10773:
~C
DEPT.M :
DEN.GM/CC :
GR.API :
RML.OHMM :
RI. :
RXO.OHMM :
CALI.CM :
SP.MV :
~A
# ...
  143.7500     2.2380    55.9560    21.2000    19.6930    10.2020    24.5720    -2.2600 
  143.8750     2.2300    55.3470    20.5850    19.1190    10.2020    24.5830    -2.0130 
  144.0000     2.2270    55.9760    19.4110    18.0100    10.3120    24.4780    -1.9790 
  144.1250     2.2470    60.1610    17.8770    16.5430    10.1370    24.3460    -2.2340 
  144.2500     2.2910    65.4580    16.3790    15.0820     9.9130    24.2870    -2.6540 
  144.3750     2.3490    68.8490    15.2000    13.8890     9.2700    24.3020    -3.0500 
  144.5000     2.3960    69.2470    14.5500    13.1680     8.7550    24.3740    -3.2060 
  144.6250     2.3990    68.6520    14.6700    13.1660     8.6800    24.4230    -3.0850 
  144.7500     2.3600    67.5600    15.5070    13.8500     9.0100    24.3870    -2.8520 
  144.8750     2.2960    63.2180    17.0650    15.2100     9.7450    24.2890    -2.5130 
  145.0000     2.2310    57.4490    19.2790    17.1560    11.1850    24.3060    -1.9790 
  145.1250     2.1880    55.3710    21.9820    19.5230    13.1300    24.4310    -1.2350 
  145.2500     2.1630    56.0050    24.6860    21.9120    12.7380    24.5080    -0.4500 
  145.3750     2.1530    55.1480    26.9520    24.0160    10.6340    24.5280     0.2330 
  145.5000     2.1530    52.5580    28.4740    25.6430     9.4170    24.5290     0.6570 
  145.6250     2.1690    52.0930    29.1420    26.7350     9.2890    24.5160     0.7630 
  145.7500     2.1940    53.3930    29.3710    27.5460     9.5760    24.4730     0.7090 
  145.8750     2.2190    55.3500    29.3770    28.1610    10.2520    24.4040     0.5740 
  146.0000     2.2350    57.5470    29.1000    28.4200    10.7720    24.3220     0.3030 
  146.1250     2.2390    59.6970    28.0370    27.7470    10.9180    24.2280    -0.1920 
  146.2500     2.2400    61.8670    25.9630    25.9330    10.9710    24.1390    -0.8560 
  146.3750     2.2490    65.3840    22.9930    23.1000    10.8260    24.0930    -1.6300 
  146.5000     2.2690    70.1000    19.6400    19.7740    10.3160    24.1290    -2.4250 
  146.6250     2.2930    73.1200    16.6690    16.7260     9.3300    24.2440    -3.1480 
  146.7500     2.3050    74.6640    14.4580    14.3650     8.3610    24.4240    -3.8410 
  146.8750     2.2980    76.1100    13.0230    12.7110     8.3230    24.6190    -4.5610 
  147.0000     2.2750    76.2680    12.1390    11.5740     8.7970    24.7530    -5.3060 
  147.1250     2.2500    75.6850    11.4700    10.7240     9.1610    24.8480    -5.9910 
  147.2500     2.2360    77.1800    10.7250     9.9420     9.2630    24.9100    -6.5140 
  147.3750     2.2380    80.3600     9.8840     9.1960     9.2340    24.9340    -6.8270 
  147.5000     2.2550    82.6650     9.1020     8.5490     8.6820    24.8820    -6.9470 
  147.6250     2.2730    83.7110     8.6880     8.1960     7.5580    24.7990    -6.9730 
  147.7500     2.2760    84.1450     8.7920     8.2670     6.9570    24.7690    -6.9660 
  147.8750     2.2590    83.5950     9.5160     8.9000     7.5820    24.7400    -6.8480 
  148.0000     2.2230    82.0350    10.9240    10.2020     8.0630    24.6340    -6.4590 
  148.1250     2.1840    79.4390    13.1410    12.3080     8.2530    24.4050    -5.7360 
  148.2500     2.1630    73.2430    15.8280    14.9080     8.8310    24.1510    -4.8850 
  148.3750     2.1700    64.9670    18.4670    17.5440     9.6650    24.0560    -4.0830 
  148.5000     2.2010    59.1970    20.3640    19.5880    10.1700    24.1130    -3.5170 
  148.6250     2.2410    57.5050    20.7810    20.2830    10.1800    24.1600    -3.3200 
  148.7500     2.2680    58.5040    20.0260    19.7580     9.9570    24.1720    -3.3130 
  148.8750     2.2710    61.1630    18.6190    18.4060     9.5210    24.1720    -3.3920 
  149.0000     2.2510    64.4960    17.1270    16.7730     8.9420    24.1340    -3.6270 
  149.1250     2.2180    68.8370    16.0170    15.3890     9.1620    24.0790    -4.1460 
  149.2500     2.1880    73.4060    15.4040    14.4650     9.1030    24.0250    -4.7990 
  149.3750     2.1680    77.0070    15.3090    14.0590     8.7610    24.0170    -5.3930 
  149.5000     2.1590    78.5070    15.7000    14.1650     8.4470    24.0320    -5.7210 
  149.6250     2.1560    77.6830    16.5870    14.8300     8.5680    24.0610    -5.6090 
  149.7500     2.1550    73.5460    17.8660    15.9280     9.0460    24.0900    -5.1840 
  149.8750     2.1540    67.0780    19.5410    17.3980     9.3540    24.1100    -4.5660 
  150.0000     2.1560    63.9030    21.5820    19.1450     9.4940    24.0900    -3.8530 
  150.1250     2.1640    65.5720    23.7700    20.9810    10.2030    24.0300    -3.0310 
  150.2500     2.1750    64.9470    25.6300    22.6150    10.4950    24.0100    -2.1320 
  150.3750     2.1840    60.7520    26.7850    23.8140    10.3650    24.0590    -1.1920 
  150.5000     2.1850    57.6180    27.1230    24.4540    10.1720    24.1220    -0.2700 
  150.6250     2.1760    59.6980    26.8530    24.5350    10.1210    24.0980     0.5740 
  150.7500     2.1640    64.6400    26.5480    24.4000    10.0950    24.0330     1.2920 
  150.8750     2.1560    70.0260    26.5230    24.3080     9.9530    23.9210     1.8550 
  151.0000     2.1570    72.4040    26.8310    24.4200     9.7270    23.8110     2.3300 
  151.1250     2.1660    69.0510    27.1820    24.7440     9.6260    23.6980     2.8120 
  151.2500     2.1740    64.4180    27.3000    25.0780     9.5810    23.6410     3.2150 
  151.3750     2.1790    62.7310    27.1920    25.2530     9.6280    23.6440     3.4390 
  151.5000     2.1800    62.2970    26.9720    25.1830     9.7800    23.6860     3.4650 
  151.6250     2.1810    60.0720    26.6760    24.8920     9.9900    23.7350     3.2680 
  151.7500     2.1830    58.1220    26.3550    24.5760    10.1460    23.8380     2.9520 
  151.8750     2.1810    57.3920    26.1490    24.3820    10.1630    24.0670     2.5220 
  152.0000     2.1760    56.1010    26.1560    24.3880    10.1020    24.2870     1.9330 
  152.1250     2.1700    53.4060    26.3940    24.6150     9.9810    24.3740     1.1750 
  152.2500     2.1710    51.9100    26.7360    24.9410     9.9860    24.4130     0.4410 
  152.3750     2.1790    51.6140    27.0660    25.2560    10.1200    24.4660    -0.1700 
  152.5000     2.1930    52.9050    27.2790    25.4580    10.2940    24.4750    -0.6180 
  152.6250     2.2030    56.1790    27.2610    25.4410     9.9590    24.3060    -0.8760 
  152.7500     2.2020    58.9740    27.0110    25.2030     9.5600    24.0630    -1.0450 
  152.8750     2.1920    60.1090    26.5050    24.7210     9.3990    23.9090    -1.1600 
  153.0000     2.1790    60.1940    25.7060    23.9600     9.6000    23.8680    -1.2530 
  153.1250     2.1740    60.8170    24.5300    22.8390     9.9010    23.8760    -1.3320 
  153.2500     2.1790    62.1940    23.0690    21.4460     9.8370    23.8680    -1.4300 
  153.3750     2.1920    64.2040    21.4650    19.9180     9.4140    23.8320    -1.5180 
  153.5000     2.2090    67.0850    19.9600    18.4830     9.0090    23.7980    -1.5760 
  153.6250     2.2310    68.2710    18.9530    17.5230     8.8230    23.7890    -1.6560 
  153.7500     2.2690    67.3740    18.6670    17.2510     8.9860    23.8410    -1.7900 
  153.8750     2.3300    66.3690    19.2660    17.8200     9.6170    24.0050    -1.9010 
  154.0000     2.4090    66.6980    20.7630    19.2580    11.5430    24.2470    -1.8270 
  154.1250     2.4770    67.0510    23.0980    21.4670    15.6270    24.4520    -1.4500 
  154.2500     2.5030    65.0650    25.7460    23.8680    20.6390    24.5170    -0.8320 
  154.3750     2.4770    60.7840    28.0490    25.9310    22.1560    24.4040    -0.0350 
  154.5000     2.4090    55.4670    29.3190    27.2400    15.2200    24.2180     0.7800 
  154.6250     2.3310    52.9010    29.1720    27.5880    11.9530    24.0830     1.5420 
  154.7500     2.2670    54.2460    28.4030    27.4260    10.8090    23.9980     2.4310 
  154.8750     2.2280    56.8480    27.7170    27.1400    10.7510    23.9210     3.4880 
