~V
VERS. 2.00: Ver 2.00
~W
STRT.M 40.0000:
STOP.M 236.0000:
STEP.M 0.1250:
NULL. -999.2500:
UWI. F10781:
~C
DEPT.M :
GR.API :
RML.OHMM :
RI. :
RXO.OHMM :
CALI.CM :
SP.MV :
DEN.GM/CC :
~A
# ...
   73.7500    61.8860    18.6830    15.7050    11.3850    25.3030    -8.2830     2.2000 
   73.8750    59.1860    18.0970    15.1780    10.8450    25.3520    -8.7000     2.2040 
   74.0000    58.0480    17.5830    14.6960    10.3140    25.3920    -8.9970     2.2060 
   74.1250    59.4690    17.2790    14.3720    10.0190    25.4240    -9.1590     2.2030 
   74.2500    60.6910    17.1710    14.2200     9.9450    25.4380    -9.2030     2.1970 
   74.3750    60.3430    17.2020    14.2190    10.0690    25.4360    -9.1490     2.1930 
   74.5000    60.1380    17.2910    14.3080    10.2450    25.4140    -9.0330     2.1970 
   74.6250    62.3180    17.3600    14.4190    10.3340    25.3960    -8.8730     2.2150 
   74.7500    65.4950    17.4020    14.5190    10.1020    25.3700    -8.6930     2.2370 
   74.8750    67.5630    17.4540    14.6200     9.8110    25.3620    -8.4920     2.2510 
   75.0000    67.1150    17.5560    14.7370     9.6790    25.3630    -8.2700     2.2470 
   75.1250    63.5920    17.7220    14.8690    10.0170    25.3920    -8.0240     2.2320 
   75.2500    60.5660    17.9040    14.9970    10.4340    25.4270    -7.7680     2.2160 
   75.3750    61.6270    18.0800    15.1160    10.3440    25.4760    -7.5110     2.2040 
   75.5000    65.7520    18.2870    15.2500     9.7830    25.5230    -7.2390     2.1950 
   75.6250    67.6190    18.6510    15.4870     9.9230    25.5600    -6.9440     2.1830 
   75.7500    64.7510    19.2520    15.8800    10.3270    25.5770    -6.6500     2.1710 
   75.8750    59.8410    20.0820    16.4350    10.6780    25.5630    -6.3760     2.1670 
   76.0000    57.1880    21.0220    17.0850    10.7520    25.5310    -6.1490     2.1750 
   76.1250    57.3270    21.8240    17.6690    10.6470    25.4700    -6.0330     2.1880 
   76.2500    57.2770    22.2930    18.0310    10.6640    25.4130    -6.0190     2.1980 
   76.3750    57.0520    22.3540    18.0950    10.6440    25.3510    -6.0950     2.2020 
   76.5000    57.8500    22.0600    17.8830    10.4610    25.3190    -6.2530     2.2020 
   76.6250    58.5360    21.5470    17.4850    10.1730    25.3010    -6.4750     2.2010 
   76.7500    58.6530    21.0380    17.0650    10.0140    25.3150    -6.7220     2.1980 
   76.8750    61.0760    20.6750    16.7310     9.8960    25.3430    -6.9650     2.1920 
   77.0000    66.2470    20.5880    16.5810    10.3180    25.3880    -7.1920     2.1870 
   77.1250    69.6790    20.9260    16.7320    12.0970    25.4060    -7.3970     2.1930 
   77.2500    70.0850    21.6010    17.1440    15.0820    25.3920    -7.5840     2.2110 
   77.3750    70.2090    22.4520    17.7400    15.9820    25.3380    -7.7440     2.2470 
   77.5000    72.7120    23.1930    18.3710    15.4300    25.2440    -7.8560     2.2960 
   77.6250    76.1990    23.3500    18.7930    14.9380    25.1240    -7.9130     2.3490 
   77.7500    77.4430    22.8100    18.8950    15.0940    24.9910    -7.9390     2.3870 
   77.8750    76.2580    21.7460    18.7070    16.0460    24.8540    -7.9460     2.3970 
   78.0000    78.2370    20.5590    18.3710    13.8040    24.7170    -7.9350     2.3790 
   78.1250    86.2810    19.7040    18.0780    11.7000    24.6190    -7.9370     2.3450 
   78.2500    90.5160    19.2710    17.9110    10.7810    24.5440    -7.9890     2.3140 
   78.3750    84.3130    19.1000    17.8040    10.6360    24.4950    -8.1040     2.2940 
   78.5000    72.4360    18.8590    17.5490    10.3540    24.4490    -8.2690     2.2770 
   78.6250    66.2110    18.0920    16.8000    10.0600    24.4410    -8.4940     2.2570 
   78.7500    66.9790    16.7560    15.5470     9.9030    24.4640    -8.8020     2.2310 
   78.8750    71.1030    15.0690    14.0000     9.8100    24.5310    -9.1960     2.2040 
   79.0000    75.5530    13.4280    12.5050     9.3830    24.6040    -9.6550     2.1890 
   79.1250    76.9260    12.3090    11.4680     8.6150    24.7090   -10.1400     2.1920 
   79.2500    74.6070    11.8460    11.0020     8.1740    24.8150   -10.6090     2.2000 
   79.3750    69.2120    12.0320    11.1250     8.8420    24.9230   -11.0510     2.1960 
   79.5000    63.3490    12.6870    11.7300    10.1650    25.0180   -11.4330     2.1720 
   79.6250    59.7710    13.4280    12.5180    10.4880    25.0900   -11.6910     2.1380 
   79.7500    60.1430    13.7640    12.9620    10.5080    25.1290   -11.8160     2.1160 
   79.8750    63.5510    13.4070    12.6890    10.4100    25.1480   -11.8120     2.1260 
   80.0000    68.1350    12.3480    11.6630    10.0440    25.1580   -11.7010     2.1740 
   80.1250    71.9800    10.8360    10.2060     8.8170    25.1420   -11.5110     2.2460 
   80.2500    75.9700     9.3740     8.8330     7.3820    25.1130   -11.3020     2.3130 
   80.3750    81.5640     8.2410     7.7730     6.4220    25.0780   -11.1140     2.3590 
   80.5000    87.1580     7.5330     7.0850     6.1400    25.0460   -10.9730     2.3770 
   80.6250    90.7550     7.2210     6.7550     6.1650    24.9970   -10.8930     2.3700 
   80.7500    92.4010     7.0630     6.6030     6.2540    24.9580   -10.8440     2.3540 
   80.8750    92.6370     6.9170     6.5070     6.5180    24.9190   -10.8160     2.3400 
   81.0000    92.0480     6.7230     6.3860     6.7040    24.8950   -10.8050     2.3350 
   81.1250    92.7380     6.5120     6.2190     5.7710    24.8630   -10.8210     2.3370 
   81.2500    93.9460     6.3680     6.0650     5.2410    24.8520   -10.8510     2.3450 
   81.3750    92.7330     6.3370     5.9780     5.2350    24.8450   -10.8920     2.3580 
   81.5000    89.6440     6.4130     5.9820     5.8200    24.8610   -10.9510     2.3740 
   81.6250    89.3620     6.5720     6.0690     6.2550    24.8690   -11.0130     2.3860 
   81.7500    91.1450     6.7720     6.1890     6.2360    24.8840   -11.0420     2.3870 
   81.8750    90.1920     7.0070     6.3220     6.5420    24.8860   -11.0180     2.3750 
   82.0000    86.5400     7.2820     6.4600     7.5440    24.8870   -10.9350     2.3580 
   82.1250    83.4760     7.6040     6.6120     7.0360    24.8590   -10.7970     2.3420 
   82.2500    82.0120     7.9430     6.7740     7.0090    24.8290   -10.6470     2.3310 
   82.3750    81.5310     8.2410     6.9310     7.2980    24.7900   -10.5130     2.3240 
   82.5000    82.5210     8.4470     7.0560     7.5270    24.7660   -10.4040     2.3150 
   82.6250    83.7040     8.5420     7.1290     7.3790    24.7380   -10.3210     2.3040 
   82.7500    82.1100     8.5670     7.1630     7.5720    24.7270   -10.2520     2.2940 
   82.8750    80.1460     8.5400     7.1630     7.9250    24.7220   -10.1830     2.2900 
   83.0000    79.7620     8.4930     7.1400     8.1650    24.7270   -10.1040     2.2910 
   83.1250    79.8270     8.4710     7.1060     7.7380    24.7370   -10.0180     2.2960 
   83.2500    79.2930     8.4710     7.0610     7.4400    24.7460    -9.9530     2.3020 
   83.3750    79.1370     8.4460     6.9840     7.2130    24.7560    -9.9280     2.3070 
   83.5000    79.8260     8.3380     6.8540     6.8460    24.7590    -9.9630     2.3100 
   83.6250    81.4730     8.0890     6.6470     6.6510    24.7720   -10.0670     2.3140 
   83.7500    83.4440     7.7450     6.3820     6.6010    24.7820   -10.2110     2.3230 
   83.8750    83.9890     7.3890     6.0950     6.4220    24.7880   -10.3680     2.3370 
   84.0000    82.5730     7.1280     5.8470     6.2690    24.7820   -10.5330     2.3490 
   84.1250    82.7240     7.1020     5.7420     6.0420    24.7830   -10.7080     2.3540 
   84.2500    83.0760     7.3480     5.8260     6.0720    24.7750   -10.8780     2.3490 
   84.3750    80.4530     7.8800     6.1240     6.7610    24.7700   -11.0350     2.3400 
   84.5000    75.2970     8.6670     6.6380     7.8270    24.7490   -11.1690     2.3330 
   84.6250    70.2050     9.6730     7.3690     9.3310    24.7370   -11.2840     2.3320 
   84.7500    66.9410    10.7510     8.2140    10.2840    24.7160   -11.4000     2.3300 
   84.8750    65.5050    11.7510     9.0560    10.1260    24.7170   -11.5090     2.3270 
