~V
VERS. 2.00: Ver 2.00
~W
STRT.M 20.0000:
STOP.M 266.0000:
STEP.M 0.1250:
NULL. -999.2500:
UWI. F10773:
~C
DEPT.M :
DEN.GM/CC :
GR.API :
RML.OHMM :
RI. :
RXO.OHMM :
CALI.CM :
SP.MV :
~A
# ...
   98.7500     2.1910    55.9310    19.1690    17.4140     9.0080    23.5270    -4.5400 
   98.8750     2.1870    59.5250    19.3050    17.5430     8.9020    23.4550    -4.2960 
   99.0000     2.1800    62.5540    19.3360    17.5680     8.6730    23.3460    -4.1150 
   99.1250     2.1730    60.4700    19.2580    17.4980     8.3850    23.2110    -4.0090 
   99.2500     2.1650    57.0580    19.0820    17.3860     7.9780    23.0900    -4.0210 
   99.3750     2.1560    56.8490    18.7940    17.2240     7.6680    23.0210    -4.2390 
   99.5000     2.1480    58.8330    18.3620    16.9300     7.4930    22.9400    -4.7010 
   99.6250     2.1430    60.4610    17.6710    16.3360     7.4870    22.9030    -5.3420 
   99.7500     2.1440    63.1350    16.6900    15.4330     7.4930    22.9950    -5.9710 
   99.8750     2.1530    66.3100    15.4870    14.3120     7.5320    23.2110    -6.6130 
  100.0000     2.1680    68.3940    14.2810    13.1500     7.5310    23.4180    -7.3200 
  100.1250     2.1850    67.6640    13.4000    12.1970     7.3360    23.5270    -8.0600 
  100.2500     2.1980    65.5930    12.9680    11.5860     7.1050    23.5980    -8.7110 
  100.3750     2.2060    64.8270    12.9910    11.4020     7.0890    23.7210    -9.1480 
  100.5000     2.2100    65.7120    13.3950    11.6840     7.4110    23.9120    -9.3160 
  100.6250     2.2140    65.2880    14.1280    12.4810     7.8650    24.0390    -9.1780 
  100.7500     2.2150    63.4000    15.0720    13.6220     8.1370    24.0470    -8.8820 
  100.8750     2.2120    61.8720    16.1810    14.9670     8.3450    23.9940    -8.4490 
  101.0000     2.2030    62.5640    17.3660    16.3630     8.5790    23.9460    -7.8390 
  101.1250     2.1910    63.3580    18.3520    17.5690     8.7850    23.9830    -7.0890 
  101.2500     2.1820    63.4940    18.7780    18.3250     8.8630    24.0090    -6.3680 
  101.3750     2.1800    62.9610    18.3260    18.3280     8.6640    23.9270    -5.7880 
  101.5000     2.1910    61.0980    16.9100    17.3820     8.3740    23.7400    -5.4150 
  101.6250     2.2170    59.5430    14.7300    15.4560     8.1510    23.6370    -5.3970 
  101.7500     2.2500    60.7890    12.4340    13.1350     7.8020    23.7260    -5.6840 
  101.8750     2.2790    66.8340    10.4220    10.8870     7.0580    23.9220    -6.1590 
  102.0000     2.2950    74.5990     8.9040     9.0530     6.3290    24.0700    -6.7770 
  102.1250     2.2940    78.7940     7.9920     7.8750     6.0670    24.1470    -7.4750 
  102.2500     2.2860    78.6430     7.5190     7.2250     5.8320    24.1990    -8.1440 
  102.3750     2.2820    75.7500     7.3830     6.9850     5.8180    24.2670    -8.7530 
  102.5000     2.2840    72.7980     7.4700     7.0070     6.2780    24.3950    -9.2670 
  102.6250     2.2890    73.6940     7.6580     7.1400     6.5000    24.5940    -9.6500 
  102.7500     2.2920    78.7910     7.8240     7.2520     6.4350    24.7870    -9.9470 
  102.8750     2.2890    82.9340     7.9190     7.3100     6.4590    24.8580   -10.1440 
  103.0000     2.2820    82.8480     7.9440     7.3260     6.7480    24.7930   -10.2620 
  103.1250     2.2720    81.5450     7.9160     7.3240     6.5660    24.6190   -10.3640 
  103.2500     2.2630    80.1140     7.8670     7.3020     6.5370    24.4480   -10.5330 
  103.3750     2.2560    76.8650     7.8160     7.2270     6.7610    24.3210   -10.7580 
  103.5000     2.2500    74.4090     7.7890     7.0880     7.0420    24.3550   -11.0250 
  103.6250     2.2440    77.4990     7.8660     6.9470     6.7400    24.5930   -11.3270 
  103.7500     2.2340    79.7410     8.1230     6.9370     6.3510    24.7210   -11.6750 
  103.8750     2.2200    75.8860     8.6320     7.1890     6.3250    24.6750   -12.0960 
  104.0000     2.2040    69.4990     9.4440     7.8050     6.9300    24.5440   -12.5080 
  104.1250     2.1920    67.2190    10.6650     8.9230     7.8590    24.4840   -12.7750 
  104.2500     2.1890    67.5590    12.2910    10.5220     9.7880    24.4680   -12.8710 
  104.3750     2.2010    68.0810    14.3820    12.6340    12.7170    24.4670   -12.8480 
  104.5000     2.2340    67.6290    16.9500    15.2220    16.2050    24.4750   -12.7090 
  104.6250     2.3010    66.8120    19.8390    18.0600    21.5170    24.5150   -12.3550 
  104.7500     2.3840    65.4830    22.4280    20.5540    30.2800    24.5390   -11.8210 
  104.8750     2.4550    62.8310    24.0110    22.0950    32.1970    24.4310   -11.1960 
  105.0000     2.4810    59.0610    24.1140    22.2860    22.1270    24.1670   -10.6030 
  105.1250     2.4350    55.9830    22.7340    21.0650    13.3980    24.0070   -10.1490 
  105.2500     2.3520    54.8440    20.8810    19.2880     9.7720    24.0210    -9.7310 
  105.3750     2.2690    54.1270    19.2570    17.6080     8.7390    24.1230    -9.2900 
  105.5000     2.2180    52.6970    18.2390    16.4560     8.5910    24.1850    -8.8640 
  105.6250     2.2060    53.2010    17.9520    16.0450     8.6600    24.1880    -8.5470 
  105.7500     2.2070    56.6850    18.0750    16.0980     8.7640    24.1540    -8.2660 
  105.8750     2.2040    59.5730    18.3520    16.3630     8.8630    24.0890    -7.9480 
  106.0000     2.1900    59.7710    18.5750    16.6270     8.8540    24.0410    -7.5520 
  106.1250     2.1750    58.8690    18.6350    16.7810     8.6540    24.0560    -7.1580 
  106.2500     2.1620    58.8590    18.6070    16.8740     8.3700    24.1030    -6.9110 
  106.3750     2.1500    58.5270    18.5880    16.9710     8.2440    24.1250    -6.7320 
  106.5000     2.1370    57.6890    18.6440    17.1050     8.2640    24.1290    -6.5450 
  106.6250     2.1250    60.1840    18.7900    17.2620     8.2670    24.1480    -6.3600 
  106.7500     2.1240    64.0900    18.9330    17.3790     8.2340    24.1800    -6.2180 
  106.8750     2.1390    65.6970    18.9580    17.3950     8.2520    24.1770    -6.1400 
  107.0000     2.1670    63.9120    18.7460    17.2440     8.2810    24.1020    -6.1720 
  107.1250     2.1940    63.5850    18.1700    16.8380     8.3600    23.9450    -6.2940 
  107.2500     2.2080    66.3840    17.3330    16.2210     8.3480    23.7610    -6.4380 
  107.3750     2.2040    68.9610    16.3860    15.4650     8.2450    23.6110    -6.6870 
  107.5000     2.1880    69.5960    15.4880    14.6880     8.0340    23.5160    -7.0450 
  107.6250     2.1730    69.5980    14.7100    13.9980     7.8830    23.4890    -7.4480 
  107.7500     2.1660    68.8520    13.9030    13.3500     7.8480    23.4830    -7.9580 
  107.8750     2.1680    67.6980    12.8780    12.5870     7.8510    23.4920    -8.5950 
  108.0000     2.1780    68.7580    11.5500    11.5430     7.6720    23.5290    -9.2420 
  108.1250     2.1960    73.4690    10.0540    10.1450     7.2810    23.6330    -9.7520 
  108.2500     2.2190    78.4520     8.7360     8.6560     6.8540    23.8070   -10.1210 
  108.3750     2.2420    81.6270     7.8140     7.3590     6.2570    24.0420   -10.3940 
  108.5000     2.2570    83.3580     7.3480     6.4740     5.3310    24.3460   -10.6770 
  108.6250     2.2530    84.3180     7.3060     6.1500     4.9380    24.5120   -10.9390 
  108.7500     2.2350    84.0450     7.4600     6.1990     5.1990    24.5920   -11.0220 
  108.8750     2.2170    82.6980     7.6410     6.4170     5.9430    24.5590   -10.9480 
  109.0000     2.2170    80.7720     7.6880     6.5640     6.5730    24.4900   -10.8960 
  109.1250     2.2510    77.7010     7.4690     6.4220     6.7340    24.5150   -11.0020 
  109.2500     2.3010    76.2360     7.0700     6.0470     5.8850    24.6500   -11.1530 
  109.3750     2.3440    79.2440     6.6320     5.6000     4.8820    24.7570   -11.2080 
  109.5000     2.3640    86.0970     6.3140     5.2660     4.4410    24.7900   -11.0800 
  109.6250     2.3580    91.3150     6.2730     5.1940     4.8030    24.7990   -10.9450 
  109.7500     2.3450    92.5910     6.4860     5.3250     5.4820    24.8180   -10.9790 
  109.8750     2.3370    92.1700     6.8830     5.5680     5.9800    24.8250   -11.1770 
