~V
VERS. 2.00: Ver 2.00
~W
STRT.M 50.0000:
STOP.M 226.0000:
STEP.M 0.1250:
NULL. -999.2500:
UWI. F10778:
~C
DEPT.M :
DEN.GM/CC :
GR.API :
RML.OHMM :
RI. :
RXO.OHMM :
CALI.CM :
SP.MV :
~A
# ...
  140.0000     2.1890    69.2910    19.2510    18.1040    10.4780    22.6020    -8.3040 
  140.1250     2.1830    66.8730    19.4980    18.0830    10.8640    22.4710    -8.0440 
  140.2500     2.1790    69.4560    20.4480    18.7090    11.7890    22.5780    -7.7650 
  140.3750     2.1720    71.9300    21.9560    19.9380    12.1020    22.7280    -7.4860 
  140.5000     2.1580    69.4520    23.7780    21.6030    11.8580    22.7840    -7.2680 
  140.6250     2.1360    63.5540    25.5560    23.4120    11.5900    22.7560    -7.0690 
  140.7500     2.1180    60.0470    26.9110    24.9570    12.0970    22.7510    -6.8300 
  140.8750     2.1120    59.1030    27.5410    25.8980    14.3850    22.8430    -6.6230 
  141.0000     2.1250    59.4140    27.2740    26.0040    16.4500    23.0830    -6.4830 
  141.1250     2.1540    59.4170    26.0790    25.1410    14.9160    23.3950    -6.3110 
  141.2500     2.1840    58.6230    24.4770    23.7490    12.2030    23.3800    -6.0320 
  141.3750     2.2050    58.1690    22.9190    22.2410    10.4720    23.1240    -5.7080 
  141.5000     2.2120    59.8550    21.8030    21.0090    10.2140    22.7730    -5.3860 
  141.6250     2.2050    63.3340    21.4880    20.4470     9.6670    22.6520    -5.0530 
  141.7500     2.1900    64.8880    21.8360    20.5360     9.2340    22.6500    -4.7460 
  141.8750     2.1710    65.0390    22.5960    21.1260     9.4790    22.6660    -4.5180 
  142.0000     2.1560    67.0450    23.3750    21.8920    11.0170    22.7490    -4.3510 
  142.1250     2.1560    69.3420    23.6580    22.3370    13.8190    23.0620    -4.2110 
  142.2500     2.1720    69.6900    23.3000    22.2080    15.5400    23.5440    -4.1500 
  142.3750     2.1980    69.9880    22.4270    21.5310    14.5540    23.8090    -4.1490 
  142.5000     2.2210    71.4510    21.3800    20.5760    12.9820    23.7900    -4.1080 
  142.6250     2.2350    70.8150    20.6190    19.7620    10.6650    23.5710    -3.9270 
  142.7500     2.2420    68.9790    20.3220    19.3310    10.2750    23.4560    -3.6210 
  142.8750     2.2470    67.5300    20.4480    19.3140    10.9790    23.4060    -3.1910 
  143.0000     2.2500    66.1200    20.8390    19.6040    11.8470    23.3820    -2.6390 
  143.1250     2.2460    64.5220    21.3460    20.0680    10.0940    23.4430    -2.0000 
  143.2500     2.2320    63.2800    21.9150    20.6030     9.1130    23.5620    -1.3370 
  143.3750     2.2100    62.6550    22.5930    21.2360     8.8830    23.7580    -0.6740 
  143.5000     2.1870    62.4330    23.3930    22.0100     9.3930    23.9430     0.0140 
  143.6250     2.1720    63.5990    24.1470    22.8580    10.2770    24.0000     0.6700 
  143.7500     2.1630    64.6830    24.5660    23.5200    11.1070    23.9530     1.1820 
  143.8750     2.1590    64.3770    24.4650    23.7580    12.2580    23.9850     1.5610 
  144.0000     2.1580    63.5420    23.9140    23.5220    12.3910    23.9940     1.8310 
  144.1250     2.1610    62.9420    23.2810    23.0450    11.0290    23.8130     1.9190 
  144.2500     2.1670    63.0890    22.9860    22.7640     9.9100    23.6070     1.8210 
  144.3750     2.1710    65.0610    23.1400    22.8800     9.7210    23.5650     1.6040 
  144.5000     2.1710    66.7640    23.5510    23.3150    10.8580    23.6940     1.2800 
  144.6250     2.1660    65.4340    23.7340    23.6840    14.3770    23.9000     0.7930 
  144.7500     2.1610    64.8940    23.3120    23.5570    18.0110    24.0600     0.2500 
  144.8750     2.1590    65.6790    22.1620    22.7160    17.0410    24.1260    -0.2830 
  145.0000     2.1600    65.6380    20.4090    21.1900    12.9230    24.1360    -0.8090 
  145.1250     2.1620    64.7070    18.3440    19.1900    10.0910    24.1200    -1.3300 
  145.2500     2.1660    68.2240    16.3800    17.1590     9.1950    24.0880    -1.8170 
  145.3750     2.1750    73.9640    14.7870    15.3980     9.1470    24.0680    -2.2820 
  145.5000     2.1900    76.0370    13.7830    14.1420     8.9110    24.0890    -2.7220 
  145.6250     2.2060    76.7870    13.6820    13.6990     8.4130    24.1920    -3.0690 
  145.7500     2.2150    78.7890    14.4430    14.0720     8.4520    24.2040    -3.3120 
  145.8750     2.2100    77.5640    15.9990    15.2810    10.2050    24.0310    -3.4860 
  146.0000     2.1940    70.6760    18.0850    17.1910    11.8970    23.7900    -3.5780 
  146.1250     2.1760    63.0730    20.1460    19.3910    14.5810    23.7740    -3.5370 
  146.2500     2.1650    61.2400    21.5770    21.1800    13.8980    23.9170    -3.4020 
  146.3750     2.1600    63.1770    22.0830    22.0960    11.5200    23.9780    -3.2440 
  146.5000     2.1610    65.3230    21.7370    22.0510     9.8350    23.8890    -3.1160 
  146.6250     2.1620    65.3070    20.9050    21.2980     9.5510    23.7810    -3.0300 
  146.7500     2.1640    63.8360    20.1330    20.4300     9.9960    23.8420    -3.0220 
  146.8750     2.1690    63.5800    19.6970    19.7580    10.5240    24.0050    -3.1020 
  147.0000     2.1780    64.1180    19.7630    19.4670     9.8450    24.1210    -3.2460 
  147.1250     2.1870    62.8120    20.5830    19.7920     9.6470    24.1980    -3.4310 
  147.2500     2.1900    61.3230    22.1760    20.7950     9.5790    24.2520    -3.6250 
  147.3750     2.1900    62.3850    24.5260    22.5560     9.7200    24.2030    -3.8520 
  147.5000     2.1960    65.5850    27.3420    24.9550    10.2510    24.0370    -4.1330 
  147.6250     2.2280    67.7370    29.7950    27.3990    12.6000    23.9510    -4.4420 
  147.7500     2.2830    66.7150    30.9990    28.9500    16.1620    23.9520    -4.7140 
  147.8750     2.3420    63.8290    30.5320    28.9990    20.5830    24.0040    -4.9810 
  148.0000     2.3760    62.1560    28.6990    27.6000    26.1140    24.0540    -5.3310 
  148.1250     2.3610    62.9540    26.5130    25.5120    20.7800    24.1080    -5.7570 
  148.2500     2.3260    62.6170    25.1040    23.8640    14.3440    24.2000    -6.2020 
  148.3750     2.3090    59.0780    24.9260    23.1880    12.3890    24.2850    -6.6010 
  148.5000     2.3430    54.8420    25.9430    23.5840    14.8090    24.3390    -6.9500 
  148.6250     2.4270    53.7520    27.8730    24.9600    22.2050    24.3480    -7.2820 
  148.7500     2.5130    53.5240    30.0400    26.7730    31.1070    24.4120    -7.5830 
  148.8750     2.5720    52.7710    31.9620    28.6040    32.0050    24.4820    -7.8290 
  149.0000     2.5990    52.0740    33.2360    30.0420    25.1740    24.5080    -8.0390 
  149.1250     2.6040    51.9170    33.4750    30.6490    26.1340    24.4870    -8.2740 
  149.2500     2.6030    52.7050    32.8750    30.4800    32.4870    24.3800    -8.4760 
  149.3750     2.5950    54.0990    31.7250    29.7140    34.7110    24.2910    -8.5860 
  149.5000     2.5810    54.7890    30.4450    28.6750    27.7700    24.3170    -8.6330 
  149.6250     2.5700    53.3270    29.5940    27.8090    22.8420    24.4720    -8.7230 
  149.7500     2.5680    51.2900    29.4520    27.4440    24.2510    24.5700    -8.8690 
  149.8750     2.5690    50.3750    30.0350    27.7160    27.3850    24.5780    -8.9910 
  150.0000     2.5600    48.5550    30.9930    28.4670    26.3540    24.5240    -9.0740 
  150.1250     2.5360    46.2850    31.4280    29.0210    23.5550    24.5320    -9.1250 
  150.2500     2.5120    47.3430    30.6040    28.5900    20.8820    24.5450    -9.1760 
  150.3750     2.5000    51.3100    28.3620    26.8620    19.5730    24.4650    -9.2680 
  150.5000     2.4980    54.0630    25.2650    24.1940    23.8290    24.2500    -9.3750 
  150.6250     2.4940    54.8920    22.5430    21.5640    24.6100    24.1170    -9.4620 
  150.7500     2.4830    57.5090    21.1980    19.9100    16.5690    24.0010    -9.5280 
  150.8750     2.4770    59.7130    21.6640    19.7010    12.1180    24.0070    -9.5850 
  151.0000     2.4950    59.6780    23.8350    21.0360    13.9860    24.1700    -9.6150 
  151.1250     2.5470    58.7090    27.0560    23.6810    22.5860    24.3070    -9.5850 
