~V
VERS. 2.00: Ver 2.00
~W
STRT.M 50.0000:
STOP.M 230.0000:
STEP.M 0.1250:
NULL. -999.2500:
UWI. F10780:
~C
DEPT.M :
DEN.GM/CC :
GR.API :
RML.OHMM :
RI. :
RXO.OHMM :
CALI.CM :
SP.MV :
~A
# ...
   61.2500     2.1050    63.9490     7.7930     7.4770     6.1000    26.3000    -2.5950 
   61.3750     2.1470    69.1450     8.6270     8.6210     7.3560    24.6600    -4.4430 
   61.5000     2.1600    72.6180     9.3640     9.5760     8.0170    24.2650    -6.0470 
   61.6250     2.1520    72.8170     9.9410    10.2660     8.1100    24.2500    -7.5190 
   61.7500     2.1390    71.7860    10.3620    10.7240     8.1750    24.2740    -8.8910 
   61.8750     2.1240    71.3030    10.6220    10.9620     8.2420    24.2820   -10.1480 
   62.0000     2.1140    70.9370    10.7250    10.9910     8.1870    24.2660   -11.2830 
   62.1250     2.1200    69.8450    10.6580    10.7950     8.0690    24.2250   -12.2620 
   62.2500     2.1460    69.9950    10.4540    10.4260     7.8180    24.1930   -13.1050 
   62.3750     2.1900    72.1040    10.1030     9.9030     7.4880    24.1750   -13.7840 
   62.5000     2.2410    76.2240     9.5700     9.2290     7.0800    24.1330   -14.2740 
   62.6250     2.2850    77.7880     8.8190     8.3930     6.8610    24.0240   -14.5950 
   62.7500     2.3130    75.2520     7.9760     7.4930     6.7440    23.9220   -14.8810 
   62.8750     2.3230    74.2850     7.2130     6.6550     6.2450    23.8250   -15.1360 
   63.0000     2.3150    78.9080     6.7150     6.0270     5.5620    23.5980   -15.3420 
   63.1250     2.2860    84.0760     6.7020     5.8090     5.3380    23.2980   -15.5820 
   63.2500     2.2450    82.9390     7.1650     6.0190     5.4760    23.1130   -15.8640 
   63.3750     2.1980    76.2300     8.0780     6.6630     6.5460    23.0560   -16.1420 
   63.5000     2.1550    70.7760     9.3370     7.6790     7.6130    23.0690   -16.4350 
   63.6250     2.1290    69.2640    10.7200     8.9190     7.8310    23.1680   -16.7960 
   63.7500     2.1210    68.0920    11.9090    10.0980     7.5750    23.3410   -17.1490 
   63.8750     2.1260    66.0880    12.6760    10.9960     7.4150    23.5540   -17.4460 
   64.0000     2.1430    65.8960    12.8870    11.4470     7.5230    23.7750   -17.7100 
   64.1250     2.1690    68.6540    12.4170    11.2690     7.6710    23.9320   -17.9060 
   64.2500     2.2030    72.2400    11.4600    10.5790     7.6870    23.9970   -18.0610 
   64.3750     2.2410    74.3920    10.2150     9.5220     7.5150    24.0170   -18.2440 
   64.5000     2.2720    74.9240     8.9490     8.3280     6.9980    24.0480   -18.4550 
   64.6250     2.2840    76.3510     7.9850     7.2960     5.9770    24.1010   -18.6900 
   64.7500     2.2730    79.8140     7.4300     6.5800     5.5010    24.1390   -18.9620 
   64.8750     2.2460    83.8240     7.2810     6.2270     5.5480    24.1520   -19.2700 
   65.0000     2.2170    84.4490     7.4520     6.1990     5.9150    24.1330   -19.6570 
   65.1250     2.1980    80.1260     7.8050     6.4300     6.0450    24.0620   -20.1560 
   65.2500     2.1940    76.3890     8.1360     6.7380     6.0190    23.9680   -20.6520 
   65.3750     2.2010    74.9090     8.3220     7.0020     6.0030    23.9300   -21.1020 
   65.5000     2.2120    75.6770     8.3190     7.1440     6.1290    23.9450   -21.5560 
   65.6250     2.2190    77.0960     8.1640     7.1410     6.0240    23.9730   -22.0090 
   65.7500     2.2180    78.2150     8.0010     7.0830     5.8740    23.9990   -22.3670 
   65.8750     2.2110    78.3710     7.9370     7.0570     5.7610    24.0080   -22.5840 
   66.0000     2.1990    77.6930     8.0350     7.1330     5.7290    24.0100   -22.6730 
   66.1250     2.1880    78.2380     8.2950     7.3510     5.9350    24.0160   -22.6360 
   66.2500     2.1860    80.7530     8.5640     7.6180     6.1640    24.0250   -22.5110 
   66.3750     2.2010    82.9220     8.6740     7.8010     6.3910    24.0310   -22.2710 
   66.5000     2.2310    82.0980     8.4850     7.7660     6.6630    24.0480   -21.9220 
   66.6250     2.2660    78.7990     7.9360     7.4050     6.7750    24.0990   -21.4780 
   66.7500     2.2880    78.6630     7.2340     6.8550     6.2970    24.1960   -21.0150 
   66.8750     2.2920    82.6820     6.5890     6.2800     5.4150    24.3380   -20.6400 
   67.0000     2.2880    87.5770     6.1700     5.8450     5.0170    24.4100   -20.3530 
   67.1250     2.2920    89.3310     6.1010     5.7050     5.0150    24.3430   -20.0910 
   67.2500     2.3160    88.1220     6.2710     5.8190     5.2630    24.2570   -19.8130 
   67.3750     2.3570    85.1250     6.5360     6.0970     5.6930    24.2190   -19.5400 
   67.5000     2.3990    82.4340     6.7130     6.3860     5.7350    24.2100   -19.2970 
   67.6250     2.4220    82.9490     6.6000     6.4710     6.2260    24.2230   -19.0880 
   67.7500     2.4230    86.0750     6.2070     6.2830     6.4250    24.2790   -18.8490 
   67.8750     2.4070    91.8680     5.6360     5.8610     5.7160    24.3460   -18.5590 
   68.0000     2.3820   100.8860     5.0380     5.3280     4.7060    24.4050   -18.2480 
   68.1250     2.3590   110.1180     4.5720     4.8430     4.2300    24.4310   -17.9070 
   68.2500     2.3410   113.8820     4.2690     4.4890     4.1350    24.4330   -17.5790 
   68.3750     2.3280   110.3320     4.1100     4.2770     4.2130    24.4160   -17.3660 
   68.5000     2.3220   104.7120     4.0470     4.1780     4.3460    24.3780   -17.2220 
   68.6250     2.3250   104.2720     4.0380     4.1500     4.4830    24.3540   -17.0450 
   68.7500     2.3330   107.7060     4.0450     4.1400     4.2160    24.3510   -16.8740 
   68.8750     2.3420   108.9560     4.0630     4.1310     4.0380    24.3610   -16.7400 
   69.0000     2.3490   106.6390     4.0990     4.1260     4.0800    24.3740   -16.6060 
   69.1250     2.3520   104.2280     4.1580     4.1340     4.2250    24.3880   -16.4330 
   69.2500     2.3540   103.6290     4.2240     4.1490     4.3000    24.3890   -16.2180 
   69.3750     2.3540   105.0830     4.2790     4.1570     4.3640    24.3720   -15.9390 
   69.5000     2.3500   107.1610     4.3310     4.1510     4.5450    24.3610   -15.6230 
   69.6250     2.3440   107.3180     4.4940     4.1870     4.7330    24.3600   -15.3440 
   69.7500     2.3460   105.8230     4.9750     4.3960     4.8700    24.3470   -15.1740 
   69.8750     2.3680   105.8960     6.0690     4.9810     4.9530    24.3050   -15.0970 
   70.0000     2.4120   106.5160     8.1100     6.2180     5.5360    24.2140   -15.0980 
   70.1250     2.4580   101.0880    11.5360     8.6290     9.1650    24.0660   -15.1850 
   70.2500     2.4730    90.5030    15.8780    12.1420    20.2630    24.0130   -15.3450 
   70.3750     2.4380    79.8260    20.1410    16.1720    32.6840    24.0960   -15.5970 
   70.5000     2.3580    73.0190    22.9010    19.4740    25.6040    24.1220   -15.9460 
   70.6250     2.2620    71.6310    22.7670    20.4390    14.6800    24.0580   -16.3460 
   70.7500     2.1860    73.9380    20.6850    19.3860    10.9790    24.0190   -16.5570 
   70.8750     2.1460    78.2760    18.0020    17.3440     9.8450    24.0080   -16.4470 
   71.0000     2.1400    80.3970    15.8410    15.3850     9.3990    24.0290   -16.1360 
   71.1250     2.1580    76.4580    14.7420    14.1540     9.0790    24.1320   -15.8200 
   71.2500     2.1790    71.4230    14.3580    13.5310     8.6050    24.2270   -15.5590 
   71.3750     2.1910    69.7250    14.4400    13.3690     8.1280    24.2120   -15.2710 
   71.5000     2.1870    71.9590    14.8290    13.5530     7.8000    24.1120   -14.8720 
   71.6250     2.1700    74.6680    15.4640    14.0420     7.6900    24.0370   -14.3900 
   71.7500     2.1510    74.8070    16.2210    14.7100     7.6460    24.1070   -14.0570 
   71.8750     2.1370    71.5650    16.9890    15.4590     7.6860    24.2780   -13.9810 
   72.0000     2.1290    65.6570    17.6250    16.1600     7.7670    24.4200   -14.0060 
   72.1250     2.1230    63.0680    17.9390    16.6260     7.8470    24.4230   -13.9800 
   72.2500     2.1240    66.0780    17.9130    16.7890     7.7420    24.3340   -13.8870 
   72.3750     2.1390    71.0760    17.5930    16.6500     7.6900    24.2690   -13.7390 
