~V
VERS. 2.00: Ver 2.00
~W
STRT.M 20.0000:
STOP.M 266.0000:
STEP.M 0.1250:
NULL. -999.2500:
UWI. F10773:
~C
DEPT.M :
DEN.GM/CC :
GR.API :
RML.OHMM :
RI. :
RXO.OHMM :
CALI.CM :
SP.MV :
~A
# ...
  166.2500     2.5600    50.3310    32.6690    31.3660    38.7630    24.1410   -12.3090 
  166.3750     2.6130    49.3400    35.7550    34.1110    37.3620    24.4220   -12.1030 
  166.5000     2.6410    46.0800    38.1500    36.4390    33.3040    24.5990   -11.9520 
  166.6250     2.6450    43.3690    39.9630    38.2000    35.5760    24.6510   -11.8240 
  166.7500     2.6350    42.9520    41.1900    39.2280    45.2560    24.6120   -11.6590 
  166.8750     2.6100    43.0850    41.3890    39.1840    50.9250    24.5320   -11.4760 
  167.0000     2.5700    43.2700    40.1930    37.8910    43.4110    24.4540   -11.3180 
  167.1250     2.5160    46.0800    37.6740    35.4830    30.4920    24.4060   -11.2720 
  167.2500     2.4650    50.3130    34.8900    32.8380    22.2640    24.3220   -11.3360 
  167.3750     2.4350    53.2380    32.6530    30.6420    19.1760    24.2590   -11.4050 
  167.5000     2.4400    52.9440    31.4860    29.3740    20.4180    24.2960   -11.4150 
  167.6250     2.4840    50.2790    31.8000    29.3900    26.1500    24.4480   -11.4560 
  167.7500     2.5430    47.2880    33.2760    30.3540    30.9510    24.5360   -11.5590 
  167.8750     2.5950    45.1720    35.6060    31.9590    31.2770    24.5890   -11.6930 
  168.0000     2.6300    44.8940    38.3260    33.8780    29.6050    24.6580   -11.8000 
  168.1250     2.6430    47.5380    40.7360    35.7850    32.8810    24.6540   -11.8990 
  168.2500     2.6460    50.3880    42.2860    37.3990    40.1630    24.5760   -12.0470 
  168.3750     2.6450    51.6890    42.7310    38.4950    42.0840    24.5150   -12.2500 
  168.5000     2.6430    51.6480    42.1940    38.9150    38.1150    24.5590   -12.4220 
  168.6250     2.6370    51.5150    41.0510    38.5530    36.4950    24.5540   -12.3520 
  168.7500     2.6270    50.5900    39.8520    37.7270    35.5840    24.4310   -12.2360 
  168.8750     2.6160    49.3470    38.7820    36.6840    35.8600    24.2950   -12.2350 
  169.0000     2.6050    48.9900    37.7730    35.5730    36.2820    24.2280   -12.4160 
  169.1250     2.5940    49.6600    36.5470    34.3510    35.4680    24.1410   -12.6860 
  169.2500     2.5820    49.9270    34.9660    32.9390    32.8810    24.0260   -12.9290 
  169.3750     2.5650    50.0930    33.1030    31.3580    27.4730    23.9390   -13.1300 
  169.5000     2.5440    49.8180    31.1950    29.7740    24.6970    23.9530   -13.3010 
  169.6250     2.5200    51.0490    29.6300    28.4970    23.4170    24.0520   -13.6460 
  169.7500     2.4980    55.3080    28.6500    27.6930    22.4140    24.1910   -14.0310 
  169.8750     2.4830    58.8410    28.3910    27.4390    21.2920    24.3550   -14.2730 
  170.0000     2.4810    57.4490    28.8390    27.7180    21.7300    24.4960   -14.2900 
  170.1250     2.4980    53.9450    29.8770    28.4910    23.1330    24.5340   -14.1510 
  170.2500     2.5250    52.7860    31.1340    29.5350    24.6140    24.5370   -13.9700 
  170.3750     2.5550    52.3800    32.3980    30.7160    26.2000    24.5850   -13.7880 
  170.5000     2.5800    51.2670    33.5470    31.9110    29.0690    24.6850   -13.6370 
  170.6250     2.5970    51.0280    34.5130    32.9590    30.6630    24.7930   -13.3960 
  170.7500     2.6110    51.4680    35.2790    33.7280    30.4450    24.8410   -13.0600 
  170.8750     2.6230    50.7740    35.7090    34.0620    33.3660    24.8370   -12.7060 
  171.0000     2.6300    49.5670    35.5830    33.8290    36.7740    24.8220   -12.4100 
  171.1250     2.6300    50.4770    34.6060    32.9090    34.4240    24.8110   -12.0850 
  171.2500     2.6260    53.5900    33.0300    31.5670    30.8920    24.7920   -11.6620 
  171.3750     2.6210    55.8220    31.2790    30.0820    28.7710    24.7170   -11.2350 
  171.5000     2.6170    54.1930    29.8880    28.7700    26.4160    24.6390   -10.9030 
  171.6250     2.6110    50.4560    29.4100    28.0360    24.2970    24.6560   -10.7150 
  171.7500     2.6010    49.2270    29.7230    27.9620    24.1320    24.7320   -10.5670 
  171.8750     2.5840    50.2390    30.4710    28.4500    25.1680    24.7470   -10.4190 
  172.0000     2.5600    51.0900    31.1600    29.1790    28.2060    24.7130   -10.2370 
  172.1250     2.5370    51.3000    31.3120    29.6460    28.8480    24.7100   -10.1270 
  172.2500     2.5240    51.8640    30.9770    29.6210    26.6030    24.7340   -10.1820 
  172.3750     2.5280    51.8050    30.4140    29.1970    25.1320    24.7500   -10.2240 
  172.5000     2.5500    49.7260    29.9220    28.6760    24.0450    24.7330   -10.1400 
  172.6250     2.5800    47.2780    29.6980    28.3810    24.0050    24.7070    -9.9780 
  172.7500     2.6030    47.3800    29.6140    28.2910    23.6530    24.6690    -9.8620 
  172.8750     2.6150    50.4550    29.4820    28.1950    24.3010    24.6750    -9.7690 
  173.0000     2.6170    53.7440    29.1500    27.8660    24.5350    24.6700    -9.6640 
  173.1250     2.6150    54.6540    28.5450    27.1790    24.8330    24.6010    -9.4900 
  173.2500     2.6120    53.4440    27.8060    26.3200    23.9470    24.4910    -9.2120 
  173.3750     2.6070    51.9970    27.0720    25.4890    22.1580    24.3730    -8.9200 
  173.5000     2.6000    52.7150    26.4840    24.8610    20.5080    24.2560    -8.6930 
  173.6250     2.5900    55.3590    26.1980    24.5780    20.4230    24.1990    -8.5340 
  173.7500     2.5840    57.3820    26.1830    24.5540    21.7300    24.1650    -8.3880 
  173.8750     2.5840    57.6270    26.3280    24.6680    23.4030    24.1530    -8.2690 
  174.0000     2.5930    57.3070    26.4530    24.7790    24.1000    24.1680    -8.1680 
  174.1250     2.6090    56.3630    26.3720    24.7610    23.2850    24.1820    -8.0600 
  174.2500     2.6270    53.7120    26.1580    24.6410    22.3860    24.2450    -7.9480 
  174.3750     2.6440    50.5990    26.0240    24.5190    21.2480    24.4070    -7.8510 
  174.5000     2.6560    48.9330    26.2040    24.5080    21.2580    24.5930    -7.7530 
  174.6250     2.6620    49.7910    26.7940    24.6730    22.9330    24.6610    -7.6310 
  174.7500     2.6640    51.9220    27.4330    24.8930    23.0270    24.6700    -7.4690 
  174.8750     2.6660    55.3160    27.6980    25.0160    23.7370    24.6030    -7.3080 
  175.0000     2.6670    57.8110    27.2850    24.8990    24.9410    24.4690    -7.1920 
  175.1250     2.6680    55.7350    26.1330    24.4090    24.0400    24.2500    -7.2050 
  175.2500     2.6670    52.9520    24.6910    23.6180    21.3250    24.1230    -7.3230 
  175.3750     2.6610    52.8300    23.2490    22.6110    19.3150    24.1010    -7.4820 
  175.5000     2.6470    53.2230    21.9160    21.4990    18.5720    24.1660    -7.6490 
  175.6250     2.6220    50.2790    20.6490    20.3940    18.1150    24.1590    -7.7820 
  175.7500     2.5920    49.4110    19.3870    19.3440    17.7980    24.0980    -7.9450 
  175.8750     2.5670    53.5050    18.1840    18.3290    16.7670    24.0280    -8.1500 
  176.0000     2.5550    56.1450    17.1400    17.3160    15.6010    24.0330    -8.3880 
  176.1250     2.5600    52.0540    16.3740    16.3220    14.3320    24.2550    -8.6150 
  176.2500     2.5680    47.4070    15.8470    15.4280    13.7700    24.4750    -8.7880 
  176.3750     2.5660    47.3900    15.5260    14.7300    13.4640    24.5290    -8.9010 
  176.5000     2.5500    50.8190    15.3910    14.2900    13.2060    24.5030    -8.9370 
  176.6250     2.5280    53.8780    15.4800    14.1670    12.9590    24.5490    -8.9300 
  176.7500     2.5150    56.7670    15.7820    14.3110    13.1740    24.6660    -8.9190 
  176.8750     2.5180    58.3440    16.3250    14.7260    13.9270    24.7250    -8.8850 
  177.0000     2.5340    57.4340    17.1220    15.4070    14.2320    24.7420    -8.7970 
  177.1250     2.5560    55.0560    18.1250    16.3160    15.0400    24.7510    -8.6150 
  177.2500     2.5730    54.3760    19.0530    17.2460    16.0310    24.7380    -8.3600 
  177.3750     2.5770    55.1340    19.5740    17.9660    17.4920    24.6850    -8.0780 
