~V
VERS. 2.00: Ver 2.00
~W
STRT.M 45.0000:
STOP.M 272.0000:
STEP.M 0.1250:
NULL. -999.2500:
UWI. F10774:
~C
DEPT.M :
DEN.GM/CC :
SP.MV :
GR.API :
RML.OHMM :
RI. :
RXO.OHMM :
CALI.CM :
~A
# ...
  112.5000     2.2400   -21.0870    80.4730     7.8940     6.6260     5.1500    25.0690 
  112.6250     2.2220   -21.2720    76.6090     8.1760     6.6160     5.1960    25.1010 
  112.7500     2.2290   -21.4260    72.9090     8.5910     6.7780     5.1550    25.0620 
  112.8750     2.2530   -21.5340    70.3840     8.8370     6.9040     5.1140    24.9980 
  113.0000     2.2780   -21.5920    70.0610     8.7700     6.8800     5.0430    24.9400 
  113.1250     2.2900   -21.6260    73.9820     8.4030     6.6780     4.8110    24.9140 
  113.2500     2.2780   -21.6730    80.6280     7.8610     6.3460     4.6100    24.9570 
  113.3750     2.2540   -21.7770    84.8110     7.3480     6.0000     4.6650    25.0510 
  113.5000     2.2350   -21.9540    85.4000     7.0440     5.7560     4.8410    25.1430 
  113.6250     2.2350   -22.1820    82.7990     7.1670     5.7620     5.0830    25.2060 
  113.7500     2.2540   -22.4390    77.0490     7.9380     6.1930     5.7070    25.2460 
  113.8750     2.2830   -22.7110    71.0520     9.3340     7.0670     6.9790    25.2580 
  114.0000     2.3220   -23.0020    66.1310    11.2260     8.3380    10.2980    25.2060 
  114.1250     2.3630   -23.2830    62.4760    13.1850     9.7690    16.3460    25.0570 
  114.2500     2.3740   -23.5420    59.7300    14.4140    10.8550    19.4260    24.7980 
  114.3750     2.3280   -23.7730    58.1240    14.4080    11.1770    13.9580    24.6020 
  114.5000     2.2520   -23.9650    58.5240    13.3160    10.7230     8.6620    24.6000 
  114.6250     2.1970   -24.1190    60.0750    11.7960     9.8410     7.0900    24.8320 
  114.7500     2.1910   -24.2160    63.2690    10.4900     8.9430     7.1500    25.0840 
  114.8750     2.2130   -24.2370    67.3400     9.5810     8.2390     7.2560    25.2360 
  115.0000     2.2390   -24.1810    70.0590     8.9650     7.7210     6.8990    25.3150 
  115.1250     2.2580   -24.0600    71.2600     8.4740     7.3040     6.0050    25.3620 
  115.2500     2.2630   -23.8650    73.8530     8.0040     6.9150     5.4940    25.3660 
  115.3750     2.2610   -23.6210    79.5720     7.5410     6.5270     5.1960    25.3420 
  115.5000     2.2600   -23.3500    86.2900     7.1020     6.1500     4.8010    25.3190 
  115.6250     2.2640   -23.0660    90.3220     6.6980     5.7960     4.2710    25.3180 
  115.7500     2.2740   -22.8080    90.1910     6.3350     5.4740     3.8950    25.2980 
  115.8750     2.2800   -22.6200    88.2400     6.0060     5.1820     3.7940    25.2530 
  116.0000     2.2790   -22.5000    85.3080     5.7170     4.9200     3.7890    25.2070 
  116.1250     2.2730   -22.4460    81.8930     5.5010     4.7110     3.8000    25.2010 
  116.2500     2.2640   -22.4720    79.9170     5.4440     4.6120     3.8440    25.2380 
  116.3750     2.2460   -22.5360    81.4410     5.6330     4.6800     3.9220    25.2670 
  116.5000     2.2160   -22.6080    84.6290     6.1710     4.9870     4.1440    25.2610 
  116.6250     2.1790   -22.6780    83.3990     7.1230     5.5900     4.8580    25.2320 
  116.7500     2.1470   -22.7560    75.7910     8.4710     6.5150     6.2900    25.2460 
  116.8750     2.1300   -22.8300    68.3530     9.9640     7.6200     7.6080    25.2730 
  117.0000     2.1260   -22.8850    64.9940    11.3350     8.7400     8.0400    25.2880 
  117.1250     2.1270   -22.9190    63.3190    12.3860     9.7120     7.9500    25.2660 
  117.2500     2.1240   -22.9130    60.0400    13.1300    10.4730     8.1040    25.2290 
  117.3750     2.1160   -22.8710    56.4350    13.8480    11.1500     8.6580    25.2380 
  117.5000     2.1080   -22.7880    54.4090    14.6840    11.8450     9.6220    25.3040 
  117.6250     2.1020   -22.6480    53.5680    15.4840    12.4860    10.6320    25.3990 
  117.7500     2.1060   -22.4470    53.4790    15.7350    12.7460    11.2760    25.4990 
  117.8750     2.1260   -22.2360    54.5530    15.0070    12.3060    11.2130    25.5600 
  118.0000     2.1640   -22.0420    57.3810    13.2610    11.1030    10.0950    25.5600 
  118.1250     2.2140   -21.8710    62.7440    10.9940     9.4580     8.0660    25.4870 
  118.2500     2.2520   -21.7330    71.3070     9.0270     7.9190     5.9820    25.3640 
  118.3750     2.2710   -21.6180    79.8840     7.8930     6.8890     4.8900    25.2790 
  118.5000     2.2790   -21.5330    83.6030     7.7100     6.5030     4.6900    25.2280 
  118.6250     2.2950   -21.4890    80.2300     8.3650     6.7570     5.3130    25.1860 
  118.7500     2.3340   -21.4840    73.3940     9.5760     7.5370     7.2650    25.1360 
  118.8750     2.3920   -21.4840    69.2740    10.7450     8.4510    10.5570    25.0550 
  119.0000     2.4430   -21.4840    69.7170    11.3250     9.0910    13.3080    24.9380 
  119.1250     2.4460   -21.4790    73.5770    11.0210     9.1520    11.8010    24.7990 
  119.2500     2.3920   -21.4570    77.9370    10.0640     8.6540     7.4570    24.6660 
  119.3750     2.3320   -21.4400    79.4900     9.0980     8.0010     5.8370    24.6080 
  119.5000     2.2920   -21.4340    77.8430     8.4010     7.4260     6.0090    24.6920 
  119.6250     2.2700   -21.4550    77.2470     7.9970     7.0190     6.4110    24.9320 
  119.7500     2.2580   -21.4870    81.4430     7.7960     6.7810     6.2170    25.0980 
  119.8750     2.2490   -21.4940    85.7310     7.6830     6.6470     5.6580    25.1600 
  120.0000     2.2400   -21.4550    85.3460     7.6840     6.6180     5.2850    25.1810 
  120.1250     2.2260   -21.3800    80.6440     7.9280     6.7550     5.5120    25.2200 
  120.2500     2.2070   -21.2810    76.1850     8.5870     7.1740     6.0770    25.2710 
  120.3750     2.1910   -21.1660    72.7560     9.6680     7.9040     6.6640    25.2890 
  120.5000     2.1830   -21.0390    69.4370    11.1210     8.9430     6.9960    25.2650 
  120.6250     2.1790   -20.9120    66.2090    12.8030    10.2130     7.5820    25.2190 
  120.7500     2.1660   -20.8010    63.6730    14.4540    11.5410     9.4100    25.1820 
  120.8750     2.1480   -20.7240    61.8910    15.7710    12.6690    11.1170    25.1690 
  121.0000     2.1340   -20.6810    60.7580    16.5640    13.4170    11.1870    25.1660 
  121.1250     2.1290   -20.6590    60.4740    16.8230    13.7280    10.2750    25.1640 
  121.2500     2.1300   -20.6510    61.8740    16.7370    13.7000     9.3510    25.1630 
  121.3750     2.1310   -20.6430    64.2490    16.6690    13.6050     8.8610    25.1620 
  121.5000     2.1290   -20.6250    64.9540    16.8370    13.6250     8.7110    25.1650 
  121.6250     2.1280   -20.5800    62.5080    17.2970    13.8420     8.6360    25.1820 
  121.7500     2.1290   -20.5130    59.3960    17.9380    14.2190     8.7960    25.2340 
  121.8750     2.1270   -20.4300    58.0060    18.5220    14.6090     9.5970    25.3330 
  122.0000     2.1190   -20.3460    55.7520    18.8910    14.9060    10.7960    25.4650 
  122.1250     2.1050   -20.2770    51.8000    18.9750    15.0530    11.5760    25.5940 
  122.2500     2.0900   -20.2240    50.5860    18.8240    15.0700    11.4420    25.7310 
  122.3750     2.0750   -20.1710    52.3990    18.6330    15.0790    11.1170    26.0070 
  122.5000     2.0630   -20.1230    53.3550    18.5590    15.1940    11.2400    26.4470 
  122.6250     2.0590   -20.0730    52.0780    18.7200    15.5230    11.7150    26.7500 
  122.7500     2.0710   -19.9990    50.6000    19.1890    16.1460    12.2420    26.6140 
  122.8750     2.0860   -19.8940    49.9930    19.9060    17.0090    13.1090    26.3040 
  123.0000     2.0940   -19.7680    50.3370    20.8150    18.0480    14.8770    26.1920 
  123.1250     2.1030   -19.6360    51.2890    21.7440    19.1210    16.3380    26.2420 
  123.2500     2.1220   -19.5340    49.9710    22.2120    19.8420    16.7360    26.3140 
  123.3750     2.1500   -19.4820    46.3800    21.5950    19.6530    16.4160    26.3570 
  123.5000     2.1930   -19.4750    45.3380    19.4950    18.1270    16.4650    26.2710 
  123.6250     2.2650   -19.5060    50.1810    16.1490    15.3930    17.4990    25.9620 
