~V
VERS. 2.00: Ver 2.00
~W
STRT.M 50.0000:
STOP.M 229.0000:
STEP.M 0.1250:
NULL. -999.2500:
UWI. F10777:
~C
DEPT.M :
DEN.GM/CC :
GR.API :
RML.OHMM :
RI. :
RXO.OHMM :
CALI.CM :
SP.MV :
~A
# ...
  196.2500     2.2580    51.9450    87.8920    76.3400    73.6630    24.9390   -21.8770 
  196.3750     2.2590    55.3080    91.8370    80.1140    76.5350    24.9050   -22.1540 
  196.5000     2.2610    57.0880    94.6630    83.0300    78.3520    24.9130   -22.4380 
  196.6250     2.2610    56.2140    96.4010    84.9380    81.7000    25.0100   -22.7020 
  196.7500     2.2560    54.9060    97.4040    85.9890    83.8950    25.0780   -22.9450 
  196.8750     2.2490    54.0180    97.9040    86.3010    82.2270    25.0480   -23.1740 
  197.0000     2.2410    53.9170    98.2930    86.2290    80.9900    25.0000   -23.3980 
  197.1250     2.2380    55.9780    99.4030    86.5720    77.4340    25.0500   -23.6140 
  197.2500     2.2380    58.1780   102.1050    88.2500    76.3320    25.1250   -23.8100 
  197.3750     2.2340    58.1280   107.1780    92.0210    77.5900    25.1870   -23.9700 
  197.5000     2.2240    55.0970   114.9010    98.1620    81.1110    25.2270   -24.0890 
  197.6250     2.2100    51.0670   124.6070   106.0550    91.5620    25.3480   -24.1680 
  197.7500     2.1980    50.0350   133.4600   113.1350   112.2220    25.5490   -24.2160 
  197.8750     2.1910    51.0460   138.1590   116.6060   131.9710    25.6960   -24.2400 
  198.0000     2.1910    51.0410   135.8230   114.2560   132.0350    25.3780   -24.2430 
  198.1250     2.1970    49.7290   125.2140   105.2390   112.9280    25.1940   -24.2240 
  198.2500     2.2070    50.9070   111.0520    93.3130    93.4920    25.0700   -24.1910 
  198.3750     2.2180    53.7560    97.1080    81.5090    82.6770    24.9920   -24.1390 
  198.5000     2.2300    55.3940    85.7400    71.8280    73.1740    24.8330   -24.0610 
  198.6250     2.2390    56.1240    78.2510    65.4610    59.9680    24.6360   -23.9500 
  198.7500     2.2430    57.9250    73.7220    61.7000    55.2950    24.5970   -23.8210 
  198.8750     2.2420    59.3960    71.4750    60.0140    56.0210    24.6700   -23.6980 
  199.0000     2.2350    58.7340    70.8730    59.8350    56.0980    24.7730   -23.5990 
  199.1250     2.2310    56.3490    71.7310    60.8870    55.4510    24.8500   -23.5280 
  199.2500     2.2460    54.3320    73.8470    62.9220    54.9650    24.8420   -23.4570 
  199.3750     2.2850    54.5130    77.1420    65.9750    54.1720    24.7830   -23.3650 
  199.5000     2.3420    56.5520    80.1980    69.1010    51.5500    24.7330   -23.2470 
  199.6250     2.4070    56.5250    77.6490    67.8840    44.7720    24.7470   -23.1140 
  199.7500     2.4720    53.5410    65.9090    58.6980    44.2040    24.7920   -22.9780 
  199.8750     2.5270    50.7750    47.3440    43.1130    47.0850    24.7260   -22.8320 
  200.0000     2.5590    51.4450    29.1100    27.3410    44.9560    24.5180   -22.6490 
  200.1250     2.5500    55.3130    17.1310    16.6880    23.1720    24.2990   -22.3880 
  200.2500     2.4930    58.8590    10.3970    10.4580     9.7600    24.0950   -22.0490 
  200.3750     2.4240    59.5350     7.1360     7.2220     5.1470    23.9360   -21.6590 
  200.5000     2.3710    56.9870     5.8320     5.7370     4.2870    23.8530   -21.2730 
  200.6250     2.3470    54.0360     5.6520     5.3510     4.4630    23.8200   -20.9600 
  200.7500     2.3490    52.8490     5.9130     5.4830     4.5940    23.7920   -20.7500 
  200.8750     2.3570    52.5120     6.3260     5.8720     4.7160    23.7640   -20.6460 
  201.0000     2.3610    52.4280     6.7040     6.3100     4.7700    23.7460   -20.6290 
  201.1250     2.3600    53.0150     6.9710     6.6660     4.9140    23.7360   -20.6820 
  201.2500     2.3540    55.0570     7.2000     6.9530     4.9820    23.7430   -20.7730 
  201.3750     2.3490    59.9290     7.4340     7.2040     5.0780    23.7600   -20.8810 
  201.5000     2.3500    67.4510     7.6710     7.4330     5.4980    23.7860   -20.9830 
  201.6250     2.3620    75.4380     7.8830     7.6180     6.1350    23.8650   -21.0310 
  201.7500     2.3860    82.4660     8.0500     7.7330     6.8600    23.9700   -20.9830 
  201.8750     2.4100    87.0850     8.1620     7.7590     7.1870    24.0220   -20.8130 
  202.0000     2.4240    88.2620     8.2250     7.6960     6.9020    24.1120   -20.5120 
  202.1250     2.4270    88.4570     8.2600     7.5730     6.4400    24.2390   -20.0880 
  202.2500     2.4190    92.9080     8.2950     7.4470     6.2340    24.3190   -19.6220 
  202.3750     2.4090   101.7460     8.3410     7.3500     6.2410    24.2950   -19.1740 
  202.5000     2.4010   109.4230     8.4000     7.2950     6.4490    24.1560   -18.8010 
  202.6250     2.3960   110.5440     8.4780     7.2860     6.7790    24.0740   -18.5490 
  202.7500     2.3950   106.4420     8.5750     7.3110     6.8110    24.0980   -18.4020 
  202.8750     2.3960   101.0260     8.6970     7.3690     6.7100    24.2230   -18.3320 
  203.0000     2.3980    99.0270     8.8570     7.4640     6.6850    24.3950   -18.3010 
  203.1250     2.4000    99.0300     9.0530     7.5930     6.9600    24.5650   -18.2850 
  203.2500     2.4040    97.8750     9.2370     7.7200     7.2370    24.6880   -18.2870 
  203.3750     2.4070    97.1680     9.3490     7.7990     7.4660    24.7350   -18.3230 
  203.5000     2.4100    99.8350     9.3430     7.7920     7.5410    24.7450   -18.3990 
  203.6250     2.4120   103.7510     9.1980     7.6740     7.2950    24.7500   -18.5010 
  203.7500     2.4110   105.8750     9.0140     7.5110     6.8940    24.7430   -18.5910 
  203.8750     2.4080   108.2700     8.9110     7.3830     6.6680    24.7340   -18.6510 
  204.0000     2.4080   111.2600     8.9900     7.3690     6.7740    24.7240   -18.6850 
  204.1250     2.4130   110.0480     9.3550     7.5580     7.1570    24.7280   -18.7030 
  204.2500     2.4320   104.2430     9.9740     7.9490     7.9300    24.7360   -18.7120 
  204.3750     2.4600    97.0170    10.8080     8.5300     9.2110    24.7560   -18.7060 
  204.5000     2.4860    91.6640    11.7830     9.2590    10.2080    24.7700   -18.6760 
  204.6250     2.4940    88.4400    12.8170    10.0810    10.5490    24.7660   -18.6370 
  204.7500     2.4750    87.0120    13.8440    10.9290    11.5260    24.7290   -18.6130 
  204.8750     2.4420    88.4650    14.8270    11.7660    12.2290    24.7120   -18.6110 
  205.0000     2.4090    91.1150    15.7250    12.5540    12.5990    24.7130   -18.6180 
  205.1250     2.3830    90.8620    16.4780    13.2310    12.8790    24.7210   -18.6070 
  205.2500     2.3660    88.0930    17.0830    13.7750    13.6400    24.7350   -18.5740 
  205.3750     2.3540    85.9330    17.5510    14.1850    14.5580    24.7650   -18.5340 
  205.5000     2.3420    83.8960    17.9260    14.4920    14.6500    24.7980   -18.5060 
  205.6250     2.3320    82.5040    18.2790    14.7500    13.9550    24.7480   -18.5100 
  205.7500     2.3290    83.9910    18.6500    15.0050    14.0310    24.7010   -18.5530 
  205.8750     2.3330    86.0090    19.0030    15.2490    14.6900    24.6700   -18.6440 
  206.0000     2.3400    83.1590    19.2530    15.4320    15.4720    24.6250   -18.7860 
  206.1250     2.3470    76.9410    19.3090    15.4800    15.9030    24.5550   -18.9620 
  206.2500     2.3500    75.8800    19.3360    15.4800    14.9100    24.5400   -19.1300 
  206.3750     2.3510    81.3940    19.7270    15.6690    15.2610    24.5950   -19.2620 
  206.5000     2.3500    87.6010    21.0810    16.4340    15.8030    24.7000   -19.3480 
  206.6250     2.3430    85.6040    24.3790    18.4890    16.5190    24.7480   -19.4210 
  206.7500     2.3230    76.8860    29.7290    22.0870    19.7670    24.7600   -19.5340 
  206.8750     2.2930    66.9570    36.8350    27.2610    29.8230    24.7630   -19.7100 
  207.0000     2.2610    60.4980    44.4850    33.3510    54.6250    24.7710   -19.9450 
  207.1250     2.2380    60.7430    50.0590    38.4790    62.8240    24.7530   -20.2000 
  207.2500     2.2350    64.1110    52.3860    41.2630    39.6310    24.6710   -20.4210 
  207.3750     2.2450    66.0030    52.5860    42.0760    24.0800    24.5670   -20.5770 
