~V
VERS. 2.00: Ver 2.00
~W
STRT.M 51.0000:
STOP.M 263.0000:
STEP.M 0.1250:
NULL. -999.2500:
UWI. F10758:
~C
DEPT.M :
DEN.GM/CC :
GR.API :
RML.OHMM :
RI. :
RXO.OHMM :
CALI.CM :
SP.MV :
~A
   51.0000  -999.2500    44.1330     1.5190     0.1710     1.5690    23.1130  -999.2500 
   51.1250  -999.2500    42.2430     1.3630     0.1550     1.4490    23.3420  -999.2500 
   51.2500  -999.2500    40.7400     1.2950     0.1630     1.3310    23.5750  -999.2500 
   51.3750  -999.2500    40.3940     1.2630     0.1880     1.2500    23.6920  -999.2500 
   51.5000  -999.2500    40.7210     1.2160     0.2150     1.1910    23.7760  -999.2500 
   51.6250  -999.2500    41.2820     1.1440     0.2330     1.1540    23.7900  -999.2500 
   51.7500  -999.2500    42.6720     1.0890     0.2420     1.1440    23.8000  -999.2500 
   51.8750  -999.2500    45.6780     1.0690     0.2440     1.1550    23.7970  -999.2500 
   52.0000  -999.2500    49.6900     1.0500     0.2400     1.1620    23.7920  -999.2500 
   52.1250  -999.2500    52.9340     0.9640     0.2320     1.1640    23.7810    69.4020 
   52.2500     2.0230    53.6840     0.8020     0.2240     1.1530    23.7590    69.4020 
   52.3750     2.0230    52.0690     0.5980     0.2190     1.1060    23.8180    69.4020 
   52.5000     1.9950    48.5160     0.3930     0.2160     1.0540    24.0700    69.4020 
   52.6250     1.9730    44.7400     0.2240     0.2170     1.0780    24.5570    69.4020 
   52.7500     1.9590    42.9580     0.1150     0.2230     1.3640    25.0300    69.4020 
   52.8750     1.9480    42.5260     0.0770     0.2370     2.2380    25.3680    70.3770 
   53.0000     1.9380    40.4050     0.1080     0.2590     3.8750    25.4830    71.9540 
   53.1250     1.9270    37.5330     0.2220     0.2830     3.8190    25.4910    73.3880 
   53.2500     1.9180    37.6620     0.3980     0.2960     3.3200    25.4600    74.5870 
   53.3750     1.9120    39.5850     0.5970     0.2930     2.9750    25.4280    75.3930 
   53.5000     1.9160    40.3560     0.7660     0.2770     2.7680    25.4220    75.7440 
   53.6250     1.9460    39.3400     0.8660     0.2590     2.5130    25.4200    75.5730 
   53.7500     2.0100    38.5520     0.9440     0.2560     2.0720    25.4010    74.9780 
   53.8750     2.1080    38.7880     1.0790     0.2710     1.4970    25.2760    73.9710 
   54.0000     2.2310    40.1700     1.3340     0.2910     1.1080    25.0760    72.6010 
   54.1250     2.3500    41.9500     1.6510     0.2920     1.0060    24.5790    70.9160 
   54.2500     2.4410    41.8280     1.8700     0.2710     1.1010    23.9100    69.1280 
   54.3750     2.4930    40.2640     1.8780     0.2390     1.2420    23.2260    67.4680 
   54.5000     2.5080    40.4070     1.6280     0.2160     1.3610    22.8850    66.1060 
   54.6250     2.4910    44.5180     1.2010     0.2220     1.4110    22.8300    65.1880 
   54.7500     2.4580    49.5470     0.8080     0.2490     1.4170    22.8250    64.6510 
   54.8750     2.4130    51.0830     0.5640     0.2800     1.3690    22.8360    64.4520 
   55.0000     2.3570    49.9410     0.4700     0.2980     1.3150    22.8610    64.5380 
   55.1250     2.2920    48.2560     0.4360     0.2920     1.2930    22.9380    64.7790 
   55.2500     2.2270    47.1240     0.3840     0.2650     1.2670    23.0780    65.0350 
   55.3750     2.1690    46.4560     0.3200     0.2300     1.1740    23.4660    65.2600 
   55.5000     2.1230    47.1630     0.2770     0.2020     1.0240    23.9260    65.4110 
   55.6250     2.0910    48.6390     0.3010     0.1940     0.8720    24.4130    65.4410 
   55.7500     2.0660    47.3990     0.3730     0.2010     0.7930    24.6340    65.3440 
   55.8750     2.0460    44.1320     0.4540     0.2150     0.8200    24.5050    65.1500 
   56.0000     2.0290    42.9950     0.5190     0.2280     0.9500    24.3460    64.8980 
   56.1250     2.0180    46.0910     0.5770     0.2370     1.1260    24.1770    64.7160 
   56.2500     2.0090    49.0040     0.6510     0.2480     1.2030    24.0910    64.6810 
   56.3750     2.0000    50.1610     0.7400     0.2630     1.1570    24.1510    64.7880 
   56.5000     1.9940    50.3410     0.8090     0.2770     1.0470    24.4640    65.0200 
   56.6250     1.9970    49.0520     0.8020     0.2790     1.0160    24.8740    65.4400 
   56.7500     2.0200    46.3910     0.6990     0.2660     1.5160    25.2280    66.0120 
   56.8750     2.0710    44.3230     0.5210     0.2400     2.8860    25.3930    66.6210 
   57.0000     2.1540    44.2100     0.3320     0.2090     2.8870    25.4010    67.1010 
   57.1250     2.2610    44.6660     0.2240     0.1820     1.8600    25.2700    67.1960 
   57.2500     2.3620    44.1310     0.2240     0.1710     1.2900    24.9420    66.8450 
   57.3750     2.4310    42.5000     0.3100     0.1790     1.0280    24.5800    66.0770 
   57.5000     2.4500    41.4710     0.4280     0.2010     0.9950    24.0680    65.0200 
   57.6250     2.4150    41.5410     0.5210     0.2290     1.1000    23.8450    63.7180 
   57.7500     2.3620    42.5000     0.5800     0.2510     1.1920    23.8030    62.2920 
   57.8750     2.3160    44.5620     0.6280     0.2650     1.2360    23.8190    60.8740 
   58.0000     2.2930    47.2140     0.6760     0.2830     1.2670    23.8600    59.5880 
   58.1250     2.2950    47.9680     0.6850     0.3170     1.3240    23.8200    58.6240 
   58.2500     2.3010    45.8260     0.6100     0.3600     1.3930    23.7600    58.0620 
   58.3750     2.3000    42.7850     0.4510     0.3920     1.4590    23.6500    57.8620 
   58.5000     2.2900    40.4120     0.2570     0.3930     1.4990    23.5450    57.8610 
   58.6250     2.2870    39.9080     0.1120     0.3440     1.5000    23.4790    57.9230 
   58.7500     2.3080    41.5250     0.0680     0.2640     1.4850    23.5480    57.9130 
   58.8750     2.3580    43.5620     0.1170     0.1760     1.4140    23.6660    57.6640 
   59.0000     2.4310    43.8690     0.1760     0.1010     1.2640    23.7170    56.9760 
   59.1250     2.5090    41.0770     0.1850     0.0550     1.1500    23.4960    55.5320 
   59.2500     2.5690    38.8140     0.1740     0.0330     1.2650    23.2820    53.1850 
   59.3750     2.5890    39.0840     0.1690     0.0360     1.6550    23.2030    49.7310 
   59.5000     2.5530    41.1880     0.1870     0.0800     1.8940    23.2070    45.0370 
   59.6250     2.4640    44.5080     0.2900     0.2230     2.2970    23.3130    38.8700 
   59.7500     2.3620    48.8140     0.5730     0.5390     3.3330    23.5670    31.8260 
   59.8750     2.2760    53.0370     1.2020     1.1560     4.5560    23.6550    24.4210 
   60.0000     2.2190    56.8960     2.3720     2.2240     5.3100    23.6820    17.0950 
   60.1250     2.1910    61.7960     4.0700     3.7780     5.4310    23.2350    10.2670 
   60.2500     2.1760    66.8000     5.4100     5.2860     5.7740    22.6430     4.0890 
   60.3750     2.1640    70.2550     5.8500     6.2700     6.5640    22.3380    -1.2380 
   60.5000     2.1540    72.9030     5.6850     6.6340     7.4330    22.0710    -5.5000 
   60.6250     2.1570    77.3400     5.2970     6.4960     6.8150    21.9020    -8.4130 
   60.7500     2.1750    82.5030     4.8410     6.1280     5.4930    21.8250   -10.4280 
   60.8750     2.2030    86.0290     4.4260     5.6660     4.7140    21.7920   -11.9220 
   61.0000     2.2320    88.9790     4.1720     5.2280     4.4340    21.7450   -13.1170 
   61.1250     2.2530    93.0880     4.1420     4.9220     4.1930    21.7370   -14.0950 
   61.2500     2.2620    96.4230     4.1830     4.7520     3.9980    21.7350   -14.8930 
   61.3750     2.2600    96.3590     4.1990     4.6950     3.9380    21.7360   -15.4850 
   61.5000     2.2510    94.4820     4.2070     4.7150     4.0050    21.7330   -15.9000 
   61.6250     2.2350    95.1690     4.3020     4.7640     4.0700    21.6320   -16.1380 
   61.7500     2.2170    97.2470     4.4530     4.7820     4.0410    21.3010   -16.2080 
   61.8750     2.1990    96.8850     4.4940     4.7300     3.9280    21.0020   -16.1640 
   62.0000     2.1860    94.1430     4.2630     4.5990     3.8520    21.1020   -16.0650 
   62.1250     2.1850    91.9880     3.7870     4.4090     3.7570    21.7430   -15.9290 
