~V
VERS. 2.00: Ver 2.00
~W
STRT.M 50.0000:
STOP.M 228.0000:
STEP.M 0.1250:
NULL. -999.2500:
UWI. F10779:
~C
DEPT.M :
GR.API :
RML.OHMM :
RI. :
RXO.OHMM :
CALI.CM :
SP.MV :
DEN.GM/CC :
~A
# ...
  106.2500    78.0990     9.1770     9.2470     9.1610    24.9810   -15.2700     2.2260 
  106.3750    77.5350     9.9310     9.9740     9.8280    24.9510   -15.2060     2.1970 
  106.5000    74.0610    10.5140    10.5620    10.4120    24.9240   -15.1090     2.1790 
  106.6250    70.8820    10.5820    10.6880    10.4010    24.9070   -14.9440     2.1860 
  106.7500    71.6440    10.1940    10.3700    10.1240    24.8690   -14.6960     2.2090 
  106.8750    76.4120     9.6270     9.8240     9.5370    24.8330   -14.3380     2.2330 
  107.0000    80.9960     9.2710     9.3790     8.7950    24.8050   -13.8530     2.2430 
  107.1250    80.8450     9.5930     9.4280     8.9290    25.0180   -13.2380     2.2330 
  107.2500    76.6950    10.7060    10.1040    10.0040    25.0620   -12.5190     2.2200 
  107.3750    70.3160    12.6640    11.5030    11.4410    25.1080   -11.7290     2.2120 
  107.5000    64.3610    15.3930    13.6330    13.0410    25.1510   -10.9040     2.2150 
  107.6250    59.9140    18.6140    16.3850    15.4120    25.1770   -10.0900     2.2340 
  107.7500    56.5770    21.6360    19.1780    17.3720    25.1910    -9.2990     2.2670 
  107.8750    53.4190    23.8650    21.4270    17.5340    25.1990    -8.5550     2.3090 
  108.0000    51.0100    24.9110    22.6720    16.1290    25.2000    -7.8690     2.3430 
  108.1250    51.7260    24.5740    22.6190    16.2730    25.1950    -7.2660     2.3440 
  108.2500    54.7480    23.4820    21.7870    17.6070    25.1640    -6.7450     2.3110 
  108.3750    58.3900    22.2270    20.6860    18.9640    25.1120    -6.3040     2.2580 
  108.5000    60.8300    21.3470    19.7800    17.5190    25.0390    -5.9410     2.2090 
  108.6250    60.1380    21.2950    19.4810    15.8940    24.6580    -5.6500     2.1840 
  108.7500    58.7600    21.9890    19.8090    15.7330    24.7280    -5.4070     2.1760 
  108.8750    59.3890    23.2110    20.6740    18.2690    24.7310    -5.2050     2.1770 
  109.0000    61.6030    24.5670    21.8210    22.9630    24.7200    -5.0610     2.1770 
  109.1250    61.7950    25.4770    22.7940    23.4220    24.6140    -4.9810     2.1680 
  109.2500    59.8570    25.6380    23.2160    21.3210    24.5700    -4.9800     2.1560 
  109.3750    58.6120    25.0160    22.9480    19.1010    24.5640    -5.0650     2.1490 
  109.5000    58.7700    23.8600    22.1360    17.9900    24.5630    -5.2200     2.1530 
  109.6250    58.2630    22.6580    21.1860    16.5220    24.5470    -5.3910     2.1650 
  109.7500    57.2030    21.8780    20.5460    15.0800    24.4840    -5.5380     2.1730 
  109.8750    58.0860    21.7620    20.4500    14.4250    24.3990    -5.6210     2.1700 
  110.0000    61.1080    22.3960    21.0050    15.3160    24.3660    -5.6080     2.1580 
  110.1250    62.0130    23.7730    22.2730    18.9990    24.3600    -5.5130     2.1450 
  110.2500    59.3110    25.4090    23.8890    24.1320    24.3660    -5.3690     2.1390 
  110.3750    57.3230    26.7660    25.3890    27.4450    24.3730    -5.2310     2.1400 
  110.5000    58.4430    27.2900    26.2180    27.8190    24.3750    -5.1600     2.1440 
  110.6250    60.1770    26.5170    25.8260    26.5920    24.3770    -5.2170     2.1470 
  110.7500    60.6850    24.8930    24.5350    23.6660    24.3850    -5.3630     2.1490 
  110.8750    59.5050    22.9550    22.8230    18.9230    24.4210    -5.5540     2.1510 
  111.0000    57.3880    21.2170    21.1790    15.3090    24.4860    -5.7390     2.1530 
  111.1250    57.5210    20.1030    20.0180    13.7050    24.5180    -5.8500     2.1520 
  111.2500    60.5850    19.6220    19.3990    13.4720    24.6320    -5.8520     2.1520 
  111.3750    61.8850    19.7360    19.3180    13.6190    24.7150    -5.7160     2.1540 
  111.5000    59.1600    20.3550    19.7300    14.0100    24.6850    -5.4460     2.1580 
  111.6250    55.6940    21.4270    20.6230    14.3620    24.6770    -5.0550     2.1630 
  111.7500    54.8240    22.7790    21.8370    14.6640    24.6770    -4.6300     2.1650 
  111.8750    54.4770    24.3300    23.2930    15.4740    24.6740    -4.2140     2.1660 
  112.0000    53.6360    25.9790    24.8940    17.9700    24.6230    -3.8390     2.1640 
  112.1250    53.4140    27.5290    26.4690    23.4070    24.5780    -3.5480     2.1590 
  112.2500    53.1150    28.7770    27.8190    28.9010    24.5970    -3.3640     2.1490 
  112.3750    52.3340    29.6010    28.8000    31.4870    24.6530    -3.3010     2.1380 
  112.5000    52.5900    29.9960    29.3720    31.8150    24.6500    -3.3610     2.1310 
  112.6250    55.2270    30.0380    29.5760    31.5080    24.6700    -3.5440     2.1320 
  112.7500    57.2580    29.9510    29.6280    31.1200    24.6690    -3.8240     2.1380 
  112.8750    56.2290    29.8310    29.6150    30.8240    24.6770    -4.2130     2.1470 
  113.0000    54.3150    29.6410    29.4840    30.1660    24.6850    -4.7120     2.1560 
  113.1250    54.7740    29.1140    28.9500    29.2240    24.6850    -5.3460     2.1650 
  113.2500    56.1290    28.0370    27.8310    27.5480    24.6860    -6.0690     2.1700 
  113.3750    56.8930    26.3240    26.1050    25.8020    24.6840    -6.8650     2.1710 
  113.5000    56.9690    24.1520    23.9910    24.1340    24.6760    -7.6880     2.1690 
  113.6250    58.3150    22.0470    21.9970    21.0760    24.6590    -8.5210     2.1750 
  113.7500    60.2060    20.6300    20.6950    18.2250    24.5760    -9.3070     2.1880 
  113.8750    60.9600    20.3480    20.5980    17.0510    24.4700   -10.0260     2.2030 
  114.0000    61.4480    21.5550    22.2400    17.5780    24.2750   -10.6910     2.2170 
  114.1250    62.7070    25.2360    26.6350    20.2730    23.9850   -11.3240     2.2440 
  114.2500    62.7120    31.8890    34.0110    27.8190    23.9870   -11.9590     2.2950 
  114.3750    58.9670    41.8940    44.2860    48.0970    24.1550   -12.6250     2.3740 
  114.5000    54.2760    53.8450    55.5200    76.2100    24.1420   -13.3290     2.4750 
  114.6250    53.1680    61.1560    60.8770   102.3670    24.2590   -14.0360     2.5860 
  114.7500    54.3180    57.7410    55.4760   104.7660    24.6490   -14.7040     2.6810 
  114.8750    56.8650    45.0680    41.7860    83.4160    24.7530   -15.3240     2.7340 
  115.0000    61.0140    30.4780    27.1520    49.9650    24.8570   -15.8690     2.7200 
  115.1250    68.0570    20.0340    17.1450    27.4320    24.9070   -16.3050     2.6360 
  115.2500    76.1290    13.6280    11.2330    14.5300    24.9140   -16.6640     2.5280 
  115.3750    82.1830    10.0230     8.0740    10.0780    24.8960   -16.9460     2.4330 
  115.5000    84.7970     8.1030     6.5130     8.6170    24.8800   -17.1670     2.3680 
  115.6250    82.9780     7.3060     5.9450     8.2370    24.8670   -17.3330     2.3370 
  115.7500    81.7520     7.1090     5.8570     8.5690    24.8510   -17.4490     2.3220 
  115.8750    83.2580     7.3210     6.0730     8.8150    24.9100   -17.4960     2.3110 
  116.0000    85.9490     7.7770     6.4660     8.3020    24.8850   -17.4860     2.3010 
  116.1250    85.4170     8.3130     6.9070     7.7510    24.8550   -17.4300     2.2870 
  116.2500    80.2560     8.7190     7.2310     8.3030    24.7790   -17.3470     2.2730 
  116.3750    73.8160     8.8210     7.2950     9.5040    24.7020   -17.2880     2.2630 
  116.5000    72.5200     8.5350     7.0320     9.8500    24.5930   -17.2790     2.2650 
  116.6250    80.3070     7.9290     6.5190     8.3080    24.6400   -17.3670     2.2800 
  116.7500    90.4710     7.2980     6.0200     6.9460    24.7380   -17.5100     2.2990 
  116.8750    94.4730     6.8410     5.7200     6.8700    24.8380   -17.6820     2.3130 
  117.0000    89.7670     6.6690     5.7160     7.3690    24.8740   -17.8430     2.3200 
  117.1250    83.5170     6.8440     6.0410     8.3170    24.8910   -17.9470     2.3260 
  117.2500    82.7420     7.2220     6.5360     8.6180    24.9270   -17.9930     2.3310 
  117.3750    84.5310     7.6680     7.0630     9.0880    24.9300   -17.9800     2.3310 
