~V
VERS. 2.00: Ver 2.00
~W
STRT.M 50.0000:
STOP.M 261.0000:
STEP.M 0.1250:
NULL. -999.2500:
UWI. F10772:
~C
DEPT.M :
GR.API :
RML.OHMM :
RI. :
RXO.OHMM :
CALI.CM :
SP.MV :
DEN.GM/CC :
~A
# ...
   83.7500    48.4050     8.2250     6.8830    10.8560    25.2290   -26.1360     2.1400 
   83.8750    48.4950     8.1530     6.8220    11.2750    25.2200   -26.0810     2.1520 
   84.0000    48.4960     8.0830     6.7550    10.0100    25.2010   -25.8370     2.1630 
   84.1250    49.8640     8.0430     6.7030     8.8810    25.1710   -25.4120     2.1800 
   84.2500    53.1090     8.0430     6.6770     8.3640    25.0790   -24.8670     2.2040 
   84.3750    56.2600     8.0810     6.6800     8.3540    24.9150   -24.2360     2.2350 
   84.5000    57.4170     8.1390     6.7060     8.6220    24.7250   -23.5610     2.2700 
   84.6250    58.6780     8.1780     6.7370     8.7310    24.4950   -22.9050     2.3010 
   84.7500    61.2590     8.1700     6.7480     8.5550    24.2510   -22.3130     2.3160 
   84.8750    62.1390     8.1090     6.7210     8.3700    24.0360   -21.8630     2.3130 
   85.0000    59.4070     8.0060     6.6540     8.2830    23.9180   -21.5780     2.2900 
   85.1250    55.3210     7.8930     6.5580     8.1450    23.9080   -21.4040     2.2530 
   85.2500    54.0950     7.8060     6.4650     8.0070    23.9730   -21.3460     2.2130 
   85.3750    54.9570     7.7640     6.4000     7.9340    24.1450   -21.4530     2.1740 
   85.5000    55.3620     7.7730     6.3780     8.0800    24.4380   -21.7370     2.1450 
   85.6250    54.2990     7.8230     6.4080     8.3760    24.8590   -22.1450     2.1340 
   85.7500    52.3630     7.8750     6.4640     8.2480    25.0300   -22.5550     2.1420 
   85.8750    51.2680     7.8960     6.5190     7.4800    24.9990   -22.9430     2.1610 
   86.0000    50.7860     7.8620     6.5410     7.2970    24.9100   -23.3120     2.1790 
   86.1250    49.7620     7.7710     6.5070     7.7000    24.8800   -23.6510     2.1830 
   86.2500    49.1330     7.6770     6.4340     8.0010    24.8550   -23.9720     2.1730 
   86.3750    49.9470     7.6420     6.3590     8.1970    24.8260   -24.2920     2.1580 
   86.5000    50.8370     7.7330     6.3510     8.3760    24.7950   -24.5640     2.1440 
   86.6250    49.7070     8.0130     6.5060     8.5280    24.7710   -24.7080     2.1370 
   86.7500    48.6840     8.4200     6.8210     8.7500    24.8240   -24.7540     2.1370 
   86.8750    49.3740     8.8590     7.2430     8.9450    24.9840   -24.6940     2.1510 
   87.0000    50.1850     9.1950     7.6550     8.9360    25.1430   -24.5340     2.1800 
   87.1250    49.5360     9.2680     7.8570     8.7040    24.9980   -24.3220     2.2150 
   87.2500    49.0550     9.0860     7.7820     8.6250    24.9090   -24.0670     2.2410 
   87.3750    49.5590     8.7240     7.4870     8.6880    24.9350   -23.7490     2.2480 
   87.5000    49.5510     8.3070     7.1070     8.7510    24.9850   -23.3690     2.2370 
   87.6250    48.5180     7.9790     6.7930     8.7780    25.0130   -22.8970     2.2180 
   87.7500    48.0380     7.7840     6.6050     8.6840    25.0340   -22.3560     2.2010 
   87.8750    49.0070     7.7110     6.5360     8.5540    25.0210   -21.7550     2.1900 
   88.0000    50.2040     7.7190     6.5400     8.5210    24.9170   -21.1050     2.1860 
   88.1250    50.3100     7.7710     6.5660     8.5530    24.7010   -20.4350     2.1900 
   88.2500    50.9140     7.8400     6.5950     8.4690    24.4820   -19.7200     2.1990 
   88.3750    53.3190     7.9280     6.6370     8.2880    24.3870   -18.9310     2.2060 
   88.5000    57.8980     8.0370     6.7150     8.1910    24.3590   -18.0660     2.2040 
   88.6250    62.8400     8.1540     6.8510     8.2360    24.3580   -17.1280     2.1890 
   88.7500    64.4400     8.2410     7.0070     8.2870    24.3740   -16.0670     2.1700 
   88.8750    63.8320     8.2500     7.1260     8.3180    24.4020   -14.8050     2.1600 
   89.0000    64.4050     8.1410     7.1460     8.4360    24.4260   -13.3790     2.1730 
   89.1250    67.8430     7.8840     7.0120     8.4470    24.4490   -11.9750     2.2150 
   89.2500    70.9280     7.5420     6.7660     7.7650    24.4450   -10.6480     2.2650 
   89.3750    73.3550     7.1790     6.4660     6.6190    24.4030    -9.3520     2.3030 
   89.5000    76.9730     6.8500     6.1710     6.2420    24.3290    -8.1120     2.3170 
   89.6250    82.4620     6.5800     5.9110     6.2120    24.2330    -7.0900     2.3080 
   89.7500    88.5450     6.3390     5.6710     5.9530    24.1420    -6.3540     2.2960 
   89.8750    92.7020     6.1010     5.4290     5.5510    24.0480    -5.9260     2.2940 
   90.0000    92.3600     5.8710     5.1720     5.2580    23.9580    -5.7140     2.3020 
   90.1250    90.8110     5.7100     4.9330     5.0390    23.8690    -5.5490     2.3150 
   90.2500    92.2160     5.6700     4.7810     4.9140    23.7890    -5.4210     2.3260 
   90.3750    96.3630     5.7840     4.7670     4.7990    23.7260    -5.3890     2.3310 
   90.5000    98.3560     6.0410     4.9080     4.7820    23.6890    -5.4760     2.3300 
   90.6250    93.8330     6.4160     5.2070     5.2220    23.6110    -5.6290     2.3210 
   90.7500    85.8480     6.8540     5.6060     5.9260    23.4480    -5.7880     2.3110 
   90.8750    79.0050     7.3520     6.0780     6.4240    23.2670    -5.9880     2.3010 
   91.0000    76.7250     7.9410     6.6150     6.3490    23.1900    -6.2460     2.2920 
   91.1250    77.3930     8.6830     7.2470     6.4750    23.2930    -6.5050     2.2790 
   91.2500    75.4700     9.5580     7.9810     7.5220    23.5330    -6.7220     2.2600 
   91.3750    69.0620    10.4950     8.8060     8.9190    23.7650    -6.9250     2.2390 
   91.5000    61.4180    11.3610     9.6500     9.8770    23.8600    -7.1740     2.2190 
   91.6250    56.5650    11.9330    10.3190    10.2370    23.9230    -7.5110     2.2060 
   91.7500    54.1460    12.1390    10.6580    10.4540    24.2210    -7.8880     2.2000 
   91.8750    52.5890    11.9980    10.6230    10.5110    24.5290    -8.2520     2.1990 
   92.0000    52.7890    11.6270    10.3120    10.1770    24.6630    -8.5600     2.1990 
   92.1250    55.7930    11.2000     9.9090     9.2010    24.6680    -8.8060     2.1940 
   92.2500    59.3610    10.8500     9.5820     8.4370    24.6680    -9.0090     2.1820 
   92.3750    61.3070    10.5870     9.3680     8.4810    24.6680    -9.1340     2.1680 
   92.5000    61.4370    10.3430     9.2180     8.7580    24.6680    -9.0730     2.1640 
   92.6250    61.7260     9.9850     8.9970     8.8160    24.6770    -8.7130     2.1880 
   92.7500    65.4430     9.4610     8.5880     8.3710    24.6950    -8.2460     2.2350 
   92.8750    73.0750     8.7950     7.9740     7.6380    24.7030    -7.7700     2.2880 
   93.0000    80.0560     8.0850     7.2470     6.8540    24.6920    -7.2970     2.3280 
   93.1250    81.3880     7.4950     6.5860     6.4890    24.6960    -6.7990     2.3440 
   93.2500    82.1370     7.1230     6.1180     6.0960    24.7150    -6.3000     2.3470 
   93.3750    86.4010     7.0050     5.8990     5.7120    24.7260    -5.8420     2.3470 
   93.5000    89.9720     7.1130     5.9300     5.8680    24.7260    -5.4610     2.3470 
   93.6250    84.5670     7.3830     6.1760     6.3340    24.7190    -5.2870     2.3380 
   93.7500    75.5430     7.6870     6.5010     6.8320    24.6970    -5.2200     2.3150 
   93.8750    69.8960     7.9640     6.8160     7.2120    24.6420    -5.1480     2.2860 
   94.0000    67.5890     8.2040     7.0840     7.3830    24.5460    -5.0340     2.2620 
   94.1250    67.8980     8.4530     7.3400     7.1670    24.4840    -4.9700     2.2520 
   94.2500    69.9680     8.7600     7.6550     7.0100    24.4410    -5.0130     2.2470 
   94.3750    70.0680     9.1130     8.0460     7.2930    24.3990    -5.0880     2.2370 
   94.5000    66.2970     9.4300     8.4490     7.9710    24.4150    -5.1020     2.2180 
   94.6250    61.7310     9.5450     8.6900     8.7810    24.5470    -5.0160     2.2010 
   94.7500    60.1470     9.3920     8.6570     8.5770    24.6740    -4.8790     2.2020 
   94.8750    60.0220     8.9790     8.3190     7.6210    24.7250    -4.7140     2.2270 
