~V
VERS. 2.00: Ver 2.00
~W
STRT.M 59.0000:
STOP.M 248.0000:
STEP.M 0.1250:
NULL. -999.2500:
UWI. F10727:
~C
DEPT.M :
GR.API :
RML.OHMM :
RI. :
RXO.OHMM :
CALI.CM :
SP.MV :
DEN.GM/CC :
~A
# ...
  115.2500    77.1860     7.3470     6.5220     6.0840    25.2550   -11.0870     2.2730 
  115.3750    73.8840     7.7690     6.7560     6.9520    25.0830   -11.1170     2.2770 
  115.5000    75.9950     8.1950     7.0440     7.6790    25.0690   -11.1690     2.2860 
  115.6250    77.5830     8.4680     7.2480     7.5060    25.2150   -11.1700     2.2970 
  115.7500    73.6520     8.5960     7.3410     7.3390    25.3100   -11.1070     2.3070 
  115.8750    66.8530     8.6860     7.3920     7.3500    25.3380   -11.0670     2.3130 
  116.0000    62.6520     8.8640     7.5020     7.5840    25.2720   -11.0390     2.3130 
  116.1250    64.3030     9.2120     7.7450     7.9860    25.1340   -11.0040     2.3110 
  116.2500    67.4310     9.6470     8.0610     8.4440    24.9790   -11.0110     2.3130 
  116.3750    69.0210    10.0470     8.3640     9.4420    24.8810   -11.0090     2.3210 
  116.5000    68.5440    10.2760     8.5630    10.8740    24.8590   -10.9760     2.3350 
  116.6250    68.8230    10.2170     8.5900     9.9710    24.8880   -10.9150     2.3420 
  116.7500    70.9850     9.9830     8.5080     8.5950    24.8070   -10.8470     2.3360 
  116.8750    73.5320     9.7200     8.3880     8.0320    24.6070   -10.7620     2.3130 
  117.0000    75.4430     9.5790     8.3000     7.9660    24.5110   -10.6090     2.2800 
  117.1250    76.0330     9.7110     8.3350     7.7720    24.5530   -10.3840     2.2490 
  117.2500    76.3430    10.0770     8.5160     7.8070    24.4140   -10.1320     2.2280 
  117.3750    76.4480    10.5720     8.8240     8.0430    24.1720    -9.8340     2.2180 
  117.5000    74.4290    11.0340     9.1860     8.3310    24.0890    -9.4780     2.2180 
  117.6250    69.8360    11.2440     9.4610     8.5460    24.0850    -9.1750     2.2230 
  117.7500    66.1250    11.1420     9.5320     8.6740    24.0840    -8.9490     2.2310 
  117.8750    66.3270    10.7890     9.3560     8.7700    24.0370    -8.7460     2.2380 
  118.0000    70.6370    10.3590     9.0030     8.5050    24.0580    -8.6340     2.2440 
  118.1250    73.9940    10.0820     8.6470     7.8200    24.3180    -8.6540     2.2470 
  118.2500    73.5990    10.0260     8.4470     7.3860    24.4480    -8.6910     2.2480 
  118.3750    71.6520    10.1460     8.4450     7.4930    24.4090    -8.7790     2.2460 
  118.5000    70.1290    10.3320     8.5870     8.0740    24.0660    -8.9560     2.2430 
  118.6250    68.7470    10.4140     8.7220     8.5090    23.8520    -9.1360     2.2420 
  118.7500    70.0140    10.2820     8.6860     8.3820    23.8220    -9.2540     2.2450 
  118.8750    74.9520     9.9220     8.4210     7.8540    23.8970    -9.3590     2.2560 
  119.0000    80.4360     9.4200     7.9950     7.1880    24.0430    -9.4370     2.2720 
  119.1250    80.3650     8.9080     7.5690     6.9020    24.0690    -9.4530     2.2870 
  119.2500    79.2200     8.4910     7.2640     6.7030    24.0950    -9.4850     2.2950 
  119.3750    79.5740     8.2320     7.1280     6.6010    24.1740    -9.5390     2.2950 
  119.5000    78.8630     8.1770     7.1720     6.7340    24.1690    -9.5570     2.2900 
  119.6250    78.0060     8.4090     7.4180     7.0140    24.0440    -9.5510     2.2830 
  119.7500    76.9930     8.8860     7.8270     7.2980    23.9360    -9.5870     2.2740 
  119.8750    75.6610     9.5270     8.3700     7.5110    23.6660    -9.6050     2.2630 
  120.0000    73.6790    10.1680     8.9810     7.6090    23.3590    -9.5740     2.2520 
  120.1250    71.5600    10.5420     9.5060     7.6590    23.1660    -9.5780     2.2420 
  120.2500    70.4290    10.5100     9.7790     7.6180    23.2030    -9.5700     2.2340 
  120.3750    70.1040    10.0640     9.7040     7.7110    23.4160    -9.5070     2.2280 
  120.5000    71.3900     9.3690     9.3250     7.9350    23.6530    -9.4630     2.2240 
  120.6250    73.9480     8.7460     8.8450     7.9310    23.9630    -9.4520     2.2210 
  120.7500    76.5500     8.4850     8.5420     7.3120    24.2060    -9.4130     2.2190 
  120.8750    78.7320     8.7650     8.5900     6.5680    24.3900    -9.4020     2.2210 
  121.0000    78.8440     9.6240     9.0800     6.8910    24.3530    -9.4430     2.2260 
  121.1250    75.0070    10.8940     9.9880     8.1940    24.1070    -9.4230     2.2330 
  121.2500    70.5160    11.9580    10.8830     9.0260    24.1040    -9.3930     2.2350 
  121.3750    68.8680    12.1480    11.2120     9.3050    24.2060    -9.3960     2.2310 
  121.5000    70.7470    11.0570    10.5240     9.3090    24.3360    -9.3740     2.2230 
  121.6250    75.5960     9.0000     8.8950     8.6470    24.5460    -9.3250     2.2150 
  121.7500    83.1330     7.1230     7.2230     7.2850    24.7320    -9.3000     2.2150 
  121.8750    90.2280     6.0290     6.0420     6.0400    24.8780    -9.2620     2.2220 
  122.0000    91.2740     5.9550     5.5970     5.6180    24.9260    -9.1590     2.2320 
  122.1250    84.2640     7.2940     6.1980     6.6580    24.9310    -9.1230     2.2360 
  122.2500    76.7360    10.1310     7.9510     9.8530    24.9680    -9.1150     2.2310 
  122.3750    70.4610    14.6660    11.1630    16.2810    25.0250    -9.0940     2.2140 
  122.5000    64.4480    20.7050    16.0110    23.8730    25.1180    -9.1090     2.1910 
  122.6250    60.7480    27.0080    22.0070    27.2920    25.5770    -9.1650     2.1670 
  122.7500    61.2970    31.5670    27.1710    26.3740    25.8160    -9.2150     2.1490 
  122.8750    63.7580    33.6110    30.1770    23.7960    25.7330    -9.2650     2.1380 
  123.0000    63.3320    34.0200    31.2960    22.6270    25.5800    -9.3940     2.1360 
  123.1250    59.4750    34.3660    31.7850    23.6920    25.6260    -9.5160     2.1410 
  123.2500    56.3360    35.3860    32.5390    26.0080    25.6430    -9.6040     2.1500 
  123.3750    55.8450    36.9900    33.5930    29.5150    25.5640    -9.7330     2.1610 
  123.5000    56.4300    38.9110    34.7560    33.2210    25.4820    -9.9110     2.1730 
  123.6250    54.7490    41.0600    35.9250    32.4250    25.4760   -10.0710     2.1830 
  123.7500    51.0190    43.6270    37.2940    29.6020    25.4970   -10.2460     2.1880 
  123.8750    49.2350    46.9810    39.2360    28.7640    25.5550   -10.4620     2.1870 
  124.0000    53.2380    51.3520    42.0730    32.9300    25.7420   -10.6420     2.1790 
  124.1250    59.4450    56.6060    45.9070    43.1050    25.9400   -10.8200     2.1680 
  124.2500    60.3620    61.7900    50.0430    46.1130    25.9860   -11.0380     2.1580 
  124.3750    56.7230    65.9520    53.7150    45.5480    25.9940   -11.2240     2.1500 
  124.5000    52.3160    68.4090    56.2700    51.1010    26.0610   -11.3610     2.1450 
  124.6250    49.4410    68.8860    57.3530    58.3250    26.0020   -11.5300     2.1420 
  124.7500    47.5840    68.2750    57.5790    59.0900    26.4230   -11.6740     2.1410 
  124.8750    47.1060    67.1370    57.3720    51.4380    26.7970   -11.7500     2.1400 
  125.0000    48.4060    65.8200    56.9900    46.3710    26.9160   -11.8230     2.1390 
  125.1250    50.4000    64.5900    56.6000    45.6450    26.9780   -11.8770     2.1360 
  125.2500    51.3480    63.4840    56.2730    46.6520    26.7890   -11.8650     2.1310 
  125.3750    49.8280    62.1280    55.7930    42.5510    26.4500   -11.8570     2.1240 
  125.5000    47.3140    59.7300    54.5630    36.4770    26.3150   -11.8210     2.1160 
  125.6250    47.8710    55.0140    51.3960    34.8000    26.2400   -11.6610     2.1060 
  125.7500    50.5270    48.1970    46.1670    34.1460    26.1650   -11.4790     2.0960 
  125.8750    52.2410    40.2110    39.4640    30.5630    25.7890   -11.3240     2.0890 
  126.0000    51.5880    32.4300    32.5030    22.6990    24.8610   -11.1300     2.0890 
  126.1250    53.0160    26.2500    26.6910    15.6300    24.2430   -10.9740     2.1020 
  126.2500    57.2320    21.8320    22.3960    11.8220    24.0120   -10.8940     2.1240 
  126.3750    58.9560    19.1050    19.6100    10.2740    23.9120   -10.8100     2.1470 
