~V
VERS. 2.00: Ver 2.00
~W
STRT.M 50.0000:
STOP.M 240.0000:
STEP.M 0.1250:
NULL. -999.2500:
UWI. F10736:
~C
DEPT.M :
DEN.GM/CC :
GR.API :
RML.OHMM :
RI. :
RXO.OHMM :
CALI.CM :
SP.MV :
~A
   50.0000     0.0000    49.3850     3.8390     0.6590     2.3240    25.1480  -999.2500 
   50.1250     0.0000    48.4140     4.0860     0.6520     2.2880    25.1530  -999.2500 
   50.2500     0.0000    46.5210     4.3480     0.6610     1.9430    25.1870  -999.2500 
   50.3750     0.0000    45.6000     4.4660     0.6770     1.5620    25.2620  -999.2500 
   50.5000     0.0000    45.9250     4.3990     0.6890     1.2740    25.3360  -999.2500 
   50.6250     0.0000    45.5010     4.2520     0.6940     1.0270    25.3650  -999.2500 
   50.7500     2.5840    43.4880     4.1540     0.6940     0.8610    25.3660  -999.2500 
   50.8750     2.5790    39.7920     4.1380     0.6940     0.7860    25.3440  -999.2500 
   51.0000     2.5760    36.2630     4.1850     0.6970     0.7740    25.2760  -999.2500 
   51.1250     2.5620    36.4160     4.2390     0.7050     0.7960    25.1710  -999.2500 
   51.2500     2.5290    39.0670     4.2460     0.7140     0.8050    25.0740  -999.2500 
   51.3750     2.4920    41.9950     4.2010     0.7220     0.8170    25.0440  -999.2500 
   51.5000     2.4560    42.9460     4.1380     0.7260     0.8340    25.0840  -999.2500 
   51.6250     2.4210    40.4490     4.0990     0.7250     0.8500    25.1350  -999.2500 
   51.7500     2.3900    36.6310     4.0970     0.7200     0.8520    25.1600  -999.2500 
   51.8750     2.3660    33.2040     4.1220     0.7130     0.8470    25.1800  -999.2500 
   52.0000     2.3520    30.8180     4.1390     0.7070     0.8460    25.2080  -999.2500 
   52.1250     2.3450    28.4110     4.1070     0.7030     0.8420    25.2200  -999.2500 
   52.2500     2.3390    27.7590     4.0190     0.7020     0.8290    25.2260  -999.2500 
   52.3750     2.3280    29.5000     3.8800     0.7020     0.8260    25.2380     0.0000 
   52.5000     2.3100    31.1740     3.7170     0.7040     0.8420    25.2710     0.0000 
   52.6250     2.2860    30.4470     3.5630     0.7030     0.8930    25.3360     0.0000 
   52.7500     2.2590    28.8740     3.4400     0.7000     0.9230    25.3610    38.9790 
   52.8750     2.2330    27.6730     3.3470     0.6940     0.9020    25.3470    77.6250 
   53.0000     2.2100    27.0710     3.2750     0.6890     0.8900    25.2740    77.0310 
   53.1250     2.1890    27.7620     3.2180     0.6870     0.9540    25.1310    76.3740 
   53.2500     2.1630    30.3520     3.1930     0.6880     1.0760    24.9470    75.6790 
   53.3750     2.1300    33.3640     3.2320     0.6910     1.2080    24.7980    74.9770 
   53.5000     2.0980    34.7300     3.3560     0.6980     1.3160    24.7290    74.2940 
   53.6250     2.0800    33.4040     3.5560     0.7110     1.3830    24.7150    73.6510 
   53.7500     2.0840    32.0920     3.7560     0.7240     1.4370    24.7150    73.0280 
   53.8750     2.0930    32.4100     3.8850     0.7350     1.5050    24.7150    72.4010 
   54.0000     2.0950    33.5230     3.9020     0.7370     1.5970    24.7150    71.7540 
   54.1250     2.0960    33.2870     3.8110     0.7300     1.7110    24.7370    71.0890 
   54.2500     2.1040    32.0560     3.6820     0.7190     1.7460    24.8240    70.4100 
   54.3750     2.1170    32.2190     3.5370     0.7080     1.6750    25.0080    69.6880 
   54.5000     2.1260    34.3790     3.3780     0.7020     1.5620    25.2460    68.8870 
   54.6250     2.1250    35.7600     3.2110     0.7020     1.4640    25.4410    67.9850 
   54.7500     2.1210    33.8020     3.0610     0.7050     1.4070    25.5480    67.0440 
   54.8750     2.1180    31.0850     2.9550     0.7070     1.3970    25.5880    66.1210 
   55.0000     2.1170    30.7100     2.9090     0.7090     1.4230    25.5930    65.2430 
   55.1250     2.1170    32.1480     2.9200     0.7110     1.4610    25.5740    64.3950 
   55.2500     2.1190    33.9280     2.9490     0.7120     1.4960    25.5440    63.5380 
   55.3750     2.1290    35.5070     2.9580     0.7150     1.5310    25.5230    62.6620 
   55.5000     2.1460    35.3890     2.9160     0.7220     1.5580    25.5150    61.7790 
   55.6250     2.1710    32.1540     2.8190     0.7320     1.5640    25.5030    60.9240 
   55.7500     2.2020    29.5080     2.7100     0.7420     1.5410    25.4730    60.1130 
   55.8750     2.2230    29.5160     2.6230     0.7500     1.5230    25.4340    59.3370 
   56.0000     2.2260    30.4010     2.5740     0.7540     1.5240    25.3890    58.5720 
   56.1250     2.2150    30.4530     2.5540     0.7520     1.5360    25.3590    57.8040 
   56.2500     2.2120    31.2680     2.5310     0.7490     1.5370    25.3280    57.0390 
   56.3750     2.2160    33.1610     2.4950     0.7490     1.5270    25.3020    56.2860 
   56.5000     2.2130    34.0270     2.4540     0.7540     1.5130    25.2780    55.5320 
   56.6250     2.1960    31.2490     2.4320     0.7630     1.4990    25.2470    54.7200 
   56.7500     2.1750    28.0060     2.4260     0.7700     1.4840    25.2320    53.8150 
   56.8750     2.1590    27.3600     2.4250     0.7730     1.4660    25.2280    52.8150 
   57.0000     2.1440    29.2800     2.4110     0.7700     1.4560    25.2280    51.7490 
   57.1250     2.1250    32.5490     2.3660     0.7670     1.4550    25.2280    50.6620 
   57.2500     2.1010    35.7580     2.2910     0.7690     1.4560    25.2280    49.5980 
   57.3750     2.0790    38.3410     2.1990     0.7750     1.4600    25.2280    48.5790 
   57.5000     2.0700    39.8150     2.1110     0.7830     1.4630    25.2280    47.6100 
   57.6250     2.0770    40.2120     2.0480     0.7880     1.4590    25.2280    46.6670 
   57.7500     2.0860    39.6140     2.0060     0.7910     1.4560    25.2280    45.6960 
   57.8750     2.0930    37.7510     1.9720     0.7950     1.4610    25.2280    44.6660 
   58.0000     2.1060    35.9730     1.9370     0.8000     1.4730    25.2280    43.5740 
   58.1250     2.1300    35.1560     1.9040     0.8050     1.4830    25.2280    42.4370 
   58.2500     2.1540    34.6000     1.8840     0.8060     1.4840    25.2280    41.2780 
   58.3750     2.1730    33.6890     1.8810     0.8040     1.4760    25.2280    40.0970 
   58.5000     2.1950    31.8140     1.8930     0.8010     1.4660    25.2280    38.8860 
   58.6250     2.2200    29.8290     1.9060     0.7980     1.4710    25.2160    37.6210 
   58.7500     2.2390    30.1030     1.9000     0.7930     1.4880    25.1880    36.2930 
   58.8750     2.2490    33.0300     1.8620     0.7840     1.4950    25.1590    34.8880 
   59.0000     2.2540    37.1790     1.7870     0.7650     1.4910    25.1470    33.3970 
   59.1250     2.2610    39.7880     1.6780     0.7270     1.4770    25.1470    31.8060 
   59.2500     2.2730    39.2250     1.5520     0.6700     1.4770    25.1470    30.1480 
   59.3750     2.2900    36.0730     1.4100     0.5930     1.4810    25.1470    28.4420 
   59.5000     2.3190    33.5000     1.2320     0.5060     1.4980    25.1480    26.6920 
   59.6250     2.3630    33.7380     1.0170     0.4300     1.5400    25.1490    24.8700 
   59.7500     2.4220    33.5990     0.8280     0.3830     1.6420    25.1490    22.9600 
   59.8750     2.4820    33.0500     0.7080     0.3680     1.8740    25.1430    20.9370 
   60.0000     2.5430    34.4790     0.6590     0.3790     2.2460    25.1200    18.7810 
   60.1250     2.5950    38.6620     0.6840     0.4160     2.7130    25.0520    16.4350 
   60.2500     2.5840    41.7960     0.7860     0.5050     3.5260    24.9600    13.9020 
   60.3750     2.4860    43.3120     1.0100     0.7090     5.2680    24.8650    11.1750 
   60.5000     2.3380    44.6860     1.4540     1.1360     6.9930    24.8050     8.2870 
   60.6250     2.1980    46.8590     2.3210     1.9650     7.5890    24.8650     5.3170 
   60.7500     2.1200    48.4010     3.5010     3.1250     6.9760    25.0540     2.3950 
   60.8750     2.1180    48.4260     4.5870     4.3950     6.2970    25.2690    -0.3570 
   61.0000     2.1850    47.9180     5.2310     5.5040     6.4140    25.3850    -2.8110 
   61.1250     2.2810    47.8990     5.5090     6.2890     7.1570    25.3770    -4.7620 
