~V
VERS. 2.00: Ver 2.00
~W
STRT.M 60.0000:
STOP.M 239.0000:
STEP.M 0.1250:
NULL. -999.2500:
UWI. F10775:
~C
DEPT.M :
DEN.GM/CC :
SP.MV :
GR.API :
RML.OHMM :
RI. :
RXO.OHMM :
CALI.CM :
~A
# ...
  195.0000     2.4630   -10.3860    53.6510    20.2890    15.0820    19.5890    25.8500 
  195.1250     2.4460   -10.9940    55.2860    25.1040    18.9420    23.3180    25.8290 
  195.2500     2.4140   -11.5590    56.7520    30.9290    23.7180    26.4620    25.8670 
  195.3750     2.3760   -12.1570    54.9220    37.9830    29.6320    32.1460    25.9660 
  195.5000     2.3420   -12.7140    51.8290    46.3360    36.9010    43.7970    26.0670 
  195.6250     2.3220   -13.3070    50.4910    55.5470    45.5030    55.6840    26.0670 
  195.7500     2.3110   -13.8350    49.3380    64.0200    54.1020    66.5810    26.0130 
  195.8750     2.3040   -14.2880    47.4990    70.0620    60.8970    72.1420    25.9840 
  196.0000     2.2990   -14.6190    46.2600    72.5660    64.3190    71.4950    25.9740 
  196.1250     2.2950   -14.8070    47.4820    71.4260    63.8330    63.2980    25.9580 
  196.2500     2.2960   -14.9710    50.2380    68.8830    61.6730    55.3090    25.9400 
  196.3750     2.3010   -15.0270    50.9680    66.4480    59.4610    50.3600    25.9470 
  196.5000     2.3050   -15.0490    48.2560    64.8340    58.0830    48.0880    25.9710 
  196.6250     2.3050   -14.9660    45.7150    63.9370    57.6090    47.6730    25.9970 
  196.7500     2.3010   -14.8060    45.3220    63.0410    57.2380    51.8790    26.0300 
  196.8750     2.2990   -14.6600    46.2850    61.8540    56.5160    56.3630    26.0640 
  197.0000     2.3050   -14.6000    47.8760    60.5250    55.5380    57.5860    26.0780 
  197.1250     2.3190   -14.6610    50.5160    59.5650    54.9340    48.5260    26.0280 
  197.2500     2.3310   -14.7400    52.3690    59.1520    55.0040    41.8810    25.9660 
  197.3750     2.3340   -14.9130    51.6470    59.0440    55.5230    43.4310    25.9940 
  197.5000     2.3250   -15.0800    49.4930    58.7100    55.9270    53.5380    26.0870 
  197.6250     2.3090   -15.2450    48.3890    57.4540    55.4250    63.2740    26.1570 
  197.7500     2.2990   -15.3750    47.8880    55.2610    53.8340    62.4930    26.1720 
  197.8750     2.2970   -15.4270    47.6270    52.4900    51.3960    51.3890    26.1610 
  198.0000     2.3010   -15.4220    48.3190    49.7770    48.7400    43.1390    26.1500 
  198.1250     2.3030   -15.3690    51.2290    47.9750    46.7360    48.1540    26.1840 
  198.2500     2.3010   -15.3320    53.4330    47.4090    45.8020    51.4710    26.2250 
  198.3750     2.2990   -15.2390    52.6060    48.2080    46.1410    47.2340    26.2510 
  198.5000     2.3050   -15.1670    49.6480    50.2900    47.7790    42.8100    26.2400 
  198.6250     2.3180   -15.0350    47.2580    53.4450    50.6620    44.7600    26.1880 
  198.7500     2.3300   -14.9610    45.9880    56.8540    54.0740    51.3000    26.2100 
  198.8750     2.3320   -14.8930    44.7380    59.7390    57.2530    55.5810    26.2520 
  199.0000     2.3230   -14.8490    43.8400    61.4220    59.3330    56.1040    26.2270 
  199.1250     2.3090   -14.8420    44.0870    61.5480    59.5720    54.0930    26.1000 
  199.2500     2.3010   -14.8340    45.0040    61.0540    58.7840    49.2140    25.9710 
  199.3750     2.3010   -14.8820    45.9810    61.0060    58.0940    44.2050    25.8800 
  199.5000     2.3070   -14.9180    46.4570    62.3640    58.5920    41.5920    25.7360 
  199.6250     2.3070   -15.0770    46.9020    65.9500    61.3070    45.6540    25.4700 
  199.7500     2.2940   -15.2480    48.4300    71.2140    65.9010    53.9690    25.2840 
  199.8750     2.2710   -15.4840    51.2860    77.3940    71.7230    62.3840    25.2430 
  200.0000     2.2460   -15.7020    52.4120    83.4710    77.7460    67.5510    25.2650 
  200.1250     2.2320   -15.8830    50.2680    88.3230    82.6870    71.7320    25.2030 
  200.2500     2.2290   -16.1600    47.8150    91.9340    86.2680    71.8830    25.0630 
  200.3750     2.2290   -16.4040    46.0920    94.9780    89.0290    68.8850    24.9470 
  200.5000     2.2250   -16.6550    44.3820    98.1740    92.0980    68.2400    24.8900 
  200.6250     2.2130   -16.8670    42.4930   103.6270    96.9650    73.2060    24.8600 
  200.7500     2.2030   -17.1280    40.9960   113.8750   104.0240    78.4650    24.8360 
  200.8750     2.2030   -17.3470    40.0300   128.3390   113.0640    83.7580    24.8200 
  201.0000     2.2170   -17.5450    41.5390   142.4780   122.8940    98.0390    24.7940 
  201.1250     2.2400   -17.6570    46.0140   150.1710   130.7990   109.9930    24.8230 
  201.2500     2.2600   -17.6570    47.9960   151.0910   134.5880   115.2060    24.8620 
  201.3750     2.2730   -17.6340    45.7330   146.1960   133.1220   113.0840    24.8980 
  201.5000     2.2810   -17.5580    42.4780   136.1860   126.4810   104.8440    24.9610 
  201.6250     2.2850   -17.4490    42.7050   122.7950   115.6560    90.9760    25.0790 
  201.7500     2.2870   -17.2340    44.9050   109.3380   103.8280    85.0240    25.0990 
  201.8750     2.2890   -16.9910    46.9810    97.8390    93.1320    78.9210    24.9800 
  202.0000     2.2940   -16.6800    47.6060    89.5320    85.0110    66.2420    24.8540 
  202.1250     2.3070   -16.4250    46.5810    85.5400    80.8310    59.9880    24.7890 
  202.2500     2.3210   -16.2030    45.4380    85.1540    80.2140    64.1390    24.7780 
  202.3750     2.3220   -16.1460    45.1870    87.9540    82.9140    79.8370    24.7780 
  202.5000     2.2970   -16.1440    45.7980    93.2780    88.4010    85.4750    24.8060 
  202.6250     2.2470   -16.1650    46.4630   100.3210    96.0460    80.6810    24.8410 
  202.7500     2.1950   -16.2660    46.9720   107.5240   104.2270    80.1760    24.8820 
  202.8750     2.1620   -16.4510    46.9840   113.6030   111.5590    86.6080    24.9100 
  203.0000     2.1570   -16.7610    45.6760   117.3280   116.6520    94.2080    24.9370 
  203.1250     2.1830   -17.0640    44.1800   117.2550   117.6250    96.5270    24.9670 
  203.2500     2.2240   -17.4020    43.1600   114.0950   114.7180    95.9470    24.9610 
  203.3750     2.2650   -17.6740    42.4250   109.1860   109.0750    90.3080    24.9170 
  203.5000     2.2890   -18.0490    42.2590   104.5980   102.9970    83.0300    24.9740 
  203.6250     2.2800   -18.4170    43.9040   103.0840    99.6530    72.5190    25.2680 
  203.7500     2.2520   -18.8120    46.2280   105.5870   100.5000    64.7180    25.6120 
  203.8750     2.2260   -19.2030    48.1200   112.0760   105.9240    67.5570    25.7950 
  204.0000     2.2200   -19.6120    49.6220   121.2990   115.0300    83.4340    25.8610 
  204.1250     2.2410   -20.0760    49.0730   130.5310   125.3100   109.2670    25.9360 
  204.2500     2.2710   -20.5150    46.8000   136.8280   133.0570   120.4160    25.9620 
  204.3750     2.2970   -20.8320    44.5680   138.8990   136.0940   114.2800    25.9510 
  204.5000     2.3100   -20.9880    44.1550   137.4440   134.6030   100.3730    25.9260 
  204.6250     2.3120   -21.0940    45.2720   134.9310   131.1270    93.9170    25.9000 
  204.7500     2.3080   -21.2340    45.5610   134.1540   129.0610    93.6570    25.8590 
  204.8750     2.2980   -21.3640    44.2180   136.3050   129.8260    97.2840    25.8060 
  205.0000     2.2860   -21.4300    41.3880   141.4900   133.6360   102.6430    25.8330 
  205.1250     2.2760   -21.3610    38.6000   149.3890   140.3080   113.0440    25.8910 
  205.2500     2.2720   -21.1840    38.6800   158.6100   148.4070   119.6570    25.9480 
  205.3750     2.2750   -20.9690    41.1850   168.3910   156.9700   123.4540    25.9720 
  205.5000     2.2850   -20.7700    44.4640   178.3630   165.4640   125.7400    25.9660 
  205.6250     2.2930   -20.6380    45.1000   188.7540   174.1670   131.6040    25.9200 
  205.7500     2.2920   -20.5300    43.2090   199.8930   183.7190   135.8870    25.8540 
  205.8750     2.2820   -20.4180    40.2460   211.7380   194.3160   127.7080    25.8150 
  206.0000     2.2630   -20.3280    37.5870   223.5340   205.3170   118.8520    25.8350 
  206.1250     2.2460   -20.2130    38.9910   233.4770   214.8620   151.7850    25.8860 
