~V
VERS. 2.00: Ver 2.00
~W
STRT.M 10.0000:
STOP.M 237.0000:
STEP.M 0.1250:
NULL. -999.2500:
UWI. F10776:
~C
DEPT.M :
DEN.GM/CC :
GR.API :
RML.OHMM :
RI. :
RXO.OHMM :
CALI.CM :
SP.MV :
~A
# ...
  133.7500     2.3350    44.3870    25.6940    23.4050    14.6010    23.6640   -11.8300 
  133.8750     2.2620    46.2440    21.8920    20.0890    12.0570    23.7210   -11.3080 
  134.0000     2.1670    49.9370    19.1020    17.4280     9.7080    23.8440   -10.7520 
  134.1250     2.1170    52.3630    17.8730    15.9870     9.3970    23.8950   -10.2420 
  134.2500     2.1190    51.6490    17.8650    15.5870    10.2550    23.8250    -9.7650 
  134.3750     2.1400    48.3050    18.7970    16.0560    11.6810    23.6610    -9.3530 
  134.5000     2.1430    43.9100    20.3120    17.1410    12.9580    23.5130    -9.0040 
  134.6250     2.1300    40.5270    22.0000    18.5310    13.3360    23.4440    -8.7160 
  134.7500     2.1320    39.9110    23.4700    19.8300    13.3770    23.4150    -8.4940 
  134.8750     2.1420    40.9300    24.5510    20.8320    13.2740    23.4070    -8.3000 
  135.0000     2.1260    41.5770    25.1910    21.4540    12.9010    23.4060    -8.1300 
  135.1250     2.0740    41.8600    25.2730    21.5960    12.7110    23.4010    -7.9110 
  135.2500     2.0260    43.4150    24.8610    21.3160    12.9480    23.3820    -7.6590 
  135.3750     2.0030    45.0640    24.0760    20.6990    13.5480    23.3210    -7.3700 
  135.5000     2.0020    44.2860    23.1970    19.9510    14.0410    23.2180    -7.0110 
  135.6250     2.0190    42.2300    22.6000    19.3760    14.0800    23.0900    -6.5510 
  135.7500     2.0570    41.7640    22.4130    19.1180    13.6870    23.0410    -6.0700 
  135.8750     2.1050    42.2500    22.5830    19.1830    13.3100    23.0880    -5.5340 
  136.0000     2.1380    41.9780    22.9150    19.4530    13.2770    23.2210    -4.9400 
  136.1250     2.1290    39.4480    23.1020    19.7150    12.4090    23.3560    -4.4020 
  136.2500     2.0990    37.6080    22.9090    19.7500    10.7750    23.4030    -3.9040 
  136.3750     2.0730    37.4790    22.1530    19.3720     9.4020    23.3790    -3.4520 
  136.5000     2.0630    37.9830    20.6910    18.4110     9.0660    23.3580    -3.1490 
  136.6250     2.0800    37.3800    18.4420    16.7190     9.2900    23.4280    -3.0040 
  136.7500     2.1220    38.0060    15.8570    14.6380     9.1770    23.5720    -2.9470 
  136.8750     2.1850    43.0170    13.4210    12.5570     8.2460    23.8780    -3.0130 
  137.0000     2.2480    53.0350    11.5860    10.8610     6.6450    24.3770    -3.1840 
  137.1250     2.2590    63.1220    10.7690     9.9190     6.1920    24.7590    -3.4080 
  137.2500     2.2090    65.7870    10.8490     9.6970     6.4740    24.6110    -3.6370 
  137.3750     2.1270    60.2390    11.7070    10.1560     7.2290    23.9790    -3.8580 
  137.5000     2.0510    52.0120    13.1320    11.1900     7.7680    23.2740    -4.0000 
  137.6250     2.0140    49.3970    14.8070    12.6200     7.9550    22.9490    -4.0450 
  137.7500     2.0130    51.9960    16.2580    14.0230     8.0160    22.8400    -4.0170 
  137.8750     2.0350    55.0390    17.1930    15.0760     8.0620    22.8260    -3.9340 
  138.0000     2.0600    54.1240    17.5540    15.6260     8.1200    22.8370    -3.8570 
  138.1250     2.0740    48.6640    17.4890    15.7040     8.1660    22.8320    -3.7650 
  138.2500     2.0790    44.7970    17.3460    15.5930     8.1860    22.7850    -3.7040 
  138.3750     2.0880    44.8710    17.3470    15.4730     8.3180    22.6970    -3.6690 
  138.5000     2.1080    46.3270    17.6860    15.5230     8.5590    22.6050    -3.6540 
  138.6250     2.1360    46.6960    18.5240    15.9640     8.6860    22.5490    -3.7110 
  138.7500     2.1720    46.8350    19.5260    16.6820     8.7310    22.5790    -3.8300 
  138.8750     2.2210    47.7180    20.0910    17.2920     9.2780    22.7440    -4.0170 
  139.0000     2.2810    48.6700    19.5490    17.2400    10.8060    23.0340    -4.2190 
  139.1250     2.3500    49.6170    17.5020    16.0160    13.2280    23.4170    -4.4600 
  139.2500     2.4240    52.2290    14.8530    14.1170    13.0790    23.8270    -4.6910 
  139.3750     2.4820    55.8650    12.4880    12.1990     9.8460    24.2890    -4.9090 
  139.5000     2.4840    58.4610    10.9670    10.7830     7.6450    24.8040    -5.1570 
  139.6250     2.4060    58.9050    10.5550    10.2110     7.9490    24.9570    -5.3820 
  139.7500     2.3150    57.0110    10.9120    10.3350     8.9680    24.6370    -5.6140 
  139.8750     2.2530    52.4700    11.7440    11.0090     8.8890    24.0220    -5.8000 
  140.0000     2.2240    48.4700    12.6040    11.9120     8.6830    23.4590    -5.9180 
  140.1250     2.2140    48.7630    12.7730    12.3720     8.9660    23.1520    -5.9560 
  140.2500     2.2170    50.4180    12.0420    11.9920     9.2470    23.0640    -5.9540 
  140.3750     2.2340    51.3770    10.6970    10.9070     8.8990    23.1690    -5.9520 
  140.5000     2.2580    55.5710     9.2980     9.5960     7.7900    23.4690    -5.9590 
  140.6250     2.2780    65.1760     8.4450     8.6020     6.5840    23.8930    -6.0390 
  140.7500     2.2900    69.9360     8.3600     8.1820     6.6070    24.2760    -6.1260 
  140.8750     2.2960    65.3700     9.1810     8.4900     8.1180    24.3420    -6.2490 
  141.0000     2.3040    56.6050    11.0520     9.6720    10.8400    24.1720    -6.4140 
  141.1250     2.3320    50.1420    14.3950    12.1480    11.5240    24.1170    -6.6230 
  141.2500     2.3810    45.1680    19.1610    15.9960    13.9310    24.2740    -6.8560 
  141.3750     2.4440    42.2390    25.2090    21.2400    20.3220    24.6490    -7.0660 
  141.5000     2.5130    42.1810    31.8260    27.3600    29.1360    25.0560    -7.2420 
  141.6250     2.5660    42.1260    37.0760    32.7120    33.6640    25.2920    -7.3700 
  141.7500     2.5890    38.0610    39.1940    35.5100    34.8960    25.2720    -7.4640 
  141.8750     2.5820    33.0540    37.7410    35.0020    34.6730    25.0650    -7.5220 
  142.0000     2.5580    32.7060    34.1470    32.0730    30.9730    24.7160    -7.6010 
  142.1250     2.5230    37.9270    30.8370    28.7260    23.1880    24.3140    -7.7270 
  142.2500     2.4810    41.0090    29.1670    26.5080    17.9150    24.0240    -7.8590 
  142.3750     2.4410    40.3410    29.3880    25.8600    16.3940    23.9320    -8.0000 
  142.5000     2.4220    38.9560    31.2760    26.7560    17.2750    23.9750    -8.1660 
  142.6250     2.4350    39.0800    34.3270    28.9960    21.3680    24.0850    -8.3410 
  142.7500     2.4640    39.6470    37.3580    31.6300    27.6520    24.1850    -8.5560 
  142.8750     2.4860    39.9510    39.5370    33.8740    28.9630    24.1190    -8.8160 
  143.0000     2.4810    39.5300    40.6500    35.2980    24.4280    23.9080    -9.0550 
  143.1250     2.4400    36.3170    41.1830    36.0460    23.2010    23.8270    -9.2330 
  143.2500     2.3920    33.9530    41.8300    36.7140    26.2010    23.9590    -9.4330 
  143.3750     2.3640    35.6620    42.6270    37.4650    33.6330    24.2680    -9.6870 
  143.5000     2.3630    37.4730    43.2030    38.1050    43.2130    24.5160    -9.9440 
  143.6250     2.3790    35.1160    43.0060    38.1820    45.7130    24.4140   -10.1680 
  143.7500     2.3990    33.1730    42.2100    37.6900    38.9610    24.1150   -10.3340 
  143.8750     2.4270    34.7550    41.3790    36.9830    30.9670    23.9180   -10.4220 
  144.0000     2.4660    36.6770    41.2100    36.6410    26.5210    23.8660   -10.4670 
  144.1250     2.5040    34.7100    42.4140    37.3740    28.3970    23.9340   -10.4770 
  144.2500     2.5330    32.1400    44.8480    39.2010    31.6250    24.0110   -10.4390 
  144.3750     2.5570    31.4850    48.1800    41.9120    31.9370    24.1270   -10.3360 
  144.5000     2.5800    32.5190    51.7990    45.0350    32.0640    24.3760   -10.1660 
  144.6250     2.6000    33.9160    54.7310    47.8110    37.0330    24.7180    -9.9410 
  144.7500     2.6150    36.3470    56.3630    49.6720    44.0200    24.9490    -9.6890 
  144.8750     2.6230    39.0130    56.5150    50.3800    44.2160    25.0960    -9.4270 
