~V
VERS. 2.00: Ver 2.00
~W
STRT.M 45.0000:
STOP.M 272.0000:
STEP.M 0.1250:
NULL. -999.2500:
UWI. F10774:
~C
DEPT.M :
DEN.GM/CC :
SP.MV :
GR.API :
RML.OHMM :
RI. :
RXO.OHMM :
CALI.CM :
~A
# ...
  157.5000     2.1640   -20.7500    53.4420    29.6810    25.3410     8.3100    24.2370 
  157.6250     2.1770   -20.9350    54.9780    28.9430    25.0150     8.7840    24.3660 
  157.7500     2.2010   -21.1570    58.4550    27.1350    23.7710     9.7420    24.4350 
  157.8750     2.2270   -21.3960    61.6260    24.5890    21.8110    10.4690    24.4190 
  158.0000     2.2400   -21.6290    64.1910    21.9050    19.6020    10.2210    24.3070 
  158.1250     2.2320   -21.8000    65.3680    19.8080    17.7390     9.5470    24.1520 
  158.2500     2.2140   -21.8640    63.9930    18.8960    16.7190     9.2970    24.0820 
  158.3750     2.1980   -21.8070    62.1800    19.1460    16.5950     9.5920    24.1290 
  158.5000     2.1880   -21.6270    61.3910    20.3650    17.2980    10.0530    24.2380 
  158.6250     2.1850   -21.3250    60.8910    22.1660    18.6180    10.8080    24.3430 
  158.7500     2.1870   -20.9100    59.1570    24.0730    20.2280    10.9810    24.4460 
  158.8750     2.1880   -20.4330    57.8790    25.7900    21.8030    11.0730    24.5150 
  159.0000     2.1860   -19.9250    58.6460    27.4350    23.3280    11.4320    24.5400 
  159.1250     2.1800   -19.4310    59.1960    29.4270    25.0520    12.2960    24.5190 
  159.2500     2.1680   -19.0090    57.7650    32.2410    27.3370    13.8690    24.4540 
  159.3750     2.1550   -18.6660    56.5850    35.7870    30.2010    15.9470    24.3380 
  159.5000     2.1500   -18.4220    56.8330    39.5140    33.2740    18.0690    24.2000 
  159.6250     2.1530   -18.2780    56.8180    42.3610    35.7120    19.9040    24.1230 
  159.7500     2.1590   -18.2200    56.2990    43.0690    36.4280    20.3820    24.1410 
  159.8750     2.1550   -18.2290    56.6490    41.6030    35.3090    19.1600    24.1790 
  160.0000     2.1430   -18.2850    55.8990    38.6890    32.9160    15.8740    24.2600 
  160.1250     2.1310   -18.3770    52.9580    35.4890    30.1860    12.1120    24.3590 
  160.2500     2.1280   -18.5090    52.1440    33.0460    27.9800     9.3890    24.4590 
  160.3750     2.1310   -18.6820    54.0320    31.7000    26.6280     8.3280    24.5280 
  160.5000     2.1380   -18.8790    54.3440    31.4050    26.1520     8.3210    24.5600 
  160.6250     2.1460   -19.0840    52.3370    31.8860    26.4080     8.5400    24.5500 
  160.7500     2.1530   -19.2840    51.7970    32.7100    27.1220     8.5040    24.5200 
  160.8750     2.1580   -19.4450    52.1290    33.3520    27.8410     8.4750    24.5450 
  161.0000     2.1570   -19.5740    50.4420    33.5410    28.2690     8.6630    24.6630 
  161.1250     2.1440   -19.6610    46.9420    33.2410    28.2840     8.5630    24.7900 
  161.2500     2.1240   -19.6940    44.1260    32.6160    27.9720     8.2880    24.8410 
  161.3750     2.1120   -19.6970    42.9290    31.9570    27.5870     8.0480    24.8250 
  161.5000     2.1150   -19.6910    44.1710    31.4420    27.2930     7.9150    24.7760 
  161.6250     2.1280   -19.6950    46.6220    31.2430    27.2300     7.9510    24.7320 
  161.7500     2.1420   -19.7300    47.6170    31.5220    27.5280     8.0510    24.6980 
  161.8750     2.1570   -19.8170    48.7740    32.1990    28.1390     8.1430    24.6360 
  162.0000     2.1770   -19.9370    52.1540    33.0960    28.9350     8.5640    24.5160 
  162.1250     2.2060   -20.0780    56.5210    33.9180    29.6890     9.9810    24.3740 
  162.2500     2.2380   -20.2560    58.7650    34.3230    30.1140    12.3680    24.3370 
  162.3750     2.2570   -20.4600    57.8190    34.2080    30.0880    13.1960    24.4240 
  162.5000     2.2530   -20.6800    54.5250    33.6810    29.6620    11.5340    24.4820 
  162.6250     2.2320   -20.9100    50.0400    32.9760    29.0130    10.0460    24.4590 
  162.7500     2.2150   -21.1490    47.7790    32.2780    28.2980     9.5830    24.4520 
  162.8750     2.2160   -21.3810    48.2520    31.6630    27.6100     9.6950    24.5210 
  163.0000     2.2320   -21.6370    48.8330    31.2480    27.0510    10.0410    24.6080 
  163.1250     2.2570   -21.9350    48.7010    31.4210    26.9060    10.2350    24.6680 
  163.2500     2.2790   -22.2660    49.1360    33.0250    27.7670     9.9220    24.7030 
  163.3750     2.3060   -22.6080    51.5020    36.8380    30.2700    10.1010    24.7120 
  163.5000     2.3550   -22.9630    53.3740    43.5270    35.1560    13.2390    24.7070 
  163.6250     2.4350   -23.3260    51.3960    53.1010    42.8520    24.2260    24.7210 
  163.7500     2.5180   -23.6830    46.2370    63.9270    52.5770    52.0190    24.7830 
  163.8750     2.5710   -24.0310    43.0080    71.8040    61.0090    84.9530    24.8290 
  164.0000     2.5890   -24.3580    43.0650    72.9620    64.6640    85.4130    24.7770 
  164.1250     2.5890   -24.6700    44.3720    67.1030    62.2220    57.7680    24.6970 
  164.2500     2.5780   -24.9770    44.7090    58.1370    55.8960    38.4880    24.7170 
  164.3750     2.5540   -25.2790    44.9680    50.4620    49.6820    33.1840    24.8350 
  164.5000     2.5230   -25.5510    45.7690    44.7480    44.7320    35.1490    24.9840 
  164.6250     2.4920   -25.7830    46.6610    39.8930    40.3590    38.1430    25.0900 
  164.7500     2.4620   -25.9630    47.6660    34.4410    35.2110    37.9170    25.1380 
  164.8750     2.4260   -26.0940    50.3300    28.0980    29.0280    33.3090    25.1370 
  165.0000     2.3770   -26.1690    55.7010    21.6640    22.6810    24.2170    25.0810 
  165.1250     2.3160   -26.1810    62.6930    16.2670    17.3220    14.7000    24.9370 
  165.2500     2.2510   -26.1260    67.3990    12.6850    13.6740     8.3380    24.7140 
  165.3750     2.2010   -26.0390    67.1670    10.6670    11.4680     6.1730    24.5110 
  165.5000     2.1790   -25.9520    63.7990     9.9590    10.4650     5.7520    24.4150 
  165.6250     2.1810   -25.8700    61.3500    10.4010    10.5280     5.8900    24.4050 
  165.7500     2.2000   -25.7980    62.1210    11.9910    11.6820     6.3950    24.3970 
  165.8750     2.2270   -25.7450    63.0310    14.5740    13.8010     7.5650    24.3490 
  166.0000     2.2640   -25.7190    61.4570    18.1380    16.9160     9.9100    24.2810 
  166.1250     2.3090   -25.7260    56.7260    22.5460    20.9960    13.3380    24.2410 
  166.2500     2.3550   -25.7550    49.6120    27.2980    25.7010    16.1490    24.2760 
  166.3750     2.3930   -25.7650    43.1480    31.3750    29.9990    19.0590    24.3900 
  166.5000     2.4250   -25.7420    39.9200    33.8590    32.7880    24.1830    24.5600 
  166.6250     2.4510   -25.6980    41.5320    34.3710    33.4280    29.3620    24.7250 
  166.7500     2.4710   -25.6500    45.6980    33.4270    32.2800    28.9370    24.8110 
  166.8750     2.4820   -25.6110    48.1410    32.4070    30.7720    22.6890    24.8410 
  167.0000     2.4880   -25.5670    47.2740    32.1580    29.7820    18.0720    24.8180 
  167.1250     2.4980   -25.5190    44.6210    33.0570    29.7520    19.6920    24.7080 
  167.2500     2.5210   -25.4970    41.9720    35.0510    30.7780    25.9160    24.5980 
  167.3750     2.5480   -25.5150    39.1490    37.4590    32.4040    31.9620    24.6380 
  167.5000     2.5710   -25.5540    36.8330    39.5800    34.0970    33.9340    24.7600 
  167.6250     2.5930   -25.5900    36.9560    40.7750    35.2540    32.9910    24.9010 
  167.7500     2.6150   -25.6020    41.2540    40.7800    35.4780    33.3830    25.0050 
  167.8750     2.6290   -25.5900    45.7740    40.1130    35.0480    31.9130    25.0420 
  168.0000     2.6240   -25.5620    46.2420    39.2240    34.3270    30.6400    25.0390 
  168.1250     2.5960   -25.5280    43.0300    38.3270    33.5560    29.1160    25.0460 
  168.2500     2.5630   -25.4820    40.9830    37.3850    32.7810    26.6800    25.0680 
  168.3750     2.5420   -25.4230    42.2260    36.2960    31.9390    25.8510    25.0860 
  168.5000     2.5350   -25.3730    44.8740    35.0480    31.0080    26.4680    25.1110 
  168.6250     2.5330   -25.3370    48.0770    33.7280    30.0260    26.8630    25.1470 
