~V
VERS. 2.00: Ver 2.00
~W
STRT.M 50.0000:
STOP.M 240.0000:
STEP.M 0.1250:
NULL. -999.2500:
UWI. F10736:
~C
DEPT.M :
DEN.GM/CC :
GR.API :
RML.OHMM :
RI. :
RXO.OHMM :
CALI.CM :
SP.MV :
~A
# ...
   72.5000     2.1760    67.3050    10.2330     8.6120     7.7540    25.0410    -8.6260 
   72.6250     2.1510    65.1400    11.2400     9.2870     8.3560    25.0550    -8.5610 
   72.7500     2.1570    62.7030    12.4030    10.1200     8.4900    25.0690    -8.4970 
   72.8750     2.1940    60.1380    13.6890    11.0880     9.2420    25.0720    -8.4560 
   73.0000     2.2290    59.4030    15.0920    12.1750     9.5600    25.0700    -8.4420 
   73.1250     2.2280    59.0270    16.5960    13.3640     9.4400    25.0490    -8.4460 
   73.2500     2.2040    56.2880    18.0630    14.5490    10.0300    25.0040    -8.4470 
   73.3750     2.2020    52.3310    19.2570    15.5610    10.6690    24.9560    -8.4380 
   73.5000     2.2160    51.3730    19.9340    16.2010    11.0770    24.9410    -8.4130 
   73.6250     2.2100    53.7570    19.9600    16.3190    11.0130    24.9830    -8.3650 
   73.7500     2.1650    53.9770    19.6520    16.1230    10.7350    25.0630    -8.3120 
   73.8750     2.1250    50.7300    19.2650    15.7970    10.1650    25.1210    -8.2840 
   74.0000     2.1050    47.5970    18.9680    15.4930     9.8320    25.1420    -8.3000 
   74.1250     2.0960    47.9940    18.8100    15.2970    10.2630    25.1420    -8.3680 
   74.2500     2.0870    50.2550    18.7360    15.1970    10.6750    25.1420    -8.4590 
   74.3750     2.0850    51.5110    18.7630    15.2030    10.6830    25.1420    -8.5500 
   74.5000     2.0960    49.9260    18.9620    15.3520    10.6380    25.1370    -8.6250 
   74.6250     2.1200    47.2080    19.3990    15.6930    10.9970    25.1080    -8.6790 
   74.7500     2.1470    46.3020    19.9040    16.1190    11.5640    25.0560    -8.7290 
   74.8750     2.1710    46.4410    20.1550    16.4040    11.9150    25.0190    -8.7910 
   75.0000     2.1930    45.8630    19.7520    16.2260    12.0210    25.0190    -8.8750 
   75.1250     2.2150    46.5660    18.3170    15.2260    11.4790    25.0520    -8.9870 
   75.2500     2.2480    49.9180    16.2440    13.6610     9.9340    25.0680    -9.1130 
   75.3750     2.2850    55.2760    14.0300    11.9090     8.2220    25.0720    -9.2370 
   75.5000     2.3100    59.9590    12.1140    10.3260     6.8040    25.0720    -9.3490 
   75.6250     2.3110    60.9320    10.8010     9.1660     6.2740    25.0700    -9.4440 
   75.7500     2.3000    60.7630     9.9850     8.3830     6.2050    25.0680    -9.5360 
   75.8750     2.3070    62.1610     9.5430     7.9120     6.2310    25.0720    -9.6350 
   76.0000     2.3310    65.4440     9.3390     7.6710     6.0340    25.0890    -9.7370 
   76.1250     2.3440    66.1030     9.2850     7.6000     5.7170    25.1320    -9.8090 
   76.2500     2.3240    63.7840     9.3130     7.6180     5.7530    25.1630    -9.8230 
   76.3750     2.2890    62.6450     9.4070     7.6950     6.2250    25.1780    -9.7830 
   76.5000     2.2640    63.4630     9.5340     7.8000     6.6680    25.2070    -9.7280 
   76.6250     2.2530    63.8690     9.6190     7.8890     6.6890    25.2460    -9.7080 
   76.7500     2.2510    62.9920     9.5820     7.9120     6.5700    25.2990    -9.7210 
   76.8750     2.2590    61.7450     9.3880     7.8350     6.5070    25.3500    -9.7370 
   77.0000     2.2790    62.4460     9.0630     7.6600     6.4060    25.3970    -9.7300 
   77.1250     2.3010    65.2950     8.6870     7.4190     6.4860    25.4230    -9.6950 
   77.2500     2.3090    68.7770     8.3640     7.1870     6.2870    25.4680    -9.6570 
   77.3750     2.3050    71.2160     8.1540     7.0080     6.0300    25.4930    -9.6330 
   77.5000     2.3000    71.9560     8.0730     6.9040     5.8300    25.4710    -9.6200 
   77.6250     2.2960    72.8670     8.1040     6.8770     5.8800    25.3910    -9.6000 
   77.7500     2.2910    74.6470     8.1530     6.8800     6.1050    25.3190    -9.5640 
   77.8750     2.2870    76.8700     8.1400     6.8650     6.1660    25.2840    -9.5160 
   78.0000     2.2870    79.1200     8.0280     6.8030     5.8890    25.2630    -9.4650 
   78.1250     2.2950    80.8100     7.8430     6.6880     5.5150    25.2330    -9.4250 
   78.2500     2.3030    80.9730     7.6540     6.5500     5.5280    25.2150    -9.4110 
   78.3750     2.3050    80.3410     7.4790     6.4010     5.5260    25.1970    -9.4290 
   78.5000     2.3010    80.6050     7.3040     6.2400     5.3260    25.1550    -9.4660 
   78.6250     2.2950    83.0200     7.0990     6.0620     5.2720    25.1150    -9.4960 
   78.7500     2.2900    83.6770     6.8740     5.8790     5.2430    25.0770    -9.4990 
   78.8750     2.2880    81.9070     6.6810     5.7240     5.0110    25.0460    -9.4740 
   79.0000     2.2900    80.1400     6.5850     5.6410     4.7230    24.9980    -9.4380 
   79.1250     2.2900    78.3530     6.6410     5.6800     4.7850    24.9470    -9.4100 
   79.2500     2.2780    76.6780     6.8040     5.8170     5.2210    24.9120    -9.3950 
   79.3750     2.2560    74.4830     7.0380     6.0330     5.6300    24.8790    -9.3940 
   79.5000     2.2330    71.6920     7.3410     6.3180     5.8360    24.8590    -9.4050 
   79.6250     2.2110    69.8850     7.7820     6.7040     5.8500    24.8540    -9.4170 
   79.7500     2.1880    69.0620     8.4170     7.2150     5.9360    24.8540    -9.4070 
   79.8750     2.1690    67.8980     9.2770     7.8710     6.1160    24.8540    -9.3640 
   80.0000     2.1620    65.7540    10.2930     8.6400     6.6360    24.8610    -9.2980 
   80.1250     2.1710    64.8430    11.1850     9.3530     7.1330    24.8830    -9.2350 
   80.2500     2.1990    65.0030    11.5930     9.7460     7.2240    24.9130    -9.1890 
   80.3750     2.2350    64.2300    11.2520     9.5940     6.9010    24.9270    -9.1510 
   80.5000     2.2580    63.1960    10.1660     8.8610     6.5300    24.9280    -9.1120 
   80.6250     2.2640    65.9230     8.7540     7.8170     6.4290    24.9390    -9.0670 
   80.7500     2.2680    71.6130     7.7320     6.9770     6.1490    24.9630    -9.0190 
   80.8750     2.2870    75.5400     7.5470     6.6570     5.7880    24.9870    -8.9660 
   81.0000     2.3190    75.1030     8.4660     7.0630     5.7930    24.9980    -8.9010 
   81.1250     2.3570    69.6610    10.8520     8.5450     8.8220    24.9960    -8.8090 
   81.2500     2.3810    62.5420    14.3870    11.0660    18.7260    24.9840    -8.7020 
   81.3750     2.3640    54.7110    18.4250    14.3870    29.7520    24.9560    -8.5970 
   81.5000     2.2920    48.7470    21.6720    17.6610    25.6010    24.9350    -8.5080 
   81.6250     2.1910    45.7110    22.5900    19.4630    17.4580    24.9310    -8.4400 
   81.7500     2.1250    44.2670    21.9020    19.8160    13.9890    24.9440    -8.3810 
   81.8750     2.1120    44.9300    20.8410    19.5030    13.0470    24.9720    -8.3300 
   82.0000     2.1230    47.3770    20.2660    19.2810    13.1320    24.9990    -8.2900 
   82.1250     2.1200    48.0310    20.3510    19.4470    13.9720    25.0270    -8.2690 
   82.2500     2.0970    46.5520    20.5720    19.6960    13.9290    25.0540    -8.2570 
   82.3750     2.0910    46.5880    20.5380    19.7050    13.9100    25.0650    -8.2360 
   82.5000     2.1180    49.3370    20.0160    19.2480    14.2640    25.0670    -8.2050 
   82.6250     2.1650    51.3640    18.8590    18.1520    13.8100    25.0670    -8.2040 
   82.7500     2.2040    52.8660    17.2810    16.6090    12.6800    25.0670    -8.2650 
   82.8750     2.2210    55.4470    15.4910    14.8300    11.8100    25.0610    -8.3860 
   83.0000     2.2240    60.3610    13.7360    13.0690    11.7590    25.0370    -8.5320 
   83.1250     2.2210    65.0180    12.3660    11.6570    10.2140    24.9930    -8.6520 
   83.2500     2.1980    65.7830    11.5780    10.7560     8.4800    24.9790    -8.7260 
   83.3750     2.1550    62.4510    11.5050    10.4680     7.9880    24.9890    -8.7620 
   83.5000     2.1190    57.1120    12.1990    10.8400     9.7620    25.0170    -8.7800 
   83.6250     2.1180    54.5100    13.7480    11.9900    15.5540    25.0930    -8.7990 
