~V
VERS. 2.00: Ver 2.00
~W
STRT.M 59.0000:
STOP.M 239.0000:
STEP.M 0.1250:
NULL. -999.2500:
UWI. F10784:
~C
DEPT.M :
DEN.GM/CC :
GR.API :
RML.OHMM :
RI. :
RXO.OHMM :
CALI.CM :
SP.MV :
~A
   59.0000     2.1060    34.9510     1.5780     0.1980     0.9920    25.8510    52.6040 
   59.1250     2.1610    31.9040     1.0790     0.1720     1.0370    25.8490    41.8000 
   59.2500     2.2710    32.7340     0.5620     0.1430     1.1120    25.8490    33.4200 
   59.3750     2.4330    35.7890     0.1560     0.1170     1.1730    25.8430    27.1960 
   59.5000     2.6070    37.6460    -0.0810     0.1000     1.1760    25.7770    22.3780 
   59.6250     2.7090    38.7370    -0.1500     0.0990     1.1190    25.5820    18.5060 
   59.7500     2.6890    41.0040    -0.1150     0.1240     1.0420    25.3470    14.8340 
   59.8750     2.5410    44.2170     0.0350     0.2040     1.2900    25.2270    10.9660 
   60.0000     2.3090    46.8140     0.3750     0.3990     2.0720    25.2470     6.6370 
   60.1250     2.0710    47.2260     1.1340     0.8680     3.8830    25.5000     2.0110 
   60.2500     1.8930    47.9520     2.4320     1.7320     6.1930    26.2940    -2.5530 
   60.3750     1.7930    49.5780     4.2420     3.0720     9.0650    28.1400    -6.8740 
   60.5000     1.7570    50.8500     6.2380     4.7920    12.2490    31.2060   -10.7840 
   60.6250     1.7600    48.8050     7.7850     6.5180    12.8230    34.2820   -14.1260 
   60.7500     1.7770    45.4060     8.6160     7.8230     9.3480    35.6530   -16.8510 
   60.8750     1.8070    43.9910     8.8180     8.5170     6.6880    35.8910   -18.9910 
   61.0000     1.8530    43.9910     8.6450     8.6350     5.6140    35.6540   -20.5560 
   61.1250     1.9160    43.9650     8.2940     8.3130     5.5470    35.2600   -21.7530 
   61.2500     1.9800    44.6650     7.9140     7.8470     5.6510    35.0670   -22.8640 
   61.3750     2.0320    46.4490     7.5920     7.4130     5.7230    35.0160   -24.0020 
   61.5000     2.0620    48.4640     7.4010     7.1220     5.6930    35.0140   -25.0800 
   61.6250     2.0690    48.6930     7.3970     7.0380     5.6330    34.9930   -26.0380 
   61.7500     2.0690    46.9460     7.5210     7.0880     5.5690    34.8650   -26.8260 
   61.8750     2.0740    45.4220     7.7040     7.1970     5.5670    34.5480   -27.4440 
   62.0000     2.0910    47.0430     7.8620     7.2800     5.6100    34.1180   -27.9430 
   62.1250     2.1130    50.5580     7.8930     7.2400     5.6210    33.9250   -28.3330 
   62.2500     2.1300    52.0790     7.7680     7.0550     5.5710    33.9200   -28.6550 
   62.3750     2.1310    52.5860     7.4930     6.7350     5.5010    34.0890   -28.8950 
   62.5000     2.1130    55.1950     7.1210     6.3320     5.4640    34.4190   -29.1650 
   62.6250     2.0790    59.0760     6.7700     5.9470     5.4080    34.6730   -29.4120 
   62.7500     2.0460    61.0140     6.5970     5.7100     5.2730    34.6170   -29.6930 
   62.8750     2.0370    61.2830     6.7620     5.7620     5.0130    34.0320   -29.9740 
   63.0000     2.0760    60.6190     7.4420     6.2670     4.8230    32.6310   -30.2460 
   63.1250     2.1830    62.1650     8.9990     7.5680     5.0790    30.3430   -30.4040 
   63.2500     2.3280    66.7660    11.5450     9.7630     7.1020    27.6490   -30.3930 
   63.3750     2.4800    71.1220    15.0620    12.8080    13.0280    25.7560   -30.2320 
   63.5000     2.6040    71.3500    18.8860    16.1460    21.6200    25.0780   -29.9050 
   63.6250     2.6610    68.1840    21.1880    18.3540    28.6250    25.0780   -29.5000 
   63.7500     2.6480    68.1220    20.9240    18.5320    27.9500    25.0780   -29.0180 
   63.8750     2.5690    72.2660    18.4430    16.7600    21.9230    25.0780   -28.5130 
   64.0000     2.4420    78.2070    15.1560    13.9940    13.7120    25.0780   -27.9840 
   64.1250     2.3050    80.1920    12.5830    11.4680     8.8020    25.0780   -27.5230 
   64.2500     2.1980    76.3040    11.0400     9.7210     7.0910    25.0780   -27.1420 
   64.3750     2.1410    69.9280    10.3330     8.7530     6.5630    25.0780   -26.8890 
   64.5000     2.1260    65.6810    10.1970     8.3980     6.3660    25.0780   -26.7520 
   64.6250     2.1370    65.3870    10.4380     8.5240     6.2670    25.0780   -26.6890 
   64.7500     2.1510    66.2680    10.8180     8.8910     6.2900    25.0780   -26.7220 
   64.8750     2.1650    67.5000    11.2320     9.3830     6.3750    25.0780   -26.7680 
   65.0000     2.1820    67.2770    11.6010     9.9100     6.5110    25.0780   -26.8620 
   65.1250     2.2020    64.6280    11.7920    10.3450     6.6550    25.0780   -26.9530 
   65.2500     2.2220    62.6980    11.6760    10.5390     6.7420    25.0780   -27.0980 
   65.3750     2.2420    63.5450    11.1320    10.3380     6.7430    25.0780   -27.2430 
   65.5000     2.2630    64.9690    10.1470     9.6690     6.5890    25.0780   -27.3520 
   65.6250     2.2890    66.8610     8.8420     8.5700     6.2430    25.0780   -27.4370 
   65.7500     2.3180    72.9020     7.5270     7.3430     5.5890    25.0780   -27.4500 
   65.8750     2.3430    83.2540     6.3880     6.1990     4.7780    25.0780   -27.4990 
   66.0000     2.3570    92.4620     5.5270     5.2730     4.4250    25.0780   -27.5230 
   66.1250     2.3490    94.7920     5.0270     4.6680     4.4880    25.0780   -27.5570 
   66.2500     2.3230    92.3950     4.8480     4.3500     4.5410    25.0760   -27.5940 
   66.3750     2.2810    89.9840     5.0120     4.3290     4.5260    25.0480   -27.6260 
   66.5000     2.2280    88.2840     5.5400     4.6280     4.3730    24.9720   -27.6460 
   66.6250     2.1750    85.1380     6.4510     5.3060     4.6770    24.8500   -27.6080 
   66.7500     2.1380    79.8350     7.5140     6.2290     5.5680    24.7970   -27.6130 
   66.8750     2.1340    73.6260     8.4200     7.1800     6.2360    24.7850   -27.6040 
   67.0000     2.1660    68.7020     8.8180     7.8390     6.3790    24.7850   -27.6410 
   67.1250     2.2270    65.5000     8.4080     7.8220     6.2250    24.7850   -27.7650 
   67.2500     2.2860    68.1640     7.4910     7.2380     5.8930    24.7850   -27.9040 
   67.3750     2.3230    77.9350     6.4440     6.3550     5.2920    24.7840   -28.0610 
   67.5000     2.3290    89.4710     5.6100     5.4980     4.5880    24.7500   -28.2950 
   67.6250     2.3080    92.6300     5.2280     4.9400     4.4410    24.6130   -28.6330 
   67.7500     2.2770    88.2520     5.2170     4.6990     4.8430    24.3970   -29.0010 
   67.8750     2.2480    84.3650     5.4860     4.7400     5.1520    24.2550   -29.3410 
   68.0000     2.2260    85.4120     5.9150     4.9880     5.0360    24.2090   -29.7000 
   68.1250     2.2150    87.1710     6.3700     5.3510     5.0730    24.2080   -30.0570 
   68.2500     2.2110    84.5250     6.7340     5.7020     5.4020    24.2100   -30.3930 
   68.3750     2.2120    79.2720     6.9590     5.9700     5.7040    24.2400   -30.7340 
   68.5000     2.2120    75.9870     7.0580     6.1330     5.9030    24.3220   -30.9820 
   68.6250     2.2070    77.1250     7.0940     6.2100     5.9650    24.4700   -31.1120 
   68.7500     2.2000    77.8300     7.1660     6.2840     6.0010    24.5370   -31.1810 
   68.8750     2.2050    75.3820     7.3190     6.4070     6.0660    24.5520   -31.1950 
   69.0000     2.2340    71.5030     7.5340     6.5880     6.1160    24.5530   -31.0440 
   69.1250     2.2860    70.3880     7.6920     6.7580     6.1770    24.5510   -30.7260 
   69.2500     2.3400    74.2500     7.6600     6.8020     6.3480    24.5500   -30.2760 
   69.3750     2.3740    81.0770     7.3640     6.6360     6.6330    24.5500   -29.6930 
   69.5000     2.3770    86.8910     6.8270     6.2490     6.7870    24.5480   -29.0250 
   69.6250     2.3560    87.9940     6.1720     5.7070     5.9190    24.5480   -28.3160 
   69.7500     2.3320    87.5410     5.5910     5.1750     5.1980    24.5490   -27.6160 
   69.8750     2.3160    89.4830     5.1990     4.7630     4.8020    24.5490   -26.9380 
   70.0000     2.3130    93.0130     5.0360     4.5320     4.6720    24.5490   -26.3340 
   70.1250     2.3280    95.9290     5.1060     4.5200     4.7480    24.5500   -25.8050 
