~V
VERS. 2.00: Ver 2.00
~W
STRT.M 50.0000:
STOP.M 230.0000:
STEP.M 0.1250:
NULL. -999.2500:
UWI. F10780:
~C
DEPT.M :
DEN.GM/CC :
GR.API :
RML.OHMM :
RI. :
RXO.OHMM :
CALI.CM :
SP.MV :
~A
# ...
  218.7500     2.2060    62.6530   172.2860   160.8180   160.2230    24.7050   -30.1920 
  218.8750     2.2110    62.3500   159.4040   149.1640   134.4660    24.6280   -30.3930 
  219.0000     2.2100    63.1000   150.0740   140.6100   118.9210    24.5640   -30.5700 
  219.1250     2.2050    63.8470   144.2590   135.3650   118.1130    24.5880   -30.6610 
  219.2500     2.1980    63.6180   140.5960   132.2070   119.3730    24.6580   -30.7260 
  219.3750     2.1940    62.5320   138.4800   130.5480   118.4460    24.7350   -30.7960 
  219.5000     2.1940    62.2470   137.4950   129.9680   110.6820    24.7740   -30.8760 
  219.6250     2.1970    62.2470   137.4350   130.2620   106.2600    24.7590   -30.9870 
  219.7500     2.2000    62.2470   137.7970   130.9840   106.0580    24.7160   -31.1630 
  219.8750     2.2030    62.2470   138.1060   131.7290   111.9920    24.6440   -31.2830 
  220.0000     2.2050    62.2470   137.7790   131.9480   115.8810    24.5410   -31.4190 
  220.1250     2.2100    62.2470   136.1880   130.9560   114.2850    24.4880   -31.5700 
  220.2500     2.2190    62.2470   133.6950   128.9550   116.9030    24.4690   -31.7360 
  220.3750     2.2350    62.2470   131.0440   126.5860   123.2070    24.4760   -31.9070 
  220.5000     2.2540    62.2470   129.1520   124.7510   119.2820    24.4650   -32.0780 
  220.6250     2.2710    62.2470   128.8860   124.4130   115.3160    24.3980   -32.1730 
  220.7500     2.2770    62.2470   129.8840   125.4090   109.7750    24.3290   -32.2550 
  220.8750     2.2740    62.2470   131.4040   127.1400   113.5450    24.3300   -32.3740 
  221.0000     2.2640    62.2470   132.4170   128.6600   117.5270    24.3860   -32.4560 
  221.1250     2.2540    62.2470   131.5790   128.6380   116.0810    24.4600   -32.5460 
  221.2500     2.2480    62.2470   128.6150   126.5680   108.2710    24.4840   -32.7070 
  221.3750     2.2520    62.2470   123.7390   122.4360   100.1670    24.5450   -32.8720 
  221.5000     2.2700    62.2470   117.7330   116.8450   112.6910    24.6660   -33.0120 
  221.6250     2.3120    62.2470   111.7900   110.8870   116.0700    24.6900   -33.2260 
  221.7500     2.3780    62.2470   106.8170   105.6420   101.9930    24.6440   -33.4450 
  221.8750     2.4580    62.2470   103.1030   101.5250    85.8550    24.6360   -33.6600 
  222.0000     2.5310    62.2470   100.5220    98.5120    75.5480    24.5290   -33.8970 
  222.1250     2.5660    62.2470    98.8090    96.4170    78.3940    24.2420   -34.1620 
  222.2500     2.5600    62.2470    97.4570    94.7610    78.2570    23.8920   -34.2750 
  222.3750     2.5240    62.2470    96.2710    93.3300    72.3320    23.5480   -34.3150 
  222.5000     2.4820    62.2470    95.2330    92.0410    61.5660    23.3260   -34.3420 
  222.6250     2.4560    62.2470    94.5650    91.0220    63.6480    23.5110   -34.2750 
  222.7500     2.4520    62.2470    94.4260    90.4110    73.7780    23.7620   -34.2390 
  222.8750     2.4630    62.2470    94.8440    90.2740    84.7520    23.9890   -34.0370 
  223.0000     2.4800    62.2470    95.6060    90.4700    83.1880    24.1750   -33.8220 
  223.1250     2.4910    62.2470    96.2300    90.6010    83.9850    24.2490   -33.5460 
  223.2500     2.4990    62.2470    96.2990    90.2680    95.4190    24.2650   -33.3290 
  223.3750     2.5020    62.2470    95.6250    89.2750   105.3260    24.2790   -33.0910 
  223.5000     2.5050    62.2470    94.2320    87.6150    89.8790    24.2510   -32.7450 
  223.6250     2.5130    62.2470    92.2620    85.3910    84.4880    24.2230   -32.3860 
  223.7500     2.5260    62.2470    90.1360    83.0030    83.6450    24.1270   -31.9130 
  223.8750     2.5410    62.2470    88.1870    80.7920    75.7320    24.0680   -31.3400 
  224.0000     2.5550    62.2470    86.6860    79.0580    67.2270    24.1710   -30.7350 
  224.1250     2.5720    62.2470    85.8450    78.0520    65.4570    24.1740   -30.1340 
  224.2500     2.5950    62.2470    85.4610    77.5720    68.1730    23.9970   -29.4460 
  224.3750     2.6240    62.2470    85.3340    77.4070    67.2640    23.8260   -28.7520 
  224.5000     2.6510    62.2470    85.2960    77.3700    62.6940    23.8320   -28.1820 
  224.6250     2.6690    62.2470    85.2610    77.3630    54.3450    23.9360   -27.6220 
  224.7500     2.6800    62.2470    85.2240    77.3600    52.1050    23.9230   -27.0850 
  224.8750     2.6870    62.2470    85.2020    77.3610    53.5660    23.8690   -26.6400 
  225.0000     2.6880    62.2470    85.2070    77.3630    59.2330    23.9480   -26.2890 
  225.1250     2.6790    62.2470    85.2280    77.3620    70.5070    24.1180   -25.9470 
  225.2500     2.6550    62.2470    85.2520    77.3600    81.6750    24.2490   -25.6650 
  225.3750     2.6090    62.2470    85.2720    77.3590    86.9960    24.2800   -25.4620 
  225.5000     2.5510    62.2470    85.2790    77.3580    72.4300    24.2710   -25.2790 
  225.6250     2.4970    62.2470    85.2790    77.3590    59.0930    24.3060   -25.1540 
  225.7500     2.4630    62.2470    85.2790    77.3590    50.7890    24.3120   -25.0970 
  225.8750     2.4630    62.2470    85.2790    77.3590    50.5040    24.2280   -25.0650 
  226.0000     2.4900    62.2470    85.2790    77.3590    46.8930    24.1160   -25.0500 
  226.1250     2.5310    62.2470    85.2790    77.3590    42.5550    24.0340   -25.0860 
  226.2500     2.5700    62.2470    85.2790    77.3590    58.3720    23.9980   -25.1510 
  226.3750     2.5960    62.2470    85.2790    77.3590    62.9620    23.9430   -25.1810 
  226.5000     2.6130    62.2470    85.2790    77.3590    67.5880    23.9270   -25.1990 
  226.6250     2.6250    62.2470    85.2790    77.3590    64.6170    23.9520   -25.1630 
  226.7500     2.6330    62.2470    85.2790    77.3590    55.9320    23.9120   -25.1540 
  226.8750     2.6300    62.2470    85.2790    77.3590    46.3080    23.8670   -25.1690 
  227.0000     2.6070    62.2470    85.2790    77.3590    39.7660    23.8600   -25.1290 
  227.1250     2.5610    62.2470    85.2790    77.3590    26.2290    23.9220   -25.0530 
  227.2500     2.5010    62.2470    85.2790    77.3590    13.1300    24.0020   -24.9770 
  227.3750     2.4460    62.2470    85.2790    77.3590     8.5360    24.0690   -24.9250 
  227.5000     2.4150    62.2470    85.2790    77.3590     7.0850    24.1000   -24.8940 
  227.6250     2.4080    62.2470    85.2790    77.3590     7.1290    24.1180   -24.8940 
  227.7500     2.4140    62.2470    85.2790    77.3590     7.6450    24.1290   -24.8940 
  227.8750     2.4190    62.2470    85.2790    77.3590     7.2620    24.0940  -999.2500 
  228.0000     2.4190    62.2470    85.2790    77.3590     6.5540    23.8370  -999.2500 
  228.1250     2.4200    62.2470    85.2790    77.3590     5.5570    23.1700  -999.2500 
  228.2500     2.4240    62.2470    85.2790    77.3590     5.0690    22.1760  -999.2500 
  228.3750     2.4270    62.2470    85.2790    77.3590     4.8890    21.0540  -999.2500 
  228.5000     2.4090    62.2470    85.2790    77.3590     4.8460    19.9290  -999.2500 
  228.6250     2.3550    62.2470    85.2790    77.3590     4.7610    18.8710  -999.2500 
  228.7500     2.2620    62.2470    85.2790    77.3590     4.7450    17.5080  -999.2500 
  228.8750     2.0560    62.2470    85.2790    77.3590     4.7790    15.4200  -999.2500 
  229.0000     1.7050    62.2470    85.2790    77.3590     4.7580    13.4440  -999.2500 
  229.1250     1.4010    62.2470    85.2790    77.3590     4.7430    12.6420  -999.2500 
  229.2500     1.3960    62.2470    85.2790    77.3590     4.7400    12.5330  -999.2500 
  229.3750     1.8450    62.2470    85.2790    77.3590     4.7400    12.5330  -999.2500 
  229.5000     2.4540    62.2470    85.2790    77.3590     4.7400    12.5330  -999.2500 
  229.6250     3.1720    62.2470    85.2790    77.3590     4.7390    12.5330  -999.2500 
  229.7500     2.8200    62.2470    85.2790    77.3590     4.7380    12.5330  -999.2500 
  229.8750     2.0810    62.2470    85.2790    77.3590     4.7370    12.5330  -999.2500 
