~V
VERS. 2.00: Ver 2.00
~W
STRT.M 50.0000:
STOP.M 230.0000:
STEP.M 0.1250:
NULL. -999.2500:
UWI. F10780:
~C
DEPT.M :
DEN.GM/CC :
GR.API :
RML.OHMM :
RI. :
RXO.OHMM :
CALI.CM :
SP.MV :
~A
# ...
  162.5000     2.5560    53.1720    28.2870    27.2240    20.3380    24.7050   -14.2250 
  162.6250     2.5630    52.5580    27.7740    26.8210    21.7150    24.3280   -14.3230 
  162.7500     2.5810    54.3090    27.0900    26.2740    23.3470    24.0170   -14.3200 
  162.8750     2.5970    54.9310    26.2330    25.5380    22.3270    23.7700   -14.2440 
  163.0000     2.5980    52.5430    25.3420    24.6980    18.8180    23.5930   -14.1460 
  163.1250     2.5770    51.0800    24.7300    24.0070    18.0390    23.5550   -14.0850 
  163.2500     2.5490    50.9070    24.6080    23.6970    17.3970    23.5930   -14.0700 
  163.3750     2.5340    51.5920    25.0370    23.8850    17.4370    23.6900   -14.0820 
  163.5000     2.5430    53.2980    25.8690    24.5150    17.8140    23.8570   -14.0540 
  163.6250     2.5720    54.8980    26.7250    25.3240    20.8300    24.0650   -13.9610 
  163.7500     2.5980    53.9900    27.2040    25.9090    24.4890    24.1740   -13.8740 
  163.8750     2.6020    52.9620    27.1500    26.0530    25.1470    24.1860   -13.8380 
  164.0000     2.5790    56.0970    26.6600    25.7600    22.4310    24.1570   -13.8590 
  164.1250     2.5390    59.6360    26.0420    25.2320    20.5300    24.2040   -13.9200 
  164.2500     2.5060    58.6560    25.6430    24.8020    20.0330    24.2870   -13.9540 
  164.3750     2.4880    56.2640    25.5970    24.6360    21.0050    24.4000   -13.8960 
  164.5000     2.4840    57.0330    25.8660    24.7590    23.5510    24.5170   -13.7860 
  164.6250     2.4840    60.8710    26.2560    25.0610    24.8130    24.6620   -13.7320 
  164.7500     2.4840    62.2430    26.4920    25.2920    23.6320    24.7310   -13.7490 
  164.8750     2.4850    60.0790    26.4120    25.2680    23.2720    24.7470   -13.7340 
  165.0000     2.4910    56.6890    25.9830    24.9040    25.7040    24.7330   -13.6210 
  165.1250     2.4990    54.2690    25.3160    24.2250    26.5120    24.7010   -13.4380 
  165.2500     2.5060    53.1290    24.7110    23.4900    23.1770    24.7030   -13.2850 
  165.3750     2.5140    53.0210    24.4010    22.9290    20.6260    24.7030   -13.2240 
  165.5000     2.5260    53.2210    24.5240    22.7240    18.8240    24.6800   -13.2430 
  165.6250     2.5430    52.4590    25.1020    22.9990    19.0540    24.5940   -13.2910 
  165.7500     2.5580    51.5830    25.8250    23.5600    20.0820    24.5230   -13.3220 
  165.8750     2.5660    52.0010    26.3690    24.1550    21.7100    24.5000   -13.3890 
  166.0000     2.5660    53.4440    26.4430    24.4860    23.2400    24.5320   -13.5300 
  166.1250     2.5600    55.4360    25.8240    24.2460    23.9570    24.5320   -13.6960 
  166.2500     2.5520    57.4810    24.7650    23.5200    22.8600    24.5000   -13.8500 
  166.3750     2.5450    58.5240    23.5580    22.5090    21.1590    24.4500   -14.0130 
  166.5000     2.5400    57.5780    22.5040    21.4720    20.3380    24.4260   -14.2070 
  166.6250     2.5440    55.0870    21.8780    20.6800    18.7630    24.4550   -14.3600 
  166.7500     2.5600    53.6080    21.6720    20.2040    18.2750    24.5170   -14.4790 
  166.8750     2.5890    53.3650    21.8170    20.0350    18.3810    24.5240   -14.6020 
  167.0000     2.6260    52.7250    22.1630    20.0940    19.7320    24.5160   -14.7560 
  167.1250     2.6630    52.1480    22.4650    20.2370    20.3260    24.5190   -14.9640 
  167.2500     2.6900    53.5310    22.4690    20.2550    19.5080    24.5250   -15.1680 
  167.3750     2.6980    55.5130    21.9970    19.9840    19.2860    24.5210   -15.3130 
  167.5000     2.6840    54.7130    20.9980    19.3340    20.4160    24.5190   -15.3480 
  167.6250     2.6450    51.1500    19.5590    18.3040    17.7530    24.4690   -15.3240 
  167.7500     2.5930    51.2190    18.0490    17.1460    14.3360    24.3560   -15.2870 
  167.8750     2.5370    54.1170    16.7450    16.0730    12.6610    24.1490   -15.2230 
  168.0000     2.4900    56.3890    15.8180    15.2430    12.0420    23.9510   -15.0980 
  168.1250     2.4630    57.3530    15.3290    14.7460    12.3760    24.0030   -14.8750 
  168.2500     2.4570    57.5830    15.0630    14.4460    12.7250    24.3060   -14.6040 
  168.3750     2.4640    56.9960    14.8470    14.2110    13.0970    24.6100   -14.3320 
  168.5000     2.4760    55.8780    14.5800    13.9430    13.2220    24.7260   -14.1460 
  168.6250     2.4810    56.6480    14.2980    13.6420    12.8130    24.7180   -14.0450 
  168.7500     2.4810    58.7270    14.1770    13.4330    12.0330    24.7800   -13.9720 
  168.8750     2.4820    59.1540    14.3950    13.4730    11.6410    24.9740   -13.8850 
  169.0000     2.4880    57.7220    15.0680    13.8950    12.3050    25.1070   -13.7680 
  169.1250     2.5040    56.6320    16.2310    14.8090    14.3460    25.0750   -13.6650 
  169.2500     2.5250    58.7440    17.5860    16.0150    15.5490    24.9090   -13.5970 
  169.3750     2.5480    61.3560    18.8070    17.2430    16.7560    24.7140   -13.5650 
  169.5000     2.5660    60.7970    19.5520    18.1480    18.0880    24.5370   -13.5300 
  169.6250     2.5730    57.8920    19.4570    18.3180    18.6190    24.4010   -13.4810 
  169.7500     2.5670    56.1390    18.6700    17.8030    16.7660    24.2680   -13.4070 
  169.8750     2.5490    55.6050    17.4360    16.7920    14.6350    24.1720   -13.3160 
  170.0000     2.5240    55.2270    16.0950    15.5880    13.4660    24.1240   -13.2730 
  170.1250     2.5010    56.1110    15.0110    14.5230    12.8300    24.1070   -13.3160 
  170.2500     2.4850    58.4920    14.3100    13.7590    11.7560    24.1100   -13.3770 
  170.3750     2.4790    59.7840    13.9730    13.3190    11.3150    24.1150   -13.4290 
  170.5000     2.4790    58.3270    13.8770    13.1290    11.4170    24.1220   -13.4260 
  170.6250     2.4800    55.0320    13.8550    13.0690    11.7770    24.1210   -13.3490 
  170.7500     2.4750    52.6250    13.7640    12.9930    11.8280    24.1190   -13.2950 
  170.8750     2.4650    51.4950    13.5680    12.8370    11.6270    24.1250   -13.3040 
  171.0000     2.4530    49.8640    13.2980    12.5980    11.0430    24.1290   -13.3280 
  171.1250     2.4410    48.6170    13.0620    12.3430    10.7210    24.1290   -13.2810 
  171.2500     2.4330    50.8470    12.9870    12.1830    11.2430    24.1460   -13.1850 
  171.3750     2.4270    54.8970    13.1860    12.2260    11.9120    24.1800   -13.0700 
  171.5000     2.4220    57.7750    13.7410    12.5630    11.9340    24.1600   -13.0110 
  171.6250     2.4240    59.2500    14.7140    13.2940    12.1830    24.0810   -13.0700 
  171.7500     2.4360    62.1940    15.9060    14.2910    13.3720    24.0260   -13.1910 
  171.8750     2.4570    67.1580    17.0780    15.3730    15.0850    23.9690   -13.3110 
  172.0000     2.4830    71.8150    17.9640    16.2900    16.6410    23.8260   -13.4140 
  172.1250     2.4990    73.4050    18.3110    16.7500    17.6420    23.7040   -13.5070 
  172.2500     2.5010    73.7500    18.2560    16.7900    16.1530    23.6410   -13.6150 
  172.3750     2.4900    74.9100    18.0300    16.5820    13.6450    23.6160   -13.7420 
  172.5000     2.4720    76.5160    17.8870    16.3650    12.6120    23.5950   -13.8710 
  172.6250     2.4560    76.7350    17.9930    16.3500    13.1020    23.5880   -13.9870 
  172.7500     2.4450    76.4350    18.2370    16.5040    13.8860    23.5910   -14.0700 
  172.8750     2.4370    76.8210    18.4560    16.7030    14.4130    23.6440   -14.1110 
  173.0000     2.4320    76.3130    18.5320    16.8210    15.4880    23.7900   -14.0970 
  173.1250     2.4280    73.8800    18.4660    16.8040    15.5590    24.0110   -14.0770 
  173.2500     2.4270    70.1760    18.4150    16.7630    14.4250    24.1260   -14.0820 
  173.3750     2.4300    66.1350    18.4840    16.7980    13.1440    24.1280   -14.1180 
  173.5000     2.4360    63.9790    18.6610    16.9250    12.7950    24.0650   -14.1340 
  173.6250     2.4470    63.8340    18.7830    17.0240    14.2640    24.0460   -14.0710 
