~V
VERS. 2.00: Ver 2.00
~W
STRT.M 20.0000:
STOP.M 266.0000:
STEP.M 0.1250:
NULL. -999.2500:
UWI. F10773:
~C
DEPT.M :
DEN.GM/CC :
GR.API :
RML.OHMM :
RI. :
RXO.OHMM :
CALI.CM :
SP.MV :
~A
# ...
  256.2500     2.3500    69.6810     6.9260     5.8960     7.3000    24.8410    -8.9680 
  256.3750     2.3440    69.6810     6.9760     5.9430     7.1060    24.8340    -9.4940 
  256.5000     2.3380    69.6810     7.1360     6.0930     7.1860    24.8330    -9.9690 
  256.6250     2.3290    69.6810     7.4180     6.3580     7.3070    24.8310   -10.4520 
  256.7500     2.3140    69.6810     7.7770     6.6960     7.4790    24.8270   -11.0190 
  256.8750     2.2940    69.6810     8.0970     6.9970     7.8760    24.8560   -11.6270 
  257.0000     2.2760    69.6810     8.2700     7.1600     8.8640    24.8490   -12.1380 
  257.1250     2.2670    69.6810     8.2500     7.1410    10.1130    24.8330   -12.4480 
  257.2500     2.2700    69.6810     8.0520     6.9550    10.1500    24.8270   -12.5020 
  257.3750     2.2830    69.6810     7.7290     6.6510     8.7520    24.8130   -12.3120 
  257.5000     2.2960    69.6810     7.3790     6.3210     8.2260    24.8210   -11.9770 
  257.6250     2.3030    69.6810     7.0650     6.0260     8.0050    24.8000   -11.4440 
  257.7500     2.3040    69.6810     6.8260     5.8020     7.9560    24.7930   -10.7620 
  257.8750     2.3070    69.6810     6.6710     5.6560     7.7130    24.8180    -9.9630 
  258.0000     2.3160    69.6810     6.5320     5.5250     7.0570    24.9980    -9.1050 
  258.1250     2.3290    69.6810     6.3410     5.3450     6.4700    25.4520    -8.2380 
  258.2500     2.3350    69.6810     6.0520     5.0730     6.3730    26.2530    -7.4720 
  258.3750     2.3260    69.6810     5.6620     4.7070     6.2800    27.2360    -6.7840 
  258.5000     2.3080    69.6810     5.2780     4.3450     5.4840    28.2830    -6.0870 
  258.6250     2.2960    69.6810     5.0060     4.0890     4.8290    28.5320    -5.4900 
  258.7500     2.2970    69.6810     4.9180     4.0060     4.6160    28.1920    -4.9820 
  258.8750     2.3080    69.6810     5.0330     4.1150     4.6500    27.3160    -4.5530 
  259.0000     2.3190    69.6810     5.2270     4.2970     4.6160    26.6970    -4.2500 
  259.1250     2.3270    69.6810     5.4000     4.4600     4.6320    26.2030    -4.0150 
  259.2500     2.3360    69.6810     5.4940     4.5480     4.8480    25.5120    -3.7430 
  259.3750     2.3560    69.6810     5.5010     4.5550     5.2450    25.0950    -3.5010 
  259.5000     2.3850    69.6810     5.4720     4.5280     5.4450    24.9100    -3.4350 
  259.6250     2.4130    69.6810     5.4300     4.4870     5.7890    24.8550    -3.4520 
  259.7500     2.4300    69.6810     5.3780     4.4390     6.1620    24.8090    -3.5420 
  259.8750     2.4300    69.6810     5.3170     4.3820     6.3840    25.0280    -3.7050 
  260.0000     2.4210    69.6810     5.2530     4.3250     5.8500    25.4400    -3.6450 
  260.1250     2.4080    69.6810     5.2250     4.2820     5.4250    25.7380    -3.4490 
  260.2500     2.3920    69.6810     5.2730     4.2640     5.1850    25.6410    -3.2730 
  260.3750     2.3770    69.6810     5.3870     4.2750     5.0750    25.4670    -3.2460 
  260.5000     2.3660    69.6810     5.4940     4.2960     4.9810    25.2980    -3.2760 
  260.6250     2.3630    69.6810     5.5510     4.2970     4.9590    25.1720    -3.2660 
  260.7500     2.3720    69.6810     5.5430     4.2510     5.0520    25.0780    -3.1570 
  260.8750     2.3910    69.6810     5.4600     4.1470     5.2900    24.9860    -2.9860 
  261.0000     2.4060    69.6810     5.3560     4.0370     5.8440    24.9090    -3.0320 
  261.1250     2.4080    69.6810     5.3060     3.9740     6.5540    24.8880    -3.2200 
  261.2500     2.3930    69.6810     5.3530     3.9960     6.7290    24.9490    -3.4140 
  261.3750     2.3700    69.6810     5.4900     4.1080     5.9830    25.0540    -3.4960 
  261.5000     2.3570    69.6810     5.6340     4.2520     5.2880    25.1130    -3.4750 
  261.6250     2.3610    69.6810     5.7310     4.3780     5.0540    25.0350    -3.4580 
  261.7500     2.3820    69.6810     5.7700     4.4560     5.1840    25.0580    -3.4440 
  261.8750     2.4120    69.6810     5.7740     4.4790     5.2880    25.6140    -3.4150 
  262.0000     2.4380    69.6810     5.7720     4.4810     5.1880    26.5920    -3.3590 
  262.1250     2.4500    69.6810     5.7720     4.4800     5.1030    27.1240    -3.3250 
  262.2500     2.4440    69.6810     5.7720     4.4800     5.3490    26.5460    -3.3340 
  262.3750     2.4190    69.6810     5.7720     4.4800     5.9460    25.5910    -3.3050 
  262.5000     2.3880    69.6810     5.7720     4.4800     6.5600    24.9760    -3.1970 
  262.6250     2.3600    69.6810     5.7720     4.4800     6.9230    24.7940    -3.0380 
  262.7500     2.3450    69.6810     5.7720     4.4800     6.4860    24.8160    -2.9250 
  262.8750     2.3470    69.6810     5.7720     4.4800     5.7920    24.8250    -2.7390 
  263.0000     2.3540    69.6810     5.7720     4.4800     5.7540    24.7440    -2.4460 
  263.1250     2.3550    69.6810     5.7720     4.4800     6.6920    24.6530    -2.2910 
  263.2500     2.3420    69.6810     5.7720     4.4800     7.8550    24.5730    -2.2290 
  263.3750     2.3090    69.6810     5.7720     4.4800     8.5090    24.5390    -2.1850 
  263.5000     2.2650    69.6810     5.7720     4.4800     8.4380    24.4950    -2.1960 
  263.6250     2.2110    69.6810     5.7720     4.4800     7.9670    24.2220    -2.2070 
  263.7500     2.1490    69.6810     5.7720     4.4800     6.9000    23.1270    -2.2050 
  263.8750     2.0770    69.6810     5.7720     4.4800     5.8110    20.8780    -2.1520 
  264.0000     2.0040    69.6810     5.7720     4.4800     5.2000    18.9090    -2.2420 
  264.1250     1.9400    69.6810     5.7720     4.4800     5.0300    18.1470    -2.4280 
  264.2500     1.8960    69.6810     5.7720     4.4800     5.0110    18.0500    -2.4370 
  264.3750     1.8750    69.6810     5.7720     4.4800     5.0090    18.0490    -2.3820 
  264.5000     1.8680    69.6810     5.7720     4.4800     5.0090    18.0460    -2.3640 
  264.6250     1.8660    69.6810     5.7720     4.4800     5.0090    18.0490    -2.3640 
  264.7500     1.8630    69.6810     5.7720     4.4800     5.0110    18.0540    -2.3640 
  264.8750     1.8590    69.6810     5.7720     4.4800     5.0100    18.0540  -999.2500 
  265.0000     1.8540    69.6810     5.7720     4.4800     5.0110    18.0500  -999.2500 
  265.1250     1.8500    69.6810     5.7720     4.4800     5.0100    18.0450  -999.2500 
  265.2500     1.8500    69.6810     5.7720     4.4800     5.0070    18.0450  -999.2500 
  265.3750     1.8530    69.6810     5.7720     4.4800     5.0060    18.0470  -999.2500 
  265.5000     1.8580    69.6810     5.7720     4.4800     5.0060    18.0470  -999.2500 
  265.6250     1.8640    69.6810     5.7720     4.4800     5.0060    18.0450  -999.2500 
  265.7500     1.8670    69.6810     5.7720     4.4800     5.0050    18.0440  -999.2500 
  265.8750     1.8720    69.6810     5.7720     4.4800     5.0030    18.0440  -999.2500 
  266.0000  -999.2500    69.6810     5.7720     4.4800     5.0020    18.0440  -999.2500 
