~V
VERS. 2.00: Ver 2.00
~W
STRT.M 63.0000:
STOP.M 269.0000:
STEP.M 0.1250:
NULL. -999.2500:
UWI. F10891:
~C
DEPT.M :
TVD. :
DX. :
DY. :
SP.MV :
GR.API :
RI. :
RML.OHMM :
RXO.OHMM :
DEN.GM/CC :
~A
# ...
   72.1250    72.1250    -0.0370    -0.0770   -12.8060    73.3600     3.7850     4.7560     4.6770     2.1330 
   72.2500    72.2500    -0.0370    -0.0790   -12.8990    77.8920     3.4830     4.3680     4.1930     2.1540 
   72.3750    72.3750    -0.0380    -0.0800   -13.0240    80.9540     3.3240     4.1780     3.9860     2.1770 
   72.5000    72.5000    -0.0390    -0.0810   -13.1780    80.5170     3.3580     4.2520     4.0520     2.1880 
   72.6250    72.6250    -0.0390    -0.0820   -13.3480    78.8060     3.5700     4.5670     4.4390     2.1810 
   72.7500    72.7500    -0.0400    -0.0830   -13.5260    74.4960     3.9260     5.0760     5.0490     2.1580 
   72.8750    72.8750    -0.0400    -0.0840   -13.7020    70.6860     4.3270     5.6270     5.5250     2.1330 
   73.0000    73.0000    -0.0410    -0.0850   -13.8710    67.3400     4.6440     6.0300     5.7420     2.1180 
   73.1250    73.1250    -0.0420    -0.0860   -14.0170    66.2800     4.7730     6.1500     5.8040     2.1140 
   73.2500    73.2500    -0.0420    -0.0870   -14.1150    65.4970     4.6520     5.9230     5.7000     2.1150 
   73.3750    73.3750    -0.0430    -0.0890   -14.1440    66.5470     4.3510     5.4690     5.3930     2.1190 
   73.5000    73.5000    -0.0430    -0.0900   -14.0780    68.7960     3.9810     4.9570     4.8730     2.1280 
   73.6250    73.6250    -0.0440    -0.0910   -13.9160    71.6250     3.6640     4.5480     4.2670     2.1430 
   73.7500    73.7500    -0.0450    -0.0920   -13.6660    75.7750     3.4720     4.3330     3.8470     2.1590 
   73.8750    73.8750    -0.0450    -0.0930   -13.3640    79.8460     3.3970     4.2890     3.8890     2.1690 
   74.0000    73.9990    -0.0460    -0.0940   -13.0520    82.9140     3.4110     4.3620     4.3650     2.1740 
   74.1250    74.1240    -0.0460    -0.0950   -12.7710    82.7350     3.4570     4.4620     4.7220     2.1810 
   74.2500    74.2490    -0.0470    -0.0960   -12.5530    82.7710     3.4790     4.5020     4.5600     2.1930 
   74.3750    74.3740    -0.0480    -0.0970   -12.4050    84.1840     3.4470     4.4410     4.2370     2.2010 
   74.5000    74.4990    -0.0480    -0.0990   -12.3280    87.2000     3.3630     4.2940     4.1210     2.1990 
   74.6250    74.6240    -0.0490    -0.1000   -12.3020    88.8830     3.2800     4.1450     4.0440     2.1930 
   74.7500    74.7490    -0.0490    -0.1010   -12.3070    87.4570     3.2610     4.0930     3.8480     2.1940 
   74.8750    74.8740    -0.0500    -0.1020   -12.3200    84.9900     3.3370     4.1840     3.7580     2.1990 
   75.0000    74.9990    -0.0510    -0.1030   -12.3290    82.0570     3.5090     4.4160     4.0660     2.1990 
   75.1250    75.1240    -0.0510    -0.1040   -12.3350    80.7640     3.7200     4.6970     4.6250     2.1870 
   75.2500    75.2490    -0.0520    -0.1050   -12.3480    78.8470     3.8870     4.9040     5.0750     2.1690 
   75.3750    75.3740    -0.0520    -0.1060   -12.3690    77.6180     3.9460     4.9480     5.2680     2.1610 
   75.5000    75.4990    -0.0530    -0.1080   -12.3910    77.0520     3.8700     4.8080     5.0230     2.1690 
   75.6250    75.6240    -0.0540    -0.1090   -12.4050    79.3800     3.7150     4.5780     4.3780     2.1910 
   75.7500    75.7490    -0.0540    -0.1100   -12.4060    82.5960     3.5560     4.3680     3.8550     2.2140 
   75.8750    75.8740    -0.0550    -0.1110   -12.4320    84.7950     3.4420     4.2330     3.7980     2.2270 
   76.0000    75.9990    -0.0550    -0.1120   -12.5420    85.4150     3.3930     4.1870     4.0680     2.2260 
   76.1250    76.1240    -0.0560    -0.1130   -12.7750    85.9570     3.4040     4.2190     4.2520     2.2190 
   76.2500    76.2490    -0.0570    -0.1140   -13.1280    86.0440     3.4850     4.3420     4.0430     2.2160 
   76.3750    76.3740    -0.0570    -0.1150   -13.5150    84.8840     3.6390     4.5650     3.8440     2.2160 
   76.5000    76.4990    -0.0580    -0.1160   -13.8350    81.4210     3.8720     4.8970     4.3330     2.2080 
   76.6250    76.6240    -0.0580    -0.1170   -14.0640    76.9090     4.1570     5.2920     5.2230     2.1890 
   76.7500    76.7490    -0.0590    -0.1180   -14.1680    71.6960     4.4660     5.7020     5.6150     2.1660 
   76.8750    76.8740    -0.0590    -0.1200   -14.2460    68.3940     4.7810     6.0970     5.3470     2.1510 
   77.0000    76.9990    -0.0600    -0.1210   -14.3240    67.6060     5.1020     6.4870     5.1890     2.1510 
   77.1250    77.1240    -0.0610    -0.1220   -14.4270    67.6960     5.4360     6.8990     6.1730     2.1630 
   77.2500    77.2490    -0.0610    -0.1230   -14.5130    67.0790     5.7890     7.3490     8.3400     2.1780 
   77.3750    77.3740    -0.0620    -0.1240   -14.5660    65.2400     6.1530     7.8160     9.8330     2.1850 
   77.5000    77.4990    -0.0620    -0.1250   -14.5820    63.8780     6.5240     8.2850     9.4830     2.1740 
   77.6250    77.6240    -0.0630    -0.1260   -14.5590    63.1460     6.9110     8.7760     9.3540     2.1580 
   77.7500    77.7490    -0.0640    -0.1270   -14.4990    62.7700     7.3380     9.3340    14.8230     2.1680 
   77.8750    77.8740    -0.0640    -0.1280   -14.3960    62.2050     7.7770     9.9170    27.6070     2.2190 
   78.0000    77.9990    -0.0650    -0.1290   -14.2110    61.6530     8.0930    10.3290    36.8530     2.3030 
   78.1250    78.1240    -0.0650    -0.1300   -13.9590    62.0660     8.1270    10.3430    31.6340     2.3790 
   78.2500    78.2490    -0.0660    -0.1310   -13.6020    63.5990     7.7610     9.8150    18.5490     2.4030 
   78.3750    78.3740    -0.0660    -0.1320   -13.2240    65.3520     7.1160     8.9310    10.0110     2.3700 
   78.5000    78.4990    -0.0670    -0.1330   -12.9370    67.7980     6.4250     8.0210     7.0780     2.2990 
   78.6250    78.6240    -0.0670    -0.1350   -12.8260    69.4640     5.9330     7.4030     6.1480     2.2260 
   78.7500    78.7490    -0.0680    -0.1360   -12.9610    69.7550     5.7810     7.2480     6.2890     2.1730 
   78.8750    78.8740    -0.0690    -0.1370   -13.2750    65.8750     5.9180     7.4600     6.8910     2.1370 
   79.0000    78.9990    -0.0690    -0.1380   -13.7240    60.1960     6.2310     7.8710     7.3800     2.1120 
   79.1250    79.1240    -0.0700    -0.1390   -14.2160    54.4780     6.5570     8.2650     7.6790     2.0940 
   79.2500    79.2490    -0.0700    -0.1400   -14.6810    51.8440     6.7850     8.5050     7.7500     2.0820 
   79.3750    79.3740    -0.0710    -0.1410   -15.0600    51.7060     6.8890     8.5840     7.5340     2.0760 
   79.5000    79.4990    -0.0710    -0.1420   -15.3020    54.7130     6.8880     8.5440     7.3520     2.0720 
   79.6250    79.6240    -0.0720    -0.1430   -15.4090    58.4590     6.8310     8.4500     7.5240     2.0710 
   79.7500    79.7490    -0.0730    -0.1440   -15.3740    61.2450     6.7480     8.3400     7.8320     2.0750 
   79.8750    79.8740    -0.0730    -0.1450   -15.2370    61.9330     6.6620     8.2390     7.9360     2.0830 
   80.0000    79.9990    -0.0740    -0.1460   -15.0480    61.4780     6.5870     8.1610     7.8520     2.0900 
   80.1250    80.1240    -0.0740    -0.1470   -14.8640    60.7680     6.5410     8.1290     7.7250     2.0890 
   80.2500    80.2490    -0.0750    -0.1480   -14.7190    59.9050     6.5720     8.2070     7.5470     2.0730 
   80.3750    80.3740    -0.0750    -0.1490   -14.5990    58.9580     6.7100     8.4340     7.2920     2.0480 
   80.5000    80.4990    -0.0760    -0.1500   -14.4840    58.1860     6.9540     8.8070     7.2250     2.0400 
   80.6250    80.6240    -0.0760    -0.1510   -14.3790    58.6510     7.2410     9.2270     8.2080     2.0850 
   80.7500    80.7490    -0.0770    -0.1520   -14.2940    59.6960     7.4870     9.5680    10.6600     2.1960 
   80.8750    80.8740    -0.0780    -0.1530   -14.2340    60.5700     7.6260     9.7360    12.0790     2.3160 
   81.0000    80.9990    -0.0780    -0.1540   -14.2020    61.1340     7.6090     9.6770    10.2770     2.3630 
   81.1250    81.1240    -0.0790    -0.1550   -14.2100    61.8630     7.4650     9.4520     7.7800     2.3190 
