~V
VERS. 2.00: Ver 2.00
~W
STRT.M 65.0000:
STOP.M 239.0000:
STEP.M 0.1250:
NULL. -999.2500:
UWI. F10876:
~C
DEPT.M :
TVD. :
DX. :
DY. :
SP.MV :
GR.API :
RI. :
RML.OHMM :
RXO.OHMM :
DEN.GM/CC :
~A
# ...
  229.2500   229.2250    -2.7310     0.1870    -8.5190    83.2660     3.9560     3.9310     4.1040     2.1970 
  229.3750   229.3500    -2.7310     0.1890    -8.5000    83.2510     4.0340     4.0240     4.0720     2.2020 
  229.5000   229.4750    -2.7320     0.1900    -8.4820    82.8490     4.0750     4.0820     3.8750     2.2050 
  229.6250   229.6000    -2.7320     0.1910    -8.4630    82.4020     4.0880     4.1100     3.7950     2.2060 
  229.7500   229.7250    -2.7330     0.1920    -8.4450    83.2010     4.0890     4.1190     3.9510     2.2060 
  229.8750   229.8500    -2.7330     0.1930    -8.4260    84.5230     4.0890     4.1210     3.9660     2.2060 
  230.0000   229.9750    -2.7340     0.1940    -8.4070    85.1460     4.0890     4.1200     3.5420     2.2090 
  230.1250   230.1000    -2.7350     0.1960    -8.3890    85.5550     4.0880     4.1180     3.1010     2.2180 
  230.2500   230.2250    -2.7350     0.1970    -8.3700    86.0120     4.0880     4.1170     3.1040     2.2330 
  230.3750   230.3500    -2.7360     0.1980    -8.3520    84.9400     4.0880     4.1180     3.3410     2.2460 
  230.5000   230.4750    -2.7360     0.1990    -8.3330    82.1510     4.0880     4.1190     3.4590     2.2510 
  230.6250   230.6000    -2.7370     0.2000    -8.3150    80.3510     4.0880     4.1200     3.5270     2.2470 
  230.7500   230.7250    -2.7380     0.2010    -8.2960    81.7730     4.0870     4.1210     3.7250     2.2330 
  230.8750   230.8500    -2.7380     0.2020    -8.2780    84.2600     4.0850     4.1210     3.8450     2.2170 
  231.0000   230.9750    -2.7390     0.2040    -8.2590    85.4220     4.0850     4.1210     3.6710     2.2060 
  231.1250   231.1000    -2.7390     0.2050    -8.2400    85.9730     4.0860     4.1210     3.4600     2.2060 
  231.2500   231.2250    -2.7400     0.2060    -8.2220    86.0330     4.0870     4.1220     3.4470     2.2150 
  231.3750   231.3500    -2.7410     0.2070    -8.2030    85.9620     4.0880     4.1220     3.5560     2.2220 
  231.5000   231.4750    -2.7410     0.2080    -8.1850    85.9620     4.0880     4.1220     3.6130     2.2200 
  231.6250   231.6000    -2.7420     0.2090    -8.1660    85.9620     4.0880     4.1210     3.4650     2.2120 
  231.7500   231.7250    -2.7420     0.2110    -8.1480    85.9620     4.0890     4.1210     3.0170     2.2040 
  231.8750   231.8500    -2.7430     0.2120    -8.1290    85.9620     4.0890     4.1210     2.3910     2.2020 
  232.0000   231.9750    -2.7440     0.2130    -8.1110    85.9620     4.0890     4.1200     1.9540     2.2070 
  232.1250   232.1000    -2.7440     0.2140    -8.0920    85.9620     4.0880     4.1190     1.9870     2.2170 
  232.2500   232.2250    -2.7450     0.2150    -8.0730    85.9620     4.0860     4.1180     2.3710     2.2290 
  232.3750   232.3500    -2.7450     0.2160    -8.0550    85.9620     4.0850     4.1170     2.8080     2.2390 
  232.5000   232.4750    -2.7460     0.2180    -8.0360    85.9620     4.0860     4.1170     3.2200     2.2400 
  232.6250   232.6000    -2.7460     0.2190    -8.0180    85.9620     4.0880     4.1170     3.5040     2.2320 
  232.7500   232.7250    -2.7470     0.2200    -7.9990    85.9620     4.0890     4.1160     3.4930     2.2180 
  232.8750   232.8500    -2.7480     0.2210    -7.9810    85.9620     4.0890     4.1150     3.3290     2.2060 
  233.0000   232.9750    -2.7480     0.2220    -7.9620    85.9620     4.0880     4.1150     3.2980     2.2020 
  233.1250   233.1000    -2.7490     0.2230    -7.9440    85.9620     4.0870     4.1140     3.4450     2.2090 
  233.2500   233.2250    -2.7490     0.2250    -7.9250    85.9620     4.0870     4.1140     3.4500     2.2240 
  233.3750   233.3500    -2.7500     0.2260    -7.9060    85.9620     4.0870     4.1140     3.1050     2.2390 
  233.5000   233.4750    -2.7510     0.2270    -7.8880    85.9620     4.0880     4.1140     2.6800     2.2440 
  233.6250   233.6000    -2.7510     0.2280    -7.8690    85.9620     4.0880     4.1140     2.4560     2.2340 
  233.7500   233.7250    -2.7520     0.2290    -7.8510    85.9620     4.0880     4.1140     2.3450     2.2070 
  233.8750   233.8500    -2.7520     0.2300    -7.8320    85.9620     4.0880     4.1140     2.2270     2.1720 
  234.0000   233.9750    -2.7530     0.2320    -7.8140    85.9620     4.0880     4.1140     2.1590     2.1340 
  234.1250   234.1000    -2.7540     0.2330    -7.7950    85.9620     4.0880     4.1140     2.2520     2.1000 
  234.2500   234.2250    -2.7540     0.2340    -7.7770    85.9620     4.0880     4.1140     2.5250     2.0720 
  234.3750   234.3500    -2.7550     0.2350    -7.7580    85.9620     4.0880     4.1140     2.7610     2.0490 
  234.5000   234.4750    -2.7550     0.2360    -7.7390    85.9620     4.0880     4.1140     2.7760     2.0320 
  234.6250   234.6000    -2.7560     0.2370    -7.7210    85.9620     4.0880     4.1140     2.6750     2.0210 
  234.7500   234.7250    -2.7560     0.2380    -7.7020    85.9620     4.0880     4.1140     2.5720     2.0170 
  234.8750   234.8500    -2.7570     0.2400    -7.6840    85.9620     4.0880     4.1140     2.4540     2.0180 
  235.0000   234.9750    -2.7580     0.2410    -7.6650    85.9620     4.0880     4.1140     2.4080     2.0200 
  235.1250   235.1000    -2.7580     0.2420    -7.6470    85.9620     4.0880     4.1140     2.6820     2.0210 
  235.2500   235.2250    -2.7590     0.2430    -7.6280    85.9620     4.0880     4.1140     3.1070     2.0220 
  235.3750   235.3500    -2.7590     0.2440    -7.6100    85.9620     4.0880     4.1140     3.2580     2.0220 
  235.5000   235.4750    -2.7600     0.2450    -7.5910    85.9620     4.0880     4.1140     3.2590     2.0210 
  235.6250   235.6000    -2.7610     0.2470    -7.5720    85.9620     4.0880     4.1140     3.2590     2.0190 
  235.7500   235.7250    -2.7610     0.2480    -7.5540    85.9620     4.0880     4.1140     3.2590     2.0150 
  235.8750   235.8500    -2.7620     0.2490    -7.5350    85.9620     4.0880     4.1140     3.2590     2.0120 
  236.0000   235.9750    -2.7620     0.2500    -7.5170    85.9620     4.0880     4.1140     3.2600     2.0130 
  236.1250   236.1000    -2.7630     0.2510    -7.4980    85.9620     4.0880     4.1140     3.2600     2.0160 
  236.2500   236.2250    -2.7640     0.2520    -7.4800    85.9620     4.0880     4.1140     3.2610     2.0210 
  236.3750   236.3500    -2.7640     0.2540    -7.4610    85.9620     4.0880     4.1140     3.2610     2.0250 
  236.5000   236.4750    -2.7650     0.2550    -7.4420    85.9620     4.0880     4.1140     3.2620     2.0280 
  236.6250   236.6000    -2.7650     0.2560    -7.4240    85.9620     4.0880     4.1140     3.2620     2.0270 
  236.7500   236.7250    -2.7660     0.2570    -7.4050    85.9620     4.0880     4.1140     3.2620     2.0220 
  236.8750   236.8500    -2.7670     0.2580    -7.3870    85.9620     4.0880     4.1140     3.2630     2.0170 
  237.0000   236.9750    -2.7670     0.2590    -7.3680    85.9620     4.0880     4.1140     3.2630     2.0140 
  237.1250   237.1000    -2.7680     0.2610    -7.3500    85.9620     4.0880     4.1140     3.2640     2.0140 
  237.2500   237.2250    -2.7680     0.2620    -7.3310    85.9620     4.0880     4.1140     3.2640     2.0160 
  237.3750   237.3500    -2.7690     0.2630    -7.3130    85.9620     4.0880     4.1140     3.2650     2.0170 
  237.5000   237.4750    -2.7690     0.2640    -7.2940    85.9620     4.0880     4.1140     3.2660     2.0140 
  237.6250   237.6000    -2.7700     0.2650    -7.2750    85.9620     4.0880     4.1140     3.2660     2.0090 
  237.7500   237.7250    -2.7710     0.2660    -7.2570    85.9620     4.0880     4.1140     3.2670     2.0040 
  237.8750   237.8500    -2.7710     0.2680    -7.2380    85.9620     4.0880     4.1140     3.2680     2.0020 
  238.0000   237.9750    -2.7720     0.2690    -7.2200    85.9620     4.0880     4.1140     3.2690     2.0030 
  238.1250   238.1000    -2.7720     0.2700    -7.2710    85.9620     4.0880     4.1140     3.2690     2.0080 
  238.2500   238.2250    -2.7730     0.2710   -10.5230    85.9620     4.0880     4.1140     3.2700     2.0130 
