~V
VERS. 2.00: Ver 2.00
~W
STRT.M 1.0000:
STOP.M 205.0000:
STEP.M 0.1250:
NULL. -999.2500:
UWI. F10806:
~C
DEPT.M :
SP.MV :
GR.API :
RI. :
RML.OHMM :
RXO.OHMM :
DEN.GM/CC :
~A
# ...
   52.5000    27.2880    38.9580     0.1250     0.1310     0.0720     2.4970 
   52.6250    29.2550    39.1540     0.1250     0.1330     0.0720     2.5020 
   52.7500    31.8540    39.3530     0.1250     0.1370     0.0750     2.5020 
   52.8750    34.9260    39.3920     0.1240     0.1420     0.0790     2.4970 
   53.0000    38.1290    39.3050     0.1190     0.1470     0.0800     2.4860 
   53.1250    40.7500    37.6850     0.1020     0.1430     0.0790     2.4760 
   53.2500    41.7690    37.3990     0.0780     0.1200     0.0770     2.4680 
   53.3750    40.6170    38.1470     0.0500     0.0820     0.0750     2.4630 
   53.5000    36.8960    40.3120     0.0310     0.0450     0.0740     2.4560 
   53.6250    30.9630    41.6690     0.0280     0.0260     0.0730     2.4550 
   53.7500    22.8190    42.3770     0.0660     0.0470     0.4130     2.3940 
   53.8750    12.8640    44.3780     0.1670     0.1250     1.1910     2.2010 
   54.0000     2.0060    46.8420     0.4320     0.6120     0.8690     1.8550 
   54.1250    -7.7220    48.0850     1.2910     1.9060     1.8720     1.5220 
   54.2500   -14.5830    47.1410     2.1720     2.8580     3.2200     1.3420 
   54.3750   -18.9640    45.7760     2.7010     3.2240     3.8810     1.2980 
   54.5000   -21.8310    46.4840     2.9200     3.0180     3.3500     1.3010 
   54.6250   -24.0780    48.8410     2.5990     2.4990     2.3750     1.3220 
   54.7500   -26.0100    54.0210     2.6490     2.2070     1.7330     1.4110 
   54.8750   -27.8290    60.1010     2.8940     2.2600     2.0400     1.5920 
   55.0000   -29.6560    65.4510     3.1710     2.4810     3.2070     1.8120 
   55.1250   -31.5580    68.5770     3.4040     2.7140     4.2750     1.9920 
   55.2500   -33.4910    68.8410     3.5640     2.9120     4.9330     2.0740 
   55.3750   -35.3020    67.7440     3.6760     3.0490     5.3870     2.0910 
   55.5000   -36.7830    66.9590     3.7460     3.1140     5.8200     2.0760 
   55.6250   -37.8850    67.1710     3.7890     3.1320     6.0150     2.0630 
   55.7500   -38.6560    67.8280     3.7930     3.1260     5.7820     2.0610 
   55.8750   -39.2440    68.2830     3.7400     3.1270     5.6140     2.0720 
   56.0000   -39.7120    69.3660     3.6580     3.1400     5.5380     2.0820 
   56.1250   -40.0600    70.6890     3.5670     3.1420     5.3740     2.0840 
   56.2500   -40.2460    68.7780     3.4780     3.1540     5.2280     2.0760 
   56.3750   -40.2860    66.0960     3.3850     3.1950     4.9810     2.0730 
   56.5000   -40.2150    63.5620     3.3100     3.2490     4.4920     2.0710 
   56.6250   -40.0840    64.6600     3.2510     3.2970     4.2110     2.0700 
   56.7500   -39.9290    65.3640     3.1960     3.3130     4.4520     2.0690 
   56.8750   -39.7390    65.9420     3.1430     3.2880     4.5030     2.0710 
   57.0000   -39.4680    65.2570     3.1160     3.2750     4.0090     2.0760 
   57.1250   -39.1030    65.2950     3.1190     3.2900     3.6140     2.0740 
   57.2500   -38.6130    65.2290     3.1730     3.3330     3.8390     2.0650 
   57.3750   -37.9360    65.2750     3.2560     3.3980     4.5160     2.0540 
   57.5000   -36.9460    63.7120     3.3160     3.4420     4.7360     2.0490 
   57.6250   -35.5950    63.2570     3.2760     3.4230     4.2470     2.0490 
   57.7500   -33.8310    64.8220     3.1050     3.3150     3.7760     2.0570 
   57.8750   -31.7680    71.3480     2.8070     3.1130     3.2430     2.0880 
   58.0000   -29.6370    80.1880     2.4820     2.8430     2.3600     2.1380 
   58.1250   -27.8030    89.2190     2.1850     2.5740     1.6920     2.1910 
   58.2500   -26.6230    94.5740     1.9780     2.3740     1.5900     2.2200 
   58.3750   -26.1050    97.0180     1.8530     2.2580     1.6770     2.2310 
   58.5000   -26.1090    97.1710     1.7810     2.2130     1.6970     2.2240 
   58.6250   -26.4160    95.6120     1.7640     2.2070     1.7330     2.2160 
   58.7500   -26.9690    94.9830     1.7970     2.2550     1.7130     2.2070 
   58.8750   -27.7350    93.9180     1.8890     2.4030     2.0270     2.2040 
   59.0000   -28.7610    92.0310     2.0940     2.7100     3.0140     2.1920 
   59.1250   -30.0490    88.4340     2.4150     3.1670     3.9180     2.1570 
   59.2500   -31.5420    85.0250     2.8270     3.7140     4.3730     2.1120 
   59.3750   -33.0120    81.9370     3.2070     4.2360     4.7130     2.0780 
   59.5000   -34.2000    78.7900     3.4800     4.6160     5.1790     2.0680 
   59.6250   -35.0040    74.9620     3.5630     4.7970     5.5090     2.0650 
   59.7500   -35.4200    72.1350     3.5000     4.7840     5.4300     2.0600 
   59.8750   -35.5550    71.3040     3.3640     4.6690     5.2300     2.0540 
   60.0000   -35.4720    70.8840     3.2010     4.5380     4.9430     2.0570 
   60.1250   -35.2980    70.7860     3.0620     4.4530     4.7120     2.0650 
   60.2500   -35.1080    71.0920     2.9650     4.4270     4.8740     2.0770 
   60.3750   -34.9140    74.5800     2.9130     4.4270     5.0810     2.0880 
   60.5000   -34.6960    78.8700     2.8820     4.4240     5.1230     2.0990 
   60.6250   -34.4710    80.2770     2.8500     4.3990     5.3400     2.1020 
   60.7500   -34.2510    78.4260     2.8060     4.3540     5.6390     2.0920 
   60.8750   -34.0030    75.5840     2.7610     4.2950     5.5720     2.0750 
   61.0000   -33.6600    76.2470     2.7140     4.2220     5.1020     2.0590 
   61.1250   -33.2380    77.7840     2.6530     4.1350     4.7500     2.0540 
   61.2500   -32.7940    79.9420     2.5920     4.0430     4.6920     2.0590 
   61.3750   -32.3610    81.2680     2.5300     3.9550     4.5530     2.0680 
   61.5000   -31.9520    83.8140     2.4770     3.8860     4.3640     2.0750 
   61.6250   -31.5650    85.5980     2.4450     3.8690     4.3870     2.0760 
   61.7500   -31.1940    87.2090     2.4650     3.9290     4.2850     2.0740 
   61.8750   -30.7790    86.0250     2.5130     4.0110     4.0020     2.0750 
   62.0000   -30.2760    84.6350     2.4850     4.0000     4.1540     2.0810 
   62.1250   -29.7040    83.3420     2.3500     3.8160     4.5380     2.0970 
   62.2500   -29.0380    85.8110     2.1040     3.4630     3.8260     2.1210 
   62.3750   -28.3360    90.6880     1.8320     3.0640     2.1670     2.1520 
   62.5000   -27.9250    95.1950     1.6500     2.7610     1.3790     2.1720 
   62.6250   -28.1420    97.2840     1.5700     2.6360     1.7850     2.1730 
   62.7500   -29.0760    95.3830     1.6190     2.7430     2.5370     2.1500 
   62.8750   -30.3890    91.8170     1.7870     3.0480     3.0890     2.1200 
   63.0000   -31.7330    85.7930     2.0550     3.4860     3.4840     2.0920 
   63.1250   -32.8870    81.4120     2.3490     3.9520     3.9980     2.0760 
   63.2500   -33.7260    78.6650     2.6190     4.3700     4.6830     2.0730 
   63.3750   -34.2430    78.0780     2.8220     4.6740     5.2250     2.0730 
   63.5000   -34.4610    76.1450     2.9190     4.7990     5.2480     2.0700 
   63.6250   -34.5260    71.9280     2.9180     4.7510     4.8570     2.0630 
   63.7500   -34.5230    67.6380     2.8230     4.5650     4.5340     2.0640 
   63.8750   -34.4980    64.8820     2.6910     4.3410     4.4040     2.0720 
   64.0000   -34.4590    63.8910     2.5750     4.1710     4.6740     2.0930 
   64.1250   -34.3630    62.4180     2.5060     4.0840     5.4350     2.1160 
   64.2500   -34.1760    61.3680     2.4700     4.0650     5.3790     2.1320 
   64.3750   -33.9110    62.7490     2.4470     4.0740     5.2970     2.1360 
   64.5000   -33.6010    66.2990     2.4140     4.0720     5.9010     2.1300 
   64.6250   -33.3180    68.8830     2.3640     4.0280     5.5420     2.1250 
   64.7500   -33.1290    69.0960     2.2960     3.9410     4.9270     2.1170 
   64.8750   -32.9940    68.6410     2.2300     3.8300     4.7830     2.1110 
   65.0000   -32.8350    69.8820     2.1640     3.7180     4.6470     2.1070 
   65.1250   -32.6610    71.9000     2.1110     3.6330     4.5140     2.1070 
   65.2500   -32.5700    73.1940     2.0890     3.5840     4.3590     2.1020 
