~V
VERS. 2.00: Ver 2.00
~W
STRT.M 63.0000:
STOP.M 236.0000:
STEP.M 0.1250:
NULL. -999.2500:
UWI. F10859:
~C
DEPT.M :
TVD. :
DX. :
DY. :
SP.MV :
GR.API :
RI. :
RML.OHMM :
RXO.OHMM :
DEN.GM/CC :
~A
# ...
  154.2500   154.2400    -1.2540     0.4090   -28.0350    82.0890     7.6740     8.6270     7.4610     2.3760 
  154.3750   154.3650    -1.2560     0.4100   -27.6940    80.0360     8.8870    10.0810     9.2390     2.3670 
  154.5000   154.4900    -1.2580     0.4100   -27.3880    76.6520    10.5520    12.0280    12.3320     2.3560 
  154.6250   154.6150    -1.2590     0.4100   -27.1480    74.3810    12.7150    14.5120    15.6730     2.3510 
  154.7500   154.7400    -1.2610     0.4100   -26.9970    73.7900    15.4700    17.6470    18.3250     2.3580 
  154.8750   154.8650    -1.2620     0.4100   -26.9280    73.6360    18.7940    21.4670    22.3210     2.3700 
  155.0000   154.9900    -1.2630     0.4110   -26.9370    73.5390    22.8120    26.2350    30.6390     2.3740 
  155.1250   155.1150    -1.2650     0.4110   -26.9920    73.7480    27.4030    31.8420    39.7120     2.3630 
  155.2500   155.2400    -1.2660     0.4110   -27.0740    72.9040    32.0320    37.5900    44.8040     2.3410 
  155.3750   155.3650    -1.2680     0.4110   -27.1580    71.1110    35.8650    42.3690    47.2800     2.3160 
  155.5000   155.4900    -1.2690     0.4110   -27.2290    69.1960    38.1200    45.1690    48.3030     2.2970 
  155.6250   155.6150    -1.2710     0.4120   -27.2880    68.1840    38.7910    45.9950    47.3970     2.2830 
  155.7500   155.7400    -1.2720     0.4120   -27.3410    68.2310    38.2650    45.3520    46.1650     2.2750 
  155.8750   155.8650    -1.2740     0.4120   -27.3920    69.0830    37.3170    44.1810    46.0650     2.2700 
  156.0000   155.9900    -1.2750     0.4120   -27.4290    69.4880    36.4990    43.1180    45.5140     2.2660 
  156.1250   156.1150    -1.2770     0.4130   -27.4380    69.6640    36.1830    42.6210    44.2250     2.2620 
  156.2500   156.2400    -1.2780     0.4130   -27.4080    70.1760    36.6440    43.0810    44.9090     2.2570 
  156.3750   156.3650    -1.2800     0.4130   -27.3470    71.0550    37.7920    44.4900    48.0760     2.2530 
  156.5000   156.4900    -1.2810     0.4130   -27.2680    71.3770    39.1700    46.3370    51.1420     2.2500 
  156.6250   156.6150    -1.2830     0.4130   -27.1880    70.1830    39.5880    47.0550    52.6640     2.2490 
  156.7500   156.7400    -1.2840     0.4140   -27.1220    68.3500    37.3270    44.4260    53.5190     2.2540 
  156.8750   156.8650    -1.2860     0.4140   -27.0840    66.1770    31.9210    37.8740    54.0060     2.2680 
  157.0000   156.9900    -1.2870     0.4140   -27.0880    66.0790    24.1500    28.4330    50.8710     2.2910 
  157.1250   157.1150    -1.2890     0.4140   -27.1340    67.3820    16.2740    18.9520    40.4200     2.3130 
  157.2500   157.2400    -1.2900     0.4140   -27.2310    68.0690    10.2700    11.8390    24.5280     2.3240 
  157.3750   157.3650    -1.2920     0.4150   -27.3730    65.9460     6.5440     7.5130    11.7090     2.3200 
  157.5000   157.4900    -1.2930     0.4150   -27.5510    60.9080     4.7160     5.4770     6.1990     2.3110 
  157.6250   157.6150    -1.2940     0.4150   -27.7340    55.0710     3.9180     4.6690     4.6410     2.3030 
  157.7500   157.7400    -1.2960     0.4150   -27.8790    50.4530     3.6980     4.5170     4.2490     2.2980 
  157.8750   157.8650    -1.2970     0.4150   -27.9570    47.3260     3.7210     4.5940     4.1020     2.2930 
  158.0000   157.9900    -1.2990     0.4160   -27.9540    45.7520     3.8200     4.6870     4.0570     2.2900 
  158.1250   158.1150    -1.3000     0.4160   -27.8970    44.9810     3.9020     4.7060     4.0500     2.2910 
  158.2500   158.2400    -1.3020     0.4160   -27.8160    44.7500     3.9350     4.6440     4.0410     2.2990 
  158.3750   158.3650    -1.3030     0.4160   -27.7460    44.3790     3.9220     4.5350     4.0130     2.3120 
  158.5000   158.4900    -1.3050     0.4160   -27.7120    43.7800     3.8680     4.4040     3.9380     2.3250 
  158.6250   158.6150    -1.3060     0.4170   -27.7180    43.0390     3.7880     4.2680     3.7920     2.3320 
  158.7500   158.7400    -1.3080     0.4170   -27.7500    42.6030     3.6940     4.1420     3.6240     2.3300 
  158.8750   158.8650    -1.3090     0.4170   -27.7970    42.0370     3.6020     4.0340     3.5060     2.3210 
  159.0000   158.9900    -1.3100     0.4170   -27.8400    42.7880     3.5190     3.9570     3.4350     2.3100 
  159.1250   159.1150    -1.3120     0.4170   -27.8740    45.1980     3.4500     3.9110     3.3630     2.3020 
  159.2500   159.2400    -1.3130     0.4180   -27.8780    49.7770     3.3940     3.8880     3.3160     2.2990 
  159.3750   159.3650    -1.3150     0.4180   -27.8250    53.8530     3.3420     3.8700     3.3630     2.2980 
  159.5000   159.4900    -1.3160     0.4180   -27.6920    58.2730     3.2870     3.8380     3.4880     2.2920 
  159.6250   159.6150    -1.3180     0.4180   -27.4750    62.4710     3.2220     3.7820     3.5900     2.2830 
  159.7500   159.7400    -1.3190     0.4180   -27.1910    66.1080     3.1540     3.7120     3.5970     2.2750 
  159.8750   159.8650    -1.3200     0.4180   -26.8840    67.6100     3.1000     3.6560     3.5180     2.2740 
  160.0000   159.9900    -1.3220     0.4190   -26.6070    66.8710     3.0860     3.6530     3.4670     2.2850 
  160.1250   160.1150    -1.3230     0.4190   -26.4030    66.2150     3.1250     3.7220     3.5730     2.3030 
  160.2500   160.2400    -1.3250     0.4190   -26.2880    67.1750     3.2140     3.8580     3.8310     2.3170 
  160.3750   160.3650    -1.3260     0.4190   -26.2160    69.9640     3.3230     4.0120     4.1630     2.3210 
  160.5000   160.4900    -1.3280     0.4190   -26.1280    72.4340     3.4190     4.1360     4.5010     2.3160 
  160.6250   160.6150    -1.3290     0.4200   -25.9870    73.1440     3.4810     4.2080     4.6330     2.3060 
  160.7500   160.7400    -1.3310     0.4200   -25.7910    73.3630     3.5120     4.2380     4.4140     2.3000 
  160.8750   160.8650    -1.3320     0.4200   -25.5720    74.8870     3.5380     4.2650     4.2040     2.3040 
  161.0000   160.9900    -1.3330     0.4200   -25.3740    75.5170     3.5950     4.3340     4.3820     2.3160 
  161.1250   161.1150    -1.3350     0.4200   -25.2240    75.4870     3.7040     4.4670     4.8410     2.3330 
  161.2500   161.2400    -1.3360     0.4210   -25.1380    74.0340     3.8860     4.6860     5.3520     2.3470 
  161.3750   161.3650    -1.3380     0.4210   -25.0970    75.7730     4.1610     5.0180     5.7400     2.3590 
  161.5000   161.4900    -1.3390     0.4210   -25.0820    77.5300     4.5750     5.5300     5.9360     2.3700 
  161.6250   161.6150    -1.3410     0.4210   -25.0750    79.4840     5.1260     6.2220     6.3270     2.3850 
  161.7500   161.7400    -1.3420     0.4220   -25.0740    78.6070     5.7730     7.0220     8.0660     2.4040 
  161.8750   161.8650    -1.3430     0.4220   -25.0780    76.5950     6.4220     7.7970    11.6920     2.4160 
  162.0000   161.9900    -1.3450     0.4220   -25.0770    73.9880     6.9890     8.4240    15.1220     2.4040 
  162.1250   162.1150    -1.3460     0.4220   -25.0670    72.5630     7.4250     8.8540    15.0380     2.3700 
  162.2500   162.2400    -1.3480     0.4230   -25.0460    72.5200     7.6960     9.0790    12.5680     2.3300 
  162.3750   162.3650    -1.3490     0.4230   -25.0200    72.7890     7.8460     9.1860    12.3410     2.3070 
  162.5000   162.4900    -1.3510     0.4230   -25.0000    71.1530     7.9110     9.2140    14.0010     2.3050 
  162.6250   162.6150    -1.3520     0.4230   -24.9910    69.1280     7.9030     9.1410    13.8860     2.3120 
  162.7500   162.7400    -1.3540     0.4240   -24.9980    67.6260     7.8240     8.9410    12.1700     2.3180 
  162.8750   162.8650    -1.3550     0.4240   -25.0160    67.6250     7.7740     8.7500    11.0050     2.3310 
  163.0000   162.9900    -1.3560     0.4240   -25.0340    68.4740     8.0010     8.9120    11.1960     2.3710 
  163.1250   163.1150    -1.3580     0.4240   -25.0490    68.9740     8.7160     9.7110    15.5820     2.4400 
  163.2500   163.2400    -1.3590     0.4240   -25.0660    66.0500     9.9510    11.1580    27.8300     2.5200 
