~V
VERS. 2.00: Ver 2.00
~W
STRT.M 63.0000:
STOP.M 247.0000:
STEP.M 0.1250:
NULL. -999.2500:
UWI. F10865:
~C
DEPT.M :
TVD. :
DX. :
DY. :
SP.MV :
GR.API :
RI. :
RML.OHMM :
RXO.OHMM :
DEN.GM/CC :
~A
# ...
   90.3750    90.3720    -0.3960    -0.0420  -105.0210    80.9640     5.8820     6.2580     5.0270     2.2140 
   90.5000    90.4970    -0.3970    -0.0420  -104.9730    83.4330     5.6680     6.1940     5.7470     2.1980 
   90.6250    90.6220    -0.3990    -0.0420  -104.7760    82.6880     6.0770     6.7820     6.8980     2.1990 
   90.7500    90.7470    -0.4010    -0.0420  -104.4500    82.6350     6.7790     7.5800     7.6160     2.2240 
   90.8750    90.8720    -0.4030    -0.0420  -104.0220    83.5010     7.4170     8.2090     8.8140     2.2640 
   91.0000    90.9970    -0.4050    -0.0420  -103.4970    82.9920     7.8300     8.5250    12.4850     2.2960 
   91.1250    91.1220    -0.4060    -0.0420  -102.9130    79.2550     8.0730     8.7580    16.0840     2.2950 
   91.2500    91.2470    -0.4080    -0.0420  -102.3160    76.2070     8.3320     9.0680    14.8980     2.2620 
   91.3750    91.3720    -0.4100    -0.0420  -101.7670    74.0310     8.6530     9.4670    11.2970     2.2110 
   91.5000    91.4970    -0.4120    -0.0420  -101.3240    71.7700     9.0650     9.9960     9.7010     2.1650 
   91.6250    91.6220    -0.4130    -0.0420  -101.0180    66.6660     9.6590    10.6360     9.5550     2.1310 
   91.7500    91.7470    -0.4150    -0.0420  -100.8820    62.6810    10.4460    11.5030    10.2930     2.1050 
   91.8750    91.8720    -0.4170    -0.0420  -100.9120    63.1170    11.3020    12.5650    12.3440     2.0880 
   92.0000    91.9970    -0.4190    -0.0420  -101.1090    66.5170    11.9040    13.3040    14.1390     2.0860 
   92.1250    92.1220    -0.4200    -0.0420  -101.4280    68.9360    11.6290    13.1640    14.1310     2.1060 
   92.2500    92.2470    -0.4220    -0.0420  -101.8210    69.4520    10.6560    11.9930    12.2420     2.1410 
   92.3750    92.3720    -0.4240    -0.0420  -102.2220    70.6070     9.3470    10.2780     9.2780     2.1780 
   92.5000    92.4970    -0.4250    -0.0420  -102.5800    73.9030     8.2840     8.8910     7.1080     2.2130 
   92.6250    92.6220    -0.4270    -0.0420  -102.8780    76.7690     8.0300     8.4670     6.8820     2.2510 
   92.7500    92.7470    -0.4290    -0.0420  -103.1300    77.2210     8.3040     8.7630     9.3020     2.2980 
   92.8750    92.8720    -0.4310    -0.0410  -103.3710    74.0860     8.7010     9.2230    15.3930     2.3400 
   93.0000    92.9970    -0.4320    -0.0410  -103.6330    70.4260     8.7500     9.1900    20.0450     2.3570 
   93.1250    93.1220    -0.4340    -0.0410  -103.9220    71.9740     8.1440     8.4080    16.4830     2.3390 
   93.2500    93.2470    -0.4360    -0.0410  -104.2200    79.5830     7.0960     7.1990     9.1880     2.3020 
   93.3750    93.3720    -0.4370    -0.0410  -104.4830    88.0340     5.9040     5.9090     5.2740     2.2750 
   93.5000    93.4970    -0.4390    -0.0410  -104.6510    90.1010     4.9410     4.9600     4.2420     2.2690 
   93.6250    93.6220    -0.4410    -0.0410  -104.6820    87.4320     4.3390     4.4240     3.7970     2.2790 
   93.7500    93.7470    -0.4430    -0.0410  -104.5260    86.3580     4.0510     4.1830     3.4930     2.2930 
   93.8750    93.8720    -0.4440    -0.0410  -104.1860    87.3010     3.9110     4.0530     3.4730     2.3000 
   94.0000    93.9970    -0.4460    -0.0410  -103.6560    87.8580     3.8590     3.9800     3.6200     2.2970 
   94.1250    94.1220    -0.4480    -0.0410  -102.9790    88.9270     3.9970     4.0870     3.6440     2.2860 
   94.2500    94.2470    -0.4490    -0.0410  -102.1800    89.5630     4.4460     4.5550     3.9740     2.2770 
   94.3750    94.3720    -0.4510    -0.0400  -101.3020    86.1630     5.4550     5.5400     7.0300     2.2760 
   94.5000    94.4970    -0.4520    -0.0400  -100.3700    80.6400     7.1160     7.1430    13.7960     2.2760 
   94.6250    94.6220    -0.4540    -0.0400   -99.4230    76.3890     9.4810     9.6440    19.2820     2.2600 
   94.7500    94.7470    -0.4560    -0.0400   -98.5030    72.8340    12.4280    12.7510    18.7570     2.2180 
   94.8750    94.8720    -0.4570    -0.0400   -97.6500    67.8640    15.1390    15.6720    16.0810     2.1540 
   95.0000    94.9970    -0.4590    -0.0400   -96.9020    64.7930    17.3730    18.0000    16.4420     2.0930 
   95.1250    95.1220    -0.4600    -0.0400   -96.2610    62.9670    18.9670    19.4820    18.8110     2.0510 
   95.2500    95.2470    -0.4620    -0.0400   -95.7210    59.1990    20.0800    20.4810    20.6540     2.0360 
   95.3750    95.3720    -0.4630    -0.0400   -95.2520    55.7390    20.8970    21.2600    21.4410     2.0450 
   95.5000    95.4970    -0.4640    -0.0390   -94.8310    55.1880    21.2850    21.6510    21.3080     2.0700 
   95.6250    95.6220    -0.4660    -0.0390   -94.4160    57.9450    21.0820    21.4170    20.2710     2.0970 
   95.7500    95.7470    -0.4670    -0.0390   -93.9090    59.0660    20.5880    20.9260    18.9980     2.1160 
   95.8750    95.8720    -0.4690    -0.0390   -93.1920    58.0430    20.1460    20.5090    18.1140     2.1220 
   96.0000    95.9970    -0.4700    -0.0390   -92.2490    57.0870    19.9710    20.4170    17.9020     2.1150 
   96.1250    96.1220    -0.4710    -0.0390   -91.3290    58.6060    20.1950    20.7860    19.0750     2.0950 
   96.2500    96.2470    -0.4730    -0.0390   -90.6790    61.8170    20.7520    21.4650    25.0120     2.0660 
   96.3750    96.3720    -0.4740    -0.0390   -90.2420    62.3380    21.5030    22.3480    39.1340     2.0380 
   96.5000    96.4970    -0.4760    -0.0380   -89.8570    58.9470    22.1940    23.1510    49.3770     2.0200 
   96.6250    96.6220    -0.4770    -0.0380   -89.4720    55.2880    22.6180    23.6760    42.0570     2.0180 
   96.7500    96.7470    -0.4780    -0.0380   -89.1740    56.6540    22.6910    23.8550    28.8630     2.0260 
   96.8750    96.8720    -0.4800    -0.0380   -89.0180    60.6830    22.4690    23.7460    23.2330     2.0370 
   97.0000    96.9970    -0.4810    -0.0380   -88.9740    61.3930    22.1470    23.5480    22.2380     2.0490 
   97.1250    97.1220    -0.4820    -0.0380   -88.9790    59.1240    21.8500    23.3430    22.1520     2.0620 
   97.2500    97.2470    -0.4840    -0.0370   -89.0270    57.9590    21.6290    23.1800    22.1680     2.0760 
   97.3750    97.3720    -0.4850    -0.0370   -89.1420    58.4300    21.5010    23.1230    21.9210     2.0870 
   97.5000    97.4960    -0.4870    -0.0370   -89.3680    56.4960    21.4140    23.1910    21.6880     2.0940 
   97.6250    97.6210    -0.4880    -0.0370   -89.7330    55.3370    21.3690    23.3390    21.6080     2.0950 
   97.7500    97.7460    -0.4890    -0.0370   -90.2620    57.8920    21.3540    23.5210    21.6650     2.0900 
   97.8750    97.8710    -0.4910    -0.0370   -90.9000    60.0670    21.3560    23.6840    21.3450     2.0840 
   98.0000    97.9960    -0.4920    -0.0360   -91.5830    59.2390    21.3510    23.8180    20.5960     2.0760 
   98.1250    98.1210    -0.4930    -0.0360   -92.2840    58.4710    21.3260    23.9370    20.0100     2.0680 
   98.2500    98.2460    -0.4950    -0.0360   -93.0160    60.0380    21.2980    24.0090    19.8760     2.0600 
   98.3750    98.3710    -0.4960    -0.0360   -93.7740    63.6120    21.2680    23.9830    20.0850     2.0510 
   98.5000    98.4960    -0.4970    -0.0360   -94.5300    64.9680    21.2010    23.8230    20.3900     2.0430 
   98.6250    98.6210    -0.4990    -0.0350   -95.2580    64.3050    21.0700    23.5210    20.2840     2.0380 
   98.7500    98.7460    -0.5000    -0.0350   -95.8720    63.3450    20.8880    23.1100    19.6270     2.0350 
   98.8750    98.8710    -0.5010    -0.0350   -96.3270    63.9160    20.6690    22.6110    19.1280     2.0330 
   99.0000    98.9960    -0.5020    -0.0350   -96.7740    63.4670    20.4330    22.1130    19.2110     2.0340 
   99.1250    99.1210    -0.5040    -0.0350   -97.4870    61.2560    20.2260    21.7500    19.5080     2.0400 
   99.2500    99.2460    -0.5050    -0.0340   -98.6320    60.4870    20.1350    21.6320    19.4860     2.0600 
   99.3750    99.3710    -0.5060    -0.0340  -100.1250    61.3810    19.9110    21.3310    18.6580     2.0980 
