~V
VERS. 2.00: Ver 2.00
~W
STRT.M 40.0000:
STOP.M 205.0000:
STEP.M 0.1250:
NULL. -999.2500:
UWI. F10810:
~C
DEPT.M :
SP.MV :
GR.API :
RI. :
RML.OHMM :
RXO.OHMM :
DEN.GM/CC :
~A
# ...
  117.2500   -13.3560    45.5530    25.3580    28.1070    23.3090     2.4980 
  117.3750   -13.4060    47.7730    25.6580    28.4000    24.5970     2.5070 
  117.5000   -13.4570    49.7700    25.8530    28.6000    25.8750     2.5170 
  117.6250   -13.5030    49.8710    25.6980    28.4230    28.0390     2.5190 
  117.7500   -13.5400    48.4130    25.0990    27.6640    30.6320     2.5170 
  117.8750   -13.5640    47.3650    23.8930    26.3110    27.4520     2.5020 
  118.0000   -13.5770    48.0750    22.7340    25.0410    21.4210     2.4800 
  118.1250   -13.5800    47.8660    22.3330    24.5660    19.4020     2.4530 
  118.2500   -13.5740    47.2290    22.7620    25.0780    19.7430     2.4420 
  118.3750   -13.5570    45.7470    23.9710    26.4670    23.1930     2.4490 
  118.5000   -13.5280    46.3280    25.5080    28.1790    31.8350     2.4680 
  118.6250   -13.4830    47.8340    26.8840    29.5760    39.9340     2.4830 
  118.7500   -13.4260    49.1150    27.5120    30.1410    39.1840     2.4910 
  118.8750   -13.3600    49.4830    27.4060    29.8580    30.8870     2.4930 
  119.0000   -13.2940    48.1210    26.8320    29.0900    26.3950     2.4960 
  119.1250   -13.2410    45.7350    25.9790    28.1560    26.8840     2.4950 
  119.2500   -13.2080    44.4500    25.2800    27.3650    26.8260     2.4880 
  119.3750   -13.2000    45.1500    24.7120    26.7220    25.5800     2.4750 
  119.5000   -13.2110    47.4900    24.1570    26.1420    23.7850     2.4620 
  119.6250   -13.2320    49.4940    23.7810    25.8370    22.1210     2.4530 
  119.7500   -13.2500    51.5180    23.8870    26.0480    22.0240     2.4490 
  119.8750   -13.2520    52.3970    24.4840    26.7780    23.3680     2.4540 
  120.0000   -13.2330    52.1970    25.3360    27.7670    24.0700     2.4570 
  120.1250   -13.1890    50.9400    26.2670    28.8120    26.4330     2.4570 
  120.2500   -13.1290    49.8660    27.1150    29.7470    30.6460     2.4560 
  120.3750   -13.0610    48.7040    27.7570    30.4190    31.0270     2.4640 
  120.5000   -12.9960    47.5560    28.1330    30.8040    28.6580     2.4770 
  120.6250   -12.9430    47.3970    28.2570    30.9240    29.0170     2.4850 
  120.7500   -12.9060    49.5560    28.1810    30.7880    29.9780     2.4850 
  120.8750   -12.8860    52.0610    27.7470    30.3730    28.4440     2.4850 
  121.0000   -12.8810    52.7040    27.2700    29.8750    26.1770     2.4900 
  121.1250   -12.8910    51.0480    26.7660    29.3970    24.9140     2.4990 
  121.2500   -12.9140    50.4590    26.3590    29.0740    25.5750     2.5070 
  121.3750   -12.9560    50.5920    26.2400    29.0700    26.6390     2.5080 
  121.5000   -13.0220    51.0590    26.3580    29.3230    26.3440     2.5070 
  121.6250   -13.1210    50.3430    26.5660    29.6440    26.6210     2.5050 
  121.7500   -13.2560    48.4000    26.6850    29.8710    27.9330     2.5020 
  121.8750   -13.4270    46.0930    26.7740    30.0000    28.6620     2.4920 
  122.0000   -13.6220    44.9320    26.8160    30.1120    28.1240     2.4790 
  122.1250   -13.8320    46.1110    27.0570    30.4380    26.3630     2.4680 
  122.2500   -14.0430    47.6590    27.5940    31.0760    25.2480     2.4650 
  122.3750   -14.2470    49.4780    28.2910    31.9050    26.6830     2.4640 
  122.5000   -14.4430    51.1890    28.9070    32.6320    29.7940     2.4620 
  122.6250   -14.6320    51.5910    29.1630    32.9360    31.0720     2.4610 
  122.7500   -14.8160    50.7050    28.8470    32.6630    29.4200     2.4660 
  122.8750   -14.9960    49.7790    28.0940    31.8510    27.9870     2.4700 
  123.0000   -15.1640    50.2710    27.0220    30.6920    27.0500     2.4700 
  123.1250   -15.3110    50.8780    25.7540    29.2620    25.3660     2.4670 
  123.2500   -15.4230    51.5490    24.3490    27.6680    23.8750     2.4610 
  123.3750   -15.4860    52.2710    22.9680    26.1520    22.3940     2.4470 
  123.5000   -15.4960    53.4950    21.9750    25.0810    21.4890     2.4220 
  123.6250   -15.4490    54.5570    21.7360    24.8560    20.9220     2.3970 
  123.7500   -15.3560    54.2880    22.1990    25.4630    21.8890     2.3880 
  123.8750   -15.2250    53.2860    23.1610    26.6610    26.5900     2.4060 
  124.0000   -15.0710    51.0600    24.1280    27.8030    30.1900     2.4370 
  124.1250   -14.9030    49.6230    24.5000    28.1910    29.1550     2.4610 
  124.2500   -14.7250    48.6560    24.0400    27.5020    26.2760     2.4670 
  124.3750   -14.5410    49.9580    22.5260    25.6650    23.4770     2.4570 
  124.5000   -14.3530    51.7390    20.5740    23.3940    21.2930     2.4430 
  124.6250   -14.1710    53.9610    18.8200    21.4460    20.5510     2.4440 
  124.7500   -14.0070    55.3690    17.7530    20.3310    19.5410     2.4560 
  124.8750   -13.8780    55.3180    17.6650    20.4120    17.5260     2.4700 
  125.0000   -13.7940    54.7020    18.5960    21.6220    18.3500     2.4810 
  125.1250   -13.7660    52.4370    20.1170    23.5240    22.0750     2.4970 
  125.2500   -13.7880    50.2490    21.5090    25.2620    25.9710     2.5170 
  125.3750   -13.8570    47.6080    22.1350    25.9250    28.4080     2.5290 
  125.5000   -13.9550    48.4440    21.4830    25.0560    25.8130     2.5270 
  125.6250   -14.0710    50.5150    19.7140    22.9410    20.5370     2.5130 
  125.7500   -14.1920    53.4160    17.8020    20.6700    18.0680     2.4980 
  125.8750   -14.3140    53.5390    16.4860    19.2060    17.2190     2.4850 
  126.0000   -14.4390    53.3470    16.1340    18.9350    16.3390     2.4710 
  126.1250   -14.5750    53.5790    16.7350    19.7430    17.0480     2.4620 
  126.2500   -14.7270    54.8920    17.6350    20.9370    20.0010     2.4630 
  126.3750   -14.8990    56.4120    18.4460    21.9950    22.6210     2.4730 
  126.5000   -15.0850    56.9910    18.9380    22.5890    22.1960     2.4850 
  126.6250   -15.2730    57.5190    19.0130    22.6360    19.6200     2.4860 
  126.7500   -15.4500    57.7180    18.8490    22.3760    18.1220     2.4760 
  126.8750   -15.5980    58.1630    18.5610    22.0660    18.8030     2.4600 
  127.0000   -15.7120    58.3510    18.3530    21.8980    19.8020     2.4430 
  127.1250   -15.7850    56.9640    18.2300    21.8400    20.0070     2.4280 
  127.2500   -15.8230    54.2700    18.0430    21.6480    19.1260     2.4150 
  127.3750   -15.8310    51.3920    17.5510    21.1320    17.9010     2.4080 
  127.5000   -15.8200    50.2270    16.9390    20.4910    18.3500     2.4080 
  127.6250   -15.8010    50.3440    16.3710    19.9320    19.8520     2.4110 
  127.7500   -15.7870    50.9230    15.9660    19.5480    19.1710     2.4090 
  127.8750   -15.7860    51.6770    15.7730    19.3700    16.8220     2.4090 
  128.0000   -15.7980    52.5860    15.7050    19.3750    15.9210     2.4100 
  128.1250   -15.8240    52.9930    15.8460    19.6480    15.8880     2.4140 
  128.2500   -15.8540    52.6170    16.1990    20.1730    16.1080     2.4200 
  128.3750   -15.8800    52.8550    16.6420    20.7820    16.7860     2.4310 
  128.5000   -15.8960    53.4500    16.9760    21.2470    17.7500     2.4460 
  128.6250   -15.8940    54.5810    17.1500    21.5120    18.5170     2.4540 
  128.7500   -15.8690    55.6210    17.2500    21.6470    17.9940     2.4560 
  128.8750   -15.8160    56.7980    17.2630    21.7170    17.8640     2.4490 
  129.0000   -15.7340    58.0170    17.2850    21.8130    18.8600     2.4440 
  129.1250   -15.6270    57.5280    17.3030    21.9230    18.9960     2.4370 
  129.2500   -15.5090    56.6070    17.2990    21.9830    18.1160     2.4360 
  129.3750   -15.3960    55.4710    17.2040    21.9030    17.9290     2.4370 
  129.5000   -15.3090    54.6870    17.0350    21.7290    19.0550     2.4400 
  129.6250   -15.2660    53.3520    16.8940    21.5960    18.9710     2.4370 
  129.7500   -15.2750    51.4680    16.8280    21.5400    17.0740     2.4380 
  129.8750   -15.3420    49.7090    16.7600    21.4540    16.2270     2.4450 
  130.0000   -15.4570    49.2540    16.5380    21.1940    16.7300     2.4610 
