~V
VERS. 2.00: Ver 2.00
~W
STRT.M 62.0000:
STOP.M 256.0000:
STEP.M 0.1250:
NULL. -999.2500:
UWI. F10886:
~C
DEPT.M :
TVD. :
DX. :
DY. :
SP.MV :
GR.API :
RI. :
RML.OHMM :
RXO.OHMM :
DEN.GM/CC :
~A
# ...
  125.8750   125.8690    -0.4390    -0.7810   -33.5480    64.0000    14.2370    15.3160    16.8750     2.1050 
  126.0000   125.9940    -0.4400    -0.7820   -33.3040    62.7870    14.1840    15.1830    16.0110     2.1060 
  126.1250   126.1190    -0.4410    -0.7830   -33.1760    61.2390    14.4650    15.4040    15.8240     2.1000 
  126.2500   126.2440    -0.4410    -0.7840   -33.1510    60.1220    15.0010    15.8840    16.6010     2.0900 
  126.3750   126.3690    -0.4420    -0.7850   -33.2140    57.9020    15.6000    16.4100    18.2420     2.0790 
  126.5000   126.4940    -0.4430    -0.7860   -33.3270    56.3670    15.9980    16.6970    20.2430     2.0710 
  126.6250   126.6190    -0.4440    -0.7870   -33.4550    54.3050    16.0180    16.5770    21.3750     2.0710 
  126.7500   126.7440    -0.4450    -0.7880   -33.5580    54.7460    15.7580    16.1860    20.4270     2.0840 
  126.8750   126.8690    -0.4460    -0.7890   -33.6000    57.5860    15.4390    15.7750    18.1080     2.1050 
  127.0000   126.9940    -0.4470    -0.7900   -33.5790    63.3240    15.2340    15.5170    17.0040     2.1200 
  127.1250   127.1190    -0.4480    -0.7910   -33.5130    67.5900    15.1640    15.4210    18.1620     2.1200 
  127.2500   127.2440    -0.4490    -0.7920   -33.4440    67.9090    15.2060    15.4490    19.8040     2.1120 
  127.3750   127.3690    -0.4490    -0.7930   -33.3970    65.9120    15.3750    15.6160    19.8290     2.1070 
  127.5000   127.4940    -0.4500    -0.7940   -33.3670    63.8330    15.6620    15.9210    18.3330     2.1090 
  127.6250   127.6190    -0.4510    -0.7950   -33.3410    62.4900    16.1090    16.4320    17.6350     2.1120 
  127.7500   127.7440    -0.4520    -0.7960   -33.3180    61.1250    16.7720    17.1980    19.4670     2.1140 
  127.8750   127.8680    -0.4530    -0.7970   -33.3140    61.3080    17.5970    18.1180    22.6020     2.1170 
  128.0000   127.9930    -0.4540    -0.7980   -33.3350    62.7430    18.3180    18.8830    24.1090     2.1220 
  128.1250   128.1180    -0.4550    -0.7990   -33.3520    64.2240    18.6940    19.2510    23.1240     2.1240 
  128.2500   128.2430    -0.4560    -0.8000   -33.3080    64.1590    18.9230    19.4850    21.4050     2.1240 
  128.3750   128.3680    -0.4560    -0.8010   -33.1450    64.7530    19.8360    20.5600    21.9080     2.1360 
  128.5000   128.4930    -0.4570    -0.8020   -32.8540    65.4460    22.4680    23.6980    29.8910     2.1820 
  128.6250   128.6180    -0.4580    -0.8030   -32.4390    65.3590    28.6640    31.1060    53.7090     2.2770 
  128.7500   128.7430    -0.4590    -0.8040   -31.9350    62.1520    39.8830    44.5990    90.2870     2.4040 
  128.8750   128.8680    -0.4600    -0.8050   -31.3730    57.9980    55.4950    62.9080   112.2670     2.5240 
  129.0000   128.9930    -0.4610    -0.8060   -30.8030    54.6440    69.6180    78.2230   109.1660     2.5990 
  129.1250   129.1180    -0.4620    -0.8070   -30.2830    54.2320    75.0640    82.3990    99.6040     2.6150 
  129.2500   129.2430    -0.4630    -0.8080   -29.8590    56.4610    69.7100    74.1510    91.5240     2.5850 
  129.3750   129.3680    -0.4640    -0.8090   -29.5710    59.4850    56.0790    57.8150    78.2520     2.5250 
  129.5000   129.4930    -0.4640    -0.8100   -29.4140    60.8530    41.6960    42.3420    59.7740     2.4490 
  129.6250   129.6180    -0.4650    -0.8110   -29.3810    59.9980    31.1100    31.9200    43.1570     2.3660 
  129.7500   129.7430    -0.4660    -0.8120   -29.4320    58.6570    24.4600    25.6370    33.9830     2.2880 
  129.8750   129.8680    -0.4670    -0.8130   -29.5290    58.3910    20.7960    22.1610    31.1340     2.2250 
  130.0000   129.9930    -0.4680    -0.8140   -29.6180    58.5910    18.6300    20.0860    29.2760     2.1830 
  130.1250   130.1180    -0.4690    -0.8150   -29.6520    60.3370    17.4990    19.0070    26.5580     2.1730 
  130.2500   130.2430    -0.4700    -0.8160   -29.6120    61.0610    17.1020    18.6370    24.4560     2.1900 
  130.3750   130.3680    -0.4710    -0.8170   -29.5090    61.3690    17.3140    18.8860    24.2760     2.2280 
  130.5000   130.4930    -0.4720    -0.8180   -29.4010    60.3400    18.0310    19.6810    24.6150     2.2710 
  130.6250   130.6180    -0.4730    -0.8190   -29.3590    59.8700    19.1500    20.8960    24.5130     2.2930 
  130.7500   130.7430    -0.4740    -0.8200   -29.4220    58.5880    20.3270    22.1310    25.6590     2.2780 
  130.8750   130.8680    -0.4750    -0.8210   -29.5800    56.7990    21.1840    22.9820    28.7250     2.2290 
  131.0000   130.9930    -0.4760    -0.8220   -29.7430    54.1980    21.4730    23.2340    30.8730     2.1770 
  131.1250   131.1180    -0.4760    -0.8230   -29.7820    51.8100    21.0490    22.7820    30.1450     2.1450 
  131.2500   131.2430    -0.4770    -0.8240   -29.5900    50.2660    20.0320    21.7510    28.3400     2.1330 
  131.3750   131.3680    -0.4780    -0.8250   -29.0780    49.9080    18.4880    20.1580    26.9050     2.1350 
  131.5000   131.4930    -0.4790    -0.8260   -28.2650    50.6910    16.5660    18.1180    24.7230     2.1430 
  131.6250   131.6180    -0.4800    -0.8270   -27.1870    53.1850    14.5080    15.8930    20.4720     2.1510 
  131.7500   131.7430    -0.4810    -0.8280   -25.9600    56.1190    12.5990    13.8160    15.4000     2.1520 
  131.8750   131.8680    -0.4820    -0.8290   -24.6810    60.1590    11.0460    12.1330    11.7830     2.1410 
  132.0000   131.9930    -0.4830    -0.8300   -23.4480    61.6580     9.9730    10.9970    10.1890     2.1230 
  132.1250   132.1180    -0.4840    -0.8310   -22.3410    61.0060     9.4950    10.5350     9.9290     2.1110 
  132.2500   132.2430    -0.4850    -0.8320   -21.4060    59.5880     9.5100    10.6170     9.9800     2.1120 
  132.3750   132.3680    -0.4860    -0.8330   -20.7060    58.1780     9.8980    11.0970    10.1650     2.1260 
  132.5000   132.4930    -0.4870    -0.8340   -20.2550    58.1310    10.4680    11.7550    10.5990     2.1470 
  132.6250   132.6180    -0.4880    -0.8350   -20.0770    57.3430    11.0530    12.4030    11.0740     2.1660 
  132.7500   132.7430    -0.4890    -0.8360   -20.1120    57.4600    11.4730    12.8380    11.2550     2.1740 
  132.8750   132.8680    -0.4900    -0.8370   -20.2880    57.9760    11.5100    12.8130    10.9850     2.1680 
  133.0000   132.9930    -0.4910    -0.8380   -20.4980    59.0710    11.0840    12.2610    10.4610     2.1580 
  133.1250   133.1180    -0.4920    -0.8390   -20.6520    61.2940    10.2800    11.3180    10.0770     2.1580 
  133.2500   133.2430    -0.4930    -0.8400   -20.7130    63.3180     9.4110    10.3560     9.9960     2.1720 
  133.3750   133.3680    -0.4940    -0.8410   -20.6800    63.6000     8.7980     9.7530    10.0510     2.1940 
  133.5000   133.4930    -0.4950    -0.8420   -20.6050    62.1920     8.5760     9.6520    10.2310     2.2070 
  133.6250   133.6180    -0.4960    -0.8430   -20.5640    59.4300     8.7630    10.0570    10.6610     2.2050 
  133.7500   133.7430    -0.4970    -0.8440   -20.6160    58.5120     9.2310    10.7930    11.0960     2.1950 
  133.8750   133.8680    -0.4970    -0.8450   -20.8030    58.7570     9.8170    11.6210    11.2340     2.1860 
  134.0000   133.9930    -0.4980    -0.8470   -21.0950    59.2270    10.3210    12.2830    11.2330     2.1790 
  134.1250   134.1180    -0.4990    -0.8480   -21.4340    57.8320    10.6150    12.6380    11.9440     2.1710 
  134.2500   134.2430    -0.5000    -0.8490   -21.7530    54.9160    10.7410    12.7690    12.9850     2.1640 
  134.3750   134.3680    -0.5010    -0.8500   -22.0220    53.2460    10.8560    12.8900    12.9530     2.1600 
  134.5000   134.4930    -0.5020    -0.8510   -22.2600    53.2280    11.1160    13.1940    12.7280     2.1580 
  134.6250   134.6180    -0.5030    -0.8520   -22.4900    54.0070    11.5850    13.7500    13.2650     2.1530 
  134.7500   134.7430    -0.5040    -0.8530   -22.7260    53.5900    12.1850    14.4530    14.2050     2.1480 
  134.8750   134.8680    -0.5050    -0.8540   -22.9450    53.4880    12.7320    15.0590    15.2530     2.1460 
