~V
VERS. 2.00: Ver 2.00
~W
STRT.M 40.0000:
STOP.M 205.0000:
STEP.M 0.1250:
NULL. -999.2500:
UWI. F10807:
~C
DEPT.M :
SP.MV :
GR.API :
RI. :
RML.OHMM :
RXO.OHMM :
DEN.GM/CC :
~A
# ...
  143.0000   -15.2490    69.6010     9.5640    11.0890    13.2360     2.1450 
  143.1250   -15.2940    67.6850     9.8570    11.4840    13.4150     2.1370 
  143.2500   -15.2990    67.2750    10.0930    11.7820    13.8350     2.1320 
  143.3750   -15.3130    67.4180    10.1730    11.8770    14.3600     2.1300 
  143.5000   -15.2890    69.4550    10.1240    11.8150    14.3010     2.1330 
  143.6250   -15.2840    71.5390     9.9990    11.5860    13.1800     2.1350 
  143.7500   -15.3160    72.7200     9.8390    11.2480    12.1090     2.1350 
  143.8750   -15.3210    72.5270     9.6980    11.0560    12.1660     2.1350 
  144.0000   -15.3770    73.0110     9.5750    10.9330    12.5430     2.1350 
  144.1250   -15.3910    73.6500     9.4220    10.7690    12.6640     2.1360 
  144.2500   -15.3970    73.8970     9.1970    10.5110    12.6720     2.1340 
  144.3750   -15.3480    72.7070     8.8740    10.1240    12.2660     2.1300 
  144.5000   -15.2890    71.4750     8.4510     9.6040    11.3990     2.1250 
  144.6250   -15.1560    71.5510     7.9140     8.9610    10.5120     2.1240 
  144.7500   -14.9830    73.8850     7.3510     8.2630     9.8470     2.1300 
  144.8750   -14.8040    77.2700     6.7640     7.5580     8.9430     2.1430 
  145.0000   -14.6240    80.4230     6.2240     6.9180     7.7950     2.1550 
  145.1250   -14.5000    82.2680     5.7640     6.3810     7.0920     2.1620 
  145.2500   -14.3860    82.7160     5.3600     5.9170     6.6790     2.1690 
  145.3750   -14.3120    82.3280     4.9950     5.5030     6.1490     2.1780 
  145.5000   -14.1520    82.3560     4.6610     5.1250     5.5150     2.1910 
  145.6250   -14.0690    82.5120     4.3360     4.7630     4.9500     2.2020 
  145.7500   -13.9960    82.9800     4.0200     4.4080     4.6140     2.2130 
  145.8750   -13.8490    84.0050     3.7380     4.0810     4.3830     2.2240 
  146.0000   -13.5010    86.5180     3.5030     3.8010     4.1210     2.2310 
  146.1250   -12.9690    88.9280     3.3440     3.6160     3.9300     2.2350 
  146.2500   -12.4900    90.7960     3.3320     3.5910     3.9200     2.2370 
  146.3750   -12.2820    89.8860     3.5030     3.7870     4.1000     2.2400 
  146.5000   -12.3410    88.5300     3.8750     4.1960     4.8210     2.2380 
  146.6250   -12.5210    86.3750     4.3810     4.7530     5.9190     2.2290 
  146.7500   -12.7280    85.7070     4.9130     5.3360     6.4470     2.2160 
  146.8750   -12.8060    83.7880     5.3810     5.8660     6.4430     2.2070 
  147.0000   -12.8560    81.6940     5.7920     6.3170     6.3330     2.2020 
  147.1250   -12.9330    80.1000     6.0280     6.5910     7.2410     2.2010 
  147.2500   -13.0940    81.9130     6.0520     6.6750     8.7670     2.2040 
  147.3750   -13.2610    84.4200     5.9850     6.6550     7.9080     2.2150 
  147.5000   -13.3380    86.1050     5.9170     6.6790     5.5290     2.2270 
  147.6250   -13.4170    86.3260     6.1430     7.0610     4.8520     2.2310 
  147.7500   -13.5920    85.2090     6.9150     8.0980     6.1540     2.2160 
  147.8750   -14.0680    82.8380     8.3690    10.0600    10.0050     2.1880 
  148.0000   -14.7240    78.6920    10.8500    13.0620    15.7350     2.1630 
  148.1250   -15.4360    74.3330    14.1480    16.7070    19.3400     2.1470 
  148.2500   -16.0230    70.9510    17.2040    19.9430    20.5720     2.1400 
  148.3750   -16.4970    68.9300    19.3670    22.0620    22.1670     2.1370 
  148.5000   -16.8260    68.1410    20.4150    23.0820    23.6600     2.1370 
  148.6250   -17.0860    68.5250    20.8690    23.5040    23.4410     2.1360 
  148.7500   -17.3180    69.4350    21.2600    23.8640    23.3060     2.1340 
  148.8750   -17.4770    67.9530    21.5500    24.1470    25.2740     2.1300 
  149.0000   -17.6300    66.3650    21.5320    24.1560    27.1850     2.1260 
  149.1250   -17.7160    66.4700    21.1600    23.7980    26.9350     2.1270 
  149.2500   -17.8060    68.6160    20.5760    23.1460    25.6420     2.1370 
  149.3750   -17.8570    70.5920    19.8150    22.3340    24.2890     2.1540 
  149.5000   -17.9180    70.7980    19.2340    21.7540    22.7920     2.1700 
  149.6250   -17.9870    69.5710    19.2500    21.8080    21.8120     2.1700 
  149.7500   -18.1650    67.1190    19.8690    22.5370    23.2330     2.1540 
  149.8750   -18.3600    63.6990    21.0340    23.8510    28.1960     2.1320 
  150.0000   -18.5010    62.0750    22.3810    25.3470    31.1930     2.1180 
  150.1250   -18.5550    62.2990    23.5320    26.5590    29.4910     2.1140 
  150.2500   -18.5450    63.8070    24.1740    27.2130    27.9190     2.1170 
  150.3750   -18.5800    63.5450    24.2250    27.2250    27.1840     2.1230 
  150.5000   -18.6430    63.1790    23.8670    26.8540    26.3670     2.1260 
  150.6250   -18.6970    62.4770    23.5130    26.5180    25.9390     2.1270 
  150.7500   -18.6660    62.8270    23.3750    26.4070    25.8810     2.1250 
  150.8750   -18.6270    62.9630    23.3620    26.4580    25.9900     2.1240 
  151.0000   -18.5480    62.8580    23.4240    26.6310    26.4730     2.1220 
  151.1250   -18.4190    62.6070    23.6870    26.9970    27.3950     2.1310 
  151.2500   -18.3240    63.5000    24.1800    27.5610    26.9030     2.1650 
  151.3750   -18.2580    63.7600    25.0270    28.4190    25.3500     2.2410 
  151.5000   -18.1950    61.7390    26.1950    29.4340    25.7360     2.3220 
  151.6250   -18.0690    58.4440    27.6820    30.3040    27.1190     2.3500 
  151.7500   -17.9400    56.6200    29.0950    31.0480    28.4240     2.2960 
  151.8750   -17.7540    57.2940    29.9200    31.4860    31.6190     2.2050 
  152.0000   -17.6050    59.7880    29.9730    31.4340    33.9300     2.1380 
  152.1250   -17.3810    61.7710    29.2340    30.7940    31.7840     2.1180 
  152.2500   -17.0720    63.9120    28.2200    29.8020    28.0350     2.1180 
  152.3750   -16.6650    63.9160    27.4590    28.6610    25.7010     2.1180 
  152.5000   -16.1670    64.2200    26.6920    27.1350    24.7290     2.1150 
  152.6250   -15.6000    65.6300    24.4200    24.4450    24.5700     2.1150 
  152.7500   -15.0140    69.4870    20.0630    20.3540    43.4920     2.1220 
  152.8750   -14.4950    73.9220    14.7690    15.3770    80.5930     2.1460 
  153.0000   -14.0880    77.5460     9.8550    10.8550    77.3510     2.1830 
  153.1250   -13.9720    79.4140     7.1080     7.9570    32.7330     2.2250 
  153.2500   -14.1790    80.1640     6.0690     6.7380     8.5020     2.2570 
  153.3750   -14.7320    79.0150     6.1730     7.1640     7.6250     2.2660 
  153.5000   -15.4610    77.9880     7.7360     9.3110    10.7010     2.2490 
  153.6250   -16.3140    75.3580    11.4900    13.9880    26.5280     2.2120 
  153.7500   -17.2370    73.0010    18.1830    21.6790    58.6140     2.1720 
  153.8750   -18.0430    68.8650    29.1340    32.4410    99.1690     2.1420 
  154.0000   -18.7230    66.8250    42.0720    44.1860   114.9000     2.1300 
  154.1250   -19.3010    66.1240    52.5860    53.7930    95.1590     2.1310 
  154.2500   -19.8650    66.9840    58.3170    59.4980    85.7690     2.1380 
  154.3750   -20.3700    67.6420    59.3850    61.2530    91.3400     2.1450 
  154.5000   -20.8350    68.0100    58.9130    60.3510    88.8500     2.1530 
  154.6250   -21.1960    68.4470    56.3930    57.3530    84.4780     2.1630 
  154.7500   -21.4960    68.7290    52.6210    53.2650    77.3240     2.1730 
  154.8750   -21.7160    68.8890    46.8470    48.9550    57.9770     2.1770 
  155.0000   -21.9570    68.1640    42.3380    45.6440    40.5100     2.1790 
  155.1250   -22.2420    66.6920    41.5570    45.0580    41.5200     2.1790 
  155.2500   -22.5370    64.3380    44.2220    48.0400    57.6080     2.1750 
  155.3750   -22.8880    61.6850    50.5910    54.4000    75.1870     2.1690 
  155.5000   -23.2280    59.8040    58.8050    61.8950    82.1560     2.1640 
  155.6250   -23.5050    60.5680    65.7170    67.9010    78.1410     2.1600 
  155.7500   -23.6590    62.7110    68.9070    70.8690    68.9730     2.1590 
