~V
VERS. 2.00: Ver 2.00
~W
STRT.M 50.0000:
STOP.M 213.0000:
STEP.M 0.1250:
NULL. -999.2500:
UWI. F10803:
~C
DEPT.M :
SP.MV :
GR.API :
RI. :
RML.OHMM :
RXO.OHMM :
DEN.GM/CC :
~A
# ...
  204.5000     4.8100    59.7080    10.0880    11.3910    12.5910     2.2750 
  204.6250     4.8100    60.3720    10.0900    11.3850    14.2910     2.3160 
  204.7500     4.8100    59.1240    10.0920    11.3810    14.5580     2.3550 
  204.8750     4.8100    57.9540    10.0920    11.3780    17.0600     2.3790 
  205.0000     4.8100    57.3630    10.0940    11.3780    20.6560     2.4060 
  205.1250     4.8100    57.3630    10.0970    11.3810    22.9240     2.4310 
  205.2500     4.8100    57.3630    10.1000    11.3840    28.1960     2.4300 
  205.3750     4.8100    57.3630    10.0980    11.3910    36.7040     2.4020 
  205.5000     4.8100    57.3630    10.0970    11.3970    34.1380     2.3650 
  205.6250     4.8100    57.3630    10.1000    11.3920    19.1870     2.3430 
  205.7500     4.8100    57.3630    10.1120    11.3720    10.9160     2.3470 
  205.8750     4.8100    57.3630    10.1270    11.3440    11.9030     2.3810 
  206.0000     4.8100    57.3630    10.1320    11.3210    13.3150     2.4200 
  206.1250     4.8100    57.3630    10.1300    11.3130    13.0880     2.4280 
  206.2500     4.8100    57.3630    10.1220    11.3140    11.6840     2.3980 
  206.3750     4.8100    57.3630    10.1180    11.3150     9.8990     2.3490 
  206.5000     4.8100    57.3630    10.1190    11.3150     9.2160     2.3080 
  206.6250     4.8100    57.3630    10.1190    11.3140     9.9810     2.2930 
  206.7500     4.8100    57.3630    10.1220    11.3150    10.5540     2.3030 
  206.8750     4.8100    57.3630    10.1220    11.3160     9.9480     2.3250 
  207.0000     4.8100    57.3630    10.1210    11.3170     9.3540     2.3340 
  207.1250     4.8100    57.3630    10.1200    11.3210     9.5000     2.3180 
  207.2500     4.8100    57.3630    10.1180    11.3270     8.8320     2.2970 
  207.3750     4.8100    57.3630    10.1180    11.3340     8.2110     2.2870 
  207.5000     4.8100    57.3630    10.1180    11.3390     9.2920     2.2990 
  207.6250     4.8100    57.3630    10.1180    11.3410     9.6340     2.3280 
  207.7500     4.8100    57.3630    10.1180    11.3420     8.6670     2.3620 
  207.8750     4.8100    57.3630    10.1180    11.3420     8.2340     2.3850 
  208.0000     4.8100    57.3630    10.1180    11.3420     7.7720     2.3990 
  208.1250     4.8100    57.3630    10.1180    11.3420     7.4740     2.4020 
  208.2500     4.8100    57.3630    10.1180    11.3420     8.0820     2.3980 
  208.3750     4.8100    57.3630    10.1180    11.3420     8.7670     2.3900 
  208.5000     4.8100    57.3630    10.1180    11.3420     8.5360     2.3810 
  208.6250     4.8100    57.3630    10.1180    11.3420     7.6840     2.3680 
  208.7500     4.8100    57.3630    10.1180    11.3420     7.3780     2.3490 
  208.8750     4.8100    57.3630    10.1180    11.3420     7.5410     2.3300 
  209.0000     4.8100    57.3630    10.1180    11.3420     7.8140     2.3190 
  209.1250     4.8100    57.3630    10.1180    11.3420     8.1470     2.3180 
  209.2500     4.8100    57.3630    10.1180    11.3420     8.3240     2.3220 
  209.3750     4.8100    57.3630    10.1180    11.3420     8.4450     2.3240 
  209.5000     4.8100    57.3630    10.1180    11.3420     8.5140     2.3210 
  209.6250     4.8100    57.3630    10.1180    11.3420     8.5170     2.3140 
  209.7500     4.8100    57.3630    10.1180    11.3420     8.5160     2.3110 
  209.8750     4.8100    57.3630    10.1180    11.3420     8.5150     2.3080 
  210.0000     4.8100    57.3630    10.1180    11.3420     8.5150     2.3070 
  210.1250     4.8100    57.3630    10.1180    11.3420     8.5160     2.3060 
  210.2500     4.8100    57.3630    10.1180    11.3420     8.5150     2.3050 
  210.3750     4.8100    57.3630    10.1180    11.3420     8.5150     2.3070 
  210.5000     4.8100    57.3630    10.1180    11.3420     8.5140     2.3100 
  210.6250     4.8100    57.3630    10.1180    11.3420     8.5130     2.3120 
  210.7500     4.8100    57.3630    10.1180    11.3420     8.5130     2.3110 
  210.8750     4.8100    57.3630    10.1180    11.3420     8.5120     2.3080 
  211.0000     4.8100    57.3630    10.1180    11.3420     8.5120     2.3060 
  211.1250     4.8100    57.3630    10.1180    11.3420     8.5110     2.3080 
  211.2500     4.8100    57.3630    10.1180    11.3420     8.5100     2.3080 
  211.3750     4.8100    57.3630    10.1180    11.3420     8.5100     2.3050 
  211.5000     4.8100    57.3630    10.1180    11.3420     8.5090     2.3010 
  211.6250     4.8100    57.3630    10.1180    11.3420     8.5090     2.3000 
  211.7500     4.8100    57.3630    10.1180    11.3420     8.5090     2.3010 
  211.8750     4.8100    57.3630    10.1180    11.3420     8.5090     2.3010 
  212.0000     4.8100    57.3630    10.1180    11.3420     8.5080     2.3010 
  212.1250     4.8100    57.3630    10.1180    11.3420     8.5070     2.3010 
  212.2500     4.8100    57.3630    10.1180    11.3420     8.5060     2.3010 
  212.3750     4.8100    57.3630    10.1180    11.3420     8.5050     2.3010 
  212.5000     4.8100    57.3630    10.1180    11.3420     8.5040     2.3010 
  212.6250     4.8100    57.3630    10.1180    11.3420     8.5030     2.3010 
  212.7500     4.8100    57.3630    10.1180    11.3420     8.5030     2.3010 
  212.8750     4.8100    57.3630    10.1180    11.3420     8.5020     2.3010 
  213.0000     4.8100    57.3630    10.1180    11.3420     8.5020     2.3010 
