~V
VERS. 2.00: Ver 2.00
~W
STRT.M 60.0000:
STOP.M 249.0000:
STEP.M 0.1250:
NULL. -999.2500:
UWI. F10851:
~C
DEPT.M :
TVD. :
DX. :
DY. :
SP.MV :
GR.API :
RI. :
RML.OHMM :
RXO.OHMM :
DEN.GM/CC :
~A
# ...
  169.5000   169.4960     0.1250    -0.2000    -1.9120    60.6530    15.3210    16.7480    30.9970     2.3200 
  169.6250   169.6210     0.1240    -0.2000    -1.9130    62.5320    15.3680    16.5180    22.2490     2.3390 
  169.7500   169.7460     0.1230    -0.2000    -1.9700    65.1330    14.6470    15.3880    14.2910     2.3380 
  169.8750   169.8710     0.1220    -0.2010    -2.0680    66.9500    13.9610    14.4520    15.5890     2.3160 
  170.0000   169.9960     0.1200    -0.2010    -2.1910    67.1910    13.8820    14.3370    19.8910     2.2830 
  170.1250   170.1210     0.1190    -0.2010    -2.3340    66.2650    14.7550    15.4010    20.9940     2.2550 
  170.2500   170.2460     0.1180    -0.2020    -2.5060    64.2680    15.9000    16.6840    21.5140     2.2370 
  170.3750   170.3710     0.1170    -0.2020    -2.7160    62.6730    15.6570    16.3850    26.2750     2.2330 
  170.5000   170.4960     0.1150    -0.2020    -2.9500    63.1530    14.0600    14.5470    29.6400     2.2410 
  170.6250   170.6210     0.1140    -0.2030    -3.1860    65.4150    11.2710    11.4270    22.2040     2.2590 
  170.7500   170.7460     0.1130    -0.2030    -3.3820    66.8750     9.0250     8.9970    11.6170     2.2830 
  170.8750   170.8710     0.1110    -0.2030    -3.4850    66.9950     7.9690     7.8800     8.5070     2.3040 
  171.0000   170.9960     0.1100    -0.2030    -3.4760    67.0290     7.7030     7.6650    10.4320     2.3150 
  171.1250   171.1210     0.1090    -0.2040    -3.3600    67.6070     8.1570     8.1850    12.4010     2.3120 
  171.2500   171.2460     0.1080    -0.2040    -3.1930    68.0600     9.1160     9.2260    12.0480     2.2990 
  171.3750   171.3710     0.1060    -0.2040    -3.0430    67.2110    10.2890    10.4390    11.0150     2.2830 
  171.5000   171.4960     0.1050    -0.2050    -2.9640    66.0120    11.1210    11.2570    12.2660     2.2720 
  171.6250   171.6210     0.1040    -0.2050    -2.9720    64.8200    11.6670    11.7760    15.6810     2.2710 
  171.7500   171.7460     0.1020    -0.2050    -3.0360    64.1440    12.2440    12.3280    16.7350     2.2760 
  171.8750   171.8710     0.1010    -0.2060    -3.1060    62.9980    13.5480    13.6400    14.9690     2.2880 
  172.0000   171.9960     0.1000    -0.2060    -3.1160    61.6060    15.7440    15.9450    17.4020     2.3050 
  172.1250   172.1210     0.0980    -0.2060    -3.0230    59.8590    19.3610    19.8820    32.6780     2.3340 
  172.2500   172.2460     0.0970    -0.2070    -2.8550    57.7680    24.7640    26.0770    60.4400     2.3720 
  172.3750   172.3710     0.0960    -0.2070    -2.6470    56.3490    30.7510    33.2210    74.1490     2.4050 
  172.5000   172.4960     0.0940    -0.2080    -2.4420    55.1880    34.3020    37.7570    60.7190     2.4140 
  172.6250   172.6210     0.0930    -0.2080    -2.2910    53.9590    34.0880    38.1300    43.7500     2.3880 
  172.7500   172.7460     0.0920    -0.2080    -2.2190    52.3310    30.9470    34.9930    33.5700     2.3420 
  172.8750   172.8710     0.0910    -0.2090    -2.2280    51.2230    27.3060    31.2200    28.8520     2.3020 
  173.0000   172.9960     0.0890    -0.2090    -2.2990    51.5230    25.8750    29.9170    30.3340     2.2840 
  173.1250   173.1210     0.0880    -0.2090    -2.4230    52.8220    26.6120    31.0880    35.4140     2.2890 
  173.2500   173.2460     0.0870    -0.2100    -2.5800    54.0690    28.7920    33.8280    42.9730     2.3030 
  173.3750   173.3710     0.0850    -0.2100    -2.7630    54.1140    31.5890    37.0750    49.6230     2.3120 
  173.5000   173.4960     0.0840    -0.2110    -2.9710    53.9400    34.0240    39.6080    52.8740     2.3090 
  173.6250   173.6210     0.0830    -0.2110    -3.1810    54.7550    34.7550    39.9840    53.0390     2.2910 
  173.7500   173.7460     0.0810    -0.2110    -3.3540    56.3280    33.9600    38.6160    53.1520     2.2700 
  173.8750   173.8710     0.0800    -0.2120    -3.4510    57.8540    32.6060    36.7890    50.4420     2.2600 
  174.0000   173.9960     0.0790    -0.2120    -3.4350    58.1300    31.4750    35.4930    42.5620     2.2700 
  174.1250   174.1210     0.0770    -0.2130    -3.2600    57.8360    31.0110    35.1190    41.8450     2.2960 
  174.2500   174.2460     0.0760    -0.2130    -2.9520    57.8670    30.3870    34.5480    48.6580     2.3220 
  174.3750   174.3710     0.0750    -0.2140    -2.5690    57.9070    28.4290    32.3210    48.9220     2.3340 
  174.5000   174.4960     0.0740    -0.2140    -2.1980    57.2090    25.0010    28.2690    40.2560     2.3290 
  174.6250   174.6210     0.0720    -0.2150    -1.9180    57.2020    20.7500    23.2420    27.1920     2.3120 
  174.7500   174.7460     0.0710    -0.2150    -1.7700    59.5640    16.6780    18.4760    17.6350     2.2960 
  174.8750   174.8710     0.0700    -0.2160    -1.7600    63.2890    13.6610    15.0110    14.5420     2.2890 
  175.0000   174.9960     0.0680    -0.2170    -1.8280    65.4460    11.8520    12.9710    13.7410     2.2880 
  175.1250   175.1210     0.0670    -0.2170    -1.9090    65.9650    11.1450    12.2010    14.0890     2.2900 
  175.2500   175.2460     0.0660    -0.2180    -1.9380    66.6250    11.0970    12.1720    14.8200     2.2910 
  175.3750   175.3710     0.0650    -0.2180    -1.8830    67.0290    11.3850    12.4880    15.3470     2.2900 
  175.5000   175.4960     0.0630    -0.2190    -1.7740    64.5380    11.7000    12.7960    15.9310     2.2870 
  175.6250   175.6210     0.0620    -0.2200    -1.6460    60.9490    11.7930    12.8010    15.9140     2.2840 
  175.7500   175.7460     0.0610    -0.2200    -1.5410    59.2390    11.5690    12.4320    15.2970     2.2830 
  175.8750   175.8710     0.0590    -0.2210    -1.5080    59.5610    11.2150    11.9450    14.5350     2.2850 
  176.0000   175.9960     0.0580    -0.2210    -1.5590    60.4490    11.1140    11.7790    13.4490     2.2900 
  176.1250   176.1210     0.0570    -0.2220    -1.6900    62.1320    11.5400    12.2710    15.3720     2.2920 
  176.2500   176.2460     0.0560    -0.2230    -1.8780    63.5230    12.4220    13.3400    21.4540     2.2880 
  176.3750   176.3710     0.0540    -0.2240    -2.1010    62.5610    13.1060    14.1910    26.6840     2.2780 
  176.5000   176.4960     0.0530    -0.2240    -2.3330    60.3820    13.3430    14.4950    26.6980     2.2670 
  176.6250   176.6210     0.0520    -0.2250    -2.5680    59.0280    12.7950    13.8160    20.1690     2.2610 
  176.7500   176.7460     0.0510    -0.2260    -2.7980    58.7000    11.7440    12.5330    14.0840     2.2620 
  176.8750   176.8710     0.0490    -0.2260    -2.9980    59.0880    10.4090    10.9550    13.5350     2.2660 
  177.0000   176.9960     0.0480    -0.2270    -3.1490    59.8780     9.2110     9.6170    13.2200     2.2710 
  177.1250   177.1210     0.0470    -0.2280    -3.2210    61.1740     8.4930     8.8590    11.1600     2.2750 
  177.2500   177.2460     0.0460    -0.2290    -3.1880    62.3820     8.3090     8.6880    10.0170     2.2790 
  177.3750   177.3710     0.0440    -0.2290    -3.0270    63.6170     8.4900     8.9230    11.0710     2.2850 
  177.5000   177.4960     0.0430    -0.2300    -2.7820    63.4700     8.7700     9.2590    13.3570     2.2930 
  177.6250   177.6210     0.0420    -0.2310    -2.5130    62.5340     9.0530     9.6090    13.8730     2.2980 
  177.7500   177.7460     0.0410    -0.2320    -2.2940    62.6600     9.2370     9.8110    12.2680     2.2980 
  177.8750   177.8710     0.0390    -0.2330    -2.1910    63.3960     9.2800     9.8130    11.1820     2.2920 
  178.0000   177.9960     0.0380    -0.2340    -2.2050    63.9940     9.1810     9.6450    11.3150     2.2830 
  178.1250   178.1210     0.0370    -0.2340    -2.3090    65.7130     9.1020     9.5100    12.6390     2.2730 
  178.2500   178.2460     0.0360    -0.2350    -2.4380    67.8490     9.2950     9.7060    14.2330     2.2670 
  178.3750   178.3710     0.0340    -0.2360    -2.5180    67.6110     9.8920    10.3850    15.0680     2.2650 
  178.5000   178.4960     0.0330    -0.2370    -2.5060    65.1070    10.8250    11.4640    17.1880     2.2630 
