~V
VERS. 2.00: Ver 2.00
~W
STRT.M 65.0000:
STOP.M 239.0000:
STEP.M 0.1250:
NULL. -999.2500:
UWI. F10876:
~C
DEPT.M :
TVD. :
DX. :
DY. :
SP.MV :
GR.API :
RI. :
RML.OHMM :
RXO.OHMM :
DEN.GM/CC :
~A
# ...
   83.2500    83.2480    -0.2480    -0.0470   -12.8960    66.9750     9.7510    10.2960    10.8150     2.2910 
   83.3750    83.3730    -0.2500    -0.0470   -11.9990    70.9680     9.2170     9.7940     9.0940     2.2120 
   83.5000    83.4980    -0.2510    -0.0470   -11.0260    72.5000     9.8300    10.5350    11.6820     2.1540 
   83.6250    83.6230    -0.2530    -0.0470   -10.0340    69.4140    11.1940    12.1430    12.9760     2.1150 
   83.7500    83.7480    -0.2550    -0.0480    -9.1140    62.8330    12.6650    13.7530    12.6830     2.0960 
   83.8750    83.8730    -0.2570    -0.0480    -8.3570    58.9100    13.3550    14.4720    12.6890     2.1010 
   84.0000    83.9980    -0.2590    -0.0480    -7.8250    59.3220    12.8470    13.8670    13.1060     2.1250 
   84.1250    84.1230    -0.2600    -0.0480    -7.4790    60.9230    11.5860    12.4810    12.6570     2.1540 
   84.2500    84.2480    -0.2620    -0.0490    -7.2960    61.7660    10.2470    11.1190    10.6520     2.1710 
   84.3750    84.3730    -0.2640    -0.0490    -7.1990    60.7840     9.4380    10.3480     8.6710     2.1730 
   84.5000    84.4980    -0.2660    -0.0490    -7.0620    59.6390     9.4090    10.3860     8.5320     2.1590 
   84.6250    84.6230    -0.2680    -0.0490    -6.7630    59.6400    10.0280    11.1810     9.5750     2.1390 
   84.7500    84.7480    -0.2690    -0.0490    -6.2550    61.3380    11.1220    12.5400    10.7260     2.1180 
   84.8750    84.8730    -0.2710    -0.0500    -5.6240    62.6150    12.3730    14.0740    12.0510     2.0990 
   85.0000    84.9980    -0.2730    -0.0500    -4.9610    62.8260    13.5140    15.5200    13.4380     2.0840 
   85.1250    85.1230    -0.2750    -0.0500    -4.3270    62.1800    14.5040    16.7340    14.3640     2.0750 
   85.2500    85.2480    -0.2770    -0.0500    -3.7640    58.8340    15.2860    17.6710    15.1970     2.0730 
   85.3750    85.3730    -0.2780    -0.0500    -3.2830    56.4600    15.8450    18.3470    16.3050     2.0720 
   85.5000    85.4980    -0.2800    -0.0510    -2.8860    58.9900    16.2140    18.7920    16.7680     2.0690 
   85.6250    85.6230    -0.2820    -0.0510    -2.5860    62.7050    16.5200    19.1980    16.2220     2.0630 
   85.7500    85.7480    -0.2840    -0.0510    -2.4390    62.2450    16.8610    19.7180    15.9370     2.0550 
   85.8750    85.8730    -0.2860    -0.0510    -2.4490    57.9230    17.2850    20.2940    16.8370     2.0490 
   86.0000    85.9980    -0.2870    -0.0520    -2.6120    53.4070    17.8250    20.9020    18.1020     2.0470 
   86.1250    86.1230    -0.2890    -0.0520    -2.9130    50.5400    18.4680    21.5450    18.6140     2.0500 
   86.2500    86.2480    -0.2910    -0.0520    -3.3990    50.2200    18.9620    21.9160    18.4720     2.0550 
   86.3750    86.3730    -0.2930    -0.0520    -4.1220    52.3650    18.7060    21.4430    18.0760     2.0640 
   86.5000    86.4980    -0.2940    -0.0530    -5.1890    55.6590    16.8880    19.3920    17.1130     2.0850 
   86.6250    86.6230    -0.2960    -0.0530    -6.6120    58.6080    13.8330    15.9000    15.4040     2.1220 
   86.7500    86.7480    -0.2980    -0.0530    -8.3730    60.0280    10.4020    11.9810    12.6250     2.1690 
   86.8750    86.8730    -0.3000    -0.0530   -10.3040    61.5840     7.5610     8.6870     9.0750     2.2080 
   87.0000    86.9980    -0.3010    -0.0540   -12.1810    67.6930     5.9740     6.7040     6.3370     2.2250 
   87.1250    87.1230    -0.3030    -0.0540   -13.7680    75.9560     5.3010     5.8630     5.3340     2.2210 
   87.2500    87.2480    -0.3050    -0.0540   -14.8890    81.2100     5.2580     5.7840     5.5710     2.2040 
   87.3750    87.3730    -0.3070    -0.0540   -15.5960    80.5690     5.5990     6.1360     6.2050     2.1850 
   87.5000    87.4980    -0.3080    -0.0550   -15.9790    75.1720     6.1290     6.6840     6.6860     2.1750 
   87.6250    87.6230    -0.3100    -0.0550   -16.1970    70.2840     6.5730     7.1100     6.7500     2.1760 
   87.7500    87.7480    -0.3120    -0.0550   -16.3690    68.4990     6.7210     7.2020     6.5480     2.1880 
   87.8750    87.8730    -0.3140    -0.0550   -16.5570    68.1200     6.6160     7.0390     6.1870     2.2050 
   88.0000    87.9980    -0.3160    -0.0550   -16.7440    68.1960     6.3430     6.7360     5.7010     2.2220 
   88.1250    88.1230    -0.3170    -0.0560   -16.8970    70.5760     6.0060     6.3950     5.4610     2.2360 
   88.2500    88.2480    -0.3190    -0.0560   -16.9890    73.8730     5.6330     6.0230     5.6800     2.2450 
   88.3750    88.3730    -0.3210    -0.0560   -17.0040    73.2060     5.2140     5.5810     5.9210     2.2530 
   88.5000    88.4980    -0.3230    -0.0560   -16.9020    72.2080     4.7730     5.0970     5.6850     2.2600 
   88.6250    88.6230    -0.3250    -0.0570   -16.6480    77.4340     4.4550     4.7430     5.0430     2.2650 
   88.7500    88.7480    -0.3260    -0.0570   -16.1840    84.7710     4.3920     4.7160     4.5460     2.2600 
   88.8750    88.8730    -0.3280    -0.0570   -15.5110    86.3290     4.7210     5.2030     4.8850     2.2420 
   89.0000    88.9980    -0.3300    -0.0570   -14.6210    82.2870     5.7980     6.4390     6.4460     2.2090 
   89.1250    89.1230    -0.3320    -0.0570   -13.5410    78.9270     7.6680     8.5970     8.3790     2.1710 
   89.2500    89.2480    -0.3340    -0.0580   -12.3130    75.8540    10.1800    11.5480     9.5420     2.1410 
   89.3750    89.3730    -0.3360    -0.0580   -11.0630    70.0350    12.6880    14.4620    10.1370     2.1250 
   89.5000    89.4980    -0.3370    -0.0580    -9.9580    63.5410    14.4440    16.5600    10.8950     2.1230 
   89.6250    89.6230    -0.3390    -0.0580    -9.1010    58.8010    15.3010    17.4830    11.7310     2.1220 
   89.7500    89.7480    -0.3410    -0.0590    -8.5380    55.4430    15.4040    17.4940    12.3160     2.1150 
   89.8750    89.8730    -0.3430    -0.0590    -8.2140    53.2900    15.2890    17.3420    12.6930     2.1070 
   90.0000    89.9980    -0.3450    -0.0590    -8.1030    53.3940    15.3480    17.4260    12.8220     2.1140 
   90.1250    90.1230    -0.3470    -0.0590    -8.1750    56.0390    15.7330    17.8320    13.0640     2.1510 
   90.2500    90.2480    -0.3490    -0.0600    -8.4610    57.7940    16.2760    18.3020    17.7450     2.2140 
   90.3750    90.3720    -0.3510    -0.0600    -8.9470    58.0730    16.5450    18.3410    34.8700     2.2750 
   90.5000    90.4970    -0.3530    -0.0600    -9.6210    58.3770    15.7390    17.3140    58.6500     2.3020 
   90.6250    90.6220    -0.3550    -0.0600   -10.4230    59.1570    13.7860    15.0440    61.5320     2.2910 
   90.7500    90.7470    -0.3570    -0.0600   -11.3130    60.0220    11.1240    12.0280    36.9540     2.2630 
   90.8750    90.8720    -0.3590    -0.0610   -12.2350    61.9340     8.4540     9.1030    14.0820     2.2420 
   91.0000    90.9970    -0.3610    -0.0610   -13.1190    66.4300     6.5340     6.9530     6.4710     2.2370 
   91.1250    91.1220    -0.3630    -0.0610   -13.8860    69.2670     5.3450     5.7310     5.0360     2.2420 
   91.2500    91.2470    -0.3650    -0.0610   -14.4510    70.7090     4.7720     5.2070     4.4530     2.2490 
   91.3750    91.3720    -0.3670    -0.0620   -14.8130    73.2220     4.5400     5.0090     4.2070     2.2550 
   91.5000    91.4970    -0.3690    -0.0620   -15.0070    77.8170     4.4590     4.9600     4.4660     2.2570 
   91.6250    91.6220    -0.3710    -0.0620   -15.0960    79.9170     4.4380     4.9630     4.7400     2.2570 
   91.7500    91.7470    -0.3730    -0.0620   -15.1010    79.3460     4.4810     4.9890     4.6200     2.2560 
   91.8750    91.8720    -0.3750    -0.0630   -15.0520    79.8500     4.6100     5.0750     4.5290     2.2550 
   92.0000    91.9970    -0.3770    -0.0630   -14.9590    80.4220     4.9150     5.3740     4.9830     2.2470 
   92.1250    92.1220    -0.3790    -0.0630   -14.8090    81.0930     5.4530     5.9990     5.6390     2.2300 
   92.2500    92.2470    -0.3810    -0.0630   -14.5740    81.3290     6.2710     6.9390     5.9950     2.2030 
