~V
VERS. 2.00: Ver 2.00
~W
STRT.M 1.0000:
STOP.M 205.0000:
STEP.M 0.1250:
NULL. -999.2500:
UWI. F10806:
~C
DEPT.M :
SP.MV :
GR.API :
RI. :
RML.OHMM :
RXO.OHMM :
DEN.GM/CC :
~A
# ...
   13.8750    39.6420    43.4150     0.9880     3.8490     0.8730     2.3400 
   14.0000    39.7690    43.2560     0.9790     4.1800     0.8730     2.3400 
   14.1250    39.9880    43.3590     0.9800     4.1660     0.8710     2.3400 
   14.2500    40.5440    44.3770     0.9610     3.7860     0.8670     2.3400 
   14.3750    41.6640    44.6740     0.9520     3.2260     0.8550     2.3400 
   14.5000    43.4430    44.1830     0.9490     2.7530     0.8430     2.3400 
   14.6250    45.4780    43.5050     0.9460     2.5680     0.8460     2.3400 
   14.7500    47.6650    43.6430     0.9570     2.7930     0.8570     2.3400 
   14.8750    49.7610    42.7900     0.9740     3.2930     0.8680     2.3400 
   15.0000    50.1730    40.4980     0.9940     3.8670     0.8740     2.3400 
   15.1250    48.3650    38.6160     1.0030     4.2910     0.8690     2.3400 
   15.2500    46.4180    38.8900     1.0040     4.4140     0.8600     2.3400 
   15.3750    45.7160    41.4410     0.9850     4.2320     0.8570     2.3400 
   15.5000    45.3940    43.9240     0.9650     3.7200     0.8580     2.3400 
   15.6250    45.3690    45.3980     0.9460     3.0760     0.8590     2.3400 
   15.7500    46.9680    45.2130     0.9370     2.5000     0.8570     2.3400 
   15.8750    47.5560    43.9250     0.9350     2.1400     0.8500     2.3400 
   16.0000    44.9950    43.6640     0.9290     2.0920     0.8360     2.3400 
   16.1250    43.4810    43.9650     0.9210     2.2940     0.8220     2.3400 
   16.2500    44.5830    45.1270     0.9230     2.6870     0.8240     2.3400 
   16.3750    45.2180    46.0520     0.9300     3.1470     0.8360     2.3400 
   16.5000    43.8230    47.2700     0.9410     3.3860     0.8470     2.3400 
   16.6250    43.3380    47.7750     0.9350     3.2220     0.8530     2.3400 
   16.7500    45.7590    46.6370     0.9210     2.8500     0.8520     2.3400 
   16.8750    47.9870    45.0110     0.9130     2.6120     0.8490     2.3400 
   17.0000    46.7840    43.6060     0.9030     2.7210     0.8470     2.3400 
   17.1250    45.2460    43.1710     0.9080     3.0450     0.8450     2.3400 
   17.2500    46.2570    43.0390     0.9100     3.2210     0.8450     2.3400 
   17.3750    45.4770    44.0230     0.9140     3.1480     0.8470     2.3400 
   17.5000    42.5120    44.7710     0.9060     2.9220     0.8490     2.3400 
   17.6250    41.8310    44.9490     0.8970     2.6710     0.8480     2.3400 
   17.7500    45.2000    42.8600     0.8840     2.4670     0.8460     2.3400 
   17.8750    49.1310    41.4630     0.8890     2.2900     0.8440     2.3400 
   18.0000    48.3570    39.9460     0.9140     2.4110     0.8430     2.3400 
   18.1250    48.3030    39.8360     1.2080     3.4170     0.8450     2.3400 
   18.2500    51.9580    39.1760     1.1470     5.8190     0.8470     2.3400 
   18.3750    50.0220    40.3990     1.2640     9.3710     0.8500     2.3400 
   18.5000    44.0590    41.7470     1.4770    12.8890     0.8510     2.3400 
   18.6250    42.1920    43.6870     1.6170    15.1460     0.8490     2.3400 
   18.7500    43.7140    44.2700     1.6410    15.8060     0.8460     2.3400 
   18.8750    47.3870    44.5820     1.6200    15.6020     0.8460     2.3400 
   19.0000    51.3360    45.4150     1.2270    14.9520     0.8480     2.3400 
   19.1250    51.2580    46.4840     1.2540    14.5540     0.8490     2.3400 
   19.2500    49.1830    46.1870     1.1300    13.9870     0.8470     2.3400 
   19.3750    48.6250    44.1340     1.4360    12.4380     0.8460     2.3400 
   19.5000    46.8610    41.6360     1.5730    10.3400     0.8460     2.3400 
   19.6250    44.4360    40.0550     1.6500     8.2590     0.8480     2.3400 
   19.7500    47.8280    39.1950     1.4850     7.0360     0.8480     2.3400 
   19.8750    52.9540    37.9600     0.9270     6.8600     0.8470     2.3400 
   20.0000    53.1780    37.2530     0.6760     6.5470     0.8480     2.3400 
   20.1250    50.7070    36.4820     0.5740     5.3200     0.8480     2.3400 
   20.2500    47.8800    36.8460     0.4770     3.4290     0.8490     2.3400 
   20.3750    45.7980    36.2600     0.3540     1.6860     0.8520     2.3400 
   20.5000    47.6020    36.7180     0.1540     0.6350     0.8560     2.3400 
   20.6250    52.6180    36.8720     0.0590     0.2430     0.8580     2.3400 
   20.7500    52.7440    37.7770     0.0670     0.1890     0.8570     2.3400 
   20.8750    47.3200    36.8960     0.0670     0.1890     0.8530     2.3400 
   21.0000    45.8040    35.7670     0.0680     0.1810     0.8520     2.3400 
   21.1250    50.0510    35.0670     0.0740     0.1680     0.8510     2.3400 
   21.2500    53.6040    35.5740     0.0740     0.1550     0.8500     2.3400 
   21.3750    53.6540    35.8910     0.0780     0.1390     0.8490     2.3400 
   21.5000    50.9670    35.2760     0.0740     0.1310     0.8500     2.3400 
   21.6250    48.5890    35.4510     0.0780     0.1280     0.8490     2.3400 
   21.7500    48.7010    35.9900     0.0830     0.1250     0.8460     2.3400 
   21.8750    50.9350    36.9810     0.0790     0.1230     0.8420     2.3400 
   22.0000    50.9780    36.3290     0.0830     0.1240     0.8400     2.3400 
   22.1250    48.7100    35.7190     0.0780     0.1340     0.8410     2.3400 
   22.2500    49.1500    36.0510     0.0780     0.1530     0.8450     2.3400 
   22.3750    50.4330    37.0600     0.0780     0.1730     0.8470     2.3400 
   22.5000    51.3450    37.6540     0.0680     0.1770     0.8490     2.3400 
   22.6250    52.0180    37.9120     0.0630     0.1620     0.8500     2.3400 
   22.7500    50.1030    39.3700     0.0690     0.1340     0.8500     2.3400 
   22.8750    48.3310    41.0280     0.0780     0.1190     0.8490     2.3400 
   23.0000    52.1100    40.9430     0.0900     0.1260     0.8490     2.3400 
   23.1250    57.2450    39.8310     0.0980     0.1520     0.8490     2.3400 
   23.2500    57.5030    38.7280     0.0960     0.1710     0.8480     2.3400 
   23.3750    56.4370    38.1660     0.0830     0.1660     0.8470     2.3400 
   23.5000    57.5760    38.5740     0.0700     0.1410     0.8460     2.3400 
   23.6250    58.7530    39.1480     0.0840     0.1320     0.8460     2.3400 
   23.7500    58.5600    39.6640     0.0980     0.1570     0.8480     2.3400 
   23.8750    56.1750    39.2910     0.1270     0.2360     0.8500     2.3400 
   24.0000    53.1950    39.8740     0.1660     0.3390     0.8520     2.3400 
   24.1250    52.4680    41.4400     0.1550     0.4300     0.8510     2.3400 
   24.2500    53.6830    43.2850     0.2430     0.4830     0.8490     2.3400 
   24.3750    54.8440    43.7340     0.3720     0.6200     0.8470     2.3400 
   24.5000    53.7590    43.4560     0.4780     0.8600     0.8480     2.3400 
   24.6250    54.4580    43.2010     0.7080     1.0440     0.8510     2.3400 
   24.7500    55.9660    42.5920     0.6250     1.2060     0.8530     2.3400 
   24.8750    54.6690    41.0610     0.8290     1.2970     0.8550     2.3400 
   25.0000    56.2380    39.3210     0.7550     1.3040     0.8560     2.3400 
   25.1250    59.9090    38.9330     0.9660     1.2270     0.8520     2.3400 
   25.2500    63.1760    40.5100     1.1930     1.3610     0.8520     2.3400 
   25.3750    66.4410    43.7360     1.3950     1.5650     0.8570     2.3400 
   25.5000    64.6930    46.5430     1.4450     1.8770     0.8610     2.3400 
   25.6250    60.4580    48.5300     1.1620     2.2870     0.8630     2.3400 
   25.7500    60.2560    49.6010     1.0860     2.4980     0.8610     2.3400 
   25.8750    60.9680    50.2040     0.6760     2.3450     0.8590     2.3400 
   26.0000    60.3430    49.7530     0.9560     2.2200     0.8570     2.3400 
   26.1250    58.2600    47.8300     1.2740     1.9590     0.8580     2.3400 
   26.2500    55.1770    45.0580     1.2900     1.8770     0.8600     2.3400 
   26.3750    54.4530    43.2760     1.1130     2.2880     0.8610     2.3400 
   26.5000    54.7610    42.7210     0.7640     2.5510     0.8600     2.3400 
   26.6250    52.6520    42.8160     0.5970     2.7590     0.8600     2.3400 
