~V
VERS. 2.00: Ver 2.00
~W
STRT.M 60.0000:
STOP.M 249.0000:
STEP.M 0.1250:
NULL. -999.2500:
UWI. F10851:
~C
DEPT.M :
TVD. :
DX. :
DY. :
SP.MV :
GR.API :
RI. :
RML.OHMM :
RXO.OHMM :
DEN.GM/CC :
~A
# ...
  215.1250   215.1190    -0.2840    -0.3970    -1.6090    28.2910     2.1560     2.9140     3.3140     2.3390 
  215.2500   215.2440    -0.2850    -0.3960    -1.8520    27.9800     2.1130     2.8210     3.2920     2.3440 
  215.3750   215.3690    -0.2860    -0.3960    -2.0510    27.9520     2.0650     2.7490     3.2140     2.3470 
  215.5000   215.4940    -0.2870    -0.3960    -2.1610    28.4570     2.0230     2.6750     3.1270     2.3480 
  215.6250   215.6190    -0.2880    -0.3960    -2.1380    28.8980     1.9820     2.6150     3.0560     2.3460 
  215.7500   215.7440    -0.2890    -0.3960    -2.0040    29.1460     1.9500     2.5740     3.0110     2.3420 
  215.8750   215.8690    -0.2900    -0.3960    -1.8030    28.6850     1.9350     2.5310     2.9830     2.3370 
  216.0000   215.9940    -0.2910    -0.3960    -1.6150    28.3010     1.9370     2.5320     2.9650     2.3320 
  216.1250   216.1190    -0.2930    -0.3960    -1.5110    29.1540     1.9480     2.5460     2.9670     2.3310 
  216.2500   216.2440    -0.2940    -0.3960    -1.5080    30.2230     1.9690     2.5460     2.9910     2.3340 
  216.3750   216.3690    -0.2950    -0.3960    -1.5790    29.3650     1.9870     2.5780     3.0230     2.3390 
  216.5000   216.4940    -0.2960    -0.3960    -1.6640    28.2460     1.9930     2.5630     2.9910     2.3400 
  216.6250   216.6190    -0.2970    -0.3960    -1.6900    29.1630     1.9980     2.5650     2.9040     2.3350 
  216.7500   216.7440    -0.2980    -0.3960    -1.6060    31.3300     1.9960     2.5600     2.8670     2.3270 
  216.8750   216.8690    -0.2990    -0.3960    -1.4040    32.0670     2.0070     2.5710     2.8710     2.3200 
  217.0000   216.9940    -0.3000    -0.3960    -1.1460    31.1040     2.0270     2.5950     2.8690     2.3160 
  217.1250   217.1190    -0.3010    -0.3950    -0.8880    29.6980     2.0580     2.6260     2.8560     2.3190 
  217.2500   217.2440    -0.3020    -0.3950    -0.6760    29.5150     2.0850     2.6480     2.8570     2.3260 
  217.3750   217.3690    -0.3040    -0.3950    -0.5570    30.0940     2.1180     2.6700     2.9010     2.3350 
  217.5000   217.4940    -0.3050    -0.3950    -0.5340    30.2990     2.1640     2.7240     2.9790     2.3430 
  217.6250   217.6190    -0.3060    -0.3950    -0.5910    29.2850     2.2360     2.7810     3.1540     2.3490 
  217.7500   217.7440    -0.3070    -0.3950    -0.6970    28.4620     2.3350     2.9000     3.5160     2.3520 
  217.8750   217.8690    -0.3080    -0.3950    -0.8350    28.7560     2.4740     3.0760     3.9760     2.3540 
  218.0000   217.9940    -0.3090    -0.3950    -0.9840    29.8030     2.6190     3.2520     4.3480     2.3560 
  218.1250   218.1190    -0.3100    -0.3940    -1.1430    30.5890     2.7200     3.4030     4.5190     2.3590 
  218.2500   218.2440    -0.3110    -0.3940    -1.3050    30.5330     2.7480     3.4410     4.4240     2.3630 
  218.3750   218.3690    -0.3120    -0.3940    -1.4540    31.1500     2.6730     3.3310     4.1520     2.3630 
  218.5000   218.4940    -0.3130    -0.3940    -1.5710    32.8120     2.5330     3.1550     3.8350     2.3570 
  218.6250   218.6190    -0.3140    -0.3940    -1.6240    34.4260     2.3860     2.9470     3.4450     2.3440 
  218.7500   218.7440    -0.3150    -0.3930    -1.5840    34.8170     2.2540     2.7680     3.1280     2.3270 
  218.8750   218.8690    -0.3160    -0.3930    -1.4340    34.4420     2.1720     2.6650     3.0740     2.3140 
  219.0000   218.9940    -0.3170    -0.3930    -1.2110    33.5740     2.1290     2.6210     3.1120     2.3100 
  219.1250   219.1190    -0.3180    -0.3930    -0.9630    31.7260     2.1170     2.6040     3.0810     2.3150 
  219.2500   219.2440    -0.3190    -0.3930    -0.7580    29.7090     2.1150     2.5960     3.0970     2.3240 
  219.3750   219.3690    -0.3200    -0.3920    -0.6520    28.8890     2.1170     2.5830     3.1500     2.3320 
  219.5000   219.4940    -0.3210    -0.3920    -0.6400    29.0560     2.1320     2.5810     3.1330     2.3320 
  219.6250   219.6190    -0.3220    -0.3920    -0.6940    29.2120     2.1680     2.6070     3.1080     2.3230 
  219.7500   219.7440    -0.3220    -0.3920    -0.7580    29.5500     2.2360     2.6700     3.1490     2.3090 
  219.8750   219.8690    -0.3230    -0.3920    -0.7660    31.2160     2.3120     2.7410     3.3240     2.2970 
  220.0000   219.9940    -0.3240    -0.3910    -0.6870    33.2270     2.3700     2.8090     3.4690     2.2930 
  220.1250   220.1190    -0.3250    -0.3910    -0.5310    33.5450     2.3940     2.8170     3.4080     2.2990 
  220.2500   220.2440    -0.3260    -0.3910    -0.3380    31.4970     2.3880     2.7910     3.3330     2.3110 
  220.3750   220.3680    -0.3270    -0.3910    -0.1390    29.5450     2.3630     2.7230     3.3270     2.3260 
  220.5000   220.4930    -0.3270    -0.3910     0.0270    29.6310     2.3300     2.6580     3.3280     2.3390 
  220.6250   220.6180    -0.3280    -0.3900     0.1230    31.2190     2.3030     2.6040     3.3610     2.3460 
  220.7500   220.7430    -0.3290    -0.3900     0.1510    32.2160     2.2950     2.5840     3.4060     2.3450 
  220.8750   220.8680    -0.3300    -0.3900     0.1110    31.5950     2.3000     2.5790     3.4050     2.3380 
  221.0000   220.9930    -0.3300    -0.3900     0.0080    30.8140     2.3170     2.5870     3.3840     2.3290 
  221.1250   221.1180    -0.3310    -0.3890    -0.1520    31.3130     2.3340     2.6100     3.3710     2.3260 
  221.2500   221.2430    -0.3320    -0.3890    -0.3580    32.4610     2.3530     2.6330     3.3500     2.3280 
  221.3750   221.3680    -0.3330    -0.3890    -0.6020    32.5390     2.3810     2.6600     3.3740     2.3350 
  221.5000   221.4930    -0.3330    -0.3890    -0.8640    32.0430     2.4130     2.6930     3.4460     2.3430 
  221.6250   221.6180    -0.3340    -0.3890    -1.1100    32.6580     2.4490     2.7220     3.4990     2.3490 
  221.7500   221.7430    -0.3350    -0.3880    -1.3030    34.1270     2.4750     2.7520     3.5230     2.3510 
  221.8750   221.8680    -0.3360    -0.3880    -1.3940    34.7210     2.4970     2.7710     3.5380     2.3500 
  222.0000   221.9930    -0.3360    -0.3880    -1.3600    34.4440     2.5090     2.7720     3.5370     2.3480 
  222.1250   222.1180    -0.3370    -0.3880    -1.2010    32.8410     2.5050     2.7550     3.5220     2.3480 
  222.2500   222.2430    -0.3380    -0.3870    -0.9720    30.5830     2.4990     2.7490     3.4840     2.3470 
  222.3750   222.3680    -0.3390    -0.3870    -0.7400    29.6990     2.4820     2.7530     3.4520     2.3450 
  222.5000   222.4930    -0.3390    -0.3870    -0.5800    30.6110     2.4620     2.7450     3.4390     2.3390 
  222.6250   222.6180    -0.3400    -0.3870    -0.5390    32.3000     2.4480     2.7330     3.4010     2.3310 
  222.7500   222.7430    -0.3410    -0.3860    -0.5950    32.8630     2.4240     2.6880     3.3730     2.3230 
  222.8750   222.8680    -0.3410    -0.3860    -0.7120    32.9400     2.3940     2.6510     3.4250     2.3170 
  223.0000   222.9930    -0.3420    -0.3860    -0.8230    32.7170     2.3560     2.6030     3.4530     2.3120 
  223.1250   223.1180    -0.3430    -0.3860    -0.8550    32.3800     2.3260     2.5610     3.3650     2.3080 
  223.2500   223.2430    -0.3440    -0.3850    -0.7910    32.3760     2.3260     2.5530     3.2840     2.3040 
  223.3750   223.3680    -0.3440    -0.3850    -0.6470    32.6310     2.3750     2.6030     3.3230     2.2980 
  223.5000   223.4930    -0.3450    -0.3850    -0.4580    33.4610     2.4680     2.7100     3.4900     2.2940 
  223.6250   223.6180    -0.3460    -0.3850    -0.2550    35.2830     2.5810     2.8460     3.7300     2.2960 
  223.7500   223.7430    -0.3470    -0.3840    -0.0800    37.2470     2.6790     2.9610     3.8880     2.3030 
  223.8750   223.8680    -0.3470    -0.3840     0.0480    37.0030     2.7180     3.0120     3.8530     2.3130 
  224.0000   223.9930    -0.3480    -0.3840     0.1370    34.3570     2.6890     2.9700     3.6750     2.3200 
  224.1250   224.1180    -0.3490    -0.3840     0.1860    31.6020     2.6030     2.8690     3.4640     2.3220 
