~V
VERS. 2.00: Ver 2.00
~W
STRT.M 40.0000:
STOP.M 205.0000:
STEP.M 0.1250:
NULL. -999.2500:
UWI. F10807:
~C
DEPT.M :
SP.MV :
GR.API :
RI. :
RML.OHMM :
RXO.OHMM :
DEN.GM/CC :
~A
# ...
  181.6250    -8.4910    49.6800     3.2590     4.3760     3.6300     2.0090 
  181.7500    -8.2350    50.1960     3.2480     4.3810     3.5870     2.0740 
  181.8750    -8.0720    52.0770     3.3140     4.4850     4.0600     2.1040 
  182.0000    -8.0790    55.8240     3.4230     4.6520     4.8780     2.1180 
  182.1250    -8.3110    60.2600     3.5650     4.8410     4.8670     2.1300 
  182.2500    -8.7000    63.9900     3.6770     4.9930     4.4880     2.1520 
  182.3750    -8.9030    64.7470     3.7480     5.0800     4.4460     2.1620 
  182.5000    -8.9370    63.2390     3.7730     5.1060     4.4360     2.1530 
  182.6250    -8.8790    60.7990     3.7620     5.0950     4.4160     2.1200 
  182.7500    -8.9060    60.2470     3.7810     5.1200     4.4100     2.0900 
  182.8750    -9.0810    61.9450     3.8360     5.2150     4.4680     2.0810 
  183.0000    -9.2450    64.9330     3.9380     5.3650     4.9190     2.1000 
  183.1250    -9.4180    67.9950     4.0730     5.5450     5.4800     2.1380 
  183.2500    -9.6490    69.8370     4.2060     5.7160     5.6140     2.1750 
  183.3750    -9.9520    71.0510     4.3090     5.8460     5.5280     2.1980 
  183.5000   -10.1330    70.2630     4.3740     5.9330     5.4700     2.2070 
  183.6250   -10.2160    69.4790     4.4050     5.9760     5.4150     2.2070 
  183.7500   -10.1430    69.1780     4.3960     5.9690     5.4550     2.2100 
  183.8750   -10.0130    69.9610     4.3770     5.9380     5.6170     2.2170 
  184.0000    -9.8920    70.0340     4.3580     5.9040     5.7310     2.2260 
  184.1250    -9.8850    70.8100     4.3580     5.8880     5.7360     2.2240 
  184.2500    -9.9190    72.9250     4.3920     5.9150     5.7380     2.2170 
  184.3750   -10.0020    76.2030     4.4650     5.9990     6.8680     2.2100 
  184.5000   -10.1430    78.7150     4.5680     6.1300     8.6780     2.2080 
  184.6250   -10.2260    80.1330     4.6740     6.2660     8.4860     2.2020 
  184.7500   -10.2480    81.1000     4.7580     6.3510     6.7930     2.1930 
  184.8750   -10.1460    81.8010     4.7920     6.3640     5.6680     2.1880 
  185.0000    -9.9970    82.5190     4.7830     6.3160     5.2980     2.1870 
  185.1250    -9.6320    83.1180     4.7280     6.2210     5.1830     2.1850 
  185.2500    -9.2100    83.7060     4.6640     6.1160     5.0960     2.1760 
  185.3750    -8.8370    83.2730     4.6260     6.0330     5.1170     2.1710 
  185.5000    -8.6950    82.5660     4.6190     5.9870     5.0970     2.1650 
  185.6250    -8.5670    82.0480     4.6300     5.9830     5.7500     2.1650 
  185.7500    -8.5010    81.0200     4.6400     5.9830     7.2190     2.1710 
  185.8750    -8.5300    79.4570     4.6170     5.9480     7.2930     2.1900 
  186.0000    -8.4500    77.5510     4.5740     5.8780     6.0820     2.2120 
  186.1250    -8.1700    76.6310     4.5110     5.7850     5.6060     2.2280 
  186.2500    -7.6300    76.2360     4.4430     5.6910     5.5360     2.2390 
  186.3750    -6.9900    74.7420     4.3890     5.6210     5.1040     2.2480 
  186.5000    -6.3990    72.0660     4.3610     5.5860     4.6490     2.2490 
  186.6250    -6.0540    68.7990     4.3630     5.5750     4.5610     2.2430 
  186.7500    -5.7880    66.4030     4.3760     5.5670     4.6230     2.2370 
  186.8750    -5.8320    66.1330     4.3950     5.5600     4.6050     2.2320 
  187.0000    -5.9340    68.2130     4.4410     5.5760     4.6860     2.2250 
  187.1250    -6.0050    70.9550     4.5300     5.6480     4.6690     2.2090 
  187.2500    -6.0220    74.7440     4.6720     5.7840     4.7800     2.1980 
  187.3750    -5.9980    77.2130     4.8440     5.9690     5.5700     2.2030 
  187.5000    -5.9650    79.8000     5.0120     6.1590     5.9580     2.2290 
  187.6250    -5.9160    79.9130     5.1330     6.2940     6.3130     2.2650 
  187.7500    -5.9920    78.3920     5.2070     6.3590     7.4460     2.2960 
  187.8750    -6.0340    73.8130     5.2270     6.3490     7.6870     2.3100 
  188.0000    -6.0770    69.2670     5.2160     6.3120     7.0310     2.3040 
  188.1250    -6.0510    65.9310     5.2170     6.3000     6.4330     2.2860 
  188.2500    -6.0940    64.6150     5.2290     6.3200     5.9840     2.2780 
  188.3750    -6.0510    64.7010     5.2700     6.3770     6.1620     2.2720 
  188.5000    -6.0090    66.3580     5.3180     6.4360     6.5800     2.2670 
  188.6250    -5.9550    69.1950     5.3560     6.4730     6.4360     2.2520 
  188.7500    -5.9070    71.7740     5.3750     6.4720     6.1960     2.2440 
  188.8750    -5.8800    73.5140     5.3670     6.4410     6.8920     2.2410 
  189.0000    -5.8360    74.5260     5.3610     6.4080     7.5380     2.2440 
  189.1250    -5.9880    75.0410     5.3610     6.3910     6.6810     2.2540 
  189.2500    -6.0700    74.2910     5.4060     6.4280     5.9440     2.2710 
  189.3750    -6.1070    72.9500     5.5160     6.5390     6.2370     2.2830 
  189.5000    -6.0430    72.8670     5.6570     6.6840     6.3990     2.2850 
  189.6250    -6.0310    75.3340     5.7760     6.7990     6.1890     2.2730 
  189.7500    -5.9850    78.1910     5.8240     6.8250     5.6990     2.2550 
  189.8750    -5.9530    79.3040     5.7600     6.7120     5.1150     2.2250 
  190.0000    -5.9380    78.5330     5.5820     6.4960     4.8850     2.1940 
  190.1250    -6.0120    76.8890     5.3720     6.2500     4.9890     2.1730 
  190.2500    -6.0020    74.1450     5.1880     6.0370     5.0330     2.1720 
  190.3750    -6.0330    71.8060     5.0750     5.9020     4.9410     2.1920 
  190.5000    -6.0870    70.2130     5.0520     5.8560     4.9390     2.2120 
  190.6250    -6.1050    68.7650     5.0730     5.8570     5.1340     2.2170 
  190.7500    -6.1650    67.4620     5.0960     5.8620     5.5000     2.1940 
  190.8750    -6.1240    67.4820     5.1080     5.8460     5.4050     2.1450 
  191.0000    -6.1340    68.6390     5.0910     5.8010     5.0770     2.0900 
  191.1250    -6.1380    70.0480     5.0590     5.7360     5.4030     2.0610 
  191.2500    -6.1380    71.1510     5.0210     5.6720     5.2750     2.0610 
  191.3750    -6.1380    72.4670     5.0260     5.6440     4.3940     2.0800 
  191.5000    -6.1380    74.3870     5.0560     5.6480     4.3060     2.0990 
  191.6250    -6.1380    74.8440     5.0980     5.6690     5.1430     2.1200 
  191.7500    -6.1380    74.2490     5.1120     5.6640     5.6560     2.1330 
  191.8750    -6.1380    72.4360     5.0760     5.6190     5.2110     2.1370 
  192.0000    -6.1380    71.0250     5.0020     5.5450     4.6010     2.1260 
  192.1250    -6.1380    69.4390     4.9280     5.4760     4.1640     2.1210 
  192.2500    -6.1380    68.4960     4.8900     5.4530     3.8240     2.1320 
  192.3750    -6.1380    68.4660     4.9130     5.4860     4.0130     2.1600 
  192.5000    -6.1380    69.3970     4.9850     5.5590     4.5190     2.1790 
  192.6250    -6.1380    70.4930     5.0830     5.6560     4.8470     2.1980 
  192.7500    -6.1380    71.0080     5.1830     5.7490     4.9530     2.2170 
  192.8750    -6.1380    71.5960     5.2550     5.8070     6.4500     2.2390 
  193.0000    -6.1380    72.1680     5.2810     5.8350     9.1550     2.2470 
  193.1250    -6.1380    73.6730     5.3180     5.8700     9.4540     2.2480 
  193.2500    -6.1380    75.2950     5.4020     5.9490     7.7270     2.2520 
  193.3750    -6.1380    77.1090     5.5400     6.0840     6.9890     2.2650 
  193.5000    -6.1380    78.3880     5.7060     6.2370     7.3510     2.2800 
  193.6250    -6.1380    79.1750     5.8420     6.3610     8.0280     2.2960 
  193.7500    -6.1380    79.7630     5.9590     6.4500     8.6190     2.3110 
  193.8750    -6.1380    79.9690     6.0360     6.4960     8.4530     2.3230 
  194.0000    -6.1380    80.0510     6.0740     6.5000     7.6990     2.3120 
  194.1250    -6.1380    78.7650     6.0620     6.4790     7.3510     2.2810 
  194.2500    -6.1380    77.4690     6.0840     6.4930     7.3750     2.2380 
  194.3750    -6.1380    77.4720     6.1820     6.5810     7.1210     2.2140 
