~V
VERS. 2.00: Ver 2.00
~W
STRT.M 1.0000:
STOP.M 205.0000:
STEP.M 0.1250:
NULL. -999.2500:
UWI. F10806:
~C
DEPT.M :
SP.MV :
GR.API :
RI. :
RML.OHMM :
RXO.OHMM :
DEN.GM/CC :
~A
# ...
   39.6250    39.4610    36.8270     0.1100     0.2150     0.0390     2.3400 
   39.7500    39.8010    35.4390     0.1100     0.2300     0.0940     2.3400 
   39.8750    40.0050    34.5180     0.1100     0.2500     0.1610     2.3400 
   40.0000    40.2910    33.8490     0.1100     0.2680     0.1330     2.3400 
   40.1250    40.6470    34.2930     0.1100     0.2710     0.0820     2.3400 
   40.2500    40.8150    35.5850     0.1110     0.2550     0.0920     2.3400 
   40.3750    40.6980    37.2220     0.1110     0.2340     0.1220     2.3400 
   40.5000    40.2900    39.0430     0.1110     0.2160     0.1220     2.3400 
   40.6250    39.6990    40.9840     0.1120     0.2070     0.1310     2.3400 
   40.7500    39.0320    44.1350     0.1120     0.2050     0.1710     2.3400 
   40.8750    38.3930    46.7080     0.1120     0.2090     0.1790     2.3400 
   41.0000    37.8360    48.0660     0.1130     0.2250     0.1440     2.3400 
   41.1250    37.3790    47.5240     0.1130     0.2430     0.1270     2.3400 
   41.2500    37.0520    46.4890     0.1130     0.2600     0.1580     2.3400 
   41.3750    36.8660    45.2760     0.1130     0.2690     0.1570     2.3400 
   41.5000    36.8500    44.6710     0.1140     0.2700     0.1150     2.3400 
   41.6250    36.9750    44.6720     0.1140     0.2700     0.1460     2.3400 
   41.7500    37.2080    47.3140     0.1150     0.2700     0.1950     2.3400 
   41.8750    37.4540    51.4490     0.1150     0.2700     0.1750     2.3400 
   42.0000    37.6400    55.2200     0.1150     0.2680     0.1470     2.3400 
   42.1250    37.7950    57.5000     0.1150     0.2580     0.1250     2.3400 
   42.2500    38.0190    58.6760     0.1150     0.2520     0.1000     2.3400 
   42.3750    38.3630    59.1800     0.1150     0.2530     0.0850     2.3400 
   42.5000    38.8520    59.0650     0.1160     0.2620     0.0750     2.3400 
   42.6250    39.4350    58.1730     0.1160     0.2760     0.0640     2.3400 
   42.7500    39.9790    57.0920     0.1160     0.2830     0.0730     2.3400 
   42.8750    40.3100    54.9230     0.1070     0.2850     0.0940     2.3400 
   43.0000    40.3080    51.8760     0.1000     0.2830     0.0970     2.3400 
   43.1250    40.1680    48.2230     0.0890     0.2710     0.0940     2.3400 
   43.2500    40.1070    43.9510     0.0870     0.2630     0.0910     2.3400 
   43.3750    40.1530    39.4950     0.0890     0.2650     0.0890     2.3400 
   43.5000    40.2990    35.2540     0.0860     0.2770     0.1240     2.3400 
   43.6250    40.4350    32.7780     0.0870     0.2960     0.1780     2.3400 
   43.7500    40.2940    32.5240     0.0790     0.3050     0.1600     2.3400 
   43.8750    39.7830    33.3850     0.0790     0.3070     0.0990     2.3400 
   44.0000    38.9730    34.7560     0.0780     0.3060     0.0730     2.3400 
   44.1250    37.9950    36.3620     0.0770     0.3030     0.0720     2.3360 
   44.2500    36.9360    37.5230     0.0770     0.3000     0.0710     2.3400 
   44.3750    35.9150    38.1160     0.0760     0.2980     0.0710     2.3400 
   44.5000    35.0090    38.3790     0.0760     0.2990     0.0750     2.3400 
   44.6250    34.1750    38.4110     0.0770     0.3000     0.0750     2.3400 
   44.7500    33.3710    38.4300     0.0770     0.3000     0.0740     2.3400 
   44.8750    32.6330    37.2270     0.0760     0.3000     0.0750     2.3400 
   45.0000    32.0490    36.5210     0.0760     0.2990     0.0770     2.3400 
   45.1250    31.6540    35.7190     0.0760     0.2980     0.0750     2.3400 
   45.2500    31.4710    36.4440     0.0760     0.2970     0.0750     2.3400 
   45.3750    31.4490    36.8740     0.0760     0.2960     0.0750     2.3400 
   45.5000    31.5160    37.6550     0.0760     0.2960     0.0750     2.3400 
   45.6250    31.5990    38.1250     0.0760     0.2960     0.0740     2.3400 
   45.7500    31.6350    40.3820     0.0750     0.2950     0.0710     2.3400 
   45.8750    31.5900    42.3720     0.0750     0.2930     0.0670     2.3400 
   46.0000    31.4500    42.7280     0.0750     0.2810     0.0690     2.3400 
   46.1250    31.2210    40.4660     0.0750     0.2680     0.0690     2.3400 
   46.2500    30.8840    38.3890     0.0740     0.2660     0.0690     2.3400 
   46.3750    30.5150    38.5400     0.0740     0.2690     0.0710     2.3400 
   46.5000    30.2020    39.4720     0.0740     0.2810     0.0720     2.3400 
   46.6250    29.9360    39.9800     0.0740     0.2870     0.0720     2.3400 
   46.7500    29.6700    39.1890     0.0740     0.2860     0.0710     2.3400 
   46.8750    29.3880    39.1940     0.0730     0.2780     0.0710     2.3400 
   47.0000    29.1130    39.2980     0.0730     0.2670     0.0730     2.3400 
   47.1250    28.8650    39.1470     0.0730     0.2650     0.0750     2.3400 
   47.2500    28.6710    38.8320     0.0730     0.2660     0.0740     2.3400 
   47.3750    28.5490    38.0520     0.0730     0.2670     0.0710     2.3400 
   47.5000    28.5270    37.4000     0.0730     0.2580     0.0720     2.3400 
   47.6250    28.5680    37.7710     0.0730     0.2430     0.0740     2.3400 
   47.7500    28.6410    38.9950     0.0730     0.2330     0.0720     2.3400 
   47.8750    28.7260    40.6540     0.0780     0.2290     0.0710     2.3400 
   48.0000    28.7980    40.7890     0.0860     0.2260     0.0710     2.3400 
   48.1250    28.8440    40.6120     0.0870     0.2340     0.0710     2.3400 
   48.2500    28.9080    39.3050     0.0870     0.2450     0.0720     2.3400 
   48.3750    29.0550    38.9770     0.0790     0.2520     0.0730     2.3400 
   48.5000    29.2920    38.5450     0.0750     0.2510     0.0730     2.3400 
   48.6250    29.5660    38.4010     0.0670     0.2460     0.0720     2.3400 
   48.7500    29.7930    37.8630     0.0640     0.2260     0.0660     2.3400 
   48.8750    29.9070    38.4810     0.0640     0.2030     0.0590     2.3400 
   49.0000    29.8860    40.7300     0.0650     0.1750     0.0600     2.3420 
   49.1250    29.8060    42.1180     0.0710     0.1510     0.0690     2.3510 
   49.2500    29.7260    41.5610     0.0600     0.1500     0.0730     2.3640 
   49.3750    29.6340    40.4190     0.0540     0.1540     0.0730     2.3820 
   49.5000    29.5200    40.6500     0.0540     0.1560     0.0730     2.4070 
   49.6250    29.4170    41.3880     0.0620     0.1580     0.0730     2.4300 
   49.7500    29.3770    41.4020     0.0730     0.1590     0.0740     2.4470 
   49.8750    29.3990    42.1530     0.0760     0.1610     0.0740     2.4490 
   50.0000    29.4420    43.5780     0.0770     0.1620     0.0740     2.4400 
   50.1250    29.4490    45.6000     0.0780     0.1620     0.0700     2.4070 
   50.2500    29.4060    46.6560     0.0790     0.1620     0.0620     2.3650 
   50.3750    29.3540    47.7670     0.0800     0.1610     0.0600     2.3230 
   50.5000    29.3900    49.3550     0.0800     0.1610     0.0670     2.3060 
   50.6250    29.5960    50.0410     0.0810     0.1600     0.0720     2.3040 
   50.7500    29.9890    49.4970     0.0810     0.1590     0.0720     2.3090 
   50.8750    30.4240    47.1090     0.0810     0.1570     0.0670     2.3150 
   51.0000    30.5670    44.9740     0.0820     0.1550     0.0650     2.3350 
   51.1250    30.0600    43.8290     0.0820     0.1530     0.0680     2.3690 
   51.2500    28.7060    42.4000     0.0820     0.1500     0.0710     2.4180 
   51.3750    26.9640    41.0290     0.0820     0.1480     0.0720     2.4510 
   51.5000    25.4670    38.9710     0.0850     0.1460     0.0730     2.4610 
   51.6250    24.4920    38.8150     0.0960     0.1440     0.0740     2.4340 
   51.7500    24.0500    39.6160     0.1080     0.1420     0.0750     2.3930 
   51.8750    24.0080    40.5260     0.1200     0.1400     0.0740     2.3520 
   52.0000    24.2650    39.9070     0.1250     0.1380     0.0710     2.3540 
   52.1250    24.6400    39.5030     0.1250     0.1360     0.0710     2.3950 
   52.2500    25.1300    38.8580     0.1250     0.1330     0.0720     2.4500 
   52.3750    25.9240    39.2870     0.1250     0.1300     0.0730     2.4850 
