~V
VERS. 2.00: Ver 2.00
~W
STRT.M 40.0000:
STOP.M 205.0000:
STEP.M 0.1250:
NULL. -999.2500:
UWI. F10810:
~C
DEPT.M :
SP.MV :
GR.API :
RI. :
RML.OHMM :
RXO.OHMM :
DEN.GM/CC :
~A
# ...
  130.1250   -15.6140    49.4080    16.1890    20.7650    17.0780     2.4710 
  130.2500   -15.7950    49.6030    15.8270    20.3530    16.2810     2.4750 
  130.3750   -15.9820    49.7480    15.6490    20.1640    15.0870     2.4680 
  130.5000   -16.1560    50.7410    15.6230    20.2010    15.6700     2.4640 
  130.6250   -16.2960    51.8620    15.7020    20.4010    18.4890     2.4600 
  130.7500   -16.3950    52.6360    15.8220    20.6000    20.0590     2.4600 
  130.8750   -16.4430    53.1610    15.7620    20.5180    17.9560     2.4600 
  131.0000   -16.4490    53.9650    15.4220    20.0690    15.4310     2.4580 
  131.1250   -16.4240    54.3900    15.0020    19.5320    14.8610     2.4590 
  131.2500   -16.3850    54.7170    14.8240    19.3400    15.0530     2.4570 
  131.3750   -16.3490    54.5180    15.0800    19.7770    15.0100     2.4600 
  131.5000   -16.3260    53.3110    15.7080    20.7080    15.5940     2.4620 
  131.6250   -16.3250    51.7730    16.3950    21.7100    18.0990     2.4680 
  131.7500   -16.3460    50.5450    16.8390    22.3310    20.0110     2.4700 
  131.8750   -16.3870    50.7670    16.8260    22.3010    18.4680     2.4680 
  132.0000   -16.4430    50.4450    16.4720    21.7400    15.9950     2.4600 
  132.1250   -16.5090    49.3800    15.8650    20.9030    15.3760     2.4520 
  132.2500   -16.5800    47.8450    15.2970    20.1700    16.1190     2.4450 
  132.3750   -16.6540    46.5980    14.9600    19.7520    16.7060     2.4410 
  132.5000   -16.7250    45.7380    14.8090    19.5930    16.4190     2.4360 
  132.6250   -16.7940    46.1850    14.8200    19.6100    15.7840     2.4280 
  132.7500   -16.8600    48.3070    14.8980    19.7080    15.6640     2.4190 
  132.8750   -16.9250    52.7460    14.9640    19.7810    16.9050     2.4170 
  133.0000   -16.9900    56.3690    14.9280    20.0980    18.2180     2.4240 
  133.1250   -17.0580    57.6380    14.6950    19.2980    17.1680     2.4420 
  133.2500   -17.1300    57.1320    14.2130    18.5740    15.0200     2.4570 
  133.3750   -17.2050    57.9850    13.6550    17.7410    13.8140     2.4610 
  133.5000   -17.2820    60.5470    13.1820    17.0700    13.3050     2.4530 
  133.6250   -17.3630    62.3640    12.9710    16.7920    12.7940     2.4440 
  133.7500   -17.4460    61.5010    13.0690    16.9070    12.4330     2.4440 
  133.8750   -17.5360    59.8470    13.3170    17.2190    12.8530     2.4440 
  134.0000   -17.6340    59.3300    13.5110    17.4290    13.4430     2.4420 
  134.1250   -17.7400    60.4450    13.3980    17.2580    13.3050     2.4420 
  134.2500   -17.8490    60.6380    12.9730    16.6650    13.2580     2.4470 
  134.3750   -17.9570    59.5490    12.3140    15.7630    13.6410     2.4500 
  134.5000   -18.0580    57.7900    11.6220    14.8190    12.8870     2.4490 
  134.6250   -18.1510    57.5720    11.1020    14.0980    11.2780     2.4470 
  134.7500   -18.2400    56.6430    10.8350    13.7280    10.7000     2.4460 
  134.8750   -18.3340    56.9880    10.8500    13.7580    11.0650     2.4420 
  135.0000   -18.4390    56.8190    11.1320    14.1090    11.5860     2.4290 
  135.1250   -18.5590    58.1220    11.6400    14.7060    12.2800     2.4140 
  135.2500   -18.6860    58.7120    12.2540    15.4030    12.8180     2.4000 
  135.3750   -18.8120    60.3640    12.8500    16.0680    13.2960     2.3990 
  135.5000   -18.9240    61.6050    13.3820    16.6240    14.2050     2.4090 
  135.6250   -19.0150    62.6820    13.7380    16.9420    14.8580     2.4180 
  135.7500   -19.0870    62.8410    13.8580    16.9580    14.6050     2.4160 
  135.8750   -19.1520    61.4900    13.7970    16.7570    14.0640     2.4080 
  136.0000   -19.2280    58.7140    13.6890    16.5080    13.6910     2.4080 
  136.1250   -19.3350    55.9290    13.6190    16.3490    13.3940     2.4160 
  136.2500   -19.4890    54.8050    13.6640    16.3620    13.5790     2.4200 
  136.3750   -19.7040    55.0850    13.8300    16.5250    14.0900     2.4190 
  136.5000   -19.9800    55.5730    14.0500    16.7570    14.2340     2.4140 
  136.6250   -20.3230    56.5320    14.3290    17.0720    14.2300     2.4010 
  136.7500   -20.7280    58.3290    14.7430    17.5360    14.2240     2.3750 
  136.8750   -21.1990    60.4810    15.3070    18.1950    14.3740     2.3490 
  137.0000   -21.7360    61.3030    16.0110    19.0190    15.0510     2.3300 
  137.1250   -22.3480    61.1840    16.8070    19.9050    16.2790     2.3220 
  137.2500   -23.0370    61.5250    17.5200    20.6850    17.7860     2.3220 
  137.3750   -23.8110    63.2040    18.1740    21.3790    18.7200     2.3310 
  137.5000   -24.6610    64.5860    18.9360    22.2760    18.7840     2.3320 
  137.6250   -25.5790    65.0770    20.3370    23.9880    19.8170     2.3060 
  137.7500   -26.5380    63.7210    22.9010    27.1590    22.7670     2.2590 
  137.8750   -27.5110    63.5250    27.2070    32.6550    31.7010     2.2130 
  138.0000   -28.4680    63.3320    33.6210    40.5770    51.6800     2.1900 
  138.1250   -29.3880    64.7110    41.8950    49.6470    76.4240     2.1830 
  138.2500   -30.2670    64.2970    48.2600    56.2940    94.7170     2.1860 
  138.3750   -31.1080    63.8490    50.6060    58.1480    97.3450     2.1890 
  138.5000   -31.9260    63.7300    49.4030    56.2090    79.4070     2.1900 
  138.6250   -32.7350    64.9360    46.7260    53.3240    51.6560     2.1880 
  138.7500   -33.5450    66.6130    46.3090    53.1440    38.8530     2.1860 
  138.8750   -34.3540    66.8210    50.4020    58.6250    58.7420     2.1790 
  139.0000   -35.1560    64.6070    61.0630    71.7180    97.1440     2.1620 
  139.1250   -35.9320    60.5990    79.4630    92.8040   121.0320     2.1380 
  139.2500   -36.6690    57.1010   100.8420   116.1530   128.2520     2.1180 
  139.3750   -37.3470    56.0070   118.3760   134.6660   129.5130     2.1100 
  139.5000   -37.9620    55.7450   128.2560   144.6650   140.8710     2.1080 
  139.6250   -38.5090    54.3640   130.8800   147.1830   158.1300     2.1070 
  139.7500   -39.0000    52.4120   131.4010   147.1930   137.5410     2.1030 
  139.8750   -39.4420    51.4810   131.2500   146.9730   103.8610     2.0980 
  140.0000   -39.8500    52.3180   131.8120   148.0020    97.4260     2.0940 
  140.1250   -40.2310    53.2340   134.4380   151.7740   103.3760     2.1010 
  140.2500   -40.5890    53.4540   139.8140   159.2920   117.3480     2.1150 
  140.3750   -40.9170    53.1950   149.8460   171.6140   140.2840     2.1290 
  140.5000   -41.2130    53.2400   162.6390   187.2310   160.4290     2.1340 
  140.6250   -41.4670    52.6570   177.7880   205.5310   173.2030     2.1310 
  140.7500   -41.6790    52.3390   195.3010   225.7900   182.9110     2.1170 
  140.8750   -41.8410    51.4910   213.0160   245.8750   188.5570     2.0930 
  141.0000   -41.9540    50.9360   229.0380   263.5790   217.3910     2.0690 
  141.1250   -42.0100    49.9790   241.7520   277.1120   267.7530     2.0580 
  141.2500   -42.0080    49.7130   250.4150   286.3250   275.0640     2.0600 
  141.3750   -41.9380    49.2510   256.3550   291.2660   247.3070     2.0700 
  141.5000   -41.8050    48.8690   256.8950   289.5940   231.5680     2.0760 
  141.6250   -41.6070    49.2770   247.4010   277.2600   239.1800     2.0770 
  141.7500   -41.3600    50.3420   228.2800   255.7600   254.2380     2.0760 
  141.8750   -41.0710    50.6880   204.5250   230.5430   229.8410     2.0800 
  142.0000   -40.7550    49.6470   185.6310   210.3650   176.8110     2.0900 
  142.1250   -40.4160    48.4640   176.8130   202.0460   145.1220     2.1040 
  142.2500   -40.0570    48.2940   181.2910   207.7470   153.4350     2.1160 
  142.3750   -39.6740    48.3370   195.9160   225.8260   195.7930     2.1190 
  142.5000   -39.2710    49.2880   214.8720   247.5320   249.9010     2.1130 
  142.6250   -38.8510    50.4660   227.2380   261.3600   294.3900     2.1070 
  142.7500   -38.4250    52.0690   227.2440   261.6410   286.6330     2.1150 
  142.8750   -38.0080    52.2520   217.0400   249.7630   238.6320     2.1340 
