~V
VERS. 2.00: Ver 2.00
~W
STRT.M 63.0000:
STOP.M 247.0000:
STEP.M 0.1250:
NULL. -999.2500:
UWI. F10865:
~C
DEPT.M :
TVD. :
DX. :
DY. :
SP.MV :
GR.API :
RI. :
RML.OHMM :
RXO.OHMM :
DEN.GM/CC :
~A
# ...
  236.3750   236.3600    -1.8880    -0.6630  -114.3150    33.5350     2.3450     2.5340     2.6490     2.1730 
  236.5000   236.4850    -1.8880    -0.6630  -114.3150    31.9440     2.3460     2.5340     2.6910     2.1760 
  236.6250   236.6100    -1.8880    -0.6640  -114.3150    31.2030     2.3440     2.5350     2.7230     2.1890 
  236.7500   236.7350    -1.8880    -0.6640  -114.3150    31.5700     2.3410     2.5370     2.6510     2.2110 
  236.8750   236.8600    -1.8890    -0.6640  -114.3150    32.4450     2.3350     2.5390     2.5850     2.2320 
  237.0000   236.9850    -1.8890    -0.6640  -114.3150    33.1890     2.3260     2.5400     2.6840     2.2450 
  237.1250   237.1100    -1.8890    -0.6640  -114.3150    33.4490     2.3190     2.5410     2.8330     2.2470 
  237.2500   237.2350    -1.8890    -0.6640  -114.3150    32.7820     2.3150     2.5410     2.8210     2.2440 
  237.3750   237.3600    -1.8890    -0.6650  -114.3150    32.6370     2.3140     2.5420     2.7310     2.2450 
  237.5000   237.4850    -1.8890    -0.6650  -114.3150    33.5990     2.3140     2.5450     2.7140     2.2550 
  237.6250   237.6100    -1.8890    -0.6650  -114.3150    32.9880     2.3150     2.5460     2.6970     2.2700 
  237.7500   237.7350    -1.8900    -0.6650  -114.3150    31.0290     2.3150     2.5470     2.5650     2.2790 
  237.8750   237.8600    -1.8900    -0.6650  -114.3150    30.4100     2.3150     2.5480     2.4020     2.2750 
  238.0000   237.9850    -1.8900    -0.6650  -114.3150    31.7160     2.3150     2.5470     2.3750     2.2640 
  238.1250   238.1100    -1.8900    -0.6660  -114.3150    32.4340     2.3150     2.5460     2.4510     2.2560 
  238.2500   238.2350    -1.8900    -0.6660  -114.3150    31.9160     2.3150     2.5450     2.4940     2.2580 
  238.3750   238.3600    -1.8900    -0.6660  -114.3150    31.6530     2.3140     2.5440     2.4940     2.2660 
  238.5000   238.4850    -1.8900    -0.6660  -114.3150    31.7180     2.3140     2.5430     2.4860     2.2740 
  238.6250   238.6100    -1.8900    -0.6660  -114.3150    31.7070     2.3140     2.5430     2.4480     2.2770 
  238.7500   238.7350    -1.8910    -0.6660  -114.3150    31.7070     2.3130     2.5420     2.3840     2.2730 
  238.8750   238.8600    -1.8910    -0.6660  -114.3150    31.7070     2.3130     2.5420     2.3330     2.2650 
  239.0000   238.9850    -1.8910    -0.6670  -114.3150    31.7070     2.3130     2.5420     2.2960     2.2560 
  239.1250   239.1100    -1.8910    -0.6670  -114.3150    31.7070     2.3130     2.5420     2.2160     2.2470 
  239.2500   239.2350    -1.8910    -0.6670  -114.3150    31.7070     2.3130     2.5430     2.0910     2.2370 
  239.3750   239.3600    -1.8910    -0.6670  -114.3150    31.7070     2.3130     2.5440     2.0530     2.2240 
  239.5000   239.4850    -1.8910    -0.6670  -114.3150    31.7070     2.3130     2.5460     2.1920     2.2110 
  239.6250   239.6100    -1.8920    -0.6670  -114.3150    31.7070     2.3130     2.5500     2.3920     2.2050 
  239.7500   239.7350    -1.8920    -0.6680  -114.3150    31.7070     2.3130     2.5510     2.4830     2.2080 
  239.8750   239.8600    -1.8920    -0.6680  -114.3150    31.7070     2.3130     2.5490     2.4690     2.2150 
  240.0000   239.9850    -1.8920    -0.6680  -114.3150    31.7070     2.3130     2.5480     2.4270     2.2220 
  240.1250   240.1100    -1.8920    -0.6680  -114.3150    31.7070     2.3130     2.5450     2.3630     2.2240 
  240.2500   240.2350    -1.8920    -0.6680  -114.3150    31.7070     2.3130     2.5450     2.3080     2.2230 
  240.3750   240.3600    -1.8920    -0.6680  -114.3150    31.7070     2.3140     2.5460     2.3000     2.2170 
  240.5000   240.4850    -1.8920    -0.6690  -114.3150    31.7070     2.3160     2.5460     2.3290     2.2050 
  240.6250   240.6100    -1.8930    -0.6690  -114.3150    31.7070     2.3170     2.5470     2.3580     2.1840 
  240.7500   240.7350    -1.8930    -0.6690  -114.3150    31.7070     2.3180     2.5460     2.3500     2.1550 
  240.8750   240.8600    -1.8930    -0.6690  -114.3150    31.7070     2.3180     2.5460     2.3270     2.1210 
  241.0000   240.9850    -1.8930    -0.6690  -114.3150    31.7070     2.3180     2.5460     2.3440     2.0870 
  241.1250   241.1100    -1.8930    -0.6690  -114.3150    31.7070     2.3180     2.5460     2.4030     2.0610 
  241.2500   241.2350    -1.8930    -0.6690  -114.3150    31.7070     2.3180     2.5460     2.4450     2.0450 
  241.3750   241.3600    -1.8930    -0.6700  -114.3150    31.7070     2.3180     2.5460     2.4490     2.0410 
  241.5000   241.4850    -1.8930    -0.6700  -114.3150    31.7070     2.3180     2.5460     2.4510     2.0420 
  241.6250   241.6100    -1.8940    -0.6700  -114.3150    31.7070     2.3180     2.5460     2.4630     2.0460 
  241.7500   241.7350    -1.8940    -0.6700  -114.3150    31.7070     2.3180     2.5460     2.4700     2.0490 
  241.8750   241.8600    -1.8940    -0.6700  -114.3150    31.7070     2.3180     2.5460     2.4710     2.0500 
  242.0000   241.9850    -1.8940    -0.6700  -114.3150    31.7070     2.3180     2.5460     2.4710     2.0490 
  242.1250   242.1100    -1.8940    -0.6710  -114.3150    31.7070     2.3180     2.5460     2.4700     2.0450 
  242.2500   242.2350    -1.8940    -0.6710  -114.3150    31.7070     2.3180     2.5460     2.4700     2.0430 
  242.3750   242.3600    -1.8940    -0.6710  -114.3150    31.7070     2.3180     2.5460     2.4700     2.0440 
  242.5000   242.4850    -1.8950    -0.6710  -114.3150    31.7070     2.3180     2.5460     2.4690     2.0470 
  242.6250   242.6100    -1.8950    -0.6710  -114.3150    31.7070     2.3180     2.5460     2.4690     2.0470 
  242.7500   242.7350    -1.8950    -0.6710  -114.3150    31.7070     2.3180     2.5460     2.4690     2.0420 
  242.8750   242.8600    -1.8950    -0.6720  -114.3150    31.7070     2.3180     2.5460     2.4680     2.0350 
  243.0000   242.9850    -1.8950    -0.6720  -114.3150    31.7070     2.3180     2.5460     2.4680     2.0300 
  243.1250   243.1100    -1.8950    -0.6720  -114.3150    31.7070     2.3180     2.5460     2.4680     2.0310 
  243.2500   243.2350    -1.8950    -0.6720  -114.3150    31.7070     2.3180     2.5460     2.4680     2.0370 
  243.3750   243.3600    -1.8950    -0.6720  -114.3150    31.7070     2.3180     2.5460     2.4670     2.0430 
  243.5000   243.4850    -1.8960    -0.6720  -114.3150    31.7070     2.3180     2.5460     2.4670     2.0490 
  243.6250   243.6100    -1.8960    -0.6730  -114.3150    31.7070     2.3180     2.5460     2.4670     2.0530 
  243.7500   243.7350    -1.8960    -0.6730  -114.3150    31.7070     2.3180     2.5460     2.4660     2.0560 
  243.8750   243.8600    -1.8960    -0.6730  -114.3150    31.7070     2.3180     2.5460     2.4660     2.0570 
  244.0000   243.9850    -1.8960    -0.6730  -114.3150    31.7070     2.3180     2.5460     2.4660     2.0540 
  244.1250   244.1100    -1.8960    -0.6730  -114.3150    31.7070     2.3180     2.5460     2.4650     2.0500 
  244.2500   244.2350    -1.8960    -0.6730  -114.3150    31.7070     2.3180     2.5460     2.4650     2.0460 
  244.3750   244.3600    -1.8970    -0.6730  -114.3150    31.7070     2.3180     2.5460     2.4650     2.0440 
  244.5000   244.4850    -1.8970    -0.6740  -114.3150    31.7070     2.3180     2.5460     2.4650     2.0450 
  244.6250   244.6100    -1.8970    -0.6740  -114.3150    31.7070     2.3180     2.5460     2.4640     2.0470 
  244.7500   244.7350    -1.8970    -0.6740  -114.3150    31.7070     2.3180     2.5460     2.4640     2.0500 
  244.8750   244.8600    -1.8970    -0.6740  -114.3150    31.7070     2.3180     2.5460     2.4640     2.0510 
  245.0000   244.9850    -1.8970    -0.6740  -114.3150    31.7070     2.3180     2.5460     2.4630     2.0490 
  245.1250   245.1100    -1.8970    -0.6740  -114.3150    31.7070     2.3180     2.5460     2.4630     2.0460 
  245.2500   245.2350    -1.8970    -0.6750  -114.3150    31.7070     2.3180     2.5460     2.4620     2.0440 
  245.3750   245.3600    -1.8980    -0.6750  -114.3150    31.7070     2.3180     2.5460     2.4620     2.0450 
