~V
VERS. 2.00: Ver 2.00
~W
STRT.M 1.0000:
STOP.M 205.0000:
STEP.M 0.1250:
NULL. -999.2500:
UWI. F10806:
~C
DEPT.M :
SP.MV :
GR.API :
RI. :
RML.OHMM :
RXO.OHMM :
DEN.GM/CC :
~A
# ...
  129.7500   -12.1830    77.0360     8.5080     9.3090    10.2950     2.3830 
  129.8750   -12.2630    78.8500     8.8330     9.7100    11.9240     2.3720 
  130.0000   -12.3040    79.1850     9.1840    10.1460    11.6460     2.3670 
  130.1250   -12.3140    77.2860     9.5610    10.6020    10.7800     2.3710 
  130.2500   -12.3000    74.6090     9.9440    11.0400    11.5950     2.3800 
  130.3750   -12.2730    72.2990    10.2720    11.3880    12.9040     2.3830 
  130.5000   -12.2470    72.3080    10.4990    11.6460    13.2580     2.3780 
  130.6250   -12.2400    72.7090    10.7450    11.9230    12.7130     2.3700 
  130.7500   -12.2660    73.9920    11.1420    12.3480    11.8930     2.3660 
  130.8750   -12.3110    73.6980    11.6280    12.8910    12.4610     2.3680 
  131.0000   -12.3390    72.9930    12.0960    13.3600    15.7150     2.3780 
  131.1250   -12.3260    71.4940    12.5150    13.6530    17.9580     2.3880 
  131.2500   -12.2490    70.8640    12.6700    13.8000    15.7560     2.3950 
  131.3750   -12.1160    70.3080    12.3490    13.4580    13.2790     2.3970 
  131.5000   -11.9440    69.6140    11.6580    12.6510    13.4350     2.3990 
  131.6250   -11.8130    69.2520    10.7340    11.6520    13.4010     2.4060 
  131.7500   -11.7980    70.6820     9.9170    10.8160    12.1680     2.4170 
  131.8750   -11.8850    72.1920     9.4850    10.4240    11.1570     2.4300 
  132.0000   -12.0300    72.5730     9.4710    10.6020    10.6420     2.4310 
  132.1250   -12.1690    71.9970     9.7930    11.0620    10.6190     2.4150 
  132.2500   -12.2200    73.2420    10.3170    11.6620    12.7710     2.3840 
  132.3750   -12.1700    75.3070    10.8620    12.2870    15.5140     2.3670 
  132.5000   -12.0870    77.1000    11.3910    12.8610    15.2070     2.3730 
  132.6250   -12.0260    77.6210    11.8970    13.4280    13.6360     2.3890 
  132.7500   -11.9890    77.5760    12.4080    14.0030    14.0580     2.3920 
  132.8750   -11.9700    76.2580    12.6950    14.3370    17.4800     2.3880 
  133.0000   -11.9990    74.9240    12.3920    14.0170    20.5820     2.3770 
  133.1250   -12.0650    73.6470    11.4280    12.9170    18.6490     2.3560 
  133.2500   -12.1180    73.8890     9.8440    11.1510    13.0590     2.3170 
  133.3750   -12.1310    75.5400     8.2090     9.2760     8.5920     2.2700 
  133.5000   -12.1310    77.3020     6.9260     7.8450     6.6940     2.2290 
  133.6250   -12.1510    77.3090     6.2010     7.0650     6.4620     2.2040 
  133.7500   -12.2060    75.2860     6.0080     6.8820     7.4370     2.1890 
  133.8750   -12.2870    72.7740     6.0830     7.0040     8.1090     2.1850 
  134.0000   -12.3460    71.3480     6.2840     7.2340     7.7760     2.1880 
  134.1250   -12.3490    69.7600     6.4970     7.4600     7.5560     2.1940 
  134.2500   -12.1820    69.1440     6.7280     7.6960     7.8430     2.1960 
  134.3750   -11.8010    70.3650     6.9750     7.9690     8.2870     2.2010 
  134.5000   -11.3320    72.1160     7.3000     8.3350     8.7620     2.2140 
  134.6250   -10.8950    72.0740     7.6690     8.7440     9.2390     2.2310 
  134.7500   -10.7220    70.1130     7.9660     9.0840     9.8540     2.2410 
  134.8750   -10.7120    68.3170     8.1450     9.2970    10.5030     2.2430 
  135.0000   -10.7120    68.0680     8.1690     9.3400    10.4660     2.2410 
  135.1250   -10.7120    69.3340     8.0120     9.1770     9.9390     2.2380 
  135.2500   -10.7120    71.0910     7.6360     8.7560     9.9430     2.2340 
  135.3750   -10.8130    72.1140     7.0980     8.1530     9.8020     2.2290 
  135.5000   -11.2420    72.7850     6.5190     7.5020     8.6020     2.2230 
  135.6250   -11.6970    73.4470     6.0610     6.9890     7.3780     2.2210 
  135.7500   -11.8130    74.2970     5.8260     6.7390     7.0300     2.2220 
  135.8750   -11.7240    74.9020     5.7930     6.7180     7.3460     2.2230 
  136.0000   -11.5000    74.6500     5.8520     6.7590     7.7900     2.2180 
  136.1250   -11.2000    75.6020     5.7580     6.6300     7.8820     2.2110 
  136.2500   -10.9140    76.9010     5.4650     6.2290     7.3420     2.2110 
  136.3750   -10.6770    80.3420     4.9850     5.6340     6.2870     2.2210 
  136.5000   -10.4940    81.5580     4.4940     5.0650     5.3540     2.2330 
  136.6250   -10.3940    82.7700     4.2080     4.7420     5.0600     2.2390 
  136.7500   -10.4060    81.0770     4.1890     4.7580     5.1900     2.2340 
  136.8750   -10.4740    79.6460     4.3890     5.0310     5.6120     2.2240 
  137.0000   -10.5260    77.0890     4.6750     5.3790     6.2650     2.2240 
  137.1250   -10.5050    76.0280     4.8000     5.5150     6.4940     2.2330 
  137.2500   -10.3660    76.2710     4.5880     5.2570     6.0210     2.2480 
  137.3750   -10.1450    77.8730     4.1440     4.7160     5.0930     2.2590 
  137.5000    -9.8470    79.3170     3.6530     4.1410     4.1960     2.2590 
  137.6250    -9.4940    80.3810     3.3710     3.8230     3.7540     2.2430 
  137.7500    -9.1630    80.3870     3.4600     3.9860     4.3350     2.2240 
  137.8750    -8.9390    79.5580     4.0010     4.6710     6.3480     2.2110 
  138.0000    -8.8500    76.5690     4.9010     5.7630     8.4770     2.2030 
  138.1250    -8.8250    72.9180     5.8970     6.9020     9.5990     2.1910 
  138.2500    -8.7920    70.1230     6.6340     7.6830     9.5870     2.1790 
  138.3750    -8.7140    69.9100     6.9560     7.9490     8.4200     2.1710 
  138.5000    -8.6250    71.5580     6.8950     7.7940     7.6730     2.1660 
  138.6250    -8.5840    72.3570     6.7430     7.5720     8.2920     2.1600 
  138.7500    -8.6310    72.4230     6.7740     7.5820     8.8740     2.1540 
  138.8750    -8.7220    71.4830     7.0120     7.8670     8.7730     2.1510 
  139.0000    -8.8590    72.1250     7.4260     8.3460     9.0090     2.1480 
  139.1250    -9.0630    72.4260     7.7890     8.7840     9.7810     2.1470 
  139.2500    -9.3010    72.3680     7.9150     8.9680    10.2620     2.1490 
  139.3750    -9.4960    71.7530     7.7860     8.8460     9.7530     2.1600 
  139.5000    -9.6010    72.7090     7.3890     8.4030     8.1590     2.1720 
  139.6250    -9.6530    74.2400     6.8410     7.7830     6.8800     2.1830 
  139.7500    -9.6970    75.8390     6.3090     7.1720     6.6900     2.1850 
  139.8750    -9.7780    76.5540     5.9300     6.7610     6.7810     2.1870 
  140.0000    -9.8800    76.5370     5.8960     6.7590     6.9680     2.1920 
  140.1250    -9.9740    75.4680     6.2830     7.2560     7.3990     2.1930 
  140.2500   -10.0230    73.7870     7.1430     8.3500    10.6850     2.1860 
  140.3750    -9.9780    71.8010     8.4850    10.0200    17.2220     2.1730 
  140.5000    -9.8330    70.4360    10.3030    12.1200    20.9290     2.1620 
  140.6250    -9.6600    69.3910    12.0510    13.9590    20.4510     2.1580 
  140.7500    -9.5460    68.6400    12.9050    14.7300    19.8970     2.1640 
  140.8750    -9.5120    67.4450    12.8240    14.4460    19.6950     2.1710 
  141.0000    -9.5400    65.5190    12.2000    13.6580    17.2270     2.1810 
  141.1250    -9.5760    63.5610    11.8330    13.2380    14.4210     2.1820 
  141.2500    -9.5930    61.5120    12.2510    13.7500    17.2260     2.1840 
  141.3750    -9.6100    60.1770    13.2750    14.9960    22.7560     2.1920 
  141.5000    -9.6520    59.4990    14.4300    16.3020    24.1500     2.2060 
  141.6250    -9.6640    59.7140    14.8570    16.7070    22.9320     2.2060 
  141.7500    -9.5950    62.0010    13.8630    15.4730    19.6780     2.1890 
  141.8750    -9.4740    65.3400    11.6220    12.8860    14.1960     2.1750 
  142.0000    -9.3480    69.7190     8.8830     9.8610    10.8340     2.1810 
  142.1250    -9.2360    72.7600     6.7930     7.4980     9.0440     2.2010 
  142.2500    -9.1110    74.8410     5.5770     6.1510     7.2600     2.2250 
  142.3750    -9.0020    76.7970     5.0670     5.5810     7.3890     2.2360 
  142.5000    -8.9570    78.6880     5.0640     5.6120     7.7010     2.2310 
