~V
VERS. 2.00: Ver 2.00
~W
STRT.M 63.0000:
STOP.M 269.0000:
STEP.M 0.1250:
NULL. -999.2500:
UWI. F10891:
~C
DEPT.M :
TVD. :
DX. :
DY. :
SP.MV :
GR.API :
RI. :
RML.OHMM :
RXO.OHMM :
DEN.GM/CC :
~A
# ...
  145.1250   145.1200    -0.4820    -0.7220   -16.3930    73.0280    14.0130    15.4260    29.2720     2.5090 
  145.2500   145.2450    -0.4830    -0.7240   -16.8190    64.3220    18.6160    20.4170    39.1910     2.5660 
  145.3750   145.3700    -0.4840    -0.7250   -17.6640    59.7900    21.6780    23.6160    41.8370     2.5670 
  145.5000   145.4950    -0.4840    -0.7260   -18.8450    57.7240    21.9160    23.6450    34.9980     2.4960 
  145.6250   145.6200    -0.4850    -0.7280   -20.2460    57.6530    19.8550    21.1880    23.0090     2.3710 
  145.7500   145.7450    -0.4860    -0.7290   -21.7870    57.8040    16.7950    17.7910    14.5180     2.2320 
  145.8750   145.8700    -0.4870    -0.7300   -23.3530    58.8810    14.1910    15.0780    11.8110     2.1250 
  146.0000   145.9950    -0.4880    -0.7310   -24.8150    60.2420    12.6890    13.6970    11.3530     2.0750 
  146.1250   146.1200    -0.4890    -0.7330   -26.0720    61.4530    12.0370    13.2770    11.3410     2.0630 
  146.2500   146.2450    -0.4890    -0.7340   -27.0400    61.6460    11.9110    13.4030    11.8540     2.0690 
  146.3750   146.3700    -0.4900    -0.7350   -27.7390    60.1750    12.0130    13.7300    12.8890     2.0780 
  146.5000   146.4950    -0.4910    -0.7370   -28.2030    59.0110    12.2340    14.1230    14.2430     2.0860 
  146.6250   146.6200    -0.4920    -0.7380   -28.5110    58.2990    12.5290    14.5390    15.4030     2.0880 
  146.7500   146.7450    -0.4930    -0.7390   -28.7040    59.4160    12.8810    14.9670    16.4150     2.0840 
  146.8750   146.8700    -0.4940    -0.7410   -28.8220    60.1500    13.2320    15.3650    17.3080     2.0780 
  147.0000   146.9950    -0.4940    -0.7420   -28.8720    60.1740    13.4970    15.6480    16.9720     2.0760 
  147.1250   147.1200    -0.4950    -0.7430   -28.8590    60.1770    13.6140    15.7520    15.4550     2.0780 
  147.2500   147.2450    -0.4960    -0.7450   -28.7670    61.4730    13.5450    15.6440    14.2770     2.0830 
  147.3750   147.3700    -0.4970    -0.7460   -28.5920    63.3100    13.3420    15.3960    13.9240     2.0880 
  147.5000   147.4950    -0.4980    -0.7470   -28.3360    63.8600    13.1030    15.1320    13.6780     2.0910 
  147.6250   147.6200    -0.4990    -0.7480   -28.0380    62.6820    12.9590    15.0010    13.4220     2.0910 
  147.7500   147.7450    -0.5000    -0.7500   -27.7430    62.0720    13.0250    15.1290    14.6030     2.0910 
  147.8750   147.8700    -0.5000    -0.7510   -27.4960    62.1990    13.3140    15.5250    18.4320     2.0900 
  148.0000   147.9950    -0.5010    -0.7520   -27.3250    61.7150    13.7880    16.1270    22.4840     2.0860 
  148.1250   148.1200    -0.5020    -0.7540   -27.2120    59.3990    14.2960    16.7420    22.3550     2.0820 
  148.2500   148.2450    -0.5030    -0.7550   -27.1160    57.4390    14.6240    17.0940    18.6760     2.0830 
  148.3750   148.3700    -0.5040    -0.7560   -26.9650    56.4370    14.5740    16.9580    15.9230     2.0900 
  148.5000   148.4950    -0.5050    -0.7580   -26.6740    57.1470    13.9920    16.1760    15.4000     2.1020 
  148.6250   148.6200    -0.5060    -0.7590   -26.1980    59.2750    12.9840    14.9120    15.5230     2.1170 
  148.7500   148.7450    -0.5060    -0.7600   -25.5060    62.5320    11.7520    13.4320    14.9890     2.1360 
  148.8750   148.8700    -0.5070    -0.7620   -24.6500    66.2300    10.5890    12.0810    13.6310     2.1530 
  149.0000   148.9950    -0.5080    -0.7630   -23.7110    70.2660     9.7540    11.1620    11.8900     2.1610 
  149.1250   149.1200    -0.5090    -0.7640   -22.8240    72.9830     9.3580    10.7850    10.7710     2.1590 
  149.2500   149.2450    -0.5100    -0.7660   -22.1610    74.1910     9.4720    11.0250    10.6480     2.1500 
  149.3750   149.3700    -0.5110    -0.7670   -21.8430    72.3350    10.0190    11.7740    11.0560     2.1390 
  149.5000   149.4950    -0.5110    -0.7680   -21.9810    69.8580    10.9120    12.9110    11.7460     2.1250 
  149.6250   149.6200    -0.5120    -0.7700   -22.5250    65.2370    11.9410    14.1590    12.7180     2.1130 
  149.7500   149.7450    -0.5130    -0.7710   -23.3840    60.9550    12.8540    15.1930    14.4780     2.1030 
  149.8750   149.8700    -0.5140    -0.7720   -24.3400    56.5330    13.4350    15.7710    16.9230     2.0990 
  150.0000   149.9950    -0.5150    -0.7740   -25.1630    55.9950    13.5720    15.8060    18.0020     2.1020 
  150.1250   150.1200    -0.5160    -0.7750   -25.7020    57.5440    13.4000    15.5140    17.2790     2.1100 
  150.2500   150.2450    -0.5160    -0.7760   -25.9060    61.2890    13.1250    15.1750    16.1340     2.1150 
  150.3750   150.3700    -0.5170    -0.7780   -25.9180    64.3670    12.9520    15.0170    15.0910     2.1130 
  150.5000   150.4950    -0.5180    -0.7790   -25.9310    67.8220    12.9860    15.1450    14.5950     2.1060 
  150.6250   150.6200    -0.5190    -0.7800   -26.1120    69.3480    13.2070    15.5060    15.0270     2.0990 
  150.7500   150.7450    -0.5200    -0.7820   -26.5500    68.1580    13.5680    16.0150    15.9760     2.0930 
  150.8750   150.8700    -0.5210    -0.7830   -27.1940    63.0370    13.9810    16.5600    16.4280     2.0850 
  151.0000   150.9950    -0.5210    -0.7840   -27.9770    57.8370    14.3820    17.0640    16.1980     2.0770 
  151.1250   151.1200    -0.5220    -0.7860   -28.7980    55.1720    14.7440    17.5100    15.8640     2.0710 
  151.2500   151.2450    -0.5230    -0.7870   -29.5890    55.6550    15.0710    17.9200    15.8850     2.0730 
  151.3750   151.3700    -0.5240    -0.7880   -30.3050    58.0990    15.3840    18.3290    16.4130     2.0820 
  151.5000   151.4950    -0.5250    -0.7900   -30.9150    59.7870    15.7100    18.7730    17.2120     2.0890 
  151.6250   151.6200    -0.5260    -0.7910   -31.4280    61.0910    16.0670    19.2640    17.9190     2.0900 
  151.7500   151.7450    -0.5260    -0.7930   -31.8530    60.6540    16.4550    19.7810    18.1600     2.0890 
  151.8750   151.8700    -0.5270    -0.7940   -32.2180    60.8290    16.8410    20.2750    17.9300     2.0920 
  152.0000   151.9950    -0.5280    -0.7950   -32.5270    61.3720    17.1810    20.6850    17.6410     2.0990 
  152.1250   152.1200    -0.5290    -0.7970   -32.7860    61.2070    17.4530    20.9910    17.4600     2.1040 
  152.2500   152.2450    -0.5300    -0.7980   -32.9900    60.0450    17.6620    21.2130    17.9200     2.1050 
  152.3750   152.3700    -0.5310    -0.7990   -33.1450    57.3270    17.8540    21.4190    19.3050     2.1020 
  152.5000   152.4950    -0.5310    -0.8010   -33.2440    55.9840    18.0650    21.6600    20.9190     2.0980 
  152.6250   152.6200    -0.5320    -0.8020   -33.2810    55.3660    18.2900    21.9280    21.7190     2.0960 
  152.7500   152.7450    -0.5330    -0.8040   -33.2430    56.8530    18.4820    22.1530    21.3490     2.0940 
  152.8750   152.8700    -0.5340    -0.8050   -33.1360    57.9820    18.5750    22.2350    20.5920     2.0930 
  153.0000   152.9950    -0.5350    -0.8060   -32.9600    58.0850    18.4980    22.0860    19.8900     2.0940 
  153.1250   153.1200    -0.5360    -0.8080   -32.7250    58.2310    18.2580    21.7320    19.2770     2.0980 
  153.2500   153.2450    -0.5360    -0.8090   -32.4210    58.3770    17.9040    21.2590    19.3480     2.1020 
  153.3750   153.3700    -0.5370    -0.8110   -32.0460    59.9430    17.5550    20.8260    19.9120     2.1030 
  153.5000   153.4950    -0.5380    -0.8120   -31.5930    60.3090    17.3440    20.5920    19.7020     2.1020 
  153.6250   153.6200    -0.5390    -0.8130   -31.0810    61.2520    17.3320    20.6020    18.6890     2.1050 
  153.7500   153.7450    -0.5400    -0.8150   -30.5280    62.1450    17.5070    20.8120    17.8670     2.1210 
  153.8750   153.8700    -0.5410    -0.8160   -29.9460    63.3390    17.7680    21.0850    18.6070     2.1510 
  154.0000   153.9950    -0.5420    -0.8180   -29.3240    63.5290    18.0070    21.2750    21.0410     2.1880 
  154.1250   154.1200    -0.5420    -0.8190   -28.6530    64.3720    18.1200    21.2630    22.6420     2.2160 
