~V
VERS. 2.00: Ver 2.00
~W
STRT.M 63.0000:
STOP.M 269.0000:
STEP.M 0.1250:
NULL. -999.2500:
UWI. F10891:
~C
DEPT.M :
TVD. :
DX. :
DY. :
SP.MV :
GR.API :
RI. :
RML.OHMM :
RXO.OHMM :
DEN.GM/CC :
~A
   63.0000    63.0000     0.0000     0.0000    55.6710    36.4860     0.1680     0.1740     0.0080     2.4350 
   63.1250    63.1250     0.0000    -0.0010    56.4420    34.5460     0.1760     0.1720     0.0090     2.4390 
   63.2500    63.2500    -0.0010    -0.0020    56.7020    33.9300     0.1910     0.1750     0.0090     2.4360 
   63.3750    63.3750    -0.0010    -0.0030    56.7160    33.0790     0.2090     0.1820     0.0100     2.4170 
   63.5000    63.5000    -0.0020    -0.0040    56.7890    32.6880     0.2190     0.1870     0.0110     2.3890 
   63.6250    63.6250    -0.0020    -0.0050    57.1680    31.7170     0.2130     0.1770     0.0110     2.3690 
   63.7500    63.7500    -0.0030    -0.0060    57.9610    31.4580     0.1860     0.1460     0.0110     2.3720 
   63.8750    63.8750    -0.0030    -0.0070    58.9670    31.2300     0.1480     0.1030     0.0130     2.3890 
   64.0000    64.0000    -0.0030    -0.0080    59.7750    31.2200     0.1070     0.0620     0.0150     2.4090 
   64.1250    64.1250    -0.0040    -0.0090    59.8620    31.0440     0.0700     0.0360     0.0160     2.4240 
   64.2500    64.2500    -0.0040    -0.0100    58.5980    30.3420     0.0450     0.0290     0.0200     2.4320 
   64.3750    64.3750    -0.0050    -0.0110    55.7370    29.2260     0.0430     0.0380     0.0290     2.4290 
   64.5000    64.5000    -0.0050    -0.0120    51.0190    29.5480     0.0850     0.0660     0.0580     2.3940 
   64.6250    64.6250    -0.0060    -0.0130    44.7220    31.9480     0.1930     0.1260     0.1210     2.3080 
   64.7500    64.7500    -0.0060    -0.0140    37.1760    36.1120     0.4000     0.2590     0.3330     2.1650 
   64.8750    64.8750    -0.0060    -0.0150    29.1650    40.2420     0.7050     0.4880     0.9430     1.9880 
   65.0000    65.0000    -0.0070    -0.0170    21.5560    43.2960     1.1190     0.8270     2.0950     1.8160 
   65.1250    65.1250    -0.0070    -0.0180    15.0160    45.2710     1.6420     1.2540     3.2210     1.6950 
   65.2500    65.2500    -0.0080    -0.0190     9.9960    46.0130     2.2790     1.7410     3.6680     1.6680 
   65.3750    65.3750    -0.0080    -0.0200     6.2940    47.6730     2.9820     2.2590     3.8770     1.7310 
   65.5000    65.5000    -0.0090    -0.0210     3.6400    50.9940     3.6780     2.7800     4.4890     1.8480 
   65.6250    65.6250    -0.0090    -0.0220     1.5720    53.7520     4.2840     3.2570     5.1970     1.9610 
   65.7500    65.7500    -0.0100    -0.0230    -0.1540    55.0900     4.7290     3.6360     5.6170     2.0330 
   65.8750    65.8750    -0.0100    -0.0240    -1.7010    53.8670     5.0220     3.9040     5.8570     2.0650 
   66.0000    66.0000    -0.0100    -0.0250    -3.1060    53.6990     5.1830     4.0660     5.9740     2.0700 
   66.1250    66.1250    -0.0110    -0.0260    -4.3880    53.4500     5.2690     4.1740     5.9830     2.0660 
   66.2500    66.2500    -0.0110    -0.0270    -5.5300    54.9460     5.3210     4.2670     5.9390     2.0590 
   66.3750    66.3750    -0.0120    -0.0280    -6.5340    55.1430     5.3620     4.3550     5.8950     2.0540 
   66.5000    66.5000    -0.0120    -0.0290    -7.3880    54.7810     5.3980     4.4190     5.8480     2.0550 
   66.6250    66.6250    -0.0130    -0.0300    -8.1090    53.1300     5.4290     4.4630     5.7740     2.0600 
   66.7500    66.7500    -0.0130    -0.0310    -8.7070    53.3850     5.4570     4.5180     5.6900     2.0730 
   66.8750    66.8750    -0.0140    -0.0320    -9.2160    54.8610     5.4870     4.6220     5.6580     2.0900 
   67.0000    67.0000    -0.0140    -0.0330    -9.6580    58.1940     5.5220     4.7910     5.6910     2.1070 
   67.1250    67.1250    -0.0150    -0.0340   -10.0540    60.4950     5.5660     4.9810     5.7070     2.1180 
   67.2500    67.2500    -0.0150    -0.0350   -10.4100    63.3840     5.6140     5.1330     5.6330     2.1220 
   67.3750    67.3750    -0.0160    -0.0370   -10.7250    64.4700     5.6610     5.2170     5.5460     2.1200 
   67.5000    67.5000    -0.0160    -0.0380   -10.9900    65.0610     5.7040     5.2350     5.6260     2.1150 
   67.6250    67.6250    -0.0170    -0.0390   -11.2030    64.0110     5.7450     5.2330     5.8480     2.1100 
   67.7500    67.7500    -0.0170    -0.0400   -11.3560    63.2090     5.7920     5.2650     6.0250     2.1110 
   67.8750    67.8750    -0.0180    -0.0410   -11.4560    61.9050     5.8480     5.3680     6.0870     2.1230 
   68.0000    68.0000    -0.0180    -0.0420   -11.5040    59.5150     5.9210     5.5440     6.0610     2.1460 
   68.1250    68.1250    -0.0190    -0.0430   -11.5120    57.9010     6.0190     5.7620     5.9570     2.1660 
   68.2500    68.2500    -0.0190    -0.0440   -11.4920    58.3190     6.1760     6.0030     5.8280     2.1670 
   68.3750    68.3750    -0.0200    -0.0450   -11.4600    59.7140     6.4180     6.2800     5.7790     2.1530 
   68.5000    68.5000    -0.0200    -0.0460   -11.4300    60.1610     6.7580     6.6280     6.0060     2.1420 
   68.6250    68.6250    -0.0210    -0.0470   -11.4040    59.3950     7.1400     7.0450     7.6510     2.1540 
   68.7500    68.7500    -0.0220    -0.0480   -11.3820    59.1060     7.4620     7.4590    12.8340     2.1890 
   68.8750    68.8750    -0.0220    -0.0490   -11.3630    57.8710     7.6160     7.7380    18.9280     2.2230 
   69.0000    69.0000    -0.0230    -0.0500   -11.3520    55.6500     7.5240     7.7630    19.3370     2.2230 
   69.1250    69.1250    -0.0230    -0.0510   -11.3630    54.2570     7.2290     7.5600    14.1400     2.1900 
   69.2500    69.2500    -0.0240    -0.0520   -11.4050    54.1060     6.8250     7.2280     8.9880     2.1470 
   69.3750    69.3750    -0.0240    -0.0540   -11.4770    53.7410     6.4410     6.9180     6.6330     2.1200 
   69.5000    69.5000    -0.0250    -0.0550   -11.5700    52.9090     6.1670     6.7200     6.0450     2.1120 
   69.6250    69.6250    -0.0250    -0.0560   -11.6710    52.9640     6.0040     6.6320     5.8440     2.1130 
   69.7500    69.7500    -0.0260    -0.0570   -11.7800    54.3200     5.9160     6.6150     5.7350     2.1160 
   69.8750    69.8750    -0.0260    -0.0580   -11.9020    54.9900     5.8450     6.6170     5.7330     2.1180 
   70.0000    70.0000    -0.0270    -0.0590   -12.0500    55.6860     5.7670     6.6110     5.8200     2.1140 
   70.1250    70.1250    -0.0280    -0.0600   -12.2240    56.4220     5.6840     6.5950     5.9550     2.1060 
   70.2500    70.2500    -0.0280    -0.0610   -12.4120    58.3630     5.6070     6.5780     6.0700     2.0990 
   70.3750    70.3750    -0.0290    -0.0620   -12.5880    61.9020     5.5440     6.5690     6.0640     2.0950 
   70.5000    70.5000    -0.0290    -0.0630   -12.7200    64.9100     5.4950     6.5740     5.9290     2.0920 
   70.6250    70.6250    -0.0300    -0.0640   -12.7980    65.4710     5.4580     6.5920     5.8700     2.0880 
   70.7500    70.7500    -0.0300    -0.0650   -12.8190    61.6120     5.4320     6.6200     6.0460     2.0830 
   70.8750    70.8750    -0.0310    -0.0670   -12.8040    59.5230     5.4170     6.6550     6.2590     2.0800 
   71.0000    71.0000    -0.0310    -0.0680   -12.7770    59.1750     5.4170     6.6950     6.3330     2.0800 
   71.1250    71.1250    -0.0320    -0.0690   -12.7540    60.2140     5.4250     6.7370     6.4250     2.0810 
   71.2500    71.2500    -0.0330    -0.0700   -12.7370    58.7660     5.4280     6.7690     6.9140     2.0850 
   71.3750    71.3750    -0.0330    -0.0710   -12.7210    57.6590     5.4020     6.7690     7.7260     2.0920 
   71.5000    71.5000    -0.0340    -0.0720   -12.7030    56.5150     5.3160     6.6970     7.9440     2.1020 
   71.6250    71.6250    -0.0340    -0.0730   -12.6890    57.3440     5.1540     6.5250     7.2260     2.1100 
   71.7500    71.7500    -0.0350    -0.0740   -12.6890    57.9990     4.8990     6.2160     6.3600     2.1130 
   71.8750    71.8750    -0.0360    -0.0750   -12.7060    61.6880     4.5630     5.7820     5.8190     2.1140 
   72.0000    72.0000    -0.0360    -0.0760   -12.7440    66.5900     4.1710     5.2640     5.3020     2.1200 
