~V
VERS. 2.00: Ver 2.00
~W
STRT.M 40.0000:
STOP.M 205.0000:
STEP.M 0.1250:
NULL. -999.2500:
UWI. F10810:
~C
DEPT.M :
SP.MV :
GR.API :
RI. :
RML.OHMM :
RXO.OHMM :
DEN.GM/CC :
~A
# ...
   78.6250   -12.4610    98.9200     4.1850     4.7650     5.2360     2.1810 
   78.7500   -12.4660   101.0200     4.2210     4.8190     5.2090     2.1830 
   78.8750   -12.4570   102.1270     4.2620     4.8650     5.1560     2.1920 
   79.0000   -12.4630   102.6180     4.2860     4.8840     5.2160     2.2060 
   79.1250   -12.5080   102.2060     4.3080     4.9050     5.2340     2.2190 
   79.2500   -12.5960   101.8970     4.3570     4.9470     5.1920     2.2220 
   79.3750   -12.7260   100.6930     4.4270     5.0140     5.2580     2.2110 
   79.5000   -12.8830    98.9820     4.5180     5.1010     5.4930     2.1940 
   79.6250   -13.0570    97.9430     4.6100     5.1910     5.7390     2.1810 
   79.7500   -13.2390    96.3550     4.6850     5.2620     5.8600     2.1780 
   79.8750   -13.4270    95.5910     4.7390     5.3010     5.9600     2.1820 
   80.0000   -13.6150    94.6880     4.7590     5.3020     6.0540     2.1840 
   80.1250   -13.7960    94.8550     4.7570     5.2740     6.0600     2.1800 
   80.2500   -13.9590    95.3960     4.7340     5.2280     6.0420     2.1740 
   80.3750   -14.0940    96.6880     4.7000     5.1720     6.0420     2.1700 
   80.5000   -14.2010    99.8580     4.6610     5.1180     6.0120     2.1750 
   80.6250   -14.2860   102.6120     4.6290     5.0830     5.9700     2.1840 
   80.7500   -14.3680   103.5020     4.6130     5.0830     5.9580     2.1980 
   80.8750   -14.4740   100.4120     4.6310     5.1300     6.0080     2.2020 
   81.0000   -14.6260    96.7420     4.6690     5.2130     6.0720     2.2000 
   81.1250   -14.8520    93.6360     4.7300     5.3170     6.1270     2.1850 
   81.2500   -15.1660    90.8950     4.7980     5.4190     6.1640     2.1670 
   81.3750   -15.5830    88.8910     4.8540     5.5020     6.1100     2.1460 
   81.5000   -16.0940    87.9310     4.8890     5.5470     6.1520     2.1320 
   81.6250   -16.6960    87.6900     4.8850     5.5480     6.4680     2.1220 
   81.7500   -17.3660    86.3490     4.9160     5.5980     6.8130     2.1180 
   81.8750   -18.0980    82.9420     5.1750     5.9550     7.1050     2.1150 
   82.0000   -18.8860    80.1000     5.9500     6.8920     7.6050     2.1210 
   82.1250   -19.7420    77.5140     7.2730     8.4870    11.2140     2.1500 
   82.2500   -20.6720    75.6260     8.9260    10.4120    27.3470     2.2120 
   82.3750   -21.6820    72.4420    10.3640    11.9390    44.7770     2.2850 
   82.5000   -22.7450    70.3220    10.9140    12.4020    42.2300     2.3140 
   82.6250   -23.8190    68.6940    10.4500    11.6580    25.2120     2.2670 
   82.7500   -24.8440    67.2050     9.3460    10.2540    14.8430     2.1820 
   82.8750   -25.7610    66.9790     8.1960     8.9230    20.7490     2.1180 
   83.0000   -26.5430    66.9940     7.4420     8.1350    50.0920     2.0930 
   83.1250   -27.1660    68.0910     7.1580     7.8830    71.3590     2.0880 
   83.2500   -27.6510    68.3760     7.0480     7.8160    49.0710     2.0800 
   83.3750   -28.0020    68.6890     6.9550     7.7230    18.4750     2.0680 
   83.5000   -28.2460    68.5980     6.8260     7.5710     9.6580     2.0660 
   83.6250   -28.3850    66.7030     6.7000     7.4240     9.4660     2.0710 
   83.7500   -28.4310    65.2120     6.6530     7.3640     9.5030     2.0770 
   83.8750   -28.3830    64.8930     6.6990     7.3970     9.5890     2.0800 
   84.0000   -28.2510    67.2760     6.7800     7.4650     9.6140     2.0830 
   84.1250   -28.0270    68.8050     6.8480     7.5240     9.7730     2.0850 
   84.2500   -27.7170    68.6970     6.8760     7.5470    10.0940     2.0860 
   84.3750   -27.3170    66.2570     6.8240     7.4850    10.2800     2.0820 
   84.5000   -26.8400    65.2750     6.6660     7.3120    10.3080     2.0860 
   84.6250   -26.3080    66.0780     6.4070     7.0150    10.4460     2.1040 
   84.7500   -25.7660    68.2650     6.0640     6.6350    10.3410     2.1270 
   84.8750   -25.2720    69.9620     5.7520     6.2810     9.2930     2.1420 
   85.0000   -24.8790    70.8350     5.5560     6.0590     7.7540     2.1510 
   85.1250   -24.6400    70.0750     5.5400     6.1050     7.0440     2.1660 
   85.2500   -24.5590    69.4710     5.6870     6.2880     7.6720     2.1790 
   85.3750   -24.6310    68.2430     5.9620     6.6210     8.6560     2.1750 
   85.5000   -24.8030    68.1470     6.2510     6.9460     9.2060     2.1490 
   85.6250   -25.0270    66.6230     6.3820     7.0770     9.3950     2.1170 
   85.7500   -25.2570    66.3110     6.2930     6.9570     9.3900     2.0950 
   85.8750   -25.4630    67.3250     6.0390     6.6580     9.1270     2.0900 
   86.0000   -25.6420    70.5480     5.7670     6.3640     8.1450     2.1020 
   86.1250   -25.7950    72.9840     5.6240     6.2200     7.0770     2.1270 
   86.2500   -25.9310    73.3770     5.6060     6.2350     7.5390     2.1430 
   86.3750   -26.0400    71.6440     5.7110     6.3740     8.9740     2.1360 
   86.5000   -26.1080    70.5390     5.8640     6.5450     9.5490     2.1120 
   86.6250   -26.1060    69.6260     6.0200     6.6980     9.4450     2.0950 
   86.7500   -26.0240    68.5750     6.1670     6.8410     9.6450     2.0930 
   86.8750   -25.8510    67.1100     6.3710     7.0760    10.0260     2.1040 
   87.0000   -25.6070    66.8560     6.7250     7.4840    10.1050     2.1190 
   87.1250   -25.3130    67.0420     7.1980     8.0160     9.8060     2.1480 
   87.2500   -25.0040    67.1580     7.6260     8.4880     9.3630     2.1910 
   87.3750   -24.7060    67.0130     7.8070     8.6950     8.9190     2.2360 
   87.5000   -24.4430    66.1740     7.7560     8.6030     8.6270     2.2440 
   87.6250   -24.2400    65.7230     7.3950     8.1830     8.5790     2.2080 
   87.7500   -24.1160    65.6280     6.8530     7.5690     8.6810     2.1560 
   87.8750   -24.1150    68.2580     6.2320     6.9110     8.9060     2.1240 
   88.0000   -24.2620    71.1320     5.6820     6.3530     8.6900     2.1130 
   88.1250   -24.6040    73.6510     5.3910     6.0220     7.2580     2.1170 
   88.2500   -25.1310    73.6920     5.2660     5.9110     6.2290     2.1250 
   88.3750   -25.8270    72.7910     5.3750     6.0560     7.2980     2.1260 
   88.5000   -26.6080    70.0460     5.6570     6.3940     8.6730     2.1150 
   88.6250   -27.3800    67.2870     6.0180     6.7810     9.2270     2.0960 
   88.7500   -28.0420    64.5350     6.2960     7.0490     9.7660     2.0800 
   88.8750   -28.4950    62.5250     6.4210     7.1120    10.2320     2.0710 
   89.0000   -28.7040    60.9000     6.3920     7.0400    10.2780     2.0680 
   89.1250   -28.6290    60.5560     6.3710     6.9860    10.2000     2.0720 
   89.2500   -28.3050    62.1890     6.4080     7.0070    10.2660     2.0750 
   89.3750   -27.7590    63.9340     6.3970     7.0070    10.1800     2.0700 
   89.5000   -27.0760    64.9190     6.2770     6.8820     9.9410     2.0600 
   89.6250   -26.3400    64.4160     5.9740     6.5590     9.6020     2.0570 
   89.7500   -25.6590    63.7210     5.5230     6.0770     8.4910     2.0670 
   89.8750   -25.1490    64.3850     5.0810     5.5930     6.6460     2.0850 
   90.0000   -24.8780    66.8200     4.7820     5.2870     5.6020     2.1020 
   90.1250   -24.9050    70.0040     4.7620     5.3080     5.9200     2.1160 
   90.2500   -25.1930    72.1110     5.0090     5.6380     7.2830     2.1220 
   90.3750   -25.6950    71.1160     5.4680     6.1950     9.3530     2.1310 
   90.5000   -26.3040    68.7170     6.0080     6.7910    10.6390     2.1390 
   90.6250   -26.9300    66.3240     6.4340     7.2150    10.7500     2.1350 
   90.7500   -27.5060    65.4030     6.6520     7.3870    10.5830     2.1200 
   90.8750   -27.9930    65.5380     6.6880     7.3300    10.5260     2.1050 
   91.0000   -28.3940    66.0010     6.6040     7.1740    10.5320     2.0990 
   91.1250   -28.7140    66.5180     6.5440     7.0660    10.6340     2.0980 
   91.2500   -28.9730    66.8400     6.5500     7.0490    10.9860     2.0970 
   91.3750   -29.1650    66.6760     6.6100     7.1090    11.1680     2.0970 
