~V
VERS. 2.00: Ver 2.00
~W
STRT.M 65.0000:
STOP.M 239.0000:
STEP.M 0.1250:
NULL. -999.2500:
UWI. F10876:
~C
DEPT.M :
TVD. :
DX. :
DY. :
SP.MV :
GR.API :
RI. :
RML.OHMM :
RXO.OHMM :
DEN.GM/CC :
~A
# ...
  174.5000   174.4840    -1.8380    -0.1330   -13.9250    73.0320     3.4630     3.7670     3.5080     2.2470 
  174.6250   174.6090    -1.8400    -0.1330   -13.8210    71.3640     3.2110     3.4710     3.1030     2.2620 
  174.7500   174.7340    -1.8420    -0.1320   -13.7620    69.3050     3.0430     3.2930     3.1910     2.2830 
  174.8750   174.8590    -1.8440    -0.1320   -13.7860    71.2160     2.9740     3.2310     3.4390     2.2930 
  175.0000   174.9840    -1.8470    -0.1320   -13.8550    73.0930     2.9710     3.2330     3.6190     2.2900 
  175.1250   175.1090    -1.8490    -0.1310   -13.8900    73.1680     2.9930     3.2560     3.6640     2.2840 
  175.2500   175.2340    -1.8510    -0.1310   -13.8450    72.4470     3.0580     3.3250     3.6020     2.2850 
  175.3750   175.3590    -1.8540    -0.1310   -13.7270    73.9200     3.2230     3.5160     3.6340     2.3000 
  175.5000   175.4840    -1.8560    -0.1300   -13.5380    75.7120     3.5540     3.9010     4.0930     2.3220 
  175.6250   175.6090    -1.8580    -0.1300   -13.2960    74.5580     4.0210     4.4380     5.1350     2.3410 
  175.7500   175.7340    -1.8610    -0.1290   -13.0260    70.8390     4.6080     5.0930     6.4160     2.3460 
  175.8750   175.8590    -1.8630    -0.1290   -12.7680    68.6230     5.3070     5.8760     7.2100     2.3390 
  176.0000   175.9840    -1.8650    -0.1290   -12.5370    69.8820     6.1300     6.7930     7.5510     2.3180 
  176.1250   176.1090    -1.8680    -0.1280   -12.3090    69.7780     7.1170     7.8200     8.6250     2.2850 
  176.2500   176.2340    -1.8700    -0.1280   -12.0900    65.5900     8.3980     9.1260    11.1490     2.2440 
  176.3750   176.3590    -1.8720    -0.1270   -11.9480    59.3300     9.9910    10.8050    13.5390     2.2050 
  176.5000   176.4840    -1.8750    -0.1270   -11.9490    54.1540    11.7870    12.7380    14.2370     2.1800 
  176.6250   176.6090    -1.8770    -0.1260   -12.0470    52.2390    13.4240    14.5440    14.1880     2.1670 
  176.7500   176.7340    -1.8790    -0.1260   -12.1750    52.9400    14.4470    15.6390    14.4120     2.1600 
  176.8750   176.8590    -1.8820    -0.1250   -12.2770    53.1030    14.5460    15.7080    14.6020     2.1550 
  177.0000   176.9840    -1.8840    -0.1250   -12.3300    53.2200    13.4650    14.5280    14.1390     2.1540 
  177.1250   177.1090    -1.8860    -0.1250   -12.3570    53.4970    11.6060    12.4510    12.6950     2.1620 
  177.2500   177.2340    -1.8890    -0.1240   -12.3880    54.8980     9.4990    10.1090    10.6270     2.1810 
  177.3750   177.3590    -1.8910    -0.1240   -12.4430    58.5310     7.7350     8.1030     8.8140     2.2040 
  177.5000   177.4840    -1.8930    -0.1230   -12.5550    63.9190     6.7530     7.0410     7.5630     2.2200 
  177.6250   177.6090    -1.8960    -0.1230   -12.7590    66.4760     6.4860     6.8630     7.1680     2.2210 
  177.7500   177.7330    -1.8980    -0.1220   -13.0900    64.4000     7.0310     7.4620     7.9540     2.2010 
  177.8750   177.8580    -1.9000    -0.1220   -13.5270    61.4750     8.3030     8.7840     9.6020     2.1700 
  178.0000   177.9830    -1.9030    -0.1210   -14.0490    58.9760     9.9950    10.5610    11.2470     2.1370 
  178.1250   178.1080    -1.9050    -0.1210   -14.6060    56.8690    11.7610    12.4050    12.1700     2.1150 
  178.2500   178.2330    -1.9070    -0.1200   -15.1300    55.2880    13.1030    13.8750    12.5360     2.1060 
  178.3750   178.3580    -1.9100    -0.1200   -15.5600    53.9410    13.9840    14.8230    12.6820     2.1060 
  178.5000   178.4830    -1.9120    -0.1190   -15.8570    53.8960    14.5470    15.4250    12.6440     2.1140 
  178.6250   178.6080    -1.9140    -0.1190   -16.0670    56.4610    15.0460    16.0420    13.4040     2.1300 
  178.7500   178.7330    -1.9170    -0.1180   -16.2860    58.0360    15.7980    17.0130    14.9580     2.1540 
  178.8750   178.8580    -1.9190    -0.1180   -16.5750    54.5910    16.8320    18.3310    18.7150     2.1760 
  179.0000   178.9830    -1.9220    -0.1170   -16.8870    49.4000    18.0880    19.9060    24.3410     2.1900 
  179.1250   179.1080    -1.9240    -0.1170   -17.1270    47.5600    19.3600    21.4840    27.8320     2.2080 
  179.2500   179.2330    -1.9260    -0.1160   -17.2600    48.6310    20.5150    22.9250    26.3690     2.2540 
  179.3750   179.3580    -1.9290    -0.1160   -17.3150    47.7150    21.5370    24.2250    24.6860     2.3250 
  179.5000   179.4830    -1.9310    -0.1160   -17.2890    45.9530    22.3220    25.2930    27.7220     2.3830 
  179.6250   179.6080    -1.9340    -0.1150   -17.1740    45.3660    22.9040    26.2000    30.9200     2.3830 
  179.7500   179.7330    -1.9360    -0.1150   -16.9740    46.2840    23.1810    26.7660    27.7600     2.3190 
  179.8750   179.8580    -1.9390    -0.1140   -16.7270    46.7100    22.8950    26.6220    22.7260     2.2350 
  180.0000   179.9830    -1.9410    -0.1140   -16.4650    47.3860    21.9270    25.6230    20.9490     2.1840 
  180.1250   180.1080    -1.9430    -0.1130   -16.2300    48.5540    20.6910    24.2670    21.0680     2.1860 
  180.2500   180.2330    -1.9460    -0.1130   -16.0650    52.3210    19.6780    23.1550    22.4050     2.2400 
  180.3750   180.3580    -1.9480    -0.1120   -15.9850    57.5790    19.2040    22.6450    23.2940     2.3100 
  180.5000   180.4830    -1.9500    -0.1120   -15.9830    60.9110    19.1560    22.5790    22.0430     2.3590 
  180.6250   180.6080    -1.9530    -0.1110   -16.0060    57.1990    19.2210    22.6370    20.5900     2.3670 
  180.7500   180.7330    -1.9550    -0.1110   -16.0000    51.0790    19.2670    22.7010    21.4680     2.3420 
  180.8750   180.8580    -1.9570    -0.1100   -15.9520    50.4290    19.2410    22.7010    22.8700     2.3120 
  181.0000   180.9830    -1.9600    -0.1100   -15.8600    55.9590    18.9100    22.3610    22.1860     2.2980 
  181.1250   181.1080    -1.9620    -0.1090   -15.7240    61.3410    18.0820    21.4130    19.3440     2.2950 
  181.2500   181.2330    -1.9640    -0.1090   -15.5260    61.1820    16.7590    19.8410    16.8210     2.2890 
  181.3750   181.3580    -1.9670    -0.1080   -15.2670    55.7520    14.8990    17.7660    16.4520     2.2760 
  181.5000   181.4830    -1.9690    -0.1080   -14.9580    50.2770    12.5960    15.1170    14.3750     2.2650 
  181.6250   181.6080    -1.9710    -0.1070   -14.6440    49.4150    10.1010    12.1880    12.6370     2.2650 
  181.7500   181.7330    -1.9730    -0.1070   -14.3620    53.5570     7.7490     9.3730    10.3380     2.2800 
  181.8750   181.8580    -1.9760    -0.1060   -14.1450    59.4660     5.9700     7.1150     7.5790     2.3010 
  182.0000   181.9830    -1.9780    -0.1060   -14.0360    64.1230     4.9000     5.7980     5.7800     2.3150 
  182.1250   182.1080    -1.9800    -0.1050   -14.0650    66.0660     4.3940     5.2180     4.6320     2.3170 
  182.2500   182.2330    -1.9830    -0.1050   -14.2580    66.5090     4.3490     5.2020     4.2470     2.3070 
  182.3750   182.3580    -1.9850    -0.1040   -14.5610    68.7060     4.5920     5.5320     4.8430     2.2930 
  182.5000   182.4830    -1.9870    -0.1040   -14.8550    71.7070     5.0530     6.1120     5.8950     2.2820 
  182.6250   182.6080    -1.9890    -0.1040   -15.0510    71.0560     5.5930     6.7640     6.6750     2.2740 
  182.7500   182.7330    -1.9920    -0.1030   -15.1490    66.5910     6.0510     7.2930     6.8640     2.2690 
  182.8750   182.8580    -1.9940    -0.1030   -15.1960    63.0600     6.3200     7.5770     6.7470     2.2640 
  183.0000   182.9830    -1.9960    -0.1020   -15.1960    62.8470     6.3330     7.5490     6.6650     2.2600 
  183.1250   183.1080    -1.9990    -0.1020   -15.1460    63.3470     6.1530     7.3000     6.6720     2.2560 
  183.2500   183.2320    -2.0010    -0.1020   -15.0810    62.3880     5.8410     6.9040     6.5760     2.2510 
  183.3750   183.3570    -2.0030    -0.1010   -15.0500    61.9880     5.4910     6.4740     6.2000     2.2480 
  183.5000   183.4820    -2.0060    -0.1010   -15.0740    64.1660     5.1970     6.1180     5.6290     2.2500 
