~V
VERS. 2.00: Ver 2.00
~W
STRT.M 40.0000:
STOP.M 205.0000:
STEP.M 0.1250:
NULL. -999.2500:
UWI. F10810:
~C
DEPT.M :
SP.MV :
GR.API :
RI. :
RML.OHMM :
RXO.OHMM :
DEN.GM/CC :
~A
# ...
  104.3750   -20.5590    70.9790     7.5110     8.5580    18.6430     2.1630 
  104.5000   -19.6320    68.7850     7.4130     8.4650    17.3470     2.1760 
  104.6250   -18.6560    69.9650     6.8810     7.8440    12.5890     2.1900 
  104.7500   -17.7090    73.9090     6.0710     6.8990     8.6790     2.2140 
  104.8750   -16.8740    79.1230     5.2250     5.9860     6.9210     2.2290 
  105.0000   -16.2050    83.6330     4.7920     5.5130     6.7610     2.2070 
  105.1250   -15.7510    86.8420     4.7550     5.5220     7.1220     2.1630 
  105.2500   -15.4920    86.9160     4.9500     5.8020     7.7150     2.1270 
  105.3750   -15.4090    84.9960     5.2470     6.1630     8.2920     2.1180 
  105.5000   -15.4440    83.3310     5.4620     6.4010     8.5740     2.1240 
  105.6250   -15.5550    83.1990     5.5140     6.2890     8.4350     2.1320 
  105.7500   -15.6960    84.4770     5.4130     6.1340     7.9810     2.1400 
  105.8750   -15.8310    85.4040     5.2080     5.8760     7.6440     2.1450 
  106.0000   -15.9400    86.9710     4.9390     5.5750     7.4320     2.1520 
  106.1250   -16.0160    89.0360     4.6620     5.2720     7.0800     2.1670 
  106.2500   -16.0850    92.3760     4.4130     4.9900     6.6190     2.1900 
  106.3750   -16.1950    95.5560     4.1750     4.7380     6.1630     2.2090 
  106.5000   -16.4010    97.8600     4.0150     4.5600     5.7610     2.2200 
  106.6250   -16.7560    98.8040     3.9590     4.5280     5.3790     2.2200 
  106.7500   -17.2560    97.1500     4.1160     4.7450     5.2180     2.2130 
  106.8750   -17.8580    93.1900     4.5850     5.3330     5.6400     2.1990 
  107.0000   -18.4550    88.5670     5.3350     6.2160     7.0430     2.1820 
  107.1250   -18.9110    84.2350     6.1410     7.1320     9.5110     2.1660 
  107.2500   -19.1300    80.5110     6.6770     7.7120    11.7120     2.1550 
  107.3750   -19.0400    76.6120     6.6800     7.6470    12.0320     2.1500 
  107.5000   -18.6950    76.5380     6.1430     6.9960    10.4620     2.1560 
  107.6250   -18.1880    79.9660     5.3460     6.0710     8.1810     2.1730 
  107.7500   -17.6750    86.2870     4.6460     5.2990     6.3620     2.1950 
  107.8750   -17.2980    90.3000     4.2680     4.9260     5.3620     2.2130 
  108.0000   -17.1380    92.9720     4.1990     4.9040     5.4990     2.2180 
  108.1250   -17.2480    91.7750     4.2920     5.0820     6.5560     2.2050 
  108.2500   -17.5980    89.8190     4.4870     5.3630     7.0230     2.1840 
  108.3750   -18.1670    86.1590     4.8260     5.7710     6.4450     2.1720 
  108.5000   -18.8910    82.2520     5.3220     6.3460     6.6650     2.1870 
  108.6250   -19.7210    76.2630     5.9730     7.1040     9.8120     2.2270 
  108.7500   -20.5810    69.6270     6.6900     7.9150    13.3300     2.2540 
  108.8750   -21.3940    65.0190     7.2580     8.5100    13.5660     2.2330 
  109.0000   -22.0950    63.1030     7.4710     8.6570    11.9760     2.1720 
  109.1250   -22.6320    63.5790     7.2360     8.2750    10.6580     2.1200 
  109.2500   -23.0140    64.4050     6.6720     7.6030    10.1590     2.1010 
  109.3750   -23.2660    66.0630     6.1300     7.0080    10.0880     2.1100 
  109.5000   -23.4600    68.4880     5.8060     6.6860     9.5640     2.1200 
  109.6250   -23.6550    70.4230     5.7270     6.6500     8.6860     2.1280 
  109.7500   -23.8940    70.6570     5.8050     6.7960     8.3670     2.1300 
  109.8750   -24.1950    69.0740     5.9690     7.0440     8.9050     2.1250 
  110.0000   -24.5410    66.6660     6.1830     7.3230     9.4590     2.1180 
  110.1250   -24.9070    64.5690     6.3700     7.5320     9.3760     2.1140 
  110.2500   -25.2630    63.7660     6.4580     7.6040     8.9910     2.1190 
  110.3750   -25.5820    64.8130     6.4580     7.5660     9.2410     2.1250 
  110.5000   -25.8500    65.2380     6.4480     7.5100    10.0930     2.1310 
  110.6250   -26.0430    64.9980     6.5130     7.5420    10.4520     2.1290 
  110.7500   -26.1490    62.6610     6.7300     7.7550    10.5800     2.1260 
  110.8750   -26.1380    61.9590     7.1570     8.2210    11.3900     2.1220 
  111.0000   -26.0040    60.7810     7.8050     8.9840    12.8480     2.1200 
  111.1250   -25.7330    61.7910     8.7620    10.1210    15.8210     2.1190 
  111.2500   -25.3460    62.0790     9.9340    11.4000    18.5710     2.1220 
  111.3750   -24.8640    62.3360    10.7650    12.1980    19.4740     2.1280 
  111.5000   -24.3340    61.0820    10.7380    12.0710    21.4340     2.1370 
  111.6250   -23.7950    60.3650     9.9200    10.9760    21.0780     2.1450 
  111.7500   -23.2760    60.5960     8.5980     9.3870    15.0950     2.1510 
  111.8750   -22.7800    62.5020     7.4810     8.0320     9.8790     2.1530 
  112.0000   -22.2760    65.5800     6.8330     7.2870     8.8200     2.1540 
  112.1250   -21.7060    67.7180     6.8260     7.3880    10.0030     2.1540 
  112.2500   -21.0130    68.5280     7.5080     8.2670    11.7330     2.1580 
  112.3750   -20.1470    67.3950     8.6030     9.3840    12.6870     2.1730 
  112.5000   -19.1300    66.5460     9.1380     9.8880    14.4610     2.2170 
  112.6250   -18.0120    67.0880     8.6610     9.3450    21.2860     2.2890 
  112.7500   -16.8960    69.4610     7.3590     8.0090    24.6270     2.3530 
  112.8750   -15.8850    73.3480     5.8020     6.3370    15.5210     2.3550 
  113.0000   -15.0380    78.0570     4.6990     5.1640     6.9000     2.2960 
  113.1250   -14.3960    82.4520     4.0510     4.4320     5.5590     2.2320 
  113.2500   -13.9250    85.1510     3.8950     4.2830     5.5520     2.2050 
  113.3750   -13.6030    84.5410     4.3660     4.8030     5.4710     2.2160 
  113.5000   -13.3820    80.9490     5.5230     6.1210     6.2850     2.2450 
  113.6250   -13.2510    74.3250     7.7360     8.8630    11.6430     2.2980 
  113.7500   -13.1950    66.1850    11.9250    13.2410    20.1950     2.3750 
  113.8750   -13.2160    59.0690    16.8490    17.5760    25.3530     2.4550 
  114.0000   -13.3010    54.1850    19.4920    19.7910    27.5090     2.5070 
  114.1250   -13.4320    53.0320    18.5380    19.1250    25.9990     2.5080 
  114.2500   -13.5800    55.6780    14.4310    14.8300    18.7610     2.4590 
  114.3750   -13.7140    61.7460     9.6420     9.9960    11.0710     2.3840 
  114.5000   -13.8150    70.3420     6.5700     6.7960     6.9390     2.3150 
  114.6250   -13.8660    77.4930     5.1930     5.3410     5.5480     2.2730 
  114.7500   -13.8720    81.5190     4.7540     5.0260     5.4270     2.2580 
  114.8750   -13.8380    79.8290     5.2570     5.7740     5.8360     2.2690 
  115.0000   -13.7800    76.2170     6.6590     7.5830     7.8050     2.3040 
  115.1250   -13.7100    71.1720     9.2760    10.7780    14.9170     2.3560 
  115.2500   -13.6390    64.7530    13.1040    14.9810    23.2410     2.4090 
  115.3750   -13.5750    58.0340    17.1280    18.9930    24.2930     2.4330 
  115.5000   -13.5200    51.4380    19.9610    21.3530    22.6660     2.4310 
  115.6250   -13.4720    48.0140    20.9920    22.0850    23.1540     2.4140 
  115.7500   -13.4280    46.2530    20.6000    21.5250    21.9360     2.4010 
  115.8750   -13.3850    46.6750    20.1060    21.0070    19.9740     2.3930 
  116.0000   -13.3450    46.4660    20.4360    21.3940    19.5190     2.3960 
  116.1250   -13.3090    45.4690    21.3370    22.6390    21.2470     2.4150 
  116.2500   -13.2810    43.5720    22.5780    24.3410    26.4960     2.4450 
  116.3750   -13.2620    42.8850    23.8440    26.0440    31.7530     2.4750 
  116.5000   -13.2520    43.1620    24.8140    27.3590    31.6260     2.4960 
  116.6250   -13.2490    44.0930    25.3630    28.0510    28.8520     2.5060 
  116.7500   -13.2520    44.6840    25.4470    28.2080    28.8740     2.5070 
  116.8750   -13.2630    44.4940    25.3670    28.1230    30.1920     2.5060 
  117.0000   -13.2820    44.3480    25.2910    28.0250    29.3950     2.5010 
  117.1250   -13.3140    44.3010    25.2670    27.9900    25.7010     2.4960 
