~V
VERS. 2.00: Ver 2.00
~W
STRT.M 40.0000:
STOP.M 205.0000:
STEP.M 0.1250:
NULL. -999.2500:
UWI. F10807:
~C
DEPT.M :
SP.MV :
GR.API :
RI. :
RML.OHMM :
RXO.OHMM :
DEN.GM/CC :
~A
# ...
  117.2500   -13.3010    49.7380    12.2700    13.3750    23.6020     2.5180 
  117.3750   -13.2450    47.5860    13.6640    14.7420    24.9710     2.5190 
  117.5000   -13.1720    45.6490    14.6140    15.6590    22.6520     2.4920 
  117.6250   -13.0960    46.1880    14.8200    15.8980    18.7410     2.4540 
  117.7500   -13.0940    46.4710    14.5250    15.6940    17.0070     2.4320 
  117.8750   -13.1410    46.9140    14.1740    15.3280    16.7420     2.4380 
  118.0000   -13.2530    46.6380    14.0180    15.1560    18.3790     2.4660 
  118.1250   -13.3500    47.5380    14.0630    15.2470    20.8250     2.4990 
  118.2500   -13.4190    47.8650    14.1310    15.3170    21.1230     2.5220 
  118.3750   -13.4190    47.0160    13.9160    15.1100    19.9960     2.5280 
  118.5000   -13.4050    45.2800    13.4790    14.6330    18.7290     2.5220 
  118.6250   -13.4070    45.0350    12.8680    13.9830    16.6450     2.5100 
  118.7500   -13.3510    46.2950    12.2940    13.3400    15.1650     2.5050 
  118.8750   -13.2800    48.5450    11.7660    12.7280    14.9740     2.5020 
  119.0000   -13.1580    49.3760    11.2400    12.1270    14.5270     2.5050 
  119.1250   -13.1340    48.5590    10.7540    11.5660    13.9460     2.5040 
  119.2500   -13.1370    46.5710    10.3270    11.0710    12.8620     2.5050 
  119.3750   -13.1730    46.1640     9.9930    10.6910    12.3850     2.5050 
  119.5000   -13.2080    47.2200     9.7390    10.4300    13.5100     2.5090 
  119.6250   -13.2100    49.6550     9.6410    10.3530    13.1850     2.5180 
  119.7500   -13.1740    51.3070     9.7160    10.4570    11.8170     2.5240 
  119.8750   -13.1390    52.3120     9.8720    10.6310    11.7320     2.5280 
  120.0000   -13.1710    52.1060     9.9680    10.7090    12.6650     2.5330 
  120.1250   -13.2270    50.6690     9.8600    10.5790    13.5070     2.5390 
  120.2500   -13.3000    49.7250     9.6250    10.2960    12.9530     2.5340 
  120.3750   -13.2820    49.3820     9.3360     9.9380    11.8860     2.5240 
  120.5000   -13.2350    50.1660     9.0630     9.6210    11.3340     2.5110 
  120.6250   -13.1400    49.3450     8.9120     9.4410    11.4010     2.5120 
  120.7500   -13.0590    48.4660     8.8720     9.3940    12.3170     2.5170 
  120.8750   -12.9960    47.7470     8.9000     9.4280    13.0280     2.5220 
  121.0000   -12.9530    48.0730     8.9240     9.4230    12.4310     2.5210 
  121.1250   -12.9190    49.0810     8.8090     9.2840    10.8010     2.5160 
  121.2500   -12.8450    50.1040     8.6240     9.0700     9.4920     2.5110 
  121.3750   -12.7630    50.2110     8.4550     8.8860     9.2890     2.5080 
  121.5000   -12.7160    50.3850     8.4120     8.8310    10.3470     2.5100 
  121.6250   -12.6880    50.6630     8.5040     8.9430    11.9320     2.5090 
  121.7500   -12.6310    51.0660     8.7260     9.1950    12.7340     2.5060 
  121.8750   -12.6380    51.4290     9.0260     9.5050    12.4800     2.4990 
  122.0000   -12.6170    52.5820     9.2840     9.8000    11.6800     2.4980 
  122.1250   -12.6030    53.6360     9.5840    10.1090    11.4310     2.4990 
  122.2500   -12.5930    54.1320     9.8630    10.4130    11.8950     2.4960 
  122.3750   -12.6170    52.9320    10.0950    10.6540    13.1550     2.4940 
  122.5000   -12.7050    51.4390    10.2020    10.7870    14.3700     2.4950 
  122.6250   -12.7740    48.8410    10.2130    10.7870    14.1370     2.5070 
  122.7500   -12.7690    47.6660    10.0970    10.6650    12.9740     2.5110 
  122.8750   -12.6610    47.0060     9.9510    10.5070    12.0110     2.5020 
  123.0000   -12.5620    47.8230     9.8040    10.3670    11.8420     2.4830 
  123.1250   -12.5200    48.5680     9.7430    10.3300    12.0650     2.4650 
  123.2500   -12.6060    49.5530     9.8640    10.4760    12.1400     2.4430 
  123.3750   -12.7050    51.3920    10.1730    10.7950    12.4020     2.4210 
  123.5000   -12.8540    52.3970    10.5540    11.1980    14.2130     2.4110 
  123.6250   -13.0420    53.5870    10.9800    11.6170    16.3110     2.4220 
  123.7500   -13.1830    53.6610    11.2770    11.8750    16.2580     2.4380 
  123.8750   -13.2910    54.1390    11.2430    11.8210    15.2850     2.4420 
  124.0000   -13.3280    53.8600    11.0170    11.5490    14.0930     2.4290 
  124.1250   -13.3430    52.2900    10.6660    11.1920    12.1210     2.4150 
  124.2500   -13.2600    49.8530    10.4150    10.9490    11.2850     2.4120 
  124.3750   -13.1840    48.7130    10.3380    10.8580    12.9080     2.4220 
  124.5000   -13.1650    49.3720    10.2070    10.7430    14.5740     2.4320 
  124.6250   -13.2190    51.0090     9.9510    10.4840    14.8140     2.4360 
  124.7500   -13.2190    51.7380     9.5790    10.1080    13.4040     2.4340 
  124.8750   -13.2020    51.5140     9.2400     9.7500    11.0990     2.4320 
  125.0000   -13.1680    49.5740     9.0400     9.5770    10.7860     2.4320 
  125.1250   -13.1720    47.2450     9.1990     9.8140    12.5380     2.4350 
  125.2500   -13.2500    45.2810     9.7430    10.4420    14.1120     2.4400 
  125.3750   -13.3650    44.7820    10.4660    11.2470    15.0760     2.4390 
  125.5000   -13.5040    44.8270    11.1220    11.9150    16.2590     2.4330 
  125.6250   -13.6020    45.4010    11.4180    12.2200    16.4510     2.4260 
  125.7500   -13.6940    45.5600    11.5130    12.2790    15.5350     2.4250 
  125.8750   -13.7680    45.4600    11.5180    12.2570    15.4120     2.4240 
  126.0000   -13.8430    44.6710    11.5910    12.3150    16.5870     2.4210 
  126.1250   -13.8290    43.9570    11.8450    12.5580    17.6250     2.4170 
  126.2500   -13.7820    43.5770    12.2210    12.9570    16.9520     2.4200 
  126.3750   -13.7190    43.7520    12.7030    13.4950    16.6270     2.4290 
  126.5000   -13.6320    43.7090    13.2670    14.0580    17.7320     2.4380 
  126.6250   -13.6020    44.0560    13.5120    14.2620    18.8000     2.4370 
  126.7500   -13.5170    44.1800    13.0970    13.8110    20.1470     2.4320 
  126.8750   -13.4660    44.4240    12.0170    12.6340    19.8130     2.4300 
  127.0000   -13.4590    44.3320    10.4730    11.0240    15.6010     2.4350 
  127.1250   -13.5170    45.7640     8.9810     9.4520    10.9750     2.4390 
  127.2500   -13.5910    48.2190     7.8770     8.2900     9.1810     2.4380 
  127.3750   -13.7490    50.5940     7.3070     7.7090     9.5590     2.4310 
  127.5000   -13.9170    52.0920     7.2130     7.6460    10.1720     2.4240 
  127.6250   -14.1200    53.5090     7.4830     7.9430    10.4280     2.4200 
  127.7500   -14.2660    54.7450     7.8370     8.3170    11.1380     2.4280 
  127.8750   -14.3150    54.9500     8.1140     8.5950    11.3320     2.4350 
  128.0000   -14.3000    54.5620     8.3100     8.7740    10.6350     2.4390 
  128.1250   -14.1600    54.9650     8.4870     8.9540    10.6670     2.4420 
  128.2500   -14.0480    55.0200     8.7380     9.1920    12.0010     2.4480 
  128.3750   -13.9380    53.7540     8.9600     9.4320    13.8120     2.4590 
  128.5000   -13.7670    50.9230     9.1410     9.6030    14.6020     2.4590 
  128.6250   -13.5190    49.3020     9.1450     9.5660    13.4090     2.4500 
  128.7500   -13.2480    51.2840     8.9160     9.2930    11.2090     2.4330 
  128.8750   -12.9730    55.7030     8.5360     8.8800    10.3830     2.4290 
  129.0000   -12.8110    60.6490     8.1360     8.4830    10.6950     2.4330 
  129.1250   -12.7430    64.4060     7.8440     8.2140    10.6010     2.4300 
  129.2500   -12.6710    67.9130     7.6710     8.0810    10.5130     2.4090 
  129.3750   -12.6900    71.7990     7.6710     8.0960    10.5190     2.3830 
  129.5000   -12.6950    74.3380     7.7530     8.2080    10.5150     2.3690 
  129.6250   -12.7540    76.7330     7.8460     8.3310    11.1640     2.3720 
  129.7500   -12.8510    78.9260     7.9270     8.4290    11.7860     2.3680 
  129.8750   -12.9630    81.1650     7.9670     8.4760    10.9250     2.3560 
  130.0000   -13.0580    81.9700     8.0600     8.5450     9.3840     2.3410 
