~V
VERS. 2.00: Ver 2.00
~W
STRT.M 54.0000:
STOP.M 205.0000:
STEP.M 0.1250:
NULL. -999.2500:
UWI. F10812:
~C
DEPT.M :
SP.MV :
GR.API :
RI. :
RML.OHMM :
RXO.OHMM :
DEN.GM/CC :
~A
# ...
  144.1250   -17.3110    78.8100    21.7040    23.7170    22.2710     2.2210 
  144.2500   -17.8850    72.1680    27.0760    29.6010    31.4510     2.1950 
  144.3750   -18.5800    64.2360    33.5930    36.4610    44.3980     2.1770 
  144.5000   -19.3540    59.6940    40.1260    42.9630    49.9050     2.1690 
  144.6250   -20.1570    58.4220    44.9330    47.6070    40.3920     2.1660 
  144.7500   -20.9720    60.1860    47.6860    50.1880    35.7510     2.1680 
  144.8750   -21.7510    61.3740    48.4940    50.6430    41.1060     2.1690 
  145.0000   -22.4790    62.6060    46.9420    48.7680    47.5630     2.1690 
  145.1250   -23.1730    63.4040    43.2390    44.9880    53.4170     2.1660 
  145.2500   -23.8290    64.4240    39.3030    40.9550    52.7050     2.1680 
  145.3750   -24.4560    63.8340    36.3950    38.4440    42.3800     2.1770 
  145.5000   -25.0920    62.7230    36.4070    38.9300    35.8340     2.1830 
  145.6250   -25.7530    60.6220    39.9250    43.7270    56.2590     2.1810 
  145.7500   -26.4420    58.6550    48.3280    54.0500    98.2940     2.1700 
  145.8750   -27.1720    57.2350    63.6190    70.3680   119.9130     2.1580 
  146.0000   -27.9130    57.1120    80.9550    88.2790   105.2010     2.1490 
  146.1250   -28.5970    57.8040    96.1730   103.3000    93.8670     2.1420 
  146.2500   -29.2020    57.0740   108.3050   115.6210   107.4730     2.1390 
  146.3750   -29.7050    55.4900   117.6570   125.6730   127.8780     2.1390 
  146.5000   -30.1090    55.0300   125.4440   133.7530   135.3790     2.1430 
  146.6250   -30.4370    57.0220   130.5360   138.3870   129.6210     2.1460 
  146.7500   -30.7150    59.1950   130.3200   138.1300   132.2770     2.1470 
  146.8750   -30.9400    59.4840   126.1810   133.3930   141.5860     2.1450 
  147.0000   -31.1220    57.8950   119.0210   125.4950   141.0790     2.1400 
  147.1250   -31.2890    55.2180   109.1150   115.2900   128.8920     2.1310 
  147.2500   -31.4760    53.4610    99.1390   105.3200   107.5780     2.1280 
  147.3750   -31.6970    53.2130    91.7570    98.5310    86.1950     2.1300 
  147.5000   -31.9510    53.6530    89.0270    96.5320    75.1960     2.1350 
  147.6250   -32.1950    53.3040    91.7980   100.4020    85.7300     2.1300 
  147.7500   -32.3670    51.7370    99.6660   110.3880   107.7030     2.1200 
  147.8750   -32.4470    50.2750   113.6340   126.9240   116.4040     2.1110 
  148.0000   -32.4670    49.4930   130.9900   147.1580   127.2640     2.1040 
  148.1250   -32.4750    50.2080   148.8650   167.7680   160.6520     2.0980 
  148.2500   -32.5420    50.4790   163.2280   185.4250   190.0990     2.0940 
  148.3750   -32.7060    48.7190   174.6520   199.8640   208.3490     2.0890 
  148.5000   -32.9370    47.0660   184.1630   211.9370   226.4200     2.0850 
  148.6250   -33.1920    47.9560   191.2390   221.0580   252.1960     2.0830 
  148.7500   -33.4070    50.9660   195.6930   227.2860   296.4750     2.0860 
  148.8750   -33.5310    53.2680   198.3660   231.2880   305.9410     2.0900 
  149.0000   -33.5520    53.2420   200.6730   234.6280   274.8750     2.0930 
  149.1250   -33.4540    52.3770   203.4010   237.8390   269.6470     2.0950 
  149.2500   -33.2880    50.4910   205.0700   237.3360   270.6580     2.0990 
  149.3750   -33.0910    49.3820   197.0630   226.4290   263.2500     2.1020 
  149.5000   -32.9090    48.4770   182.2290   206.9380   288.3050     2.1040 
  149.6250   -32.7970    49.0010   163.1320   182.9360   307.8420     2.1100 
  149.7500   -32.7510    49.7710   145.3090   161.6610   249.7820     2.1200 
  149.8750   -32.7730    51.1850   135.7540   149.0980   160.4410     2.1310 
  150.0000   -32.8530    52.0650   132.0720   143.5740   135.1440     2.1360 
  150.1250   -32.9690    52.0800   132.6560   142.6140   176.4820     2.1290 
  150.2500   -33.1060    52.7330   133.9590   142.5400   227.8430     2.1160 
  150.3750   -33.2420    53.9620   131.3640   140.7010   226.7320     2.1040 
  150.5000   -33.3550    55.3160   124.5160   132.6560   173.6060     2.1020 
  150.6250   -33.4320    55.0960   114.9740   121.3920   119.3390     2.1070 
  150.7500   -33.4590    55.1590   107.9000   112.9180    89.5250     2.1110 
  150.8750   -33.4530    55.6450   104.4140   108.7530    89.7510     2.1020 
  151.0000   -33.4530    56.6160   104.1490   107.6950   104.5130     2.0860 
  151.1250   -33.5170    56.3490   104.9300   108.3250   114.7920     2.0760 
  151.2500   -33.6990    56.0400   104.7650   108.4560   124.4120     2.0870 
  151.3750   -34.0000    54.9590   101.7170   104.8070   127.8010     2.1100 
  151.5000   -34.3640    53.6190    95.7400    98.2350   103.5140     2.1280 
  151.6250   -34.7020    52.0740    88.4790    90.8170    75.1090     2.1370 
  151.7500   -34.9270    52.3760    82.2930    85.0210    69.8520     2.1500 
  151.8750   -35.0070    53.4350    79.7070    83.0590    74.1340     2.1660 
  152.0000   -34.9710    53.9100    81.0990    85.1850    77.9050     2.1740 
  152.1250   -34.8570    54.1760    86.4830    90.8710    78.7030     2.1610 
  152.2500   -34.7280    55.3590    94.4660   100.6930    81.5790     2.1330 
  152.3750   -34.6110    57.4760   106.3520   114.5340    98.7390     2.1040 
  152.5000   -34.4940    57.9780   119.3110   127.9740   122.4810     2.0960 
  152.6250   -34.3620    56.3950   132.0410   142.6010   142.8180     2.1050 
  152.7500   -34.1790    54.2030   144.9010   159.8050   181.1240     2.1110 
  152.8750   -33.8720    53.9650   159.4600   179.4500   220.4990     2.1040 
  153.0000   -33.4270    54.5590   175.4600   201.8140   204.0110     2.0950 
  153.1250   -32.8270    54.4640   194.8190   227.1270   164.2900     2.0900 
  153.2500   -32.1190    53.5520   212.1430   251.1390   189.7020     2.0830 
  153.3750   -31.3800    53.1770   226.4930   270.5230   281.2240     2.0750 
  153.5000   -30.6890    54.3780   235.2320   281.9850   347.4890     2.0730 
  153.6250   -30.1000    55.1770   234.4600   281.7440   330.6900     2.0790 
  153.7500   -29.6110    55.0720   226.9070   272.4090   258.8100     2.0860 
  153.8750   -29.2300    54.1290   213.2820   256.6210   196.1100     2.0910 
  154.0000   -28.9190    53.9220   199.0380   239.6260   167.6530     2.0940 
  154.1250   -28.6340    53.5310   186.3080   223.7870   150.8810     2.1020 
  154.2500   -28.3220    53.5840   174.3510   208.7230   141.9740     2.1120 
  154.3750   -27.9160    54.0020   163.0540   195.0550   133.2030     2.1230 
  154.5000   -27.3990    55.3330   154.6620   185.1000   112.2030     2.1370 
  154.6250   -26.7920    55.9400   151.3530   180.7590    94.0210     2.1530 
  154.7500   -26.1770    56.7080   151.1610   179.9120    86.8570     2.1700 
  154.8750   -25.6520    58.3980   150.5190   178.3900    86.1030     2.1770 
  155.0000   -25.2550    59.5590   145.7550   172.2910    86.7160     2.1790 
  155.1250   -25.0060    59.8960   135.9760   160.7810    81.9530     2.1840 
  155.2500   -24.8480    59.8690   123.9510   147.2950    72.1860     2.1970 
  155.3750   -24.6900    61.3830   113.4780   135.6440    61.3740     2.2140 
  155.5000   -24.4810    62.5220   105.9000   128.0690    54.3860     2.2230 
  155.6250   -24.1870    62.7100   103.5190   126.5470    51.5090     2.2160 
  155.7500   -23.8020    62.6450   105.6310   130.2290    48.6190     2.1980 
  155.8750   -23.3700    63.6220   110.6210   137.7170    46.8050     2.1780 
  156.0000   -22.9210    65.3100   117.6430   147.6710    48.5030     2.1600 
  156.1250   -22.4510    66.1300   125.9460   159.3650    54.4200     2.1470 
  156.2500   -21.9730    66.2520   134.9780   172.0650    62.2550     2.1370 
  156.3750   -21.4910    64.9060   145.1600   186.1820    68.9500     2.1280 
  156.5000   -21.0260    64.3030   156.5030   201.5320    71.7670     2.1220 
  156.6250   -20.6340    63.8580   168.4390   216.9050    73.8720     2.1210 
  156.7500   -20.3530    63.5990   179.2200   230.2420    80.3430     2.1190 
  156.8750   -20.1950    61.9000   186.4180   238.8070    90.7490     2.1120 
