~V
VERS. 2.00: Ver 2.00
~W
STRT.M 65.0000:
STOP.M 239.0000:
STEP.M 0.1250:
NULL. -999.2500:
UWI. F10876:
~C
DEPT.M :
TVD. :
DX. :
DY. :
SP.MV :
GR.API :
RI. :
RML.OHMM :
RXO.OHMM :
DEN.GM/CC :
~A
# ...
  211.0000   210.9780    -2.5060     0.0040   -11.6970    77.2160     3.1910     3.6900     4.1190     2.2200 
  211.1250   211.1030    -2.5090     0.0050   -11.6540    78.8440     3.0320     3.4730     3.5130     2.2030 
  211.2500   211.2280    -2.5110     0.0060   -11.4140    77.9330     2.8470     3.2470     3.2050     2.1930 
  211.3750   211.3530    -2.5130     0.0070   -11.0390    74.9630     2.6700     3.0490     3.4010     2.1910 
  211.5000   211.4780    -2.5150     0.0080   -10.6730    74.3020     2.5120     2.8830     3.5970     2.1950 
  211.6250   211.6030    -2.5170     0.0090   -10.4660    76.1770     2.3850     2.7490     3.3350     2.2000 
  211.7500   211.7280    -2.5200     0.0100   -10.4540    79.4930     2.2780     2.6300     2.8440     2.2030 
  211.8750   211.8520    -2.5220     0.0110   -10.5270    81.8490     2.1760     2.5080     2.5660     2.2050 
  212.0000   211.9770    -2.5240     0.0110   -10.6420    79.9430     2.0890     2.3990     2.5080     2.2070 
  212.1250   212.1020    -2.5260     0.0120   -10.8860    76.2180     2.0390     2.3350     2.4260     2.2120 
  212.2500   212.2270    -2.5280     0.0130   -11.3760    75.4820     2.0620     2.3600     2.3270     2.2200 
  212.3750   212.3520    -2.5300     0.0140   -12.0280    76.2880     2.1540     2.4720     2.4520     2.2280 
  212.5000   212.4770    -2.5320     0.0150   -12.6690    76.8740     2.2910     2.6390     2.9020     2.2310 
  212.6250   212.6020    -2.5350     0.0160   -13.1950    78.1990     2.4390     2.8110     3.4210     2.2250 
  212.7500   212.7270    -2.5370     0.0170   -13.6110    79.2310     2.5700     2.9470     3.6300     2.2150 
  212.8750   212.8520    -2.5390     0.0180   -13.9580    79.5030     2.6610     3.0250     3.4060     2.2080 
  213.0000   212.9770    -2.5410     0.0190   -14.2180    78.4100     2.6990     3.0420     3.1390     2.2130 
  213.1250   213.1020    -2.5430     0.0200   -14.4220    77.4570     2.6900     3.0110     3.2990     2.2240 
  213.2500   213.2270    -2.5450     0.0210   -14.6150    77.2900     2.6580     2.9620     3.5940     2.2300 
  213.3750   213.3520    -2.5480     0.0220   -14.7380    76.9490     2.6270     2.9160     3.4290     2.2210 
  213.5000   213.4770    -2.5500     0.0230   -14.6480    76.0200     2.6030     2.8770     2.9500     2.2030 
  213.6250   213.6020    -2.5520     0.0240   -14.3530    73.3880     2.5790     2.8420     2.7180     2.1900 
  213.7500   213.7270    -2.5540     0.0250   -13.9420    74.4100     2.5360     2.7980     2.8120     2.1940 
  213.8750   213.8520    -2.5560     0.0260   -13.4810    77.0830     2.4720     2.7390     2.8620     2.2120 
  214.0000   213.9770    -2.5580     0.0270   -12.9630    77.6290     2.3830     2.6560     2.6470     2.2370 
  214.1250   214.1020    -2.5610     0.0280   -12.3890    75.4030     2.2730     2.5470     2.3440     2.2550 
  214.2500   214.2270    -2.5630     0.0290   -11.8400    72.3030     2.1510     2.4150     2.1660     2.2600 
  214.3750   214.3520    -2.5650     0.0300   -11.4820    71.1630     2.0540     2.3100     2.0980     2.2500 
  214.5000   214.4770    -2.5670     0.0310   -11.4670    70.9050     2.0300     2.2940     2.1180     2.2330 
  214.6250   214.6020    -2.5690     0.0330   -11.8050    69.6320     2.0770     2.3610     2.2970     2.2180 
  214.7500   214.7270    -2.5720     0.0340   -12.4930    68.8410     2.1830     2.4900     2.5900     2.2090 
  214.8750   214.8520    -2.5740     0.0350   -13.3700    72.7370     2.3140     2.6310     2.7770     2.2010 
  215.0000   214.9770    -2.5760     0.0360   -14.2030    79.4520     2.4300     2.7380     2.7940     2.1900 
  215.1250   215.1020    -2.5780     0.0370   -14.8150    81.4060     2.5120     2.8000     2.8090     2.1790 
  215.2500   215.2270    -2.5800     0.0390   -15.1720    75.8310     2.5500     2.8230     2.8710     2.1770 
  215.3750   215.3520    -2.5830     0.0400   -15.3680    70.5400     2.5630     2.8290     2.9090     2.1860 
  215.5000   215.4770    -2.5850     0.0410   -15.4490    69.6450     2.5760     2.8460     2.9220     2.2040 
  215.6250   215.6020    -2.5870     0.0420   -15.4320    70.9350     2.6060     2.8820     2.9340     2.2230 
  215.7500   215.7270    -2.5890     0.0440   -15.3230    70.1490     2.6490     2.9300     2.9360     2.2320 
  215.8750   215.8520    -2.5910     0.0450   -15.1870    70.8790     2.6920     2.9790     2.9430     2.2300 
  216.0000   215.9770    -2.5940     0.0460   -15.1180    75.5060     2.7310     3.0250     2.9590     2.2190 
  216.1250   216.1020    -2.5960     0.0470   -15.1820    80.1040     2.7660     3.0660     2.9720     2.2070 
  216.2500   216.2270    -2.5980     0.0490   -15.3840    78.9440     2.7930     3.0970     2.9990     2.1990 
  216.3750   216.3520    -2.6000     0.0500   -15.6350    74.0800     2.8150     3.1220     3.0480     2.1970 
  216.5000   216.4770    -2.6020     0.0510   -15.8490    69.9120     2.8330     3.1430     3.0740     2.2010 
  216.6250   216.6020    -2.6050     0.0530   -15.9670    70.7700     2.8520     3.1660     3.0550     2.2070 
  216.7500   216.7270    -2.6070     0.0540   -15.9520    75.3340     2.8730     3.1950     3.0440     2.2120 
  216.8750   216.8520    -2.6090     0.0550   -15.8220    77.0170     2.8870     3.2200     3.0570     2.2180 
  217.0000   216.9770    -2.6110     0.0570   -15.6100    72.8180     2.8820     3.2290     3.0350     2.2250 
  217.1250   217.1010    -2.6130     0.0580   -15.3720    69.8620     2.8550     3.2130     2.9700     2.2340 
  217.2500   217.2260    -2.6160     0.0600   -15.1500    71.4050     2.8050     3.1640     2.9080     2.2440 
  217.3750   217.3510    -2.6180     0.0610   -14.9970    75.1670     2.7400     3.0890     2.9220     2.2550 
  217.5000   217.4760    -2.6200     0.0620   -15.0140    77.9250     2.6850     3.0180     3.0120     2.2630 
  217.6250   217.6010    -2.6220     0.0640   -15.2220    78.3810     2.6620     2.9820     3.0350     2.2690 
  217.7500   217.7260    -2.6250     0.0650   -15.5550    75.5820     2.7080     3.0280     3.0550     2.2750 
  217.8750   217.8510    -2.6270     0.0670   -15.9340    73.4240     2.8350     3.1700     3.3260     2.2830 
  218.0000   217.9760    -2.6290     0.0680   -16.3620    75.5660     3.0390     3.4040     3.8410     2.2920 
  218.1250   218.1010    -2.6310     0.0700   -16.8250    77.1280     3.2770     3.6750     4.3730     2.2970 
  218.2500   218.2260    -2.6330     0.0710   -17.2620    75.0790     3.4590     3.8780     4.8100     2.2890 
  218.3750   218.3510    -2.6350     0.0720   -17.6110    72.4920     3.5410     3.9600     4.8910     2.2670 
  218.5000   218.4760    -2.6380     0.0740   -17.7790    73.4720     3.5010     3.8960     4.3100     2.2360 
  218.6250   218.6010    -2.6400     0.0750   -17.7220    78.2080     3.3690     3.7270     3.5540     2.2100 
  218.7500   218.7260    -2.6420     0.0770   -17.4690    83.1030     3.2040     3.5310     3.2860     2.1930 
  218.8750   218.8510    -2.6440     0.0780   -17.1510    85.9940     3.0570     3.3670     3.3870     2.1830 
  219.0000   218.9760    -2.6460     0.0800   -16.8150    84.3750     2.9580     3.2630     3.4480     2.1760 
  219.1250   219.1010    -2.6480     0.0820   -16.3710    82.9010     2.9040     3.2070     3.3560     2.1700 
  219.2500   219.2260    -2.6500     0.0830   -15.6280    85.0440     2.8750     3.1710     3.2060     2.1720 
  219.3750   219.3510    -2.6520     0.0850   -14.4830    89.6310     2.8480     3.1330     3.0880     2.1800 
  219.5000   219.4760    -2.6540     0.0860   -12.8330    89.2190     2.8310     3.1070     3.0310     2.1900 
  219.6250   219.6010    -2.6570     0.0880   -10.8350    82.8880     2.8370     3.1080     3.0380     2.1950 
  219.7500   219.7260    -2.6590     0.0890    -8.9960    77.7650     2.8560     3.1250     3.1190     2.1940 
  219.8750   219.8510    -2.6610     0.0910    -7.7790    76.7030     2.8740     3.1400     3.2380     2.1910 
  220.0000   219.9760    -2.6630     0.0930    -7.2230    76.5220     2.8830     3.1440     3.3070     2.1910 
