~V
VERS. 2.00: Ver 2.00
~W
STRT.M 65.0000:
STOP.M 239.0000:
STEP.M 0.1250:
NULL. -999.2500:
UWI. F10876:
~C
DEPT.M :
TVD. :
DX. :
DY. :
SP.MV :
GR.API :
RI. :
RML.OHMM :
RXO.OHMM :
DEN.GM/CC :
~A
# ...
   74.1250    74.1240    -0.1200    -0.0260   -13.1060    82.2230     5.5900     6.1140     5.5180     2.2850 
   74.2500    74.2490    -0.1210    -0.0260   -13.8760    90.9480     4.6580     5.1220     4.3140     2.2740 
   74.3750    74.3740    -0.1230    -0.0270   -14.4650    92.6960     4.2380     4.7550     4.4310     2.2740 
   74.5000    74.4990    -0.1250    -0.0270   -14.9470    88.1530     4.1770     4.7610     4.6840     2.2770 
   74.6250    74.6240    -0.1260    -0.0270   -15.3830    82.5050     4.2220     4.8340     4.7190     2.2800 
   74.7500    74.7490    -0.1280    -0.0280   -15.8190    81.0930     4.2560     4.8540     4.4810     2.2830 
   74.8750    74.8740    -0.1300    -0.0280   -16.2880    85.1710     4.3000     4.8730     4.1720     2.2900 
   75.0000    74.9990    -0.1310    -0.0280   -16.7820    89.9750     4.4010     4.9680     4.2810     2.2980 
   75.1250    75.1240    -0.1330    -0.0280   -17.2450    89.7760     4.5580     5.1410     5.1980     2.2960 
   75.2500    75.2490    -0.1350    -0.0290   -17.5890    84.3070     4.7330     5.3550     6.3360     2.2790 
   75.3750    75.3740    -0.1360    -0.0290   -17.7780    77.5900     4.8590     5.5260     6.5030     2.2520 
   75.5000    75.4990    -0.1380    -0.0290   -17.8060    73.8670     4.8920     5.5920     5.7420     2.2230 
   75.6250    75.6240    -0.1400    -0.0300   -17.7280    75.5430     4.8620     5.5780     5.1770     2.1970 
   75.7500    75.7490    -0.1420    -0.0300   -17.5890    79.2760     4.8200     5.5300     5.1700     2.1760 
   75.8750    75.8740    -0.1430    -0.0300   -17.4230    81.4150     4.8180     5.5190     5.3650     2.1650 
   76.0000    75.9990    -0.1450    -0.0300   -17.2210    81.3280     4.8630     5.5570     5.5910     2.1680 
   76.1250    76.1240    -0.1470    -0.0310   -16.9740    81.9230     4.9250     5.6170     5.7210     2.1830 
   76.2500    76.2490    -0.1490    -0.0310   -16.7230    81.7360     4.9970     5.6920     5.5680     2.1980 
   76.3750    76.3740    -0.1500    -0.0310   -16.5570    79.7300     5.0960     5.7910     5.3630     2.2030 
   76.5000    76.4990    -0.1520    -0.0310   -16.5520    75.8100     5.2290     5.9410     5.5720     2.1980 
   76.6250    76.6240    -0.1540    -0.0320   -16.6760    72.0830     5.3720     6.1190     6.1810     2.1900 
   76.7500    76.7490    -0.1560    -0.0320   -16.8570    70.8280     5.4750     6.2470     6.6000     2.1870 
   76.8750    76.8740    -0.1570    -0.0320   -17.0420    73.4730     5.4710     6.2280     6.3830     2.1890 
   77.0000    76.9990    -0.1590    -0.0320   -17.2530    79.3440     5.3110     6.0040     5.8510     2.1950 
   77.1250    77.1240    -0.1610    -0.0330   -17.4900    82.1390     5.0210     5.6200     5.4810     2.2070 
   77.2500    77.2490    -0.1620    -0.0330   -17.6690    79.6760     4.6630     5.1670     5.2470     2.2250 
   77.3750    77.3740    -0.1640    -0.0330   -17.7110    76.6400     4.3480     4.7820     5.0140     2.2480 
   77.5000    77.4990    -0.1660    -0.0340   -17.5870    78.0990     4.1320     4.5070     4.7590     2.2700 
   77.6250    77.6240    -0.1680    -0.0340   -17.3570    83.2340     3.9870     4.3080     4.5870     2.2850 
   77.7500    77.7490    -0.1690    -0.0340   -17.0950    89.4790     3.8870     4.1700     4.6040     2.2880 
   77.8750    77.8740    -0.1710    -0.0340   -16.8570    93.1750     3.8050     4.0620     4.6010     2.2810 
   78.0000    77.9990    -0.1730    -0.0350   -16.6720    93.3620     3.7250     3.9590     4.3820     2.2730 
   78.1250    78.1240    -0.1750    -0.0350   -16.5590    92.5810     3.6590     3.8630     4.1050     2.2720 
   78.2500    78.2490    -0.1760    -0.0350   -16.5520    92.1700     3.6250     3.7990     4.0150     2.2830 
   78.3750    78.3740    -0.1780    -0.0350   -16.6380    91.7390     3.6260     3.7770     4.1840     2.3000 
   78.5000    78.4990    -0.1800    -0.0360   -16.7810    89.6400     3.6700     3.8070     4.4930     2.3160 
   78.6250    78.6240    -0.1820    -0.0360   -16.9340    85.8670     3.7250     3.8480     4.6590     2.3240 
   78.7500    78.7490    -0.1830    -0.0360   -17.0610    82.2590     3.7570     3.9080     4.6060     2.3230 
   78.8750    78.8740    -0.1850    -0.0370   -17.1440    82.1200     3.7880     4.2090     4.4920     2.3230 
   79.0000    78.9990    -0.1870    -0.0370   -17.1670    86.5490     3.9320     4.5280     4.3600     2.3350 
   79.1250    79.1240    -0.1890    -0.0370   -17.1460    91.2200     4.2480     4.8680     4.4930     2.3650 
   79.2500    79.2490    -0.1900    -0.0370   -17.1020    92.6240     4.6530     5.3110     5.8050     2.4000 
   79.3750    79.3740    -0.1920    -0.0370   -17.0560    88.8050     4.9530     5.6430     8.4580     2.4160 
   79.5000    79.4990    -0.1940    -0.0380   -17.0190    80.4330     5.0040     5.6800    10.3240     2.3950 
   79.6250    79.6240    -0.1960    -0.0380   -16.9910    74.9140     4.8810     5.4930     9.1010     2.3470 
   79.7500    79.7490    -0.1970    -0.0380   -16.9500    77.8620     4.7260     5.2570     6.1710     2.2910 
   79.8750    79.8740    -0.1990    -0.0380   -16.8480    84.8940     4.6760     5.1770     5.0580     2.2470 
   80.0000    79.9990    -0.2010    -0.0390   -16.6450    87.7780     4.8200     5.3740     6.4750     2.2240 
   80.1250    80.1240    -0.2030    -0.0390   -16.4080    84.1760     5.1060     5.7620     7.9330     2.2230 
   80.2500    80.2490    -0.2050    -0.0390   -16.2620    76.3950     5.3450     6.0630     7.5560     2.2360 
   80.3750    80.3740    -0.2060    -0.0400   -16.2790    69.0400     5.3450     6.0340     6.3120     2.2510 
   80.5000    80.4990    -0.2080    -0.0400   -16.4250    68.6140     5.0790     5.6680     5.5080     2.2590 
   80.6250    80.6240    -0.2100    -0.0400   -16.5800    73.7160     4.7540     5.2350     5.0080     2.2560 
   80.7500    80.7490    -0.2120    -0.0410   -16.6640    79.6680     4.6330     5.0670     4.7740     2.2430 
   80.8750    80.8740    -0.2140    -0.0410   -16.6650    81.6830     4.8180     5.2790     5.1630     2.2210 
   81.0000    80.9980    -0.2150    -0.0410   -16.5800    81.5970     5.2940     5.8390     5.9520     2.1970 
   81.1250    81.1230    -0.2170    -0.0420   -16.4310    80.8210     5.9040     6.5260     6.5480     2.1780 
   81.2500    81.2480    -0.2190    -0.0420   -16.2640    76.9590     6.4960     7.1610     6.7690     2.1700 
   81.3750    81.3730    -0.2210    -0.0420   -16.1350    68.4930     6.9270     7.6120     6.7660     2.1700 
   81.5000    81.4980    -0.2230    -0.0430   -16.0800    62.0710     7.1200     7.7940     6.7100     2.1740 
   81.6250    81.6230    -0.2240    -0.0430   -16.0790    61.7540     7.1540     7.7870     6.7100     2.1760 
   81.7500    81.7480    -0.2260    -0.0430   -16.0850    65.0930     7.1080     7.6640     6.7460     2.1720 
   81.8750    81.8730    -0.2280    -0.0440   -16.0540    66.3990     7.0660     7.5390     6.7340     2.1640 
   82.0000    81.9980    -0.2300    -0.0440   -15.9820    65.4040     7.1270     7.5720     6.5850     2.1550 
   82.1250    82.1230    -0.2320    -0.0440   -15.8910    65.3370     7.3810     7.8700     6.3930     2.1500 
   82.2500    82.2480    -0.2330    -0.0440   -15.7880    67.7890     8.0160     8.5330     6.5340     2.1600 
   82.3750    82.3730    -0.2350    -0.0450   -15.6690    70.1600     9.1860     9.7420     7.4900     2.2000 
   82.5000    82.4980    -0.2370    -0.0450   -15.5180    68.8810    10.9950    11.5970     9.3920     2.2820 
   82.6250    82.6230    -0.2390    -0.0450   -15.3270    64.9460    13.1710    13.7930    12.4820     2.3900 
   82.7500    82.7480    -0.2410    -0.0460   -15.0800    61.7000    14.8020    15.3380    19.3000     2.4810 
   82.8750    82.8730    -0.2420    -0.0460   -14.7520    60.8220    14.9530    15.3960    28.1830     2.5140 
   83.0000    82.9980    -0.2440    -0.0460   -14.2910    61.3480    13.5440    13.9780    29.3590     2.4720 
   83.1250    83.1230    -0.2460    -0.0460   -13.6760    63.5340    11.4500    11.8790    20.1540     2.3850 
