~V
VERS. 2.00: Ver 2.00
~W
STRT.M 63.0000:
STOP.M 236.0000:
STEP.M 0.1250:
NULL. -999.2500:
UWI. F10859:
~C
DEPT.M :
TVD. :
DX. :
DY. :
SP.MV :
GR.API :
RI. :
RML.OHMM :
RXO.OHMM :
DEN.GM/CC :
~A
# ...
  227.2500   227.2330    -2.2720     0.6100    94.8820    34.9900     2.9430     3.2890     3.1330     2.2870 
  227.3750   227.3580    -2.2740     0.6100    94.8820    31.6750     2.9430     3.2870     3.2620     2.2850 
  227.5000   227.4830    -2.2760     0.6110    94.8820    27.7010     2.9420     3.2870     3.2830     2.2780 
  227.6250   227.6080    -2.2770     0.6110    94.8820    24.1980     2.9410     3.2880     3.1650     2.2670 
  227.7500   227.7330    -2.2790     0.6110    94.8820    26.5460     2.9390     3.2880     3.0340     2.2570 
  227.8750   227.8580    -2.2800     0.6120    94.8820    30.0170     2.9390     3.2880     3.0070     2.2550 
  228.0000   227.9830    -2.2820     0.6120    94.8820    33.0140     2.9400     3.2900     3.0460     2.2580 
  228.1250   228.1080    -2.2830     0.6130    94.8820    33.3550     2.9410     3.2920     3.0650     2.2610 
  228.2500   228.2330    -2.2850     0.6130    94.8820    33.3550     2.9420     3.2960     3.0560     2.2620 
  228.3750   228.3580    -2.2870     0.6130    94.8820    33.3550     2.9430     3.2970     3.0610     2.2630 
  228.5000   228.4830    -2.2880     0.6140    94.8820    33.3550     2.9440     3.2960     3.1320     2.2680 
  228.6250   228.6080    -2.2900     0.6140    94.8820    33.3550     2.9440     3.2920     3.2520     2.2730 
  228.7500   228.7330    -2.2910     0.6150    94.8820    33.3550     2.9430     3.2880     3.2890     2.2760 
  228.8750   228.8580    -2.2930     0.6150    94.8820    33.3550     2.9420     3.2860     3.3320     2.2790 
  229.0000   228.9830    -2.2940     0.6150    94.8820    33.3550     2.9420     3.2880     3.3590     2.2820 
  229.1250   229.1080    -2.2960     0.6160    94.8820    33.3550     2.9420     3.2920     3.3610     2.2830 
  229.2500   229.2330    -2.2980     0.6160    94.8820    33.3550     2.9410     3.2980     3.3390     2.2780 
  229.3750   229.3580    -2.2990     0.6160    94.8820    33.3550     2.9420     3.3030     3.2910     2.2670 
  229.5000   229.4830    -2.3010     0.6170    94.8820    33.3550     2.9430     3.3040     3.2170     2.2520 
  229.6250   229.6070    -2.3020     0.6170    94.8820    33.3550     2.9440     3.3030     3.1260     2.2420 
  229.7500   229.7320    -2.3040     0.6170    94.8820    33.3550     2.9460     3.3010     3.0400     2.2460 
  229.8750   229.8570    -2.3060     0.6180    94.8820    33.3550     2.9460     3.3000     2.9730     2.2630 
  230.0000   229.9820    -2.3070     0.6180    94.8820    33.3550     2.9460     3.3010     2.8790     2.2850 
  230.1250   230.1070    -2.3090     0.6180    94.8820    33.3550     2.9450     3.3010     2.7020     2.3040 
  230.2500   230.2320    -2.3100     0.6190    94.8820    33.3550     2.9440     3.3010     2.5000     2.3100 
  230.3750   230.3570    -2.3120     0.6190    94.8820    33.3550     2.9430     3.2990     2.3880     2.3030 
  230.5000   230.4820    -2.3130     0.6190    94.8820    33.3550     2.9420     3.2970     2.3650     2.2900 
  230.6250   230.6070    -2.3150     0.6200    94.8820    33.3550     2.9420     3.2960     2.3630     2.2790 
  230.7500   230.7320    -2.3170     0.6200    94.8820    33.3550     2.9420     3.2960     2.3630     2.2720 
  230.8750   230.8570    -2.3180     0.6200    94.8820    33.3550     2.9420     3.2960     2.3630     2.2600 
  231.0000   230.9820    -2.3200     0.6210    94.8820    33.3550     2.9420     3.2960     2.3630     2.2290 
  231.1250   231.1070    -2.3210     0.6210    94.8820    33.3550     2.9420     3.2960     2.3630     2.1850 
  231.2500   231.2320    -2.3230     0.6210    94.8820    33.3550     2.9420     3.2960     2.3630     2.1500 
  231.3750   231.3570    -2.3250     0.6220    94.8820    33.3550     2.9420     3.2960     2.3630     2.1330 
  231.5000   231.4820    -2.3260     0.6220    94.8820    33.3550     2.9420     3.2960     2.3630     2.1300 
  231.6250   231.6070    -2.3280     0.6220    94.8820    33.3550     2.9420     3.2960     2.3630     2.1300 
  231.7500   231.7320    -2.3290     0.6230    94.8820    33.3550     2.9420     3.2960     2.3630     2.1300 
  231.8750   231.8570    -2.3310     0.6230    94.8820    33.3550     2.9420     3.2960     2.3640     2.1300 
  232.0000   231.9820    -2.3320     0.6230    94.8820    33.3550     2.9420     3.2960     2.3650     2.1290 
  232.1250   232.1070    -2.3340     0.6240    94.8820    33.3550     2.9420     3.2960     2.3660     2.1290 
  232.2500   232.2320    -2.3360     0.6240    94.8820    33.3550     2.9420     3.2960     2.3660     2.1330 
  232.3750   232.3570    -2.3370     0.6240    94.8820    33.3550     2.9420     3.2960     2.3650     2.1380 
  232.5000   232.4820    -2.3390     0.6250    94.8820    33.3550     2.9420     3.2960     2.3650     2.1400 
  232.6250   232.6070    -2.3400     0.6250    94.8820    33.3550     2.9420     3.2960     2.3640     2.1360 
  232.7500   232.7320    -2.3420     0.6250    94.8820    33.3550     2.9420     3.2960     2.3640     2.1280 
  232.8750   232.8570    -2.3440     0.6260    94.8820    33.3550     2.9420     3.2960     2.3640     2.1230 
  233.0000   232.9820    -2.3450     0.6260    94.8820    33.3550     2.9420     3.2960     2.3630     2.1200 
  233.1250   233.1070    -2.3470     0.6260    94.8820    33.3550     2.9420     3.2960     2.3630     2.1190 
  233.2500   233.2320    -2.3480     0.6270    94.8820    33.3550     2.9420     3.2960     2.3620     2.1190 
  233.3750   233.3570    -2.3500     0.6270    94.8820    33.3550     2.9420     3.2960     2.3620     2.1190 
  233.5000   233.4820    -2.3520     0.6270    94.8820    33.3550     2.9420     3.2960     2.3610     2.1190 
  233.6250   233.6070    -2.3530     0.6280    94.8820    33.3550     2.9420     3.2960     2.3610     2.1190 
  233.7500   233.7320    -2.3550     0.6280    94.8820    33.3550     2.9420     3.2960     2.3600     2.1190 
  233.8750   233.8570    -2.3560     0.6280    94.8820    33.3550     2.9420     3.2960     2.3600     2.1180 
  234.0000   233.9820    -2.3580     0.6280    94.8820    33.3550     2.9420     3.2960     2.3590     2.1170 
  234.1250   234.1070    -2.3590     0.6290    94.8820    33.3550     2.9420     3.2960     2.3580     2.1150 
  234.2500   234.2320    -2.3610     0.6290    94.8820    33.3550     2.9420     3.2960     2.3570     2.1140 
  234.3750   234.3570    -2.3630     0.6290    94.8820    33.3550     2.9420     3.2960     2.3560     2.1120 
  234.5000   234.4820    -2.3640     0.6300    94.8820    33.3550     2.9420     3.2960     2.3550     2.1100 
  234.6250   234.6070    -2.3660     0.6300    94.8820    33.3550     2.9420     3.2960     2.3540     2.1090 
  234.7500   234.7320    -2.3670     0.6300    94.8820    33.3550     2.9420     3.2960     2.3530     2.1080 
  234.8750   234.8570    -2.3690     0.6310    94.8820    33.3550     2.9420     3.2960     2.3520     2.1080 
  235.0000   234.9820    -2.3710     0.6310    94.8820    33.3550     2.9420     3.2960     2.3510     2.1080 
  235.1250   235.1070    -2.3720     0.6310    94.8820    33.3550     2.9420     3.2960     2.3500     2.1080 
  235.2500   235.2320    -2.3740     0.6320    94.8820    33.3550     2.9420     3.2960     2.3490     2.1080 
  235.3750   235.3570    -2.3750     0.6320    94.8820    33.3550     2.9420     3.2960     2.3480     2.1080 
  235.5000   235.4820    -2.3770     0.6320    94.8820    33.3550     2.9420     3.2960     2.3470     2.1080 
  235.6250   235.6070    -2.3790     0.6330    94.8820    33.3550     2.9420     3.2960     2.3460     2.1080 
  235.7500   235.7320    -2.3800     0.6330    94.8820    33.3550     2.9420     3.2960     2.3450     2.1080 
  235.8750   235.8570    -2.3820     0.6330    94.8820    33.3550     2.9420     3.2960     2.3440     2.1080 
  236.0000   235.9820    -2.3840     0.6340    80.8840    33.3550     2.9420     3.2960     2.3440     2.1080 
