~V
VERS. 2.00: Ver 2.00
~W
STRT.M 60.0000:
STOP.M 249.0000:
STEP.M 0.1250:
NULL. -999.2500:
UWI. F10851:
~C
DEPT.M :
TVD. :
DX. :
DY. :
SP.MV :
GR.API :
RI. :
RML.OHMM :
RXO.OHMM :
DEN.GM/CC :
~A
# ...
  178.6250   178.6210     0.0320    -0.2380    -2.4080    62.3350    12.0020    12.8240    20.9640     2.2580 
  178.7500   178.7460     0.0310    -0.2390    -2.2690    60.8830    13.2540    14.2490    24.4860     2.2500 
  178.8750   178.8710     0.0290    -0.2400    -2.1250    59.1140    14.4560    15.5840    25.5200     2.2410 
  179.0000   178.9950     0.0280    -0.2400    -2.0200    56.9190    15.3880    16.5840    23.1440     2.2340 
  179.1250   179.1200     0.0270    -0.2410    -1.9840    55.7930    16.0600    17.2730    21.8480     2.2330 
  179.2500   179.2450     0.0260    -0.2420    -2.0100    57.2570    16.4620    17.6960    23.6130     2.2390 
  179.3750   179.3700     0.0250    -0.2430    -2.0890    59.2670    16.9270    18.2240    25.4540     2.2480 
  179.5000   179.4950     0.0230    -0.2440    -2.2110    59.3710    17.5210    18.9350    26.5620     2.2550 
  179.6250   179.6200     0.0220    -0.2450    -2.3640    58.0520    18.2000    19.7530    26.9350     2.2600 
  179.7500   179.7450     0.0210    -0.2460    -2.5440    58.0240    18.7550    20.4370    26.9650     2.2610 
  179.8750   179.8700     0.0200    -0.2470    -2.7620    58.4150    19.1310    20.9210    27.3490     2.2610 
  180.0000   179.9950     0.0190    -0.2480    -3.0090    57.9860    19.4190    21.2820    26.8850     2.2600 
  180.1250   180.1200     0.0170    -0.2480    -3.2620    57.1860    19.6400    21.5260    27.2730     2.2610 
  180.2500   180.2450     0.0160    -0.2490    -3.4900    56.2030    19.8620    21.7210    29.8810     2.2640 
  180.3750   180.3700     0.0150    -0.2500    -3.6240    55.3320    20.0720    21.8840    30.9790     2.2670 
  180.5000   180.4950     0.0140    -0.2510    -3.6010    54.7690    20.2930    22.0670    29.7840     2.2680 
  180.6250   180.6200     0.0130    -0.2520    -3.3740    55.3530    20.5430    22.3100    29.1960     2.2650 
  180.7500   180.7450     0.0120    -0.2530    -2.9850    56.5410    20.7880    22.5780    30.9880     2.2600 
  180.8750   180.8700     0.0100    -0.2540    -2.4980    57.7570    20.9620    22.7660    32.6950     2.2560 
  181.0000   180.9950     0.0090    -0.2550    -2.0290    59.5480    21.1600    22.9740    31.1420     2.2520 
  181.1250   181.1200     0.0080    -0.2560    -1.6970    61.1440    21.2930    23.0890    29.8240     2.2490 
  181.2500   181.2450     0.0070    -0.2570    -1.5470    60.9250    21.4100    23.1680    33.5880     2.2450 
  181.3750   181.3700     0.0060    -0.2580    -1.5820    58.9770    21.3740    23.1070    39.5970     2.2410 
  181.5000   181.4950     0.0040    -0.2580    -1.7180    57.2860    21.3500    23.0310    40.2820     2.2390 
  181.6250   181.6200     0.0030    -0.2590    -1.8660    57.4320    21.3610    23.0160    36.0050     2.2410 
  181.7500   181.7450     0.0020    -0.2600    -1.9600    57.8060    21.4270    23.0460    33.4290     2.2440 
  181.8750   181.8700     0.0010    -0.2610    -1.9800    57.0790    21.5880    23.1940    32.3420     2.2490 
  182.0000   181.9950     0.0000    -0.2620    -1.9440    56.2430    21.8650    23.5060    30.6700     2.2530 
  182.1250   182.1200    -0.0010    -0.2630    -1.8890    55.9090    22.3840    24.0730    29.7240     2.2550 
  182.2500   182.2450    -0.0030    -0.2640    -1.8650    54.8550    23.2270    25.0040    30.6910     2.2560 
  182.3750   182.3700    -0.0040    -0.2640    -1.9090    54.3600    24.3700    26.2880    34.3280     2.2570 
  182.5000   182.4950    -0.0050    -0.2650    -2.0160    55.5080    25.2370    27.2700    40.9360     2.2590 
  182.6250   182.6200    -0.0060    -0.2660    -2.1840    57.4380    25.5670    27.6630    48.0720     2.2620 
  182.7500   182.7450    -0.0070    -0.2670    -2.4010    57.9720    25.5340    27.6440    46.3580     2.2650 
  182.8750   182.8700    -0.0090    -0.2680    -2.6600    57.6550    25.3870    27.4660    36.6580     2.2660 
  183.0000   182.9950    -0.0100    -0.2680    -2.9500    56.6510    25.5860    27.6990    36.3670     2.2650 
  183.1250   183.1200    -0.0110    -0.2690    -3.2720    56.0060    26.1840    28.5040    45.9850     2.2600 
  183.2500   183.2450    -0.0120    -0.2700    -3.6080    56.3070    26.8620    29.4310    51.9180     2.2520 
  183.3750   183.3700    -0.0140    -0.2710    -3.9280    56.2930    27.0160    29.7140    48.6050     2.2430 
  183.5000   183.4950    -0.0150    -0.2720    -4.2000    55.7340    26.4660    29.1300    38.0440     2.2360 
  183.6250   183.6200    -0.0160    -0.2730    -4.3770    56.1620    25.2140    27.6420    29.9770     2.2350 
  183.7500   183.7450    -0.0170    -0.2730    -4.4500    57.6140    23.8230    26.0590    29.0170     2.2390 
  183.8750   183.8700    -0.0180    -0.2740    -4.4340    58.9050    23.2500    25.5040    31.6570     2.2510 
  184.0000   183.9950    -0.0200    -0.2750    -4.3920    59.1430    23.5700    25.9650    36.6890     2.2700 
  184.1250   184.1200    -0.0210    -0.2760    -4.3920    57.7880    24.3370    26.8120    42.0410     2.2960 
  184.2500   184.2450    -0.0220    -0.2770    -4.4690    55.8220    24.8830    27.3100    42.7880     2.3200 
  184.3750   184.3700    -0.0230    -0.2770    -4.6170    56.3370    24.7090    27.0880    38.0340     2.3300 
  184.5000   184.4950    -0.0250    -0.2780    -4.7930    59.1970    23.7680    25.9680    33.1430     2.3210 
  184.6250   184.6200    -0.0260    -0.2790    -4.9300    61.1170    22.3930    24.4230    31.5760     2.3010 
  184.7500   184.7450    -0.0270    -0.2800    -4.9700    61.3340    21.0800    22.8050    31.5890     2.2800 
  184.8750   184.8700    -0.0280    -0.2810    -4.8890    62.0980    20.3770    21.7600    31.0700     2.2650 
  185.0000   184.9950    -0.0290    -0.2810    -4.7430    62.9940    20.3040    21.4190    30.2980     2.2550 
  185.1250   185.1200    -0.0300    -0.2820    -4.5860    63.0790    20.6920    22.1140    31.1680     2.2460 
  185.2500   185.2450    -0.0320    -0.2830    -4.4610    61.9570    21.1320    23.0760    29.1310     2.2420 
  185.3750   185.3700    -0.0330    -0.2840    -4.4070    60.3470    20.5780    22.8790    20.5070     2.2570 
  185.5000   185.4950    -0.0340    -0.2850    -4.4300    58.7920    18.1710    20.7490    18.1200     2.2970 
  185.6250   185.6200    -0.0350    -0.2850    -4.5000    57.5660    14.1800    16.3140    27.9400     2.3630 
  185.7500   185.7450    -0.0360    -0.2860    -4.5640    56.5100     9.4210    10.9180    31.7300     2.4390 
  185.8750   185.8700    -0.0370    -0.2870    -4.5900    56.1220     5.7320     6.7730    20.2470     2.4950 
  186.0000   185.9950    -0.0390    -0.2880    -4.5720    57.2320     3.5790     4.1020     7.5200     2.5130 
  186.1250   186.1200    -0.0400    -0.2890    -4.5250    58.4430     2.6790     2.9960     3.4670     2.4840 
  186.2500   186.2450    -0.0410    -0.2900    -4.4930    58.1570     2.4260     2.6700     4.1840     2.4270 
  186.3750   186.3700    -0.0420    -0.2900    -4.5160    57.8270     2.6900     2.9220     5.1140     2.3690 
  186.5000   186.4950    -0.0430    -0.2910    -4.5930    60.7120     3.3060     3.6420     5.9610     2.3310 
  186.6250   186.6200    -0.0440    -0.2920    -4.6890    65.2100     3.9790     4.4580     7.3060     2.3160 
  186.7500   186.7450    -0.0450    -0.2930    -4.7210    67.9310     4.4390     5.0270     7.7150     2.3160 
  186.8750   186.8700    -0.0470    -0.2940    -4.5920    68.6260     4.4700     5.0790     6.3110     2.3160 
  187.0000   186.9950    -0.0480    -0.2950    -4.2780    69.1990     4.1600     4.6410     5.0000     2.3100 
  187.1250   187.1200    -0.0490    -0.2950    -3.8020    68.6930     3.7010     4.0550     4.7000     2.2960 
  187.2500   187.2450    -0.0500    -0.2960    -3.2640    65.8860     3.2830     3.5740     4.7680     2.2800 
  187.3750   187.3700    -0.0510    -0.2970    -2.7890    63.3870     2.9470     3.2290     4.7220     2.2690 
  187.5000   187.4950    -0.0520    -0.2980    -2.4630    63.2520     2.6890     2.9920     4.3230     2.2680 
  187.6250   187.6200    -0.0530    -0.2990    -2.3210    63.8520     2.4910     2.8040     3.8520     2.2740 
