~V
VERS. 2.00: Ver 2.00
~W
STRT.M 62.0000:
STOP.M 256.0000:
STEP.M 0.1250:
NULL. -999.2500:
UWI. F10886:
~C
DEPT.M :
TVD. :
DX. :
DY. :
SP.MV :
GR.API :
RI. :
RML.OHMM :
RXO.OHMM :
DEN.GM/CC :
~A
# ...
  208.0000   207.9880    -1.0890    -1.4900   -14.9220    73.9000    35.8890    37.7010    47.0900     2.2310 
  208.1250   208.1130    -1.0900    -1.4910   -15.0720    75.5520    34.1410    36.0790    40.6940     2.2340 
  208.2500   208.2380    -1.0920    -1.4920   -15.2350    77.0010    34.6770    37.0850    35.9810     2.2320 
  208.3750   208.3630    -1.0930    -1.4930   -15.4090    75.4230    39.0540    42.4130    37.2920     2.2200 
  208.5000   208.4880    -1.0940    -1.4940   -15.5960    73.7720    47.6750    52.5430    45.2250     2.2010 
  208.6250   208.6130    -1.0960    -1.4950   -15.7960    68.9750    60.5510    67.4110    61.7610     2.1820 
  208.7500   208.7380    -1.0970    -1.4960   -16.0010    65.2460    76.2570    84.6290    84.5920     2.1660 
  208.8750   208.8630    -1.0990    -1.4970   -16.1980    62.4740    91.8190   100.4230   103.8890     2.1550 
  209.0000   208.9880    -1.1000    -1.4980   -16.3730    63.8680   103.6310   112.2400   112.1340     2.1500 
  209.1250   209.1130    -1.1010    -1.4990   -16.5110    65.5800   110.5260   119.3310   111.7460     2.1480 
  209.2500   209.2380    -1.1030    -1.5000   -16.6120    65.9230   114.2820   123.3460   112.1460     2.1460 
  209.3750   209.3630    -1.1040    -1.5010   -16.6780    63.0750   116.7040   126.2490   116.2420     2.1430 
  209.5000   209.4880    -1.1050    -1.5020   -16.7240    59.0860   119.1450   129.3580   120.7490     2.1390 
  209.6250   209.6130    -1.1070    -1.5030   -16.7590    56.3540   122.1140   133.0200   123.8130     2.1350 
  209.7500   209.7380    -1.1080    -1.5040   -16.7890    54.9990   125.5330   136.9020   129.7330     2.1330 
  209.8750   209.8630    -1.1100    -1.5050   -16.8120    55.7400   128.9010   140.2890   136.5390     2.1380 
  210.0000   209.9880    -1.1110    -1.5060   -16.8190    57.1040   131.1340   141.9360   136.3060     2.1450 
  210.1250   210.1130    -1.1120    -1.5070   -16.7990    59.2980   130.4950   139.8800   130.7840     2.1520 
  210.2500   210.2380    -1.1140    -1.5070   -16.7460    61.1680   125.8740   133.3500   126.7180     2.1560 
  210.3750   210.3630    -1.1150    -1.5080   -16.6650    63.6090   116.0190   122.3350   118.7520     2.1560 
  210.5000   210.4880    -1.1160    -1.5090   -16.5690    65.8790   102.1250   108.1060   100.4250     2.1540 
  210.6250   210.6130    -1.1180    -1.5100   -16.4680    65.5420    86.7710    91.7900    82.5310     2.1580 
  210.7500   210.7380    -1.1190    -1.5110   -16.3670    63.9390    73.0560    76.9220    70.9990     2.1700 
  210.8750   210.8630    -1.1210    -1.5120   -16.2660    61.6850    63.5650    66.8360    64.0870     2.1880 
  211.0000   210.9880    -1.1220    -1.5130   -16.1590    61.1810    58.3960    61.5010    59.9950     2.2040 
  211.1250   211.1130    -1.1230    -1.5140   -16.0500    60.6670    57.0090    60.2300    59.0810     2.2100 
  211.2500   211.2380    -1.1250    -1.5150   -15.9460    61.2050    58.0650    61.5190    61.8470     2.2040 
  211.3750   211.3630    -1.1260    -1.5160   -15.8530    60.7870    60.5580    64.2210    65.7570     2.1910 
  211.5000   211.4880    -1.1270    -1.5170   -15.7690    60.5510    63.3970    67.1780    66.9200     2.1810 
  211.6250   211.6130    -1.1290    -1.5170   -15.6850    60.5880    66.0260    69.8690    67.8630     2.1760 
  211.7500   211.7380    -1.1300    -1.5180   -15.5960    63.1760    68.4450    72.3870    73.9790     2.1780 
  211.8750   211.8630    -1.1320    -1.5190   -15.4930    66.7670    70.5990    74.7190    81.2770     2.1840 
  212.0000   211.9880    -1.1330    -1.5200   -15.3790    68.3900    71.9700    76.2190    82.6030     2.1940 
  212.1250   212.1130    -1.1350    -1.5210   -15.2550    68.2260    71.2120    75.3000    78.3150     2.2080 
  212.2500   212.2380    -1.1360    -1.5220   -15.1220    68.8810    67.5760    71.1480    72.7270     2.2230 
  212.3750   212.3630    -1.1370    -1.5230   -14.9790    70.6480    61.2690    63.6750    66.1080     2.2350 
  212.5000   212.4870    -1.1390    -1.5240   -14.8320    72.3920    53.8340    54.8700    58.3200     2.2380 
  212.6250   212.6120    -1.1400    -1.5240   -14.6910    72.7130    47.0720    47.6970    50.8670     2.2300 
  212.7500   212.7370    -1.1420    -1.5250   -14.5640    74.5020    42.1990    43.0810    44.7980     2.2180 
  212.8750   212.8620    -1.1430    -1.5260   -14.4600    74.3880    39.5240    40.8160    41.2480     2.2110 
  213.0000   212.9870    -1.1440    -1.5270   -14.3770    73.9170    38.2710    39.9960    39.4520     2.2120 
  213.1250   213.1120    -1.1460    -1.5280   -14.3100    69.8600    37.7250    39.8620    39.0460     2.2190 
  213.2500   213.2370    -1.1470    -1.5290   -14.2500    65.8480    37.4140    39.9740    39.2510     2.2300 
  213.3750   213.3620    -1.1490    -1.5300   -14.1930    63.0240    37.5420    40.6200    38.5930     2.2440 
  213.5000   213.4870    -1.1500    -1.5300   -14.1370    63.9940    38.5230    42.2850    38.0880     2.2620 
  213.6250   213.6120    -1.1520    -1.5310   -14.0850    66.4450    40.8800    45.5620    39.3290     2.2830 
  213.7500   213.7370    -1.1530    -1.5320   -14.0430    68.4010    45.2270    50.5740    42.4940     2.3050 
  213.8750   213.8620    -1.1550    -1.5330   -14.0130    69.7940    52.2110    57.4130    48.0660     2.3220 
  214.0000   213.9870    -1.1560    -1.5340   -13.9990    72.7110    60.8910    66.4950    60.4600     2.3270 
  214.1250   214.1120    -1.1570    -1.5350   -13.9970    75.8210    69.2500    76.1140    81.6150     2.3230 
  214.2500   214.2370    -1.1590    -1.5350   -13.9980    76.3760    74.4720    82.1890    95.4700     2.3160 
  214.3750   214.3620    -1.1600    -1.5360   -13.9950    74.1160    74.5260    82.2700    91.2060     2.3160 
  214.5000   214.4870    -1.1620    -1.5370   -13.9830    71.7510    70.3300    77.5550    79.6230     2.3220 
  214.6250   214.6120    -1.1630    -1.5380   -13.9630    72.9010    63.4110    69.8860    69.2950     2.3270 
  214.7500   214.7370    -1.1650    -1.5390   -13.9300    75.1360    55.8750    61.5730    61.3750     2.3270 
  214.8750   214.8620    -1.1660    -1.5400   -13.8800    77.2240    48.8660    53.8610    55.1390     2.3220 
  215.0000   214.9870    -1.1680    -1.5400   -13.8130    78.0400    42.6570    47.1050    49.0620     2.3140 
  215.1250   215.1120    -1.1690    -1.5410   -13.7300    77.8450    37.0370    41.0630    42.7850     2.3070 
  215.2500   215.2370    -1.1710    -1.5420   -13.6430    77.3560    31.5780    35.1870    36.5220     2.3050 
  215.3750   215.3620    -1.1720    -1.5430   -13.5600    76.8370    25.8960    28.9540    29.5920     2.3090 
  215.5000   215.4870    -1.1740    -1.5440   -13.4920    76.3200    20.1790    22.5660    21.7680     2.3220 
  215.6250   215.6120    -1.1750    -1.5440   -13.4510    78.1010    15.3180    17.0940    15.3890     2.3390 
  215.7500   215.7370    -1.1770    -1.5450   -13.4480    81.8670    11.8900    13.2760    11.8300     2.3510 
  215.8750   215.8620    -1.1780    -1.5460   -13.4930    86.7370    10.2080    11.5220    10.5550     2.3420 
  216.0000   215.9870    -1.1800    -1.5470   -13.5770    87.9890     9.8090    11.3250    11.4750     2.3160 
  216.1250   216.1120    -1.1810    -1.5480   -13.6840    87.4070    10.2520    12.1620    13.0210     2.2860 
  216.2500   216.2370    -1.1830    -1.5480   -13.7930    87.3090    10.8780    13.1390    14.0020     2.2680 
  216.3750   216.3620    -1.1840    -1.5490   -13.8940    88.8620    11.0330    13.3710    14.7780     2.2660 
  216.5000   216.4870    -1.1860    -1.5500   -13.9850    90.3210    10.5340    12.6740    14.9340     2.2720 
  216.6250   216.6120    -1.1870    -1.5510   -14.0710    91.2630     9.5850    11.3790    13.1430     2.2780 
  216.7500   216.7370    -1.1890    -1.5520   -14.1580    91.1940     8.7440    10.2820    10.2080     2.2780 
  216.8750   216.8620    -1.1900    -1.5520   -14.2490    89.5670     8.4120     9.9270     9.2880     2.2750 
  217.0000   216.9870    -1.1920    -1.5530   -14.3460    87.8440     8.5510    10.2440    11.1900     2.2790 
