~V
VERS. 2.00: Ver 2.00
~W
STRT.M 54.0000:
STOP.M 205.0000:
STEP.M 0.1250:
NULL. -999.2500:
UWI. F10812:
~C
DEPT.M :
SP.MV :
GR.API :
RI. :
RML.OHMM :
RXO.OHMM :
DEN.GM/CC :
~A
# ...
  169.8750   -17.0610    61.9290    75.2390    80.1560    73.9880     2.3800 
  170.0000   -17.0210    61.0960    73.3000    77.0070    67.3820     2.4780 
  170.1250   -16.9990    61.1910    74.1880    78.0700    56.2770     2.5480 
  170.2500   -16.9950    61.5540    78.2210    82.9140    53.0750     2.5940 
  170.3750   -17.0250    61.6430    85.5650    91.1660    60.0930     2.6190 
  170.5000   -17.1120    61.2760    94.8230   101.1120    70.8630     2.6320 
  170.6250   -17.3040    60.1870   103.4880   110.0220    78.1610     2.6460 
  170.7500   -17.6360    60.0620   109.9690   116.2870    77.4090     2.6680 
  170.8750   -18.1150    59.8000   113.3770   119.8300    74.6930     2.6850 
  171.0000   -18.6820    59.7050   116.9850   123.8730    76.4400     2.6810 
  171.1250   -19.2370    59.1720   123.5640   131.3800    78.6960     2.6720 
  171.2500   -19.6940    59.4330   132.0010   141.8810    88.5630     2.6710 
  171.3750   -20.0140    60.3180   140.4660   151.6230   109.7650     2.6840 
  171.5000   -20.2180    60.4650   140.5550   149.4250   128.7470     2.6910 
  171.6250   -20.3320    60.2410   121.3810   126.7270   135.7480     2.6850 
  171.7500   -20.3710    59.7070    88.0370    90.3730   116.8180     2.6730 
  171.8750   -20.2550    59.1710    50.3130    51.4130    85.6620     2.6880 
  172.0000   -19.8870    57.3450    21.5120    23.8650    63.5310     2.7140 
  172.1250   -19.1600    55.4940     9.7090    11.4350    34.5390     2.6870 
  172.2500   -18.1170    53.7660     6.1920     6.9980    10.7900     2.5590 
  172.3750   -16.8700    53.4230     5.2370     5.8900     6.0610     2.3850 
  172.5000   -15.6430    53.1530     4.8840     5.6700     5.7230     2.2610 
  172.6250   -14.6540    53.8140     4.9220     5.8250     5.5980     2.2220 
  172.7500   -13.9550    53.2770     5.1240     6.0550     5.8870     2.2160 
  172.8750   -13.5380    51.9240     5.2560     6.1790     6.0260     2.2040 
  173.0000   -13.3170    48.9320     5.3280     6.2100     5.8600     2.1890 
  173.1250   -13.1940    46.8190     5.3520     6.1940     5.8610     2.1810 
  173.2500   -13.1020    45.9460     5.3490     6.1670     6.0150     2.1840 
  173.3750   -13.0270    47.4920     5.3400     6.1540     6.1250     2.1880 
  173.5000   -12.9660    50.3210     5.3390     6.1680     6.0950     2.1990 
  173.6250   -12.9400    52.9430     5.3560     6.2120     5.9470     2.2110 
  173.7500   -12.9800    53.3980     5.3680     6.2810     6.3520     2.2190 
  173.8750   -13.1100    52.5330     5.3470     6.3430     7.0030     2.2060 
  174.0000   -13.3000    51.3850     5.2700     6.3540     6.6610     2.1920 
  174.1250   -13.5110    50.6140     5.1380     6.2910     5.9610     2.1850 
  174.2500   -13.7140    49.7770     4.9640     6.1700     5.7590     2.1940 
  174.3750   -13.9090    49.0890     4.7880     6.0470     5.6600     2.1960 
  174.5000   -14.1130    49.0470     4.6650     5.9780     5.6490     2.1910 
  174.6250   -14.3460    49.6580     4.6040     5.9840     5.7090     2.1820 
  174.7500   -14.6070    50.2490     4.5960     6.0430     5.7400     2.1780 
  174.8750   -14.8690    49.4690     4.6180     6.1140     5.9050     2.1760 
  175.0000   -15.1000    48.1060     4.6370     6.1630     5.9960     2.1750 
  175.1250   -15.2890    46.6280     4.6350     6.1780     5.8040     2.1730 
  175.2500   -15.4300    46.4480     4.6220     6.1760     5.4990     2.1710 
  175.3750   -15.5080    47.6470     4.6180     6.1860     5.3080     2.1720 
  175.5000   -15.5520    49.5360     4.6230     6.2230     5.4900     2.1760 
  175.6250   -15.5790    50.9790     4.6340     6.2650     5.9390     2.1800 
  175.7500   -15.5920    52.1910     4.6420     6.2910     6.1480     2.1770 
  175.8750   -15.6120    52.5010     4.6340     6.2790     6.0620     2.1680 
  176.0000   -15.6390    51.1780     4.5990     6.2240     5.9490     2.1580 
  176.1250   -15.6710    49.6140     4.5370     6.1530     5.8430     2.1520 
  176.2500   -15.6940    49.5070     4.4870     6.1090     5.7980     2.1510 
  176.3750   -15.6550    51.2480     4.4660     6.1200     5.7640     2.1500 
  176.5000   -15.5150    51.9010     4.4850     6.1680     5.7730     2.1490 
  176.6250   -15.2250    51.3350     4.5040     6.2130     5.8840     2.1490 
  176.7500   -14.7880    51.1130     4.5180     6.2360     5.7770     2.1520 
  176.8750   -14.2900    51.2810     4.5170     6.2270     5.5460     2.1630 
  177.0000   -13.8560    51.2820     4.5000     6.1960     5.4740     2.1740 
  177.1250   -13.5880    50.6820     4.4790     6.1510     5.5360     2.1870 
  177.2500   -13.5150    51.2820     4.4590     6.1030     5.7310     2.1960 
  177.3750   -13.5910    51.8010     4.4300     6.0630     6.0880     2.1970 
  177.5000   -13.7040    51.8150     4.3950     6.0120     6.2160     2.1840 
  177.6250   -13.7670    50.9270     4.3340     5.9340     5.7610     2.1640 
  177.7500   -13.7750    50.8900     4.2540     5.8340     5.2790     2.1480 
  177.8750   -13.7720    50.6770     4.1820     5.7360     5.1020     2.1380 
  178.0000   -13.7860    49.9750     4.1200     5.6600     5.0700     2.1290 
  178.1250   -13.8270    48.4970     4.0560     5.5900     4.9980     2.1240 
  178.2500   -13.8450    48.0450     3.9940     5.5150     4.6210     2.1240 
  178.3750   -13.7820    48.7410     3.9340     5.4350     4.3000     2.1220 
  178.5000   -13.6590    48.7360     3.8860     5.3680     4.5450     2.1120 
  178.6250   -13.5320    47.6830     3.8660     5.3430     5.0460     2.1010 
  178.7500   -13.4720    46.0970     3.8900     5.3750     5.3720     2.1020 
  178.8750   -13.4940    45.4730     3.9540     5.4630     5.6850     2.1200 
  179.0000   -13.5410    45.7700     4.0460     5.5750     5.9650     2.1440 
  179.1250   -13.5400    46.4080     4.1420     5.6850     5.9800     2.1600 
  179.2500   -13.4420    46.1110     4.2290     5.7760     5.8720     2.1670 
  179.3750   -13.2390    44.9150     4.3040     5.8680     5.7810     2.1730 
  179.5000   -12.9910    43.9540     4.3920     5.9920     5.7170     2.1840 
  179.6250   -12.7080    44.5200     4.5170     6.1710     5.9350     2.1960 
  179.7500   -12.3650    46.1990     4.6800     6.3970     6.5710     2.2030 
  179.8750   -11.9290    46.8050     4.8600     6.6380     7.1240     2.2060 
  180.0000   -11.3650    46.8140     5.0200     6.8520     7.0720     2.2080 
  180.1250   -10.6490    46.0260     5.0910     6.9700     6.7450     2.2150 
  180.2500    -9.8700    46.2460     5.0710     6.9470     6.7000     2.2280 
  180.3750    -9.1360    45.5940     4.9200     6.7530     6.5110     2.2410 
  180.5000    -8.5740    45.2990     4.6940     6.4340     5.9210     2.2410 
  180.6250    -8.2980    44.7340     4.4480     6.0780     5.5320     2.2160 
  180.7500    -8.2720    45.3710     4.2220     5.7760     5.4860     2.1910 
  180.8750    -8.4190    45.4150     4.1020     5.6200     5.4610     2.1810 
  181.0000    -8.6080    45.6790     4.0580     5.5800     5.2060     2.1990 
  181.1250    -8.7440    44.9400     4.0660     5.6180     4.9080     2.2370 
  181.2500    -8.8210    44.6570     4.1030     5.6740     4.8900     2.2740 
  181.3750    -8.8690    43.0260     4.1160     5.6860     4.9190     2.2830 
  181.5000    -8.9270    41.8180     4.1200     5.6560     4.9490     2.2530 
  181.6250    -8.9670    42.5780     4.1000     5.5920     5.0630     2.2070 
  181.7500    -8.9220    44.5090     4.0720     5.5160     5.0490     2.1680 
  181.8750    -8.7460    45.8460     4.0320     5.4370     4.9170     2.1550 
  182.0000    -8.4320    44.7840     3.9920     5.3580     4.8090     2.1560 
  182.1250    -8.0200    43.5920     3.9500     5.2780     4.7530     2.1620 
  182.2500    -7.6180    43.1680     3.9130     5.2090     4.7290     2.1660 
  182.3750    -7.2710    43.7400     3.8950     5.1750     4.7670     2.1690 
  182.5000    -6.9630    43.8560     3.8990     5.1690     4.7610     2.1630 
  182.6250    -6.6870    43.3630     3.9090     5.1750     4.6060     2.1390 
