~V
VERS. 2.00: Ver 2.00
~W
STRT.M 40.0000:
STOP.M 205.0000:
STEP.M 0.1250:
NULL. -999.2500:
UWI. F10807:
~C
DEPT.M :
SP.MV :
GR.API :
RI. :
RML.OHMM :
RXO.OHMM :
DEN.GM/CC :
~A
# ...
   52.8750    89.0400    42.4620     0.1760     0.2440     0.2110     2.4520 
   53.0000    88.9440    44.2770     0.1760     0.2440     0.2010     2.4490 
   53.1250    88.6790    45.4390     0.1760     0.2430     0.1920     2.4530 
   53.2500    88.3200    43.9640     0.1760     0.2430     0.1910     2.4730 
   53.3750    87.8550    40.3430     0.1750     0.2410     0.1960     2.4830 
   53.5000    87.5060    36.1330     0.1750     0.2400     0.1990     2.4730 
   53.6250    87.3030    34.0830     0.1750     0.2400     0.1990     2.4310 
   53.7500    87.1940    33.7500     0.1760     0.2390     0.1990     2.3970 
   53.8750    87.0940    35.1630     0.1760     0.2370     0.1980     2.3910 
   54.0000    86.9740    36.4750     0.1760     0.2350     0.1970     2.4070 
   54.1250    86.7810    38.0380     0.1750     0.2330     0.2010     2.4200 
   54.2500    86.2860    40.4070     0.1740     0.2300     0.2090     2.4290 
   54.3750    85.2800    43.2570     0.1730     0.2280     0.2190     2.4310 
   54.5000    83.8780    45.7410     0.1720     0.2260     0.2250     2.4300 
   54.6250    82.2070    46.5320     0.1720     0.2230     0.2270     2.4270 
   54.7500    80.1080    47.1390     0.1720     0.2180     0.2340     2.4330 
   54.8750    77.5990    46.6270     0.1690     0.2120     0.2430     2.4360 
   55.0000    74.9060    45.4640     0.1590     0.2040     0.2540     2.4330 
   55.1250    72.0460    42.9730     0.1370     0.1870     0.2620     2.4190 
   55.2500    68.9520    40.0960     0.1000     0.1540     0.2660     2.4100 
   55.3750    65.5830    37.3410     0.0630     0.1090     0.2690     2.3940 
   55.5000    61.5740    35.7190     0.0390     0.0720     0.2770     2.3800 
   55.6250    55.6670    36.2750     0.0490     0.0770     0.2950     2.3970 
   55.7500    47.0240    38.5690     0.1380     0.1530     1.5330     2.4120 
   55.8750    35.3420    41.8420     0.3430     0.3570     4.1960     2.3400 
   56.0000    22.4640    46.3660     0.7670     0.7660     5.0490     2.1140 
   56.1250    11.6730    50.6490     1.6390     1.4850     3.7110     1.8570 
   56.2500     4.8110    53.9070     2.8990     2.5140     2.8610     1.7270 
   56.3750     0.9320    54.0800     4.5550     3.9270     7.5510     1.8510 
   56.5000    -2.0510    53.4370     6.7960     5.7400    28.9720     2.1120 
   56.6250    -4.9130    53.7880     9.5970     7.7820    53.7970     2.3270 
   56.7500    -7.8600    55.9430    11.8340     9.4670    52.2450     2.3570 
   56.8750   -10.6780    59.2480    12.4050    10.0980    31.0400     2.2250 
   57.0000   -13.1320    62.3700    11.3410     9.5990    13.7130     2.0870 
   57.1250   -14.9720    63.9840     9.2050     8.3910     7.3200     2.0240 
   57.2500   -16.3640    64.8800     7.6820     7.2820     6.8110     2.0160 
   57.3750   -17.3930    65.3030     7.1440     6.7290     6.9820     2.0210 
   57.5000   -18.1810    65.9190     7.1620     6.6500     7.1430     2.0230 
   57.6250   -18.8020    66.0100     7.3590     6.8170     6.9940     2.0280 
   57.7500   -19.3610    66.2310     7.5170     7.0230     6.6890     2.0290 
   57.8750   -19.8490    66.1180     7.5640     7.1590     6.6060     2.0260 
   58.0000   -20.3040    66.9790     7.5600     7.2020     6.8730     2.0200 
   58.1250   -20.7290    68.1280     7.5120     7.1980     7.5560     2.0190 
   58.2500   -21.1070    69.7430     7.4890     7.1770     9.0540     2.0240 
   58.3750   -21.4950    70.1710     7.4520     7.1790    10.1700     2.0260 
   58.5000   -21.8460    68.9490     7.4120     7.1780     9.5020     2.0220 
   58.6250   -22.1450    68.3000     7.3050     7.1180     8.4870     2.0190 
   58.7500   -22.2940    67.8100     7.1380     7.0380     8.0240     2.0220 
   58.8750   -22.2870    69.0370     6.9740     6.9830     7.5850     2.0230 
   59.0000   -22.2390    69.7920     6.8900     7.0470     7.3850     2.0170 
   59.1250   -22.1990    71.6680     7.0080     7.3140     7.4130     2.0100 
   59.2500   -22.1410    74.4530     7.2900     7.7280     7.4910     2.0170 
   59.3750   -22.1090    79.3830     7.5830     8.2130     8.3030     2.0400 
   59.5000   -22.1680    83.4100     7.7730     8.6000     9.5880     2.0600 
   59.6250   -22.2540    86.7330     7.7120     8.7340     9.6030     2.0560 
   59.7500   -22.3340    87.2530     7.4050     8.5700     8.5090     2.0350 
   59.8750   -22.3460    85.6990     7.0100     8.1180     7.8440     2.0180 
   60.0000   -22.3710    83.2950     6.5990     7.7640     7.6860     2.0110 
   60.1250   -22.3830    80.8410     6.3300     7.5910     7.6080     2.0130 
   60.2500   -22.4080    79.5810     6.1850     7.4560     7.5200     2.0220 
   60.3750   -22.3030    78.0570     6.1490     7.3460     7.5260     2.0310 
   60.5000   -22.1000    77.3650     6.1080     7.3420     7.8210     2.0340 
   60.6250   -21.8570    76.1400     6.0550     7.3440     7.9850     2.0260 
   60.7500   -21.5810    75.1630     6.0190     7.3620     7.5480     2.0160 
   60.8750   -21.3590    75.0300     6.0490     7.4480     7.0710     2.0120 
   61.0000   -21.3090    75.6090     6.1600     7.6260     7.0690     2.0170 
   61.1250   -21.4360    76.5150     6.3290     7.8710     7.4740     2.0290 
   61.2500   -21.5160    75.7180     6.4930     8.1050     8.0170     2.0410 
   61.3750   -21.4820    75.3370     6.5890     8.2610     8.2150     2.0500 
   61.5000   -21.2450    75.4350     6.6040     8.3120     7.9880     2.0520 
   61.6250   -20.8290    76.4380     6.5220     8.2800     7.6600     2.0490 
   61.7500   -20.1970    76.1130     6.4060     8.2270     7.6120     2.0450 
   61.8750   -19.4420    75.8740     6.2810     8.1730     7.6600     2.0440 
   62.0000   -18.6200    76.2290     6.1080     8.0980     7.5360     2.0460 
   62.1250   -17.5480    77.2530     5.8970     7.9540     7.4070     2.0550 
   62.2500   -16.2090    79.1780     5.6590     7.7220     7.0950     2.0710 
   62.3750   -14.5510    82.2630     5.3650     7.3850     6.5870     2.0950 
   62.5000   -12.7980    85.5620     5.0200     6.9950     6.3290     2.1280 
   62.6250   -11.0260    88.7360     4.7100     6.6550     5.9920     2.1610 
   62.7500    -9.3930    91.8430     4.5040     6.4450     5.1480     2.1810 
   62.8750    -8.0860    95.4900     4.4200     6.3900     4.6080     2.1800 
   63.0000    -7.5010    96.9500     4.3980     6.4150     5.2260     2.1700 
   63.1250    -7.8500    96.4250     4.3950     6.4470     6.0280     2.1700 
   63.2500    -8.6160    94.6540     4.3910     6.4460     5.5170     2.1820 
   63.3750    -9.3520    94.2260     4.4170     6.4860     4.8460     2.1940 
   63.5000   -10.2170    93.4330     4.4810     6.6130     5.3550     2.1890 
   63.6250   -11.7970    92.9960     4.5490     6.7220     6.1450     2.1620 
   63.7500   -13.7160    90.4160     4.6910     6.9080     6.5290     2.1310 
   63.8750   -15.3180    87.7030     4.9220     7.1940     6.4120     2.1120 
   64.0000   -16.3610    83.3760     5.1670     7.5010     6.1740     2.1020 
   64.1250   -17.0730    79.9350     5.3450     7.7790     6.9850     2.0850 
   64.2500   -17.9580    76.6820     5.5030     8.0410     8.4330     2.0600 
   64.3750   -18.9820    74.6070     5.6560     8.2880     9.0150     2.0380 
   64.5000   -19.8360    72.6970     5.7380     8.4640     8.8810     2.0280 
   64.6250   -20.4840    69.9190     5.7300     8.4970     8.5480     2.0210 
   64.7500   -21.0400    66.3720     5.6020     8.3990     8.0340     2.0190 
   64.8750   -21.5640    63.5810     5.4470     8.2610     7.5220     2.0200 
   65.0000   -22.2160    62.2240     5.3860     8.2320     7.0410     2.0250 
   65.1250   -22.9250    62.6990     5.4910     8.4080     6.8000     2.0280 
   65.2500   -23.5890    64.6840     5.7330     8.7510     7.3780     2.0320 
   65.3750   -24.0660    66.5910     6.0140     9.1410    16.3930     2.0360 
   65.5000   -24.4670    67.7920     6.2220     9.4140    26.6430     2.0310 
   65.6250   -24.7320    67.2060     6.2440     9.4260    20.2890     2.0090 
