~V
VERS. 2.00: Ver 2.00
~W
STRT.M 40.0000:
STOP.M 215.0000:
STEP.M 0.1250:
NULL. -999.2500:
UWI. F10811:
~C
DEPT.M :
SP.MV :
GR.API :
RI. :
RML.OHMM :
RXO.OHMM :
DEN.GM/CC :
~A
# ...
  194.5000     1.8500    70.6460     6.9100     8.0420     9.1210     2.3540 
  194.6250     2.0210    70.8910     6.9940     8.1950     7.5640     2.3320 
  194.7500     2.0900    72.6430     7.1730     8.4540     6.1200     2.3230 
  194.8750     2.0610    75.4570     7.4120     8.7680     6.0730     2.3190 
  195.0000     1.9840    77.6410     7.6420     9.0680     6.6940     2.3210 
  195.1250     1.8860    79.3040     7.8450     9.3010     7.2790     2.3270 
  195.2500     1.8030    81.0720     7.9770     9.4510     7.6710     2.3290 
  195.3750     1.7650    82.7500     8.0440     9.5180     8.8440     2.3290 
  195.5000     1.7550    83.3670     8.0770     9.5530    10.5510     2.3350 
  195.6250     1.7920    83.2650     8.0970     9.5990    11.0460     2.3540 
  195.7500     1.9470    83.3040     8.1150     9.6530    10.0610     2.3700 
  195.8750     2.3040    83.0120     8.1130     9.6900     9.1130     2.3750 
  196.0000     2.9010    82.0080     8.0840     9.6970     9.1360     2.3750 
  196.1250     3.8480    79.5440     8.0580     9.6870     9.1930     2.3790 
  196.2500     5.0670    76.7280     8.0420     9.6580     8.5750     2.3900 
  196.3750     6.1550    74.0230     8.0260     9.6150     8.6750     2.4020 
  196.5000     6.7340    72.3230     8.0280     9.5950    12.4980     2.4100 
  196.6250     6.8550    72.7580     8.0320     9.6030    17.2730     2.4120 
  196.7500     6.8300    72.5330     8.0260     9.6280    16.0290     2.4100 
  196.8750     6.7610    71.4770     7.9860     9.6110    11.1590     2.4060 
  197.0000     6.7010    69.7870     7.8910     9.5100     8.5600     2.4010 
  197.1250     6.7290    69.4460     7.7430     9.3370     8.0410     2.3950 
  197.2500     6.8310    69.4510     7.5710     9.1160     7.6240     2.3900 
  197.3750     6.9280    68.8500     7.3560     8.8720     6.6770     2.3950 
  197.5000     6.9550    68.1040     7.1390     8.6180     6.4400     2.4070 
  197.6250     6.8830    68.2110     6.9160     8.3680     7.6160     2.4100 
  197.7500     6.7780    68.4500     6.7150     8.1410     8.1740     2.3940 
  197.8750     6.7300    68.3740     6.5360     7.9470     6.9490     2.3780 
  198.0000     6.7090    67.8120     6.3990     7.8000     5.6160     2.3750 
  198.1250     6.6030    68.1210     6.3080     7.7200     5.2420     2.3720 
  198.2500     6.4080    69.0370     6.2910     7.7260     4.9850     2.3540 
  198.3750     6.2180    70.3450     6.3310     7.8070     4.3140     2.3340 
  198.5000     6.1240    71.6560     6.4180     7.9340     4.1080     2.3330 
  198.6250     6.1590    71.2870     6.4960     8.0530     4.8930     2.3540 
  198.7500     6.2120    68.6990     6.5420     8.1180     5.9090     2.3680 
  198.8750     6.1470    65.3170     6.5300     8.1160     6.5910     2.3590 
  199.0000     5.9980    63.1210     6.4910     8.0740     6.8580     2.3350 
  199.1250     5.8520    63.4450     6.4400     8.0260     6.8410     2.3220 
  199.2500     5.7180    64.4090     6.4090     8.0090     6.9840     2.3220 
  199.3750     5.5940    67.2170     6.4210     8.0420     7.3010     2.3270 
  199.5000     5.4950    69.9720     6.4600     8.1180     7.6840     2.3210 
  199.6250     5.3840    71.9350     6.5270     8.2240     8.1910     2.3090 
  199.7500     5.2080    71.5750     6.6080     8.3390     8.4110     2.3030 
  199.8750     4.9540    70.6450     6.6840     8.4530     8.6680     2.3070 
  200.0000     4.6580    69.9960     6.7560     8.5620     8.9630     2.3130 
  200.1250     4.3550    70.9330     6.8260     8.6640     8.6140     2.3160 
  200.2500     4.0790    71.5240     6.8860     8.7590     8.3610     2.3220 
  200.3750     3.8590    71.9610     6.9260     8.8150     8.4820     2.3360 
  200.5000     3.6480    71.2460     6.9140     8.8060     8.4400     2.3490 
  200.6250     3.3400    70.6700     6.8550     8.7400     8.3580     2.3440 
  200.7500     2.9890    70.3070     6.7710     8.6470     8.1430     2.3280 
  200.8750     2.7700    70.2600     6.7170     8.5950     7.8340     2.3260 
  201.0000     2.7030    70.5830     6.7300     8.6210     8.0300     2.3440 
  201.1250     2.6980    70.6610     6.8080     8.7280     8.6630     2.3640 
  201.2500     2.6980    70.4920     6.9200     8.8790     9.1640     2.3530 
  201.3750     2.6980    69.5580     7.0170     9.0200     9.8410     2.2990 
  201.5000     2.6980    70.1160     7.0980     9.1320    12.9370     2.2370 
  201.6250     2.6980    72.2290     7.1130     9.1660    15.9620     2.2270 
  201.7500     2.6980    73.4630     7.0650     9.1260    13.2860     2.2720 
  201.8750     2.6980    72.3240     6.9860     9.0460     8.6420     2.3250 
  202.0000     2.6980    69.3840     6.9130     8.9630     6.8080     2.3380 
  202.1250     2.6980    67.7620     6.8640     8.9110     6.2950     2.3310 
  202.2500     2.6980    67.0320     6.8650     8.9160     6.8810     2.3290 
  202.3750     2.6980    67.7740     6.9150     8.9960     9.4100     2.3280 
  202.5000     2.6980    67.7750     7.0320     9.1640    11.4780     2.3170 
  202.6250     2.6980    67.9600     7.2280     9.3980    10.8770     2.3140 
  202.7500     2.6980    66.9650     7.3930     9.5890     9.4690     2.3280 
  202.8750     2.6980    66.7030     7.4870     9.6670     8.7190     2.3440 
  203.0000     2.6980    66.8280     7.4990     9.6510     8.2130     2.3520 
  203.1250     2.6980    68.3080     7.4520     9.5790     8.0180     2.3600 
  203.2500     2.6980    68.6930     7.3860     9.5010     8.4110     2.3640 
  203.3750     2.6980    68.1790     7.3110     9.4310    14.8970     2.3550 
  203.5000     2.6980    66.6360     7.2320     9.3740    43.9080     2.3310 
  203.6250     2.6980    66.8660     7.1800     9.3510    69.5630     2.3090 
  203.7500     2.6980    68.5040     7.1140     9.3290    48.9080     2.3000 
  203.8750     2.6980    70.4820     7.0580     9.3050    16.2210     2.3110 
  204.0000     2.6980    70.4090     7.0050     9.2780     6.9860     2.3260 
  204.1250     2.6980    69.7610     7.0000     9.2790     6.8750     2.3300 
  204.2500     2.6980    69.1530     7.0320     9.3110     6.7100     2.3210 
  204.3750     2.6980    69.6630     7.1130     9.3910     7.0710     2.3180 
  204.5000     2.6980    70.2090     7.2290     9.5230     7.9480     2.3260 
  204.6250     2.6980    70.3610     7.3240     9.6510     8.7340     2.3380 
  204.7500     2.6980    69.7610     7.3840     9.7270     9.2180     2.3480 
  204.8750     2.6980    69.3790     7.3340     9.6850     9.9210     2.3550 
  205.0000     2.6980    69.1340     7.2080     9.5440    10.9690     2.3520 
  205.1250     2.6980    69.1060     7.0400     9.3580    11.7690     2.3340 
  205.2500     2.6980    68.4260     6.9050     9.2060    11.8870     2.3130 
  205.3750     2.6980    69.1980     6.8240     9.1320    11.5600     2.3100 
  205.5000     2.6980    70.8380     6.7840     9.1230    10.7350     2.3210 
  205.6250     2.6980    73.3670     6.7850     9.1480     8.9630     2.3250 
  205.7500     2.6980    73.8980     6.7830     9.1610     7.0190     2.3050 
  205.8750     2.6980    73.2970     6.7870     9.1440     5.7820     2.2750 
  206.0000     2.6980    71.5890     6.7920     9.1240     5.6900     2.2610 
  206.1250     2.6980    69.9330     6.7950     9.1100     6.2320     2.2730 
  206.2500     2.6980    67.6480     6.7950     9.1020     6.7570     2.2930 
  206.3750     2.6980    66.4160     6.7960     9.1020     7.3320     2.3050 
  206.5000     2.6980    67.4800     6.7950     9.1060     7.0500     2.3050 
  206.6250     2.6980    69.1150     6.7950     9.1010     6.2240     2.2990 
  206.7500     2.6980    70.3280     6.7980     9.0470     5.8750     2.2890 
  206.8750     2.6980    70.3390     6.8010     8.9030     5.4850     2.2740 
  207.0000     2.6980    69.8890     6.8010     8.7610     4.9850     2.2590 
  207.1250     2.6980    70.1320     6.8020     8.6990     4.6990     2.2510 
  207.2500     2.6980    71.5250     6.7990     8.7550     4.5020     2.2480 
