~V
VERS. 2.00: Ver 2.00
~W
STRT.M 1.0000:
STOP.M 205.0000:
STEP.M 0.1250:
NULL. -999.2500:
UWI. F10806:
~C
DEPT.M :
SP.MV :
GR.API :
RI. :
RML.OHMM :
RXO.OHMM :
DEN.GM/CC :
~A
# ...
  181.2500   -15.3790    74.7970     4.4980     6.3120     4.8290     2.2240 
  181.3750   -15.1620    76.4280     4.6540     6.5250     4.6470     2.2110 
  181.5000   -15.0020    78.5910     4.7790     6.7030     4.9590     2.1710 
  181.6250   -14.9310    79.7090     4.8340     6.7950     6.7720     2.1400 
  181.7500   -14.9440    80.5350     4.8230     6.7830     7.6830     2.1430 
  181.8750   -15.0460    80.4270     4.7370     6.6780     6.2190     2.1480 
  182.0000   -15.2630    79.3820     4.6010     6.4940     5.1970     2.1190 
  182.1250   -15.5490    76.2160     4.4400     6.2770     5.1740     2.0600 
  182.2500   -15.8160    72.6670     4.3030     6.0840     4.8530     2.0280 
  182.3750   -15.9810    70.1210     4.2060     5.9560     4.3320     2.0460 
  182.5000   -15.9590    70.0540     4.2000     5.9380     3.9960     2.0940 
  182.6250   -15.7190    70.8210     4.2620     6.0210     3.9540     2.1300 
  182.7500   -15.2910    72.1890     4.3840     6.2060     4.0780     2.1540 
  182.8750   -14.8620    73.6540     4.5660     6.4710     4.4240     2.1750 
  183.0000   -14.6050    76.2030     4.7850     6.7650     5.0300     2.1930 
  183.1250   -14.5220    78.6470     4.9660     6.9850     5.7010     2.2030 
  183.2500   -14.5760    81.1060     5.0550     7.0750     6.0630     2.2080 
  183.3750   -14.7480    83.4360     5.0740     7.0640     5.4710     2.2190 
  183.5000   -15.0080    85.2700     5.0580     7.0150     4.4570     2.2250 
  183.6250   -15.2670    85.9040     5.0720     7.0120     4.4200     2.2190 
  183.7500   -15.4820    85.1970     5.1460     7.1010     5.1210     2.1940 
  183.8750   -15.6720    84.0720     5.2890     7.2780     5.9910     2.1850 
  184.0000   -15.8450    82.8140     5.4650     7.5090     6.7570     2.1910 
  184.1250   -15.9770    81.0890     5.6690     7.7280     7.5620     2.2010 
  184.2500   -16.0080    81.4570     5.7590     7.8140     8.4070     2.1970 
  184.3750   -15.9010    83.2850     5.7300     7.7270     7.9670     2.1870 
  184.5000   -15.6490    84.6090     5.5310     7.4440     6.5650     2.1840 
  184.6250   -15.3270    82.2800     5.2540     7.0550     5.3310     2.1890 
  184.7500   -15.0630    77.7530     4.9440     6.6220     4.4460     2.1980 
  184.8750   -14.9280    73.6780     4.6150     6.1850     4.1340     2.2080 
  185.0000   -14.9010    70.4230     4.3060     5.7770     4.1910     2.2140 
  185.1250   -14.9280    67.0750     4.0210     5.4060     3.9980     2.2050 
  185.2500   -15.0100    63.4640     3.8120     5.1080     3.6950     2.1830 
  185.3750   -15.0730    62.6530     3.6780     4.9030     3.7530     2.1650 
  185.5000   -14.9260    66.5920     3.6500     4.8320     3.9670     2.1710 
  185.6250   -14.4940    73.9610     3.7260     4.9250     4.8170     2.2010 
  185.7500   -13.9440    81.8020     3.9700     5.2210     6.1590     2.2230 
  185.8750   -13.5660    87.4200     4.3100     5.6170     6.1870     2.2170 
  186.0000   -13.4950    90.4640     4.6320     5.9800     5.5140     2.1850 
  186.1250   -13.6220    91.0050     4.8770     6.2360     5.6790     2.1670 
  186.2500   -13.7990    90.0180     5.0110     6.3440     5.9410     2.1720 
  186.3750   -13.9110    87.2890     5.0270     6.3170     5.7310     2.1890 
  186.5000   -13.9020    84.5400     4.9610     6.1960     5.0950     2.2010 
  186.6250   -13.7990    82.4550     4.8430     6.0350     4.3900     2.2070 
  186.7500   -13.6640    81.5000     4.7030     5.8750     4.0590     2.2050 
  186.8750   -13.5630    80.3240     4.6050     5.7650     3.8700     2.1980 
  187.0000   -13.5210    77.9710     4.5170     5.6860     3.7570     2.1920 
  187.1250   -13.5540    75.6510     4.4390     5.6110     3.7410     2.1830 
  187.2500   -13.6310    73.4410     4.3700     5.5520     3.6180     2.1750 
  187.3750   -13.6840    72.8370     4.3520     5.5270     3.6160     2.1670 
  187.5000   -13.7080    74.2160     4.3710     5.5460     3.9540     2.1710 
  187.6250   -13.7060    76.7410     4.4690     5.6450     4.6990     2.1810 
  187.7500   -13.6890    79.5940     4.6680     5.8620     5.6880     2.1990 
  187.8750   -13.6710    80.6050     4.9540     6.1880     6.8130     2.2130 
  188.0000   -13.6860    80.8680     5.2790     6.5550     9.9000     2.2310 
  188.1250   -13.7260    79.6410     5.5420     6.8670    11.3480     2.2540 
  188.2500   -13.7470    78.6530     5.7410     7.0690     7.4930     2.2860 
  188.3750   -13.7420    77.8890     5.8320     7.1480     4.7770     2.3050 
  188.5000   -13.7190    77.4720     5.8450     7.1430     6.5060     2.2970 
  188.6250   -13.6980    76.8390     5.8320     7.1150     8.5690     2.2790 
  188.7500   -13.6830    75.9380     5.7950     7.0690     7.6560     2.2660 
  188.8750   -13.6740    75.9170     5.7130     6.9560     5.5260     2.2640 
  189.0000   -13.6730    75.8260     5.5120     6.7180     4.4780     2.2670 
  189.1250   -13.6840    75.1930     5.2380     6.3850     3.9030     2.2760 
  189.2500   -13.6940    71.8880     4.9300     6.0280     3.5720     2.2820 
  189.3750   -13.7160    67.8130     4.7000     5.7480     3.6420     2.2740 
  189.5000   -13.7300    63.6980     4.5750     5.5930     3.9800     2.2590 
  189.6250   -13.7110    61.3460     4.5540     5.5570     4.5480     2.2560 
  189.7500   -13.6860    60.1310     4.6370     5.6430     5.0790     2.2710 
  189.8750   -13.6870    60.2770     4.7990     5.8190     5.0250     2.2830 
  190.0000   -13.7350    62.2230     5.0080     6.0500     4.8190     2.2890 
  190.1250   -13.8540    65.5360     5.2230     6.2810     5.9570     2.2920 
  190.2500   -14.0540    69.1900     5.3990     6.4660     7.5740     2.2910 
  190.3750   -14.2050    71.2240     5.4970     6.5740     7.1610     2.2910 
  190.5000   -14.2440    71.5390     5.5140     6.5850     5.5980     2.2840 
  190.6250   -14.2470    71.2830     5.4430     6.5060     4.6530     2.2790 
  190.7500   -14.2470    70.8660     5.2990     6.3440     4.5150     2.2690 
  190.8750   -14.2470    70.6970     5.1390     6.1510     4.8230     2.2690 
  191.0000   -14.2470    70.4460     4.9900     5.9810     4.7730     2.2800 
  191.1250   -14.2470    71.0800     4.9490     5.9300     4.6170     2.2950 
  191.2500   -14.2470    72.5830     5.0730     6.0970     4.8520     2.2980 
  191.3750   -14.2470    74.6360     5.4070     6.4980     5.2190     2.2850 
  191.5000   -14.2470    75.9750     5.8850     7.0900     6.3690     2.2680 
  191.6250   -14.2470    77.0760     6.4750     7.7740     8.6330     2.2630 
  191.7500   -14.2470    77.4460     7.0390     8.3900    11.5440     2.2830 
  191.8750   -14.2470    77.8480     7.4300     8.7740    18.0280     2.3190 
  192.0000   -14.2470    77.8190     7.5060     8.8140    33.5180     2.3280 
  192.1250   -14.2470    77.9290     7.3550     8.5960    37.5870     2.2940 
  192.2500   -14.2470    77.4850     7.0450     8.2080    17.8210     2.2570 
  192.3750   -14.2470    76.5790     6.6640     7.7630     4.6500     2.2820 
  192.5000   -14.2470    75.6120     6.3030     7.3410     4.6000     2.3560 
  192.6250   -14.2470    73.9000     5.9810     6.9910     4.3120     2.4080 
  192.7500   -14.2470    72.9100     5.7820     6.7720     4.1600     2.3910 
  192.8750   -14.2470    72.3580     5.6760     6.6590     4.4460     2.3390 
  193.0000   -14.2470    73.1830     5.6370     6.6020     4.7840     2.3040 
  193.1250   -14.2470    73.6620     5.5710     6.5220     4.8580     2.2940 
  193.2500   -14.2470    73.0400     5.4800     6.3920     4.6520     2.2970 
  193.3750   -14.2470    72.6990     5.3740     6.2410     4.4030     2.2960 
  193.5000   -14.2470    73.1940     5.2860     6.1060     5.1790     2.2880 
  193.6250   -14.2470    74.4610     5.2280     6.0220     7.8770     2.2680 
  193.7500   -14.2470    73.9640     5.2670     6.0410     9.6610     2.2500 
  193.8750   -14.2470    73.0740     5.3850     6.1480     8.0180     2.2470 
  194.0000   -14.2470    73.1770     5.5300     6.2850     5.9810     2.2630 
