~V
VERS. 2.00: Ver 2.00
~W
STRT.M 50.0000:
STOP.M 213.0000:
STEP.M 0.1250:
NULL. -999.2500:
UWI. F10803:
~C
DEPT.M :
SP.MV :
GR.API :
RI. :
RML.OHMM :
RXO.OHMM :
DEN.GM/CC :
~A
# ...
  101.5000   -15.8410    82.9320     3.5060     3.9860     3.4520     2.1820 
  101.6250   -15.1320    82.1660     3.6050     4.1150     3.6530     2.1620 
  101.7500   -14.5080    81.0620     3.6700     4.2280     3.8520     2.1460 
  101.8750   -13.9330    79.3000     3.6630     4.2530     3.7310     2.1330 
  102.0000   -13.6980    79.7470     3.6230     4.2090     3.4040     2.1290 
  102.1250   -14.1160    80.5400     3.6180     4.0500     3.2810     2.1220 
  102.2500   -15.0680    80.7110     3.6860     4.0150     3.5080     2.1050 
  102.3750   -15.8580    78.6080     3.8700     4.1740     3.8310     2.0760 
  102.5000   -16.3320    76.4210     4.1560     4.4400     3.9980     2.0520 
  102.6250   -16.7880    74.8040     4.4720     4.7780     4.0730     2.0420 
  102.7500   -17.1160    74.1700     4.7100     5.0110     4.1390     2.0420 
  102.8750   -17.1380    72.3290     4.8370     5.1150     4.1690     2.0420 
  103.0000   -17.0650    69.3340     5.0720     5.3670     4.1760     2.0480 
  103.1250   -16.9040    65.5530     5.6080     5.9740     4.3000     2.0720 
  103.2500   -16.6340    62.6820     6.3630     6.6230     4.9100     2.1240 
  103.3750   -16.4100    61.3820     7.1280     7.4840     5.9150     2.1920 
  103.5000   -16.1760    60.3310     7.7250     8.2700     6.1370     2.2450 
  103.6250   -15.7100    60.7110     7.8660     8.6430     5.3550     2.2520 
  103.7500   -14.9900    61.6930     7.3040     7.9780     4.8540     2.2230 
  103.8750   -14.2010    64.2900     6.3170     7.0440     5.1280     2.1920 
  104.0000   -13.4370    67.4990     5.1770     5.9100     5.3890     2.1780 
  104.1250   -12.6790    72.6350     4.2890     4.9210     4.9980     2.1650 
  104.2500   -12.1240    79.5850     3.8160     4.2640     4.7040     2.1410 
  104.3750   -11.5770    86.8990     3.4960     3.8830     4.9780     2.1220 
  104.5000   -11.0090    94.7840     3.2440     3.6160     4.8530     2.1230 
  104.6250   -10.3090   100.1200     3.0630     3.4080     4.1380     2.1420 
  104.7500    -9.6760   104.3380     2.9040     3.2220     3.6940     2.1570 
  104.8750    -9.3000   105.7710     2.7440     3.0270     3.6320     2.1670 
  105.0000    -9.3100   108.4470     2.5950     2.9240     3.5270     2.1670 
  105.1250    -9.6120   110.2790     2.5690     2.8750     3.3550     2.1740 
  105.2500    -9.9580   110.4600     2.7930     2.9990     3.3180     2.1920 
  105.3750   -10.4050   105.9910     3.2490     3.4180     3.3970     2.2070 
  105.5000   -11.3270   100.1980     3.9410     4.0960     3.6700     2.2040 
  105.6250   -12.8920    94.1860     4.7650     4.9650     4.2240     2.1790 
  105.7500   -14.4470    90.2320     5.5290     5.8150     4.5940     2.1520 
  105.8750   -15.5100    86.9930     5.8720     6.3580     4.6190     2.1330 
  106.0000   -16.1630    84.5390     5.8660     6.4950     4.5940     2.1280 
  106.1250   -16.5210    83.1000     5.6110     6.1440     4.5370     2.1260 
  106.2500   -16.6070    82.8380     5.3590     5.8680     4.4790     2.1200 
  106.3750   -16.6120    82.9880     5.3110     5.7220     4.4930     2.1060 
  106.5000   -16.5730    81.6850     5.3490     5.7350     4.4530     2.0950 
  106.6250   -16.4430    78.7890     5.4150     5.8430     4.3010     2.0910 
  106.7500   -16.4680    77.1510     5.4730     5.9590     4.1150     2.0950 
  106.8750   -16.6240    77.8140     5.4710     6.1630     3.9880     2.0980 
  107.0000   -16.8410    80.5150     5.3860     6.1240     3.9770     2.0990 
  107.1250   -17.0660    82.1170     5.2610     6.0160     4.0350     2.0980 
  107.2500   -17.3800    82.0150     5.1620     5.9140     4.0610     2.0920 
  107.3750   -17.6290    81.2280     5.1170     5.8620     4.0490     2.0850 
  107.5000   -17.6140    78.9310     5.1300     5.8620     4.0100     2.0760 
  107.6250   -17.0880    77.2270     5.1890     5.9040     3.8970     2.0750 
  107.7500   -16.6340    74.4570     5.2800     5.9730     3.7270     2.0770 
  107.8750   -16.4050    73.8510     5.3940     6.0570     3.5800     2.0800 
  108.0000   -16.2580    74.2480     5.5230     6.1520     3.5360     2.0800 
  108.1250   -16.2030    74.4690     5.6450     6.3830     3.6500     2.0760 
  108.2500   -16.0470    72.7560     5.7900     6.5140     3.8320     2.0710 
  108.3750   -15.8610    70.8110     5.9750     6.6830     3.9410     2.0630 
  108.5000   -15.7630    71.0600     6.1540     6.8720     3.9730     2.0590 
  108.6250   -15.9460    73.0990     6.3070     7.0580     3.9880     2.0530 
  108.7500   -16.2070    74.8330     6.3760     7.1990     4.0260     2.0470 
  108.8750   -16.4510    75.3720     6.3320     7.2430     4.0540     2.0360 
  109.0000   -16.6040    74.6780     6.2160     7.1930     4.0180     2.0340 
  109.1250   -16.7310    74.5020     6.0690     7.1180     3.9450     2.0410 
  109.2500   -16.7530    74.6330     5.9280     6.7560     3.8730     2.0570 
  109.3750   -16.6340    75.8250     5.8330     6.5730     3.7940     2.0710 
  109.5000   -16.3830    76.3950     5.8100     6.4830     3.7820     2.0830 
  109.6250   -15.9730    76.4150     5.8360     6.4830     3.9350     2.0890 
  109.7500   -15.6200    74.9260     5.8770     6.5730     4.1980     2.0930 
  109.8750   -15.3560    72.1490     5.8860     6.6840     4.4560     2.0970 
  110.0000   -15.1590    68.6740     5.8320     6.5730     4.6270     2.1000 
  110.1250   -15.0350    65.5560     5.7420     6.3730     4.7420     2.1000 
  110.2500   -15.0370    63.4710     5.6180     6.3070     4.9100     2.0950 
  110.3750   -15.0390    62.9030     5.4840     6.0520     5.2700     2.0870 
  110.5000   -14.9390    64.0660     5.3690     5.8880     5.8010     2.0780 
  110.6250   -14.8620    65.5920     5.2700     5.8660     6.2330     2.0650 
  110.7500   -14.7050    66.4050     5.2090     5.7670     6.5920     2.0540 
  110.8750   -14.4320    65.9110     5.1880     5.6850     7.2300     2.0470 
  111.0000   -14.0470    65.5710     5.1820     5.5040     7.8250     2.0530 
  111.1250   -13.6960    66.2010     5.2270     5.5460     7.7430     2.0660 
  111.2500   -13.3760    68.6290     5.3980     5.7590     7.3290     2.0780 
  111.3750   -12.9720    71.4280     5.8080     6.2040     7.2960     2.0930 
  111.5000   -12.3990    72.8970     6.1320     6.6690    10.1440     2.1310 
  111.6250   -11.7070    72.5000     5.9930     6.7640    19.7770     2.2020 
  111.7500   -10.9240    72.3360     5.4330     6.3280    24.9500     2.2740 
  111.8750   -10.1290    74.7460     4.4930     5.4230    15.3240     2.3030 
  112.0000    -9.5470    79.5090     3.7180     4.4470     5.7430     2.2790 
  112.1250    -9.2610    85.4840     3.3660     3.8390     4.1720     2.2490 
  112.2500    -9.2180    88.5220     3.4860     3.7650     5.2620     2.2560 
  112.3750    -9.2790    87.0670     3.9780     4.1960     9.9900     2.3210 
  112.5000    -9.3950    81.8600     4.5550     4.8400    15.0430     2.4000 
  112.6250    -9.4370    77.3250     4.9770     5.3510    12.8580     2.4370 
  112.7500    -9.5000    75.7750     4.8750     5.4350     7.1570     2.4060 
  112.8750    -9.6250    78.6420     4.4730     5.0610     5.0680     2.3360 
  113.0000    -9.9740    82.0900     3.9490     4.5040     5.5490     2.2710 
  113.1250   -10.4560    83.8360     3.5830     4.0800     5.7700     2.2410 
  113.2500   -10.7710    83.7920     3.4660     3.8290     5.5410     2.2280 
  113.3750   -10.8950    83.2880     3.5320     3.8040     5.2830     2.2260 
  113.5000   -10.8360    81.3310     3.5870     3.8460     5.1880     2.2220 
  113.6250   -10.7390    77.7510     3.6150     3.9030     5.5050     2.2180 
  113.7500   -10.6190    75.0250     3.7870     4.0450     5.7510     2.2130 
  113.8750   -10.4540    74.3750     4.0070     4.3010     5.6110     2.2180 
  114.0000   -10.3140    73.6790     4.2310     4.5910     6.6920     2.2380 
  114.1250   -10.2970    71.3200     4.3740     4.8070     8.0930     2.2560 
  114.2500   -10.2390    68.6730     4.3420     4.7770     7.3160     2.2520 
