~V
VERS. 2.00: Ver 2.00
~W
STRT.M 40.0000:
STOP.M 215.0000:
STEP.M 0.1250:
NULL. -999.2500:
UWI. F10811:
~C
DEPT.M :
SP.MV :
GR.API :
RI. :
RML.OHMM :
RXO.OHMM :
DEN.GM/CC :
~A
# ...
  104.3750    -6.2480   102.8950     3.8010     4.2170     4.2950     2.2370 
  104.5000    -6.5860   104.3300     3.9680     4.3840     4.2290     2.2560 
  104.6250    -7.4050   103.3020     4.2770     4.7190     4.4380     2.2480 
  104.7500    -8.7610    98.6240     4.6880     5.1800     5.0010     2.2100 
  104.8750   -10.5980    92.4090     5.2260     5.7340     5.9860     2.1570 
  105.0000   -12.5860    86.1470     5.7160     6.2450     6.9660     2.1120 
  105.1250   -14.4050    80.2790     6.0120     6.5620     7.7460     2.0860 
  105.2500   -15.8970    76.0840     6.0700     6.6460     8.2800     2.0770 
  105.3750   -16.9630    74.2240     5.9820     6.5690     8.3230     2.0760 
  105.5000   -17.6590    74.5580     5.8730     6.4690     8.1680     2.0740 
  105.6250   -18.0910    75.4730     5.8370     6.4130     8.3560     2.0700 
  105.7500   -18.4210    76.4390     5.7610     6.3140     8.7830     2.0630 
  105.8750   -18.6910    76.5360     5.5690     6.1570     8.9040     2.0570 
  106.0000   -18.8840    75.6140     5.5680     6.1260     8.9360     2.0540 
  106.1250   -18.9840    75.5710     5.6330     6.2180     9.2290     2.0600 
  106.2500   -18.9960    76.4620     5.8370     6.4030     9.6120     2.0670 
  106.3750   -18.9050    77.6800     6.0210     6.5680     9.9660     2.0700 
  106.5000   -18.7140    76.4920     5.9970     6.5740    10.0020     2.0710 
  106.6250   -18.4150    77.3930     5.8710     6.4460     9.6520     2.0740 
  106.7500   -18.0930    79.1170     5.7070     6.2570     9.3280     2.0780 
  106.8750   -17.9380    81.6710     5.5010     6.0560     9.2550     2.0790 
  107.0000   -18.0680    80.5800     5.3540     5.9260     9.4790     2.0770 
  107.1250   -18.4300    77.6000     5.4060     5.9470    10.1290     2.0730 
  107.2500   -18.8130    74.7580     5.4840     6.0220    10.7930     2.0700 
  107.3750   -19.0780    72.6950     5.5340     6.0770    10.7930     2.0690 
  107.5000   -19.2160    71.9660     5.5560     6.1110    10.5940     2.0670 
  107.6250   -19.2270    71.3520     5.5910     6.1530    10.7000     2.0670 
  107.7500   -19.1090    71.2470     5.6680     6.2270    10.5380     2.0660 
  107.8750   -18.8330    69.9290     5.7390     6.2950    10.0260     2.0630 
  108.0000   -18.4020    68.7890     5.7420     6.3050     9.7420     2.0630 
  108.1250   -17.8060    68.8860     5.7100     6.2770     9.5430     2.0670 
  108.2500   -17.0500    72.3010     5.6890     6.2510     8.9950     2.0730 
  108.3750   -16.0900    76.4570     5.6650     6.2190     8.5240     2.0700 
  108.5000   -14.9470    79.7050     5.6100     6.1450     8.5760     2.0650 
  108.6250   -13.6300    79.9620     5.4500     5.9630     8.6010     2.0680 
  108.7500   -12.1460    81.0990     5.1590     5.6630     8.0420     2.0930 
  108.8750   -10.5470    82.2920     4.8160     5.2860     6.7110     2.1370 
  109.0000    -9.0740    85.2720     4.4340     4.8860     5.1530     2.1800 
  109.1250    -8.0450    88.6330     4.1270     4.5570     4.2460     2.1950 
  109.2500    -7.5560    93.3880     3.9310     4.3440     3.9310     2.1800 
  109.3750    -7.5790    95.8040     3.8660     4.2700     3.9150     2.1540 
  109.5000    -7.9310    96.2790     3.9150     4.3230     4.0060     2.1390 
  109.6250    -8.5350    94.2950     4.0800     4.5040     4.0970     2.1360 
  109.7500    -9.3720    93.4170     4.3460     4.7900     4.4600     2.1340 
  109.8750   -10.4510    91.1800     4.7020     5.1930     5.4420     2.1300 
  110.0000   -11.6100    87.7740     5.1870     5.6940     6.4990     2.1260 
  110.1250   -12.6390    81.7210     5.6330     6.1740     7.1420     2.1230 
  110.2500   -13.4420    75.9610     5.9920     6.5590     7.7870     2.1200 
  110.3750   -13.9840    73.2810     6.2090     6.7940     8.1110     2.1190 
  110.5000   -14.3190    73.1840     6.2730     6.9000     7.6080     2.1160 
  110.6250   -14.5280    74.6950     6.3630     7.0080     7.5180     2.1120 
  110.7500   -14.7260    73.1960     6.5330     7.1900     8.5930     2.1050 
  110.8750   -14.8950    70.2890     6.7750     7.4580     9.3850     2.0970 
  111.0000   -14.9050    66.4020     7.0900     7.7950     9.3840     2.0860 
  111.1250   -14.6480    64.7380     7.4150     8.1360     9.4490     2.0810 
  111.2500   -14.1380    62.8160     7.6680     8.3870     9.6650     2.0890 
  111.3750   -13.3620    60.7020     7.7020     8.4110    10.0690     2.1200 
  111.5000   -12.3560    60.1110     7.4600     8.1620    10.4840     2.1620 
  111.6250   -11.1450    62.5340     7.0000     7.6560     9.2470     2.1970 
  111.7500    -9.8440    66.9550     6.3470     6.9890     7.4220     2.2170 
  111.8750    -8.6550    70.7500     5.7580     6.3540     6.6550     2.2300 
  112.0000    -7.7690    74.8610     5.3090     5.8520     6.7250     2.2350 
  112.1250    -7.2750    76.8880     4.9810     5.5060     6.5340     2.2220 
  112.2500    -7.0600    78.7540     4.8280     5.3210     6.4650     2.1960 
  112.3750    -7.0090    80.0250     4.7660     5.2490     6.4840     2.1740 
  112.5000    -7.0290    83.4130     4.7750     5.2720     6.2650     2.1630 
  112.6250    -7.1120    86.6880     4.9120     5.4060     6.5100     2.1580 
  112.7500    -7.2430    87.8100     5.0930     5.5990     6.8520     2.1590 
  112.8750    -7.3370    85.0660     5.3240     5.8700     6.5410     2.1710 
  113.0000    -7.3030    80.2670     5.6560     6.2070     6.2050     2.1930 
  113.1250    -7.1340    75.8720     5.9260     6.4950     6.8730     2.2200 
  113.2500    -6.9120    72.4350     6.1050     6.6340     9.1000     2.2430 
  113.3750    -6.6950    72.2360     6.0400     6.4640    10.6880     2.2540 
  113.5000    -6.5250    73.4170     5.7130     6.0580     9.1830     2.2520 
  113.6250    -6.4300    78.0840     5.2470     5.5150     6.7270     2.2410 
  113.7500    -6.3510    80.7810     4.8680     5.1250     5.8520     2.2290 
  113.8750    -6.1760    81.4530     4.9070     5.2910     6.0740     2.2240 
  114.0000    -5.8680    78.1580     5.6730     6.2810     6.7060     2.2380 
  114.1250    -5.4680    73.1890     7.3540     8.1860     8.9570     2.2900 
  114.2500    -5.0330    67.1080     9.4030    10.3720    15.0090     2.3710 
  114.3750    -4.6130    60.9970    10.7630    11.7610    22.9220     2.4450 
  114.5000    -4.2890    57.6670    11.0040    11.7910    24.6570     2.4690 
  114.6250    -4.1200    59.0410     9.8150    10.4100    17.4690     2.4300 
  114.7500    -4.0500    64.8760     8.1820     8.6370     9.5920     2.3580 
  114.8750    -3.9730    69.8180     7.2670     7.7100     6.5000     2.3100 
  115.0000    -3.7980    70.4630     7.4390     8.1820     7.5990     2.3170 
  115.1250    -3.5130    66.4750     9.4210    10.6090    14.1040     2.3790 
  115.2500    -3.2030    59.9360    13.1190    14.7010    21.8930     2.4520 
  115.3750    -2.9410    54.0790    17.2480    19.1790    26.0930     2.5010 
  115.5000    -2.7520    50.3080    20.6920    22.7090    27.2070     2.5210 
  115.6250    -2.6530    48.6050    22.5270    24.5380    26.8640     2.5240 
  115.7500    -2.6300    47.9590    23.1640    25.1990    25.1540     2.5310 
  115.8750    -2.6410    47.1590    23.7880    25.7460    24.7630     2.5470 
  116.0000    -2.6490    47.3040    24.5280    26.4680    29.6070     2.5680 
  116.1250    -2.6650    47.5640    25.0330    26.9670    37.2720     2.5780 
  116.2500    -2.7020    48.4440    24.8890    26.8280    38.1590     2.5710 
  116.3750    -2.7290    48.4140    24.0190    25.9680    30.3330     2.5500 
  116.5000    -2.7120    48.2790    22.8520    24.8350    23.1690     2.5340 
  116.6250    -2.6580    47.5230    21.8650    23.9950    21.2700     2.5300 
  116.7500    -2.5950    46.7400    21.4640    23.7700    21.4790     2.5320 
  116.8750    -2.5390    46.6760    21.6250    24.0910    21.5650     2.5310 
  117.0000    -2.5060    46.8270    22.0410    24.5670    21.9620     2.5280 
  117.1250    -2.5070    47.0340    22.3890    24.8840    22.2230     2.5300 
