~V
VERS. 2.00: Ver 2.00
~W
STRT.M 40.0000:
STOP.M 216.0000:
STEP.M 0.1250:
NULL. -999.2500:
UWI. F10813:
~C
DEPT.M :
SP.MV :
GR.API :
RI. :
RML.OHMM :
RXO.OHMM :
DEN.GM/CC :
~A
# ...
  104.3750   -15.0980    65.4940    18.8700    20.7560    23.8750     2.0850 
  104.5000   -15.3580    64.0130    18.0510    20.0000    22.5480     2.0950 
  104.6250   -15.5930    63.9830    17.1570    19.2510    22.2250     2.0990 
  104.7500   -15.8830    65.0510    16.3410    18.5200    22.1700     2.0990 
  104.8750   -16.0840    65.7830    15.5900    17.7230    21.9510     2.0960 
  105.0000   -16.1970    66.8930    14.7250    16.7260    20.7080     2.0900 
  105.1250   -16.1440    68.2110    13.7280    15.4930    18.7540     2.0790 
  105.2500   -15.8430    69.9670    12.5030    14.0850    17.1280     2.0740 
  105.3750   -15.4190    71.4770    11.2320    12.7420    15.7720     2.0850 
  105.5000   -14.8350    72.3140    10.4320    11.8190    13.4240     2.1110 
  105.6250   -14.0920    73.1460    10.0250    11.3530    10.7030     2.1330 
  105.7500   -13.3790    73.1920     9.8020    11.0530    11.9510     2.1370 
  105.8750   -13.0620    73.8360     9.3370    10.5160    17.7580     2.1220 
  106.0000   -12.8560    75.0950     8.4880     9.5930    19.6950     2.1110 
  106.1250   -12.5500    79.1000     7.5040     8.4300    13.4860     2.1180 
  106.2500   -12.1360    84.0850     6.4890     7.2470     7.1070     2.1430 
  106.3750   -11.7910    87.7290     5.6790     6.2860     5.2270     2.1670 
  106.5000   -11.4500    88.9680     5.0560     5.6150     5.5230     2.1860 
  106.6250   -10.9490    91.1900     4.7100     5.2560     5.7620     2.2070 
  106.7500   -10.0580    95.6320     4.5910     5.1110     4.9630     2.2360 
  106.8750    -9.1420   101.2650     4.5600     5.0570     4.2710     2.2660 
  107.0000    -8.8230   106.0420     4.5680     5.0320     4.4330     2.2750 
  107.1250    -9.0440   107.4990     4.5800     5.0250     4.7900     2.2630 
  107.2500    -9.4660   106.5010     4.5960     5.0170     4.7570     2.2360 
  107.3750    -9.7670   103.8740     4.5530     4.9700     4.5650     2.2230 
  107.5000    -9.9700   101.1830     4.4570     4.8850     4.3230     2.2230 
  107.6250   -10.1340   100.4820     4.3540     4.8210     4.0130     2.2280 
  107.7500   -10.2540   102.4630     4.3280     4.8350     3.9950     2.2280 
  107.8750   -10.4910   105.6970     4.3700     4.9300     4.2000     2.2300 
  108.0000   -10.8020   105.1470     4.4350     5.0580     4.2820     2.2390 
  108.1250   -11.1660   100.0090     4.5050     5.1640     4.4720     2.2390 
  108.2500   -11.5330    94.3160     4.5270     5.2180     4.9440     2.2210 
  108.3750   -11.9360    91.4150     4.5610     5.2880     5.2550     2.1900 
  108.5000   -12.2340    90.3780     4.7560     5.5740     5.3000     2.1670 
  108.6250   -12.3690    89.2270     5.3270     6.3850     5.5960     2.1760 
  108.7500   -12.4530    86.8560     6.4820     7.9760     6.9960     2.2380 
  108.8750   -12.6220    83.1470     8.4610    10.4350    14.8090     2.3330 
  109.0000   -12.8690    79.1200    10.5790    12.8330    25.9150     2.3900 
  109.1250   -13.2330    77.0670    11.4000    13.7560    26.2270     2.3440 
  109.2500   -13.7530    77.7480    10.8300    12.9480    18.5000     2.2290 
  109.3750   -14.1730    80.0300     9.1740    10.9010    12.2300     2.1320 
  109.5000   -14.3830    82.7020     7.4020     8.9260     7.7150     2.0970 
  109.6250   -14.5350    84.2260     6.7870     8.1270     5.9270     2.1000 
  109.7500   -14.8390    83.0700     6.8630     8.3260     6.5430     2.1020 
  109.8750   -15.1900    81.5580     7.4770     9.1950     7.9530     2.0860 
  110.0000   -15.5840    79.8530     8.3810    10.4120    10.7700     2.0710 
  110.1250   -15.9800    78.7920     9.5180    11.7630    13.1530     2.0580 
  110.2500   -16.3320    75.4270    10.5910    13.0080    11.9510     2.0580 
  110.3750   -16.6280    71.8170    11.5990    14.1970    10.4620     2.0640 
  110.5000   -16.9080    69.0930    12.7930    15.6350    12.7100     2.0700 
  110.6250   -17.2110    68.6190    14.3840    17.4480    17.4300     2.0630 
  110.7500   -17.3610    68.0660    16.0030    19.2180    21.3050     2.0500 
  110.8750   -17.3690    67.6360    17.0770    20.2540    21.9800     2.0400 
  111.0000   -17.2480    67.5950    17.2030    20.1540    20.5280     2.0380 
  111.1250   -17.0200    68.2830    16.2400    18.9800    18.5520     2.0340 
  111.2500   -16.6970    69.4020    15.0310    17.4830    16.9600     2.0330 
  111.3750   -16.4050    70.2120    13.8790    16.1080    15.5520     2.0350 
  111.5000   -16.0590    71.9990    13.0100    15.1000    13.7160     2.0440 
  111.6250   -15.6890    73.4050    12.6400    14.6820    12.7890     2.0560 
  111.7500   -15.3520    74.6810    12.7100    14.8220    12.5680     2.0630 
  111.8750   -14.9080    74.7770    13.1780    15.3440    12.5080     2.0670 
  112.0000   -14.3920    74.2810    13.5110    15.5270    13.9100     2.0630 
  112.1250   -13.7840    72.0620    12.7330    14.5060    15.3060     2.0620 
  112.2500   -13.1020    70.6860    10.9800    12.3540    14.8570     2.0720 
  112.3750   -12.3450    71.9780     8.6960     9.6790    13.5620     2.1060 
  112.5000   -11.5920    77.6730     6.7470     7.4640    10.4270     2.1560 
  112.6250   -10.9400    83.3810     5.9020     6.4250     5.9480     2.2100 
  112.7500   -10.6070    86.6080     5.8350     6.3400     4.5350     2.2570 
  112.8750   -10.5690    85.2320     6.3530     6.9880     7.4190     2.3060 
  113.0000   -10.6980    80.9240     7.3810     8.0880    12.2020     2.3470 
  113.1250   -10.8620    75.0440     8.4970     9.1990    13.7930     2.3690 
  113.2500   -10.8860    70.2990     9.3090     9.9070    10.2480     2.3690 
  113.3750   -10.8710    67.4140     9.4100     9.9220     8.3140     2.3830 
  113.5000   -10.8180    65.7600     8.8960     9.3350    11.4770     2.4150 
  113.6250   -10.7100    65.8900     7.9890     8.3930    14.4370     2.4210 
  113.7500   -10.6030    68.6520     7.0800     7.4180    12.3340     2.3630 
  113.8750   -10.6450    73.3560     6.3560     6.6810     7.6520     2.2780 
  114.0000   -10.6690    78.0110     6.0740     6.4750     5.7490     2.2420 
  114.1250   -10.6260    77.9770     6.5490     7.2370     6.8720     2.2920 
  114.2500   -10.5220    74.6580     8.0870     9.2020     9.9490     2.3810 
  114.3750   -10.3520    67.6390    10.7750    12.4270    14.3360     2.4460 
  114.5000   -10.1550    60.9660    14.3240    16.3160    17.0420     2.4550 
  114.6250    -9.9460    55.4190    17.6320    19.9000    18.3430     2.4290 
  114.7500    -9.8690    51.6560    20.0600    22.5180    19.6380     2.4000 
  114.8750    -9.8400    50.2170    21.4630    23.9370    21.2130     2.3920 
  115.0000    -9.8510    49.8660    21.8620    24.4640    22.8730     2.4100 
  115.1250    -9.8400    49.7880    21.9030    24.5920    22.2800     2.4440 
  115.2500    -9.8500    49.2420    21.8850    24.7190    21.5230     2.4540 
  115.3750    -9.8240    48.1200    21.9680    25.0490    21.7940     2.4220 
  115.5000    -9.7880    46.7320    22.2870    25.6900    21.6050     2.3740 
  115.6250    -9.7840    45.4260    22.7880    26.5510    23.0280     2.3530 
  115.7500    -9.8510    44.9620    23.2540    27.2360    24.8430     2.3610 
  115.8750    -9.9840    45.1030    23.2510    27.2410    24.7820     2.3840 
  116.0000   -10.1250    46.6810    22.6820    26.4910    26.6170     2.4030 
  116.1250   -10.2950    47.6410    21.7310    25.2300    27.7380     2.3890 
  116.2500   -10.4460    48.4860    20.7620    24.0300    23.1240     2.3500 
  116.3750   -10.5810    48.8450    20.3420    23.4290    19.1440     2.3180 
  116.5000   -10.6340    49.5690    20.4570    23.4420    19.4210     2.2950 
  116.6250   -10.6270    50.4180    20.9230    23.9110    20.6380     2.2290 
  116.7500   -10.5750    50.1090    21.6120    24.5950    22.4510     2.1260 
  116.8750   -10.4850    48.8040    22.2550    25.1840    26.1430     2.0650 
  117.0000   -10.3840    48.9790    22.6420    25.4830    27.1450     2.0980 
  117.1250   -10.2650    49.9610    22.7430    25.4090    23.3520     2.1890 
