~V
VERS. 2.00: Ver 2.00
~W
STRT.M 63.0000:
STOP.M 236.0000:
STEP.M 0.1250:
NULL. -999.2500:
UWI. F10859:
~C
DEPT.M :
TVD. :
DX. :
DY. :
SP.MV :
GR.API :
RI. :
RML.OHMM :
RXO.OHMM :
DEN.GM/CC :
~A
# ...
  108.6250   108.6200    -0.6260     0.2910   -24.6240    88.0370     7.1990     8.2850     7.3910     2.2220 
  108.7500   108.7450    -0.6270     0.2920   -24.5210    85.4870     7.3040     8.4050     7.2840     2.2170 
  108.8750   108.8700    -0.6290     0.2930   -24.4290    82.1310     7.4210     8.4580     7.1750     2.2160 
  109.0000   108.9950    -0.6310     0.2930   -24.3390    82.9930     7.3600     8.2540     7.0530     2.2260 
  109.1250   109.1200    -0.6320     0.2940   -24.2460    82.3740     7.0900     7.8080     6.7040     2.2500 
  109.2500   109.2450    -0.6340     0.2950   -24.1540    82.9520     6.6570     7.2070     6.1530     2.2800 
  109.3750   109.3700    -0.6360     0.2950   -24.0650    84.0320     6.1620     6.5820     5.6100     2.3000 
  109.5000   109.4950    -0.6370     0.2960   -23.9830    87.3250     5.6920     6.0340     5.3050     2.3000 
  109.6250   109.6200    -0.6390     0.2970   -23.9090    90.5590     5.2990     5.6100     5.2440     2.2890 
  109.7500   109.7450    -0.6410     0.2970   -23.8500    92.9250     5.0080     5.3190     5.1700     2.2790 
  109.8750   109.8700    -0.6420     0.2980   -23.8150    94.0260     4.8100     5.1350     4.9560     2.2760 
  110.0000   109.9950    -0.6440     0.2990   -23.8160    96.5020     4.7090     5.0570     4.7400     2.2760 
  110.1250   110.1200    -0.6460     0.2990   -23.8570    99.8770     4.6990     5.0770     4.6420     2.2750 
  110.2500   110.2450    -0.6470     0.3000   -23.9430   103.0040     4.7890     5.1970     4.7220     2.2720 
  110.3750   110.3700    -0.6490     0.3010   -24.0660   102.5160     4.9600     5.3910     4.9860     2.2680 
  110.5000   110.4950    -0.6510     0.3010   -24.2090    99.8770     5.1930     5.6350     5.3610     2.2660 
  110.6250   110.6200    -0.6520     0.3020   -24.3390    97.0040     5.4700     5.9180     5.6690     2.2670 
  110.7500   110.7450    -0.6540     0.3030   -24.3970    93.2620     5.8110     6.2730     5.8370     2.2680 
  110.8750   110.8700    -0.6550     0.3030   -24.3640    89.2440     6.2170     6.7150     6.0860     2.2720 
  111.0000   110.9950    -0.6570     0.3040   -24.2820    84.6650     6.6520     7.1990     7.0020     2.2840 
  111.1250   111.1200    -0.6590     0.3050   -24.2460    81.7600     7.0370     7.6260     8.7390     2.2980 
  111.2500   111.2440    -0.6600     0.3060   -24.3560    79.7520     7.2820     7.8840     9.8710     2.2990 
  111.3750   111.3690    -0.6620     0.3060   -24.5850    81.1250     7.3560     7.9500     9.0800     2.2790 
  111.5000   111.4940    -0.6640     0.3070   -24.8480    84.4590     7.2800     7.8700     7.5990     2.2440 
  111.6250   111.6190    -0.6650     0.3080   -25.0770    88.9520     7.1330     7.7470     7.0850     2.2110 
  111.7500   111.7440    -0.6670     0.3080   -25.2430    89.6830     6.9900     7.6540     7.2090     2.1940 
  111.8750   111.8690    -0.6680     0.3090   -25.3720    89.1160     6.9180     7.6370     7.2500     2.1920 
  112.0000   111.9940    -0.6700     0.3100   -25.4670    87.5370     7.0190     7.8030     7.1770     2.1950 
  112.1250   112.1190    -0.6720     0.3100   -25.5300    87.1220     7.4210     8.3230     7.1550     2.1930 
  112.2500   112.2440    -0.6730     0.3110   -25.5730    85.7710     8.3780     9.5130     7.4990     2.1780 
  112.3750   112.3690    -0.6750     0.3120   -25.6280    83.3270    10.1310    11.6350     8.7070     2.1530 
  112.5000   112.4940    -0.6770     0.3120   -25.7400    79.4380    13.0490    15.0680    12.1430     2.1240 
  112.6250   112.6190    -0.6780     0.3130   -25.9330    74.1460    17.0620    19.6920    18.7060     2.1010 
  112.7500   112.7440    -0.6800     0.3140   -26.2230    69.6140    21.7670    25.0180    25.8610     2.0860 
  112.8750   112.8690    -0.6810     0.3140   -26.5880    66.9430    26.3200    30.1010    28.9220     2.0760 
  113.0000   112.9940    -0.6830     0.3150   -27.0000    67.1580    29.9620    34.1590    28.4910     2.0680 
  113.1250   113.1190    -0.6850     0.3160   -27.4170    67.2120    32.5640    37.1160    29.9050     2.0620 
  113.2500   113.2440    -0.6860     0.3160   -27.8160    67.4540    34.0970    38.9130    34.3150     2.0600 
  113.3750   113.3690    -0.6880     0.3170   -28.1880    65.8240    34.5100    39.3890    38.7870     2.0630 
  113.5000   113.4940    -0.6890     0.3180   -28.5300    65.1620    33.5700    38.2280    42.7630     2.0680 
  113.6250   113.6190    -0.6910     0.3180   -28.8400    65.1170    31.7270    35.9990    46.2130     2.0750 
  113.7500   113.7440    -0.6930     0.3190   -29.1130    66.7330    29.8480    33.8110    45.1890     2.0800 
  113.8750   113.8690    -0.6940     0.3190   -29.3560    68.4790    28.9660    32.9300    38.9010     2.0820 
  114.0000   113.9940    -0.6960     0.3200   -29.5940    68.7840    30.0630    34.5000    35.2540     2.0800 
  114.1250   114.1190    -0.6980     0.3210   -29.8540    66.2930    33.3150    38.6170    38.2170     2.0740 
  114.2500   114.2440    -0.6990     0.3210   -30.1580    62.4490    38.3800    44.6740    42.3140     2.0690 
  114.3750   114.3690    -0.7010     0.3220   -30.4950    58.1900    43.9240    50.9640    43.9180     2.0670 
  114.5000   114.4940    -0.7020     0.3220   -30.8410    55.6670    48.4970    55.7770    43.7290     2.0640 
  114.6250   114.6190    -0.7040     0.3230   -31.1690    55.5130    51.3120    58.4120    42.6790     2.0600 
  114.7500   114.7440    -0.7060     0.3230   -31.4690    57.8810    52.2490    58.9610    41.5570     2.0530 
  114.8750   114.8690    -0.7070     0.3240   -31.7500    60.6210    51.9080    58.2110    40.4070     2.0480 
  115.0000   114.9940    -0.7090     0.3240   -32.0250    61.5650    50.5800    56.4770    38.5340     2.0500 
  115.1250   115.1190    -0.7110     0.3250   -32.3020    61.5460    48.6160    54.1080    35.9270     2.0570 
  115.2500   115.2440    -0.7120     0.3250   -32.5830    61.9540    46.3660    51.4880    33.6420     2.0660 
  115.3750   115.3690    -0.7140     0.3260   -32.8650    61.9590    44.2770    49.1160    33.5600     2.0700 
  115.5000   115.4940    -0.7160     0.3260   -33.1400    60.4170    42.7570    47.4370    35.0410     2.0710 
  115.6250   115.6190    -0.7170     0.3270   -33.4050    58.9350    41.9490    46.5610    34.9660     2.0700 
  115.7500   115.7440    -0.7190     0.3270   -33.6630    59.6700    41.7790    46.3320    33.6140     2.0700 
  115.8750   115.8690    -0.7210     0.3280   -33.9190    61.9480    41.8760    46.2920    33.1500     2.0700 
  116.0000   115.9940    -0.7220     0.3280   -34.1730    61.7810    41.9580    46.1220    33.3380     2.0700 
  116.1250   116.1190    -0.7240     0.3290   -34.4160    59.1700    41.9120    45.7280    33.3140     2.0720 
  116.2500   116.2440    -0.7260     0.3290   -34.6420    57.0580    41.7320    45.1330    33.2240     2.0750 
  116.3750   116.3690    -0.7270     0.3290   -34.8610    58.7820    41.4670    44.4440    33.4210     2.0760 
  116.5000   116.4940    -0.7290     0.3300   -35.0940    61.7720    41.1590    43.7630    33.8430     2.0760 
  116.6250   116.6190    -0.7310     0.3300   -35.3600    62.8710    40.8150    43.1190    34.0140     2.0750 
  116.7500   116.7440    -0.7330     0.3310   -35.6680    60.9770    40.3290    42.3880    33.8720     2.0760 
  116.8750   116.8690    -0.7340     0.3310   -36.0070    60.1530    39.5500    41.3790    33.5830     2.0770 
  117.0000   116.9940    -0.7360     0.3320   -36.3640    61.6710    38.3430    39.9530    32.8280     2.0750 
  117.1250   117.1190    -0.7380     0.3320   -36.7250    64.1750    36.7840    38.2020    31.7970     2.0730 
  117.2500   117.2440    -0.7390     0.3330   -37.0820    64.6770    35.0020    36.2570    31.1150     2.0720 
  117.3750   117.3690    -0.7410     0.3330   -37.4310    64.9070    33.1440    34.2310    30.8210     2.0710 
  117.5000   117.4940    -0.7430     0.3330   -37.7640    65.9310    31.3310    32.2160    30.6320     2.0690 
  117.6250   117.6190    -0.7450     0.3340   -38.0770    66.2640    29.7840    30.4510    30.0630     2.0660 
