~V
VERS. 2.00: Ver 2.00
~W
STRT.M 62.0000:
STOP.M 256.0000:
STEP.M 0.1250:
NULL. -999.2500:
UWI. F10886:
~C
DEPT.M :
TVD. :
DX. :
DY. :
SP.MV :
GR.API :
RI. :
RML.OHMM :
RXO.OHMM :
DEN.GM/CC :
~A
# ...
  235.3750   235.3610    -1.4050    -1.6270   -10.2180    77.5510     5.2180     5.7050     6.2620     2.2750 
  235.5000   235.4860    -1.4060    -1.6270   -10.0190    79.7570     5.0130     5.3960     5.6320     2.2800 
  235.6250   235.6110    -1.4070    -1.6280    -9.7650    83.2810     4.8350     5.1450     5.3370     2.2760 
  235.7500   235.7360    -1.4080    -1.6280    -9.4660    86.5540     4.7690     5.0480     5.4730     2.2660 
  235.8750   235.8610    -1.4090    -1.6280    -9.1660    88.3440     4.8270     5.1070     5.8770     2.2530 
  236.0000   235.9860    -1.4100    -1.6290    -8.9220    87.3130     4.9340     5.2250     6.1110     2.2420 
  236.1250   236.1110    -1.4110    -1.6290    -8.7620    86.4810     4.9970     5.2900     5.9390     2.2320 
  236.2500   236.2360    -1.4120    -1.6290    -8.6570    85.2820     4.9440     5.2230     5.4860     2.2090 
  236.3750   236.3610    -1.4130    -1.6300    -8.5420    82.1870     4.7640     5.0200     4.7520     2.1420 
  236.5000   236.4860    -1.4140    -1.6300    -8.3460    75.8740     4.5350     4.7720     3.7400     2.0320 
  236.6250   236.6110    -1.4140    -1.6300    -8.0330    68.4140     4.3480     4.5850     2.9710     1.9290 
  236.7500   236.7360    -1.4150    -1.6310    -7.6470    63.4600     4.2590     4.5100     2.9760     1.8960 
  236.8750   236.8610    -1.4160    -1.6310    -7.2690    62.1330     4.2720     4.5380     3.6020     1.9620 
  237.0000   236.9860    -1.4170    -1.6310    -6.9790    63.4990     4.3470     4.6160     4.0800     2.0770 
  237.1250   237.1110    -1.4180    -1.6320    -6.8210    66.9260     4.4880     4.7520     3.9650     2.1800 
  237.2500   237.2360    -1.4190    -1.6320    -6.7610    70.7890     4.7410     5.0140     3.6350     2.2430 
  237.3750   237.3610    -1.4190    -1.6320    -6.7610    72.3590     5.2060     5.5400     3.8030     2.2800 
  237.5000   237.4860    -1.4200    -1.6330    -6.7910    71.8330     5.9170     6.3820     4.8640     2.3160 
  237.6250   237.6110    -1.4210    -1.6330    -6.8600    69.7430     6.8200     7.4600     6.6860     2.3620 
  237.7500   237.7360    -1.4220    -1.6330    -6.9880    68.8200     7.6450     8.4270     8.2560     2.4040 
  237.8750   237.8610    -1.4220    -1.6340    -7.1820    70.0890     7.9980     8.8000     8.2690     2.4160 
  238.0000   237.9860    -1.4230    -1.6340    -7.4230    72.6760     7.7320     8.4270     7.1430     2.3890 
  238.1250   238.1110    -1.4240    -1.6340    -7.6860    75.0290     6.9140     7.4310     6.1150     2.3380 
  238.2500   238.2360    -1.4250    -1.6350    -7.9260    75.0790     5.9130     6.2700     5.4230     2.2930 
  238.3750   238.3610    -1.4250    -1.6350    -8.1030    74.8520     5.0860     5.3620     4.9230     2.2740 
  238.5000   238.4860    -1.4260    -1.6350    -8.2020    74.1790     4.5660     4.8270     4.7250     2.2760 
  238.6250   238.6110    -1.4270    -1.6360    -8.2270    74.6160     4.3750     4.6630     4.8370     2.2810 
  238.7500   238.7360    -1.4270    -1.6360    -8.2110    75.8560     4.4310     4.7620     5.0540     2.2810 
  238.8750   238.8610    -1.4280    -1.6360    -8.1770    77.8340     4.6680     5.0480     5.2610     2.2720 
  239.0000   238.9860    -1.4280    -1.6370    -8.1440    80.0400     4.9950     5.4190     5.5690     2.2560 
  239.1250   239.1110    -1.4290    -1.6370    -8.1230    83.2840     5.3230     5.7740     6.0750     2.2380 
  239.2500   239.2360    -1.4300    -1.6370    -8.1170    87.4730     5.5510     6.0010     6.4800     2.2230 
  239.3750   239.3610    -1.4300    -1.6370    -8.1280    91.0400     5.5870     6.0050     6.3830     2.2180 
  239.5000   239.4860    -1.4310    -1.6380    -8.1470    90.6920     5.4500     5.8140     5.8750     2.2210 
  239.6250   239.6110    -1.4310    -1.6380    -8.1650    86.5600     5.2040     5.5140     5.3360     2.2290 
  239.7500   239.7360    -1.4320    -1.6380    -8.1760    81.4250     4.9630     5.2430     5.0830     2.2370 
  239.8750   239.8610    -1.4320    -1.6380    -8.1830    78.6220     4.8310     5.1220     5.1830     2.2400 
  240.0000   239.9860    -1.4330    -1.6390    -8.1980    78.5870     4.8460     5.1920     5.4140     2.2380 
  240.1250   240.1110    -1.4330    -1.6390    -8.2030    79.4990     5.0010     5.4300     5.6650     2.2370 
  240.2500   240.2360    -1.4340    -1.6390    -8.1490    80.4490     5.2110     5.7150     6.0300     2.2350 
  240.3750   240.3610    -1.4340    -1.6400    -8.0010    80.7090     5.3620     5.9070     6.4100     2.2320 
  240.5000   240.4860    -1.4340    -1.6400    -7.7680    80.6280     5.3940     5.9340     6.3980     2.2290 
  240.6250   240.6110    -1.4350    -1.6400    -7.5410    80.3690     5.3160     5.8200     5.8340     2.2280 
  240.7500   240.7360    -1.4350    -1.6400    -7.3890    80.1580     5.2030     5.6680     5.3450     2.2310 
  240.8750   240.8610    -1.4360    -1.6400    -7.3240    80.7340     5.1300     5.5750     5.4970     2.2390 
  241.0000   240.9860    -1.4360    -1.6410    -7.3130    79.7500     5.1490     5.6060     5.9660     2.2490 
  241.1250   241.1110    -1.4370    -1.6410    -7.3130    77.9030     5.2890     5.7880     6.3280     2.2610 
  241.2500   241.2360    -1.4370    -1.6410    -7.3130    74.7430     5.5110     6.0650     6.6490     2.2700 
  241.3750   241.3610    -1.4370    -1.6410    -7.3130    71.8450     5.7370     6.3440     7.2090     2.2720 
  241.5000   241.4860    -1.4380    -1.6420    -7.3130    71.3220     5.8790     6.5170     7.8930     2.2660 
  241.6250   241.6110    -1.4380    -1.6420    -7.3130    72.6830     5.8650     6.5000     8.0870     2.2550 
  241.7500   241.7360    -1.4380    -1.6420    -7.3130    75.5100     5.7100     6.3080     7.5360     2.2470 
  241.8750   241.8610    -1.4390    -1.6420    -7.3130    76.4660     5.4810     6.0210     6.6180     2.2500 
  242.0000   241.9860    -1.4390    -1.6420    -7.3130    76.4160     5.2860     5.7750     5.9390     2.2630 
  242.1250   242.1110    -1.4390    -1.6430    -7.3130    75.7930     5.2360     5.7140     5.9160     2.2750 
  242.2500   242.2360    -1.4400    -1.6430    -7.3130    77.9070     5.3820     5.8990     6.5610     2.2760 
  242.3750   242.3610    -1.4400    -1.6430    -7.3130    82.1440     5.7190     6.3110     7.5000     2.2670 
  242.5000   242.4860    -1.4400    -1.6430    -7.3130    85.3250     6.1410     6.8040     8.1320     2.2580 
  242.6250   242.6110    -1.4410    -1.6430    -7.3130    85.4640     6.5360     7.2440     8.2410     2.2510 
  242.7500   242.7360    -1.4410    -1.6440    -7.3130    84.6360     6.8120     7.5330     8.1140     2.2460 
  242.8750   242.8610    -1.4410    -1.6440    -7.3130    84.8560     6.9060     7.6190     8.0480     2.2400 
  243.0000   242.9860    -1.4420    -1.6440    -7.3130    85.9640     6.8080     7.4920     8.0900     2.2330 
  243.1250   243.1110    -1.4420    -1.6440    -7.3130    86.4790     6.4620     7.0870     8.0380     2.2200 
  243.2500   243.2360    -1.4420    -1.6440    -7.3130    86.1020     5.9090     6.4480     7.6270     2.1890 
  243.3750   243.3610    -1.4420    -1.6440    -7.3130    84.4900     5.2850     5.7330     6.5450     2.1300 
  243.5000   243.4860    -1.4430    -1.6450    -7.3130    79.8930     4.7780     5.1640     5.1980     2.0620 
  243.6250   243.6110    -1.4430    -1.6450    -7.3130    74.7320     4.5490     4.9420     4.8730     2.0290 
  243.7500   243.7360    -1.4430    -1.6450    -7.3130    71.3210     4.6300     5.1050     5.9330     2.0520 
  243.8750   243.8610    -1.4440    -1.6450    -7.3130    74.1150     4.9810     5.5860     7.2820     2.1150 
  244.0000   243.9860    -1.4440    -1.6450    -7.3130    79.6460     5.4320     6.1490     7.7930     2.1720 
  244.1250   244.1110    -1.4440    -1.6460    -7.3130    84.3390     5.8070     6.5640     7.3530     2.2050 
  244.2500   244.2360    -1.4450    -1.6460    -7.3130    84.3330     6.0200     6.7520     6.6950     2.2250 
  244.3750   244.3610    -1.4450    -1.6460    -7.3130    82.1770     6.1030     6.7860     6.5120     2.2380 
