~V
VERS. 2.00: Ver 2.00
~W
STRT.M 63.0000:
STOP.M 269.0000:
STEP.M 0.1250:
NULL. -999.2500:
UWI. F10891:
~C
DEPT.M :
TVD. :
DX. :
DY. :
SP.MV :
GR.API :
RI. :
RML.OHMM :
RXO.OHMM :
DEN.GM/CC :
~A
# ...
  254.6250   254.6100    -1.0100    -2.1140    53.4790    86.6270     8.3160     8.9610     8.7380     2.2380 
  254.7500   254.7350    -1.0100    -2.1150    53.4790    86.0220     8.3880     9.0270     9.0840     2.2370 
  254.8750   254.8600    -1.0110    -2.1150    53.4790    86.1350     8.4190     9.0500     8.8260     2.2330 
  255.0000   254.9850    -1.0110    -2.1160    53.4790    86.1670     8.4200     9.0360     8.1970     2.2280 
  255.1250   255.1100    -1.0110    -2.1160    53.4790    85.0850     8.4160     9.0150     7.8780     2.2280 
  255.2500   255.2350    -1.0120    -2.1170    53.4790    84.2580     8.4320     9.0140     8.0090     2.2320 
  255.3750   255.3600    -1.0120    -2.1170    53.4790    84.1000     8.4780     9.0470     8.3100     2.2370 
  255.5000   255.4850    -1.0120    -2.1180    53.4790    84.7810     8.5460     9.1070     8.6560     2.2400 
  255.6250   255.6100    -1.0130    -2.1190    53.4790    85.4230     8.6160     9.1730     8.9460     2.2400 
  255.7500   255.7350    -1.0130    -2.1190    53.4790    85.8560     8.6690     9.2260     9.0030     2.2380 
  255.8750   255.8600    -1.0130    -2.1200    53.4790    86.4560     8.6950     9.2530     8.8680     2.2380 
  256.0000   255.9850    -1.0130    -2.1200    53.4790    86.3140     8.6910     9.2460     8.7810     2.2380 
  256.1250   256.1100    -1.0140    -2.1210    53.4790    85.2940     8.6630     9.2120     8.8240     2.2350 
  256.2500   256.2350    -1.0140    -2.1210    53.4790    84.8160     8.6250     9.1700     8.8360     2.2300 
  256.3750   256.3600    -1.0140    -2.1220    53.4790    85.8790     8.5960     9.1410     8.7000     2.2260 
  256.5000   256.4850    -1.0150    -2.1230    53.4790    87.7810     8.5900     9.1420     8.5140     2.2260 
  256.6250   256.6100    -1.0150    -2.1230    53.4790    88.4180     8.6120     9.1760     8.4140     2.2280 
  256.7500   256.7350    -1.0150    -2.1240    53.4790    87.7120     8.6660     9.2440     8.2880     2.2290 
  256.8750   256.8600    -1.0150    -2.1240    53.4790    87.0120     8.7560     9.3540     8.0940     2.2300 
  257.0000   256.9850    -1.0160    -2.1250    53.4790    86.4150     8.8940     9.5190     8.2390     2.2350 
  257.1250   257.1100    -1.0160    -2.1250    53.4790    86.2290     9.0700     9.7240     9.0630     2.2450 
  257.2500   257.2350    -1.0160    -2.1260    53.4790    86.7840     9.2680     9.9440    10.3000     2.2570 
  257.3750   257.3600    -1.0160    -2.1260    53.4790    87.1940     9.4750    10.1620    11.0180     2.2640 
  257.5000   257.4850    -1.0170    -2.1270    53.4790    85.3640     9.6870    10.3780    10.6490     2.2640 
  257.6250   257.6100    -1.0170    -2.1280    53.4790    82.7510     9.9000    10.5990     9.9920     2.2650 
  257.7500   257.7350    -1.0170    -2.1280    53.4790    81.6100    10.1050    10.8230    10.1920     2.2720 
  257.8750   257.8600    -1.0180    -2.1290    53.4790    82.8110    10.2760    11.0210    11.1970     2.2830 
  258.0000   257.9850    -1.0180    -2.1290    53.4790    84.4400    10.3730    11.1400    12.0220     2.2900 
  258.1250   258.1100    -1.0180    -2.1300    53.4790    85.3260    10.3660    11.1410    11.9830     2.2850 
  258.2500   258.2350    -1.0180    -2.1300    53.4790    85.0110    10.2310    10.9960    11.1630     2.2710 
  258.3750   258.3600    -1.0190    -2.1310    53.4790    83.7900     9.9980    10.7480    10.2730     2.2600 
  258.5000   258.4850    -1.0190    -2.1320    53.4790    82.1540     9.7300    10.4740     9.8670     2.2550 
  258.6250   258.6100    -1.0190    -2.1320    53.4790    81.3030     9.5040    10.2600     9.7960     2.2530 
  258.7500   258.7350    -1.0200    -2.1330    53.4790    81.2940     9.3740    10.1600     9.6270     2.2490 
  258.8750   258.8600    -1.0200    -2.1330    53.4790    81.9680     9.3350    10.1610     9.3380     2.2430 
  259.0000   258.9850    -1.0200    -2.1340    53.4790    83.9740     9.3710    10.2390     9.4840     2.2400 
  259.1250   259.1100    -1.0200    -2.1350    53.4790    85.9540     9.4650    10.3760    10.2250     2.2380 
  259.2500   259.2350    -1.0210    -2.1350    53.4790    86.8810     9.6230    10.5800    10.9420     2.2410 
  259.3750   259.3600    -1.0210    -2.1360    53.4790    86.2210     9.8220    10.8240    11.3130     2.2510 
  259.5000   259.4850    -1.0210    -2.1360    53.4790    85.5070    10.0140    11.0510    11.5860     2.2650 
  259.6250   259.6100    -1.0220    -2.1370    53.4790    86.2200    10.1520    11.2030    11.6080     2.2730 
  259.7500   259.7350    -1.0220    -2.1380    53.4790    87.0530    10.2050    11.2440    11.0560     2.2700 
  259.8750   259.8600    -1.0220    -2.1380    53.4790    86.6330    10.1950    11.2090    10.2860     2.2640 
  260.0000   259.9850    -1.0220    -2.1390    53.4790    85.1550    10.1550    11.1450     9.8860     2.2650 
  260.1250   260.1100    -1.0230    -2.1400    53.4790    84.4330    10.1100    11.0860    10.0250     2.2700 
  260.2500   260.2350    -1.0230    -2.1400    53.4790    84.4520    10.0760    11.0500    10.3950     2.2740 
  260.3750   260.3600    -1.0230    -2.1410    53.4790    84.3350    10.0580    11.0360    10.6250     2.2710 
  260.5000   260.4850    -1.0240    -2.1410    53.4790    84.1560    10.0520    11.0340    10.6420     2.2630 
  260.6250   260.6100    -1.0240    -2.1420    53.4790    84.4210    10.0500    11.0340    10.6100     2.2530 
  260.7500   260.7350    -1.0240    -2.1430    53.4790    85.7210    10.0490    11.0340    10.5240     2.2470 
  260.8750   260.8600    -1.0250    -2.1430    53.4790    86.9370    10.0490    11.0340    10.0210     2.2410 
  261.0000   260.9850    -1.0250    -2.1440    53.4790    87.7580    10.0500    11.0340     9.0290     2.2340 
  261.1250   261.1100    -1.0250    -2.1450    53.4790    87.9090    10.0510    11.0340     8.2370     2.2260 
  261.2500   261.2350    -1.0260    -2.1450    53.4790    87.9090    10.0520    11.0340     8.2870     2.2180 
  261.3750   261.3600    -1.0260    -2.1460    53.4790    87.9090    10.0500    11.0340     8.9130     2.2120 
  261.5000   261.4850    -1.0260    -2.1470    53.4790    87.9090    10.0480    11.0340     9.3800     2.2050 
  261.6250   261.6100    -1.0270    -2.1470    53.4790    87.9090    10.0480    11.0340     9.2820     2.1990 
  261.7500   261.7350    -1.0270    -2.1480    53.4790    87.9090    10.0510    11.0340     8.7750     2.1940 
  261.8750   261.8600    -1.0270    -2.1490    53.4790    87.9090    10.0540    11.0340     8.3890     2.1930 
  262.0000   261.9850    -1.0270    -2.1490    53.4790    87.9090    10.0560    11.0340     8.3830     2.1930 
  262.1250   262.1100    -1.0280    -2.1500    53.4790    87.9090    10.0550    11.0340     8.1780     2.1930 
  262.2500   262.2350    -1.0280    -2.1510    53.4790    87.9090    10.0520    11.0340     7.2820     2.1940 
  262.3750   262.3600    -1.0280    -2.1510    53.4790    87.9090    10.0500    11.0340     6.3510     2.1940 
  262.5000   262.4850    -1.0290    -2.1520    53.4790    87.9090    10.0490    11.0340     6.1510     2.1960 
  262.6250   262.6100    -1.0290    -2.1530    53.4790    87.9090    10.0490    11.0340     6.4580     2.2000 
  262.7500   262.7350    -1.0290    -2.1530    53.4790    87.9090    10.0510    11.0340     6.7270     2.2070 
  262.8750   262.8600    -1.0300    -2.1540    53.4790    87.9090    10.0520    11.0340     6.8940     2.2150 
  263.0000   262.9850    -1.0300    -2.1540    53.4790    87.9090    10.0510    11.0340     7.0900     2.2210 
  263.1250   263.1100    -1.0300    -2.1550    53.4790    87.9090    10.0450    11.0340     7.0620     2.2240 
  263.2500   263.2350    -1.0310    -2.1560    53.4790    87.9090    10.0340    11.0340     6.6350     2.2250 
  263.3750   263.3600    -1.0310    -2.1560    53.4790    87.9090    10.0230    11.0340     6.3960     2.2260 
  263.5000   263.4850    -1.0310    -2.1570    53.4790    87.9090    10.0140    11.0340     6.6930     2.2280 
  263.6250   263.6100    -1.0310    -2.1580    53.4790    87.9090    10.0100    11.0340     6.8560     2.2300 
