~V
VERS. 2.00: Ver 2.00
~W
STRT.M 40.0000:
STOP.M 205.0000:
STEP.M 0.1250:
NULL. -999.2500:
UWI. F10807:
~C
DEPT.M :
SP.MV :
GR.API :
RI. :
RML.OHMM :
RXO.OHMM :
DEN.GM/CC :
~A
# ...
   65.7500   -24.9830    65.2220     6.0910     9.1870     9.9890     1.9830 
   65.8750   -25.2660    63.5850     5.8310     8.8040     7.7130     1.9770 
   66.0000   -25.4980    63.0090     5.5740     8.4410     7.6860     1.9890 
   66.1250   -25.5810    65.0480     5.4000     8.2200     7.9760     2.0050 
   66.2500   -25.3620    67.1030     5.3390     8.1400     7.9410     2.0100 
   66.3750   -25.0210    68.2170     5.3220     8.1270     7.4250     2.0050 
   66.5000   -24.6260    67.5220     5.2820     8.1030     7.0670     1.9970 
   66.6250   -24.3330    65.9390     5.2300     8.0460     7.1380     1.9890 
   66.7500   -24.1650    64.3430     5.1770     7.9800     7.3940     1.9820 
   66.8750   -24.1280    63.3910     5.1500     7.9330     7.6630     1.9850 
   67.0000   -24.0870    64.0330     5.1600     7.9100     7.9570     1.9980 
   67.1250   -23.9220    65.5690     5.1930     7.9680     8.4060     2.0130 
   67.2500   -23.6700    67.4070     5.2180     8.0870     8.6950     2.0200 
   67.3750   -23.3830    68.7010     5.2090     8.0390     8.2240     2.0170 
   67.5000   -23.0630    70.3590     5.1600     7.9840     7.4190     2.0090 
   67.6250   -22.6370    72.4670     5.0760     7.9570     6.9550     2.0020 
   67.7500   -22.2590    73.7460     5.0120     7.8310     6.8150     1.9980 
   67.8750   -21.9810    74.1990     4.9770     7.7460     6.8990     1.9970 
   68.0000   -21.7710    73.6610     4.9910     7.7520     7.2470     2.0000 
   68.1250   -21.3160    72.9910     5.0510     7.8480     7.6080     2.0070 
   68.2500   -20.4920    72.3450     5.1340     7.9990     7.8210     2.0180 
   68.3750   -19.2220    73.4490     5.2470     8.1560     8.0580     2.0340 
   68.5000   -17.6230    76.0730     5.3190     8.2280     7.9340     2.0670 
   68.6250   -15.7720    79.5730     5.2510     8.1110     7.3840     2.1210 
   68.7500   -13.7810    81.9450     5.0260     7.7720     6.8970     2.1760 
   68.8750   -11.6370    84.9690     4.6400     7.2350     6.1360     2.2080 
   69.0000    -9.3660    89.0550     4.2170     6.6360     5.1150     2.2180 
   69.1250    -7.3670    95.1710     3.8600     6.1140     4.6670     2.2230 
   69.2500    -5.9420   100.3190     3.6060     5.7520     4.8420     2.2260 
   69.3750    -5.3190   103.2510     3.4820     5.5940     5.0020     2.2260 
   69.5000    -5.1510   105.0370     3.4820     5.6200     4.9170     2.2190 
   69.6250    -5.3580   106.6070     3.5920     5.7990     4.7950     2.2110 
   69.7500    -5.8430   107.3890     3.7580     6.0680     5.1440     2.1950 
   69.8750    -6.6480   103.7280     3.9510     6.3870     6.2370     2.1700 
   70.0000    -7.6670    97.9440     4.1580     6.6360     6.9430     2.1430 
   70.1250    -8.4840    91.4160     4.3070     6.8660     6.5790     2.1250 
   70.2500    -8.9280    86.1920     4.3690     7.0170     6.3050     2.1160 
   70.3750    -9.2300    83.2540     4.3310     6.9700     6.4890     2.1110 
   70.5000    -9.7220    81.8600     4.2280     6.7930     6.4780     2.1100 
   70.6250   -10.4200    81.5610     4.1120     6.6140     6.3360     2.1100 
   70.7500   -11.3660    79.5900     4.0590     6.5220     6.2610     2.1160 
   70.8750   -12.4360    78.3370     4.0540     6.5280     6.3010     2.1200 
   71.0000   -13.5330    78.2330     4.1000     6.6120     6.5470     2.1230 
   71.1250   -14.8350    79.4490     4.2090     6.7820     6.7710     2.1170 
   71.2500   -16.3030    79.2010     4.3440     7.0230     6.6990     2.1120 
   71.3750   -17.7250    79.0450     4.5000     7.2400     6.5030     2.1070 
   71.5000   -19.0090    78.2990     4.6500     7.4910     6.5000     2.1010 
   71.6250   -20.2040    78.2740     4.8410     7.8450     6.6370     2.0900 
   71.7500   -21.0630    76.3500     5.0360     8.1760     6.9150     2.0790 
   71.8750   -21.5520    75.3770     5.1990     8.3290     7.6520     2.0740 
   72.0000   -21.7790    74.5070     5.3240     8.2560     8.3390     2.0750 
   72.1250   -21.8890    73.8840     5.3280     8.1730     8.0630     2.0790 
   72.2500   -21.9620    73.2560     5.2700     8.0710     7.3390     2.0820 
   72.3750   -22.1160    73.7140     5.1680     7.9730     7.0290     2.0850 
   72.5000   -22.3790    74.6920     5.0580     7.9170     7.0220     2.0830 
   72.6250   -22.7420    74.2950     5.0110     7.9440     6.9740     2.0800 
   72.7500   -23.2160    73.5270     5.0650     8.0670     6.9390     2.0720 
   72.8750   -23.6770    74.0020     5.1990     8.2630     6.9940     2.0600 
   73.0000   -24.0840    74.6600     5.3480     8.4710     6.9450     2.0490 
   73.1250   -24.2960    75.2550     5.4740     8.6270     6.8860     2.0460 
   73.2500   -24.3860    74.0670     5.5430     8.7010     6.9420     2.0500 
   73.3750   -24.4430    72.9500     5.5500     8.6810     6.9580     2.0570 
   73.5000   -24.5720    71.6530     5.5180     8.5980     7.0300     2.0630 
   73.6250   -24.6640    71.6460     5.4570     8.4840     7.3400     2.0670 
   73.7500   -24.7380    71.4530     5.3900     8.3730     7.6480     2.0710 
   73.8750   -24.8910    71.7660     5.3470     8.2900     7.7520     2.0770 
   74.0000   -25.0530    72.9290     5.3220     8.2820     7.7080     2.0790 
   74.1250   -25.1180    75.7880     5.3250     8.4300     7.6160     2.0760 
   74.2500   -25.0230    76.7900     5.3830     8.5560     7.6410     2.0710 
   74.3750   -24.8750    75.8810     5.4750     8.6650     7.8290     2.0710 
   74.5000   -24.6870    73.7080     5.5800     8.7850     8.0480     2.0730 
   74.6250   -24.5060    72.2110     5.6720     8.8810     8.1990     2.0780 
   74.7500   -24.2120    69.7440     5.7260     8.9180     8.3040     2.0810 
   74.8750   -23.7920    67.6330     5.7400     8.8650     8.3100     2.0830 
   75.0000   -23.2360    66.8080     5.7350     8.7100     7.9180     2.0840 
   75.1250   -22.5470    68.1350     5.7110     8.4140     7.5930     2.0860 
   75.2500   -21.6820    69.1210     5.6240     7.9910     7.9480     2.0840 
   75.3750   -20.5770    69.4920     5.4810     7.5220     8.4290     2.0810 
   75.5000   -19.2410    70.6700     5.3770     7.1840     8.3360     2.0800 
   75.6250   -17.5220    73.1390     5.4950     7.1500     7.8900     2.1030 
   75.7500   -15.5040    76.9840     5.8500     7.3980     9.9930     2.1660 
   75.8750   -13.1360    80.6810     6.3490     7.7290    15.3080     2.2760 
   76.0000   -10.6550    83.7540     6.7120     7.8270    17.5810     2.3870 
   76.1250    -8.2800    87.5690     6.6150     7.4480    14.7100     2.4400 
   76.2500    -6.3520    92.2390     5.9660     6.6240    10.6010     2.4190 
   76.3750    -5.0770   100.5940     5.0060     5.5340     6.7610     2.3580 
   76.5000    -4.2660   107.8210     4.0760     4.5370     4.4610     2.3030 
   76.6250    -3.8900   111.0380     3.5780     3.9600     3.8830     2.2650 
   76.7500    -3.9040   107.1170     3.5310     3.8160     3.9900     2.2320 
   76.8750    -4.3780    99.8090     3.6840     3.9310     5.1930     2.2110 
   77.0000    -4.9510    93.9590     3.8450     4.0530     6.5000     2.2090 
   77.1250    -5.0600    93.7770     3.8250     4.0000     5.9510     2.2280 
   77.2500    -4.3480    98.2310     3.5650     3.7350     4.4010     2.2550 
   77.3750    -3.3560   103.6160     3.1640     3.3450     3.7460     2.2850 
   77.5000    -2.9770   106.9950     2.8160     3.0410     3.7530     2.3050 
   77.6250    -3.4440   107.2220     2.7790     3.1030     3.7420     2.3200 
   77.7500    -4.4730   104.9130     3.2730     3.7430     4.4010     2.3470 
   77.8750    -6.0830    99.5840     4.4900     5.1870    11.0620     2.4050 
   78.0000    -8.1580    90.4200     6.5300     7.2860    23.7100     2.4750 
   78.1250   -10.5520    79.4890     9.0320     9.4760    30.6530     2.5180 
   78.2500   -13.1020    70.4900    10.7520    10.9060    27.2700     2.5000 
   78.3750   -15.6450    66.8770    10.8480    10.8900    18.7890     2.4090 
   78.5000   -18.1650    66.5080     9.5050     9.6700    11.2860     2.2770 
