~V
VERS. 2.00: Ver 2.00
~W
STRT.M 65.0000:
STOP.M 239.0000:
STEP.M 0.1250:
NULL. -999.2500:
UWI. F10876:
~C
DEPT.M :
TVD. :
DX. :
DY. :
SP.MV :
GR.API :
RI. :
RML.OHMM :
RXO.OHMM :
DEN.GM/CC :
~A
# ...
  110.6250   110.6200    -0.6710    -0.1130    -3.1500    58.7790    19.0010    20.1780    19.1310     2.0780 
  110.7500   110.7450    -0.6730    -0.1130    -3.3190    58.1610    18.8410    20.0680    19.1450     2.0860 
  110.8750   110.8700    -0.6760    -0.1140    -3.4720    57.7550    18.7420    20.0160    19.3240     2.0920 
  111.0000   110.9950    -0.6780    -0.1140    -3.6170    57.6200    18.6810    19.9860    19.3550     2.0950 
  111.1250   111.1200    -0.6800    -0.1150    -3.7570    57.4830    18.6220    19.9290    19.2330     2.0970 
  111.2500   111.2450    -0.6820    -0.1150    -3.8850    57.3290    18.6760    19.9820    18.9880     2.1040 
  111.3750   111.3700    -0.6850    -0.1150    -4.0160    57.9640    19.1410    20.5050    18.7280     2.1280 
  111.5000   111.4950    -0.6870    -0.1160    -4.1840    59.7280    20.2890    21.8190    18.8240     2.1810 
  111.6250   111.6200    -0.6890    -0.1160    -4.3960    59.4950    22.1060    23.9070    22.5660     2.2500 
  111.7500   111.7450    -0.6910    -0.1170    -4.6290    56.9230    24.1910    26.3580    37.7070     2.2960 
  111.8750   111.8700    -0.6930    -0.1170    -4.8530    54.7090    26.0190    28.5770    58.0770     2.2900 
  112.0000   111.9950    -0.6960    -0.1180    -5.0690    54.3240    26.9260    29.7080    60.7210     2.2300 
  112.1250   112.1200    -0.6980    -0.1180    -5.2900    53.9610    26.4380    29.1810    43.2170     2.1560 
  112.2500   112.2450    -0.7000    -0.1190    -5.5300    52.6770    24.8250    27.3560    26.5390     2.1030 
  112.3750   112.3700    -0.7030    -0.1190    -5.8020    52.7080    22.8440    25.1440    20.8410     2.0770 
  112.5000   112.4950    -0.7050    -0.1200    -6.1430    52.6500    21.3370    23.5340    20.7390     2.0730 
  112.6250   112.6200    -0.7070    -0.1200    -6.5930    52.6350    20.7070    22.9230    21.3470     2.0790 
  112.7500   112.7450    -0.7090    -0.1210    -7.2070    54.7560    20.9180    23.2540    21.7850     2.0990 
  112.8750   112.8690    -0.7120    -0.1210    -7.9930    57.6350    22.0150    24.6870    21.8290     2.1460 
  113.0000   112.9940    -0.7140    -0.1220    -8.9730    58.1010    24.4980    27.9580    18.8900     2.2390 
  113.1250   113.1190    -0.7160    -0.1220   -10.1350    54.9910    27.6270    32.2090    27.4540     2.3620 
  113.2500   113.2440    -0.7190    -0.1220   -11.4740    51.3780    29.2510    34.8110    54.5530     2.4770 
  113.3750   113.3690    -0.7210    -0.1230   -12.9160    50.4330    28.2470    33.9340    86.0490     2.5390 
  113.5000   113.4940    -0.7230    -0.1230   -14.3560    51.3880    24.0700    29.1160    88.6320     2.5260 
  113.6250   113.6190    -0.7260    -0.1230   -15.6790    55.6780    18.2560    22.2570    60.7560     2.4620 
  113.7500   113.7440    -0.7280    -0.1240   -16.7870    62.7560    13.0480    15.9340    29.9450     2.3840 
  113.8750   113.8690    -0.7300    -0.1240   -17.6680    69.1040     9.1620    11.0150    13.5500     2.3200 
  114.0000   113.9940    -0.7330    -0.1250   -18.3330    71.9740     7.0190     7.8240     8.2560     2.2780 
  114.1250   114.1190    -0.7350    -0.1250   -18.8490    73.4190     6.1260     6.6870     6.4430     2.2490 
  114.2500   114.2440    -0.7370    -0.1260   -19.2410    74.2650     5.8540     6.4350     5.9800     2.2350 
  114.3750   114.3690    -0.7400    -0.1260   -19.5400    72.6910     5.7610     6.3580     6.0620     2.2370 
  114.5000   114.4940    -0.7420    -0.1260   -19.7840    70.7470     5.6820     6.2630     5.9440     2.2590 
  114.6250   114.6190    -0.7440    -0.1270   -20.0350    71.8430     5.5240     6.0580     5.4300     2.2900 
  114.7500   114.7440    -0.7470    -0.1270   -20.3020    75.4410     5.2860     5.7620     5.0140     2.3180 
  114.8750   114.8690    -0.7490    -0.1270   -20.5260    79.0080     5.0220     5.4500     4.8650     2.3340 
  115.0000   114.9940    -0.7510    -0.1280   -20.6430    83.8750     4.7960     5.2020     4.7180     2.3360 
  115.1250   115.1190    -0.7530    -0.1280   -20.6590    91.0760     4.6350     5.0370     4.5700     2.3300 
  115.2500   115.2440    -0.7560    -0.1280   -20.6040    97.9460     4.5090     4.9080     4.5050     2.3230 
  115.3750   115.3690    -0.7580    -0.1290   -20.5210    98.0500     4.4030     4.7940     4.3820     2.3130 
  115.5000   115.4940    -0.7600    -0.1290   -20.4400    91.4020     4.3660     4.7610     4.2850     2.2990 
  115.6250   115.6190    -0.7630    -0.1290   -20.3750    84.4230     4.4550     4.8790     4.3550     2.2810 
  115.7500   115.7440    -0.7650    -0.1300   -20.3110    82.3840     4.7090     5.1940     4.5580     2.2670 
  115.8750   115.8690    -0.7670    -0.1300   -20.2140    83.1600     5.0580     5.6160     4.9930     2.2670 
  116.0000   115.9940    -0.7700    -0.1300   -20.0440    82.4330     5.3590     5.9660     5.6800     2.2810 
  116.1250   116.1190    -0.7720    -0.1310   -19.8070    78.2880     5.4910     6.0980     6.2040     2.2960 
  116.2500   116.2440    -0.7740    -0.1310   -19.5510    75.6860     5.4120     5.9690     6.1510     2.3010 
  116.3750   116.3690    -0.7770    -0.1310   -19.3290    78.1870     5.2060     5.6920     5.6130     2.2960 
  116.5000   116.4940    -0.7790    -0.1320   -19.1710    83.0960     4.9810     5.4100     5.1590     2.2890 
  116.6250   116.6190    -0.7810    -0.1320   -19.0750    87.3320     4.8290     5.2340     5.1940     2.2860 
  116.7500   116.7440    -0.7840    -0.1320   -19.0480    87.9110     4.8100     5.2170     5.3740     2.2870 
  116.8750   116.8690    -0.7860    -0.1330   -19.0820    85.7730     4.8770     5.2810     5.2620     2.2890 
  117.0000   116.9940    -0.7890    -0.1330   -19.1670    85.2460     4.9420     5.3220     4.9140     2.2930 
  117.1250   117.1190    -0.7910    -0.1340   -19.2720    86.4730     4.9410     5.2790     4.5500     2.2990 
  117.2500   117.2440    -0.7930    -0.1340   -19.3500    86.9750     4.8500     5.1390     4.2670     2.3050 
  117.3750   117.3690    -0.7960    -0.1340   -19.3660    83.5970     4.7190     4.9630     4.1160     2.3080 
  117.5000   117.4940    -0.7980    -0.1350   -19.3220    81.4530     4.5790     4.7840     4.1250     2.3070 
  117.6250   117.6190    -0.8010    -0.1350   -19.2460    84.9930     4.4510     4.6170     4.1500     2.3040 
  117.7500   117.7440    -0.8030    -0.1350   -19.1300    88.6650     4.3720     4.5050     4.1030     2.3020 
  117.8750   117.8690    -0.8050    -0.1360   -18.9520    89.3750     4.3720     4.5530     4.1460     2.3010 
  118.0000   117.9940    -0.8080    -0.1360   -18.6830    88.1470     4.4740     4.9040     4.4030     2.3020 
  118.1250   118.1190    -0.8100    -0.1360   -18.3220    89.6360     4.6370     5.1780     4.7460     2.3010 
  118.2500   118.2440    -0.8130    -0.1370   -17.8630    93.0940     4.8210     5.3490     5.0510     2.2960 
  118.3750   118.3690    -0.8150    -0.1370   -17.3190    93.2030     5.0230     5.5290     5.2550     2.2840 
  118.5000   118.4930    -0.8170    -0.1370   -16.6940    89.9280     5.2760     5.7610     5.3450     2.2620 
  118.6250   118.6180    -0.8200    -0.1380   -16.0120    85.8630     5.6430     6.1400     5.5650     2.2330 
  118.7500   118.7430    -0.8220    -0.1380   -15.2980    81.9910     6.1620     6.7340     6.1740     2.2020 
  118.8750   118.8680    -0.8240    -0.1380   -14.6050    79.0540     6.8070     7.4620     6.9020     2.1740 
  119.0000   118.9930    -0.8270    -0.1390   -14.0010    77.9560     7.5420     8.2470     7.3650     2.1500 
  119.1250   119.1180    -0.8290    -0.1390   -13.4660    77.9020     8.2370     8.9330     7.6570     2.1340 
  119.2500   119.2430    -0.8320    -0.1390   -12.8940    76.8440     8.7940     9.4240     8.0800     2.1250 
  119.3750   119.3680    -0.8340    -0.1400   -12.2270    73.7320     9.1950     9.7660     8.5670     2.1220 
  119.5000   119.4930    -0.8360    -0.1400   -11.5150    70.3070     9.5430    10.0400     8.7160     2.1180 
  119.6250   119.6180    -0.8390    -0.1400   -10.8040    67.8580    10.0370    10.4190     8.4800     2.1110 
