~V
VERS. 2.00: Ver 2.00
~W
STRT.M 63.0000:
STOP.M 247.0000:
STEP.M 0.1250:
NULL. -999.2500:
UWI. F10865:
~C
DEPT.M :
TVD. :
DX. :
DY. :
SP.MV :
GR.API :
RI. :
RML.OHMM :
RXO.OHMM :
DEN.GM/CC :
~A
# ...
  209.0000   208.9870    -1.7970    -0.4380  -118.8220    52.3900    25.5780    27.5870    22.5560     2.1950 
  209.1250   209.1120    -1.7970    -0.4390  -118.3840    55.7860    24.5100    26.3220    20.9800     2.1810 
  209.2500   209.2370    -1.7980    -0.4410  -117.9110    59.6820    23.4930    24.4710    22.2310     2.1840 
  209.3750   209.3620    -1.7980    -0.4420  -117.4160    57.8890    23.0130    24.0280    25.0270     2.2030 
  209.5000   209.4870    -1.7990    -0.4440  -116.9110    53.0840    23.2610    24.3910    26.2770     2.2350 
  209.6250   209.6120    -1.7990    -0.4450  -116.4080    52.4950    23.8790    25.0480    25.4600     2.2770 
  209.7500   209.7370    -1.8000    -0.4470  -115.9240    55.3930    24.4070    25.5640    24.7370     2.3210 
  209.8750   209.8620    -1.8010    -0.4480  -115.4700    57.4320    24.5300    25.5730    24.5490     2.3580 
  210.0000   209.9870    -1.8010    -0.4490  -115.0580    59.3750    24.0460    24.8990    23.9480     2.3830 
  210.1250   210.1120    -1.8020    -0.4510  -114.6890    64.1100    22.9980    23.6500    22.8000     2.3980 
  210.2500   210.2370    -1.8020    -0.4520  -114.3650    70.2710    21.5990    22.0860    22.1970     2.4120 
  210.3750   210.3620    -1.8030    -0.4540  -114.0800    74.6910    20.3130    20.7600    23.0230     2.4260 
  210.5000   210.4870    -1.8030    -0.4550  -113.8370    75.3650    19.6270    20.1260    22.6420     2.4380 
  210.6250   210.6120    -1.8040    -0.4560  -113.6310    74.4480    19.6250    20.2330    20.2470     2.4500 
  210.7500   210.7370    -1.8040    -0.4580  -113.4660    73.4830    20.0260    20.7710    19.8660     2.4630 
  210.8750   210.8620    -1.8050    -0.4590  -113.3350    73.4340    20.5920    21.4800    22.0140     2.4790 
  211.0000   210.9870    -1.8050    -0.4610  -113.2400    72.3600    21.0530    22.0470    23.6960     2.4870 
  211.1250   211.1120    -1.8060    -0.4620  -113.1710    68.5900    21.1500    22.1480    23.7410     2.4790 
  211.2500   211.2360    -1.8060    -0.4640  -113.1260    65.4560    20.6850    21.5890    22.8190     2.4550 
  211.3750   211.3610    -1.8070    -0.4650  -113.0920    67.3900    19.6650    20.4850    22.2220     2.4230 
  211.5000   211.4860    -1.8070    -0.4660  -113.0650    73.3180    18.5450    19.3660    21.7980     2.3960 
  211.6250   211.6110    -1.8080    -0.4680  -113.0400    79.5230    17.7380    18.6800    19.6690     2.3890 
  211.7500   211.7360    -1.8080    -0.4690  -113.0180    82.2240    17.5110    18.6610    18.0060     2.4090 
  211.8750   211.8610    -1.8090    -0.4710  -113.0030    77.9500    17.9610    19.3640    17.4070     2.4480 
  212.0000   211.9860    -1.8090    -0.4720  -113.0030    69.6240    18.9780    20.6540    17.7480     2.4900 
  212.1250   212.1110    -1.8100    -0.4740  -113.0250    63.3130    20.4760    22.4060    20.9380     2.5210 
  212.2500   212.2360    -1.8100    -0.4750  -113.0730    65.3430    22.3020    24.4190    25.5860     2.5420 
  212.3750   212.3610    -1.8110    -0.4760  -113.1440    73.0820    23.9310    26.0740    29.1410     2.5590 
  212.5000   212.4860    -1.8110    -0.4780  -113.2300    75.9120    24.8400    26.8800    29.7730     2.5730 
  212.6250   212.6110    -1.8120    -0.4790  -113.3170    71.1570    24.7330    26.6020    27.7910     2.5760 
  212.7500   212.7360    -1.8120    -0.4810  -113.3920    66.6450    23.8680    25.5860    25.9910     2.5640 
  212.8750   212.8610    -1.8130    -0.4820  -113.4490    67.5890    22.6050    24.3090    26.1800     2.5390 
  213.0000   212.9860    -1.8130    -0.4840  -113.4860    69.9260    21.5340    23.3760    26.2840     2.5140 
  213.1250   213.1110    -1.8140    -0.4850  -113.5130    68.1690    20.7510    22.6710    24.6550     2.5010 
  213.2500   213.2360    -1.8140    -0.4870  -113.5420    66.2930    19.4390    21.3560    23.5900     2.4920 
  213.3750   213.3610    -1.8150    -0.4880  -113.5870    66.4300    16.6460    18.4670    22.1370     2.4790 
  213.5000   213.4860    -1.8150    -0.4890  -113.6570    68.2220    12.8360    14.2190    18.9160     2.4520 
  213.6250   213.6110    -1.8160    -0.4910  -113.7510    71.2600     8.6920     9.7030    14.6710     2.4100 
  213.7500   213.7360    -1.8160    -0.4920  -113.8580    74.1680     5.5610     6.1180     8.6040     2.3600 
  213.8750   213.8610    -1.8170    -0.4940  -113.9640    75.4490     3.9190     4.2320     4.4080     2.3150 
  214.0000   213.9860    -1.8170    -0.4950  -114.0520    75.8830     3.1570     3.4580     3.4380     2.2860 
  214.1250   214.1110    -1.8180    -0.4970  -114.1160    75.7790     2.9120     3.2660     3.5130     2.2770 
  214.2500   214.2360    -1.8180    -0.4980  -114.1580    75.3590     2.9390     3.3550     3.6240     2.2790 
  214.3750   214.3610    -1.8190    -0.5000  -114.1880    75.5150     3.1060     3.5650     3.6070     2.2810 
  214.5000   214.4860    -1.8190    -0.5010  -114.2180    76.7110     3.2900     3.7570     3.6270     2.2780 
  214.6250   214.6110    -1.8200    -0.5030  -114.2590    78.8800     3.4410     3.8900     3.7440     2.2720 
  214.7500   214.7360    -1.8200    -0.5040  -114.3160    80.7810     3.5460     3.9690     3.8400     2.2650 
  214.8750   214.8610    -1.8210    -0.5060  -114.3860    81.2980     3.6150     4.0170     3.9800     2.2560 
  215.0000   214.9860    -1.8210    -0.5070  -114.4590    79.9580     3.6800     4.0800     4.2090     2.2480 
  215.1250   215.1110    -1.8220    -0.5090  -114.5250    78.4680     3.7450     4.1570     4.3660     2.2490 
  215.2500   215.2360    -1.8220    -0.5100  -114.5820    79.2750     3.7790     4.2110     4.3630     2.2610 
  215.3750   215.3610    -1.8230    -0.5120  -114.6380    78.9530     3.7370     4.1940     4.2480     2.2830 
  215.5000   215.4860    -1.8230    -0.5130  -114.7080    76.4600     3.5920     4.0630     4.0880     2.3080 
  215.6250   215.6110    -1.8230    -0.5150  -114.8050    73.8860     3.3520     3.8230     3.8710     2.3230 
  215.7500   215.7360    -1.8240    -0.5160  -114.9460    73.9240     3.0810     3.5380     3.5640     2.3170 
  215.8750   215.8610    -1.8240    -0.5180  -115.1290    75.4450     2.8370     3.2760     3.2790     2.2860 
  216.0000   215.9860    -1.8250    -0.5190  -115.3520    76.9770     2.6760     3.1080     3.1340     2.2460 
  216.1250   216.1110    -1.8250    -0.5210  -115.6000    79.2570     2.6250     3.0720     3.1180     2.2150 
  216.2500   216.2360    -1.8260    -0.5230  -115.8510    80.6220     2.6670     3.1470     3.2300     2.2020 
  216.3750   216.3610    -1.8260    -0.5240  -116.0860    81.2680     2.8140     3.3470     3.4290     2.2030 
  216.5000   216.4860    -1.8270    -0.5260  -116.2910    82.9160     3.0170     3.6070     3.5620     2.2110 
  216.6250   216.6110    -1.8270    -0.5270  -116.4630    85.2500     3.2180     3.8510     3.6430     2.2160 
  216.7500   216.7360    -1.8280    -0.5290  -116.6010    86.7430     3.3840     4.0460     3.7730     2.2150 
  216.8750   216.8610    -1.8280    -0.5300  -116.7110    86.0090     3.4780     4.1440     3.9580     2.2090 
  217.0000   216.9860    -1.8290    -0.5320  -116.7940    83.9060     3.4960     4.1440     4.1720     2.2040 
  217.1250   217.1110    -1.8290    -0.5330  -116.8560    81.4800     3.4560     4.0720     4.4090     2.2040 
  217.2500   217.2360    -1.8290    -0.5350  -116.8960    81.0930     3.3880     3.9680     4.4750     2.2080 
  217.3750   217.3610    -1.8300    -0.5360  -116.9140    82.6420     3.3680     3.9330     4.2220     2.2140 
  217.5000   217.4860    -1.8300    -0.5380  -116.9010    82.0590     3.4530     4.0410     4.2470     2.2240 
  217.6250   217.6110    -1.8310    -0.5390  -116.8490    80.1920     3.6450     4.2920     5.5080     2.2420 
  217.7500   217.7360    -1.8310    -0.5410  -116.7470    80.9560     3.8840     4.6040     7.2930     2.2650 
  217.8750   217.8610    -1.8320    -0.5420  -116.5980    83.5920     4.0670     4.8400     7.5080     2.2800 
  218.0000   217.9860    -1.8320    -0.5440  -116.4070    84.7990     4.1470     4.9270     6.0680     2.2760 
