~V
VERS. 2.00: Ver 2.00
~W
STRT.M 63.0000:
STOP.M 247.0000:
STEP.M 0.1250:
NULL. -999.2500:
UWI. F10865:
~C
DEPT.M :
TVD. :
DX. :
DY. :
SP.MV :
GR.API :
RI. :
RML.OHMM :
RXO.OHMM :
DEN.GM/CC :
~A
# ...
  154.2500   154.2410    -1.2790    -0.0620  -111.7900    51.1240    31.1230    33.1220    29.4440     2.4210 
  154.3750   154.3660    -1.2800    -0.0630  -111.8240    53.4330    30.9350    32.6630    27.5820     2.4200 
  154.5000   154.4910    -1.2820    -0.0640  -111.8670    57.8410    31.1350    32.6910    27.1320     2.4370 
  154.6250   154.6160    -1.2830    -0.0640  -111.9130    59.7500    31.7700    33.2900    30.2540     2.4650 
  154.7500   154.7410    -1.2850    -0.0650  -111.9590    57.7380    32.6070    34.1720    36.8140     2.4880 
  154.8750   154.8660    -1.2860    -0.0660  -112.0070    55.6650    33.1140    34.7120    40.7690     2.4910 
  155.0000   154.9910    -1.2880    -0.0670  -112.0630    54.7440    32.7810    34.3100    37.8730     2.4770 
  155.1250   155.1160    -1.2890    -0.0670  -112.1310    52.4190    31.7090    33.1010    32.1780     2.4590 
  155.2500   155.2410    -1.2910    -0.0680  -112.2080    50.1180    30.4010    31.6810    28.6100     2.4550 
  155.3750   155.3660    -1.2920    -0.0690  -112.2830    52.4790    29.3020    30.6050    27.9870     2.4770 
  155.5000   155.4910    -1.2940    -0.0700  -112.3360    59.3850    28.8280    30.3020    29.2940     2.5190 
  155.6250   155.6150    -1.2950    -0.0700  -112.3550    63.2890    28.9350    30.6710    29.9240     2.5670 
  155.7500   155.7400    -1.2970    -0.0710  -112.3240    59.6600    29.2850    31.2750    28.2290     2.6070 
  155.8750   155.8650    -1.2980    -0.0720  -112.2480    50.9330    29.5240    31.6840    26.6170     2.6260 
  156.0000   155.9900    -1.3000    -0.0730  -112.1310    45.8550    29.4120    31.6410    26.9380     2.6250 
  156.1250   156.1150    -1.3010    -0.0730  -111.9900    46.5570    28.7980    30.9620    27.8930     2.6090 
  156.2500   156.2400    -1.3030    -0.0740  -111.8410    48.6460    27.7250    29.7490    28.4270     2.5870 
  156.3750   156.3650    -1.3040    -0.0750  -111.6980    50.0640    26.4360    28.3190    28.5590     2.5690 
  156.5000   156.4900    -1.3060    -0.0760  -111.5660    50.3490    25.3200    27.1420    27.6100     2.5630 
  156.6250   156.6150    -1.3070    -0.0760  -111.4420    50.2260    24.6110    26.5240    26.2630     2.5730 
  156.7500   156.7400    -1.3090    -0.0770  -111.3170    50.3330    24.4200    26.5430    27.5450     2.5930 
  156.8750   156.8650    -1.3100    -0.0780  -111.1810    52.0050    24.7030    27.0890    30.1180     2.6140 
  157.0000   156.9900    -1.3120    -0.0790  -111.0260    55.0410    25.1710    27.8040    29.2560     2.6260 
  157.1250   157.1150    -1.3130    -0.0790  -110.8530    56.4290    25.5810    28.3840    26.1720     2.6270 
  157.2500   157.2400    -1.3140    -0.0800  -110.6670    54.3100    25.8030    28.7240    24.8760     2.6180 
  157.3750   157.3650    -1.3160    -0.0810  -110.4780    48.6330    25.7660    28.7760    25.1300     2.6050 
  157.5000   157.4900    -1.3170    -0.0820  -110.2960    43.9440    25.3860    28.4390    25.0960     2.6000 
  157.6250   157.6150    -1.3190    -0.0820  -110.1270    44.1880    24.4720    27.5190    24.5410     2.6090 
  157.7500   157.7400    -1.3200    -0.0830  -109.9730    48.4140    23.0810    26.0470    25.1010     2.6280 
  157.8750   157.8650    -1.3220    -0.0840  -109.8280    52.5780    21.5660    24.4200    27.8950     2.6370 
  158.0000   157.9900    -1.3230    -0.0850  -109.6900    53.7610    20.4130    23.2060    29.0480     2.6290 
  158.1250   158.1150    -1.3240    -0.0850  -109.5570    53.5050    19.9420    22.7190    25.5090     2.6080 
  158.2500   158.2400    -1.3260    -0.0860  -109.4350    55.0600    19.9410    22.6730    22.3250     2.5810 
  158.3750   158.3650    -1.3270    -0.0870  -109.3310    57.9230    19.9920    22.5270    22.3250     2.5470 
  158.5000   158.4900    -1.3280    -0.0880  -109.2530    58.8650    19.6650    21.8640    21.3470     2.5060 
  158.6250   158.6150    -1.3300    -0.0880  -109.2030    57.2040    18.7370    20.3600    18.1840     2.4670 
  158.7500   158.7400    -1.3310    -0.0890  -109.1820    54.9150    17.1490    18.1290    15.4340     2.4400 
  158.8750   158.8650    -1.3320    -0.0900  -109.1850    54.0170    15.0110    15.5700    13.6190     2.4320 
  159.0000   158.9900    -1.3340    -0.0910  -109.2090    55.8390    13.0570    13.3610    11.8740     2.4370 
  159.1250   159.1150    -1.3350    -0.0910  -109.2480    58.4870    11.6050    11.9400    10.1760     2.4480 
  159.2500   159.2400    -1.3360    -0.0920  -109.3020    58.7500    10.9330    11.3190     9.5250     2.4630 
  159.3750   159.3650    -1.3380    -0.0930  -109.3730    56.1760    11.0470    11.4520    10.7950     2.4800 
  159.5000   159.4900    -1.3390    -0.0940  -109.4670    51.3290    11.6730    12.1710    12.7950     2.4920 
  159.6250   159.6150    -1.3400    -0.0950  -109.5860    47.7650    12.6610    13.2930    14.2170     2.4940 
  159.7500   159.7400    -1.3410    -0.0950  -109.7310    46.7280    13.6060    14.3990    14.9220     2.4900 
  159.8750   159.8650    -1.3430    -0.0960  -109.8950    49.2110    14.2090    15.0770    14.9180     2.4870 
  160.0000   159.9900    -1.3440    -0.0970  -110.0700    52.6250    14.2170    15.0230    14.3890     2.4880 
  160.1250   160.1150    -1.3450    -0.0970  -110.2460    54.5630    13.6060    14.3540    13.5280     2.4900 
  160.2500   160.2400    -1.3470    -0.0980  -110.4070    54.4160    12.7610    13.4580    12.4280     2.4880 
  160.3750   160.3650    -1.3480    -0.0990  -110.5460    54.1960    12.0570    12.7990    11.3120     2.4850 
  160.5000   160.4900    -1.3490    -0.1000  -110.6510    55.1660    11.8520    12.7600    10.8390     2.4910 
  160.6250   160.6150    -1.3500    -0.1000  -110.7270    55.4440    12.3320    13.4640    11.8890     2.5090 
  160.7500   160.7400    -1.3520    -0.1010  -110.7750    53.4810    13.3270    14.7290    14.6360     2.5290 
  160.8750   160.8650    -1.3530    -0.1020  -110.8080    52.4570    14.6170    16.2670    17.6720     2.5390 
  161.0000   160.9900    -1.3540    -0.1030  -110.8370    52.4230    15.7840    17.5510    18.4100     2.5330 
  161.1250   161.1150    -1.3560    -0.1030  -110.8760    52.8130    16.4780    18.2090    16.8680     2.5150 
  161.2500   161.2400    -1.3570    -0.1040  -110.9350    54.1080    16.6180    18.2480    16.0610     2.4970 
  161.3750   161.3650    -1.3580    -0.1050  -111.0190    55.8200    16.3280    17.8760    16.9770     2.4820 
  161.5000   161.4900    -1.3590    -0.1050  -111.1240    56.2790    15.7890    17.3210    17.8280     2.4700 
  161.6250   161.6150    -1.3610    -0.1060  -111.2370    55.8860    15.1480    16.6380    17.3600     2.4530 
  161.7500   161.7400    -1.3620    -0.1070  -111.3410    57.0770    14.3970    15.7510    15.8780     2.4310 
  161.8750   161.8650    -1.3630    -0.1080  -111.4230    59.9210    13.5030    14.7290    14.4440     2.4100 
  162.0000   161.9900    -1.3650    -0.1080  -111.4710    59.9980    12.8490    13.9680    14.0870     2.3990 
  162.1250   162.1150    -1.3660    -0.1090  -111.4870    58.3650    12.6020    13.7650    14.6410     2.4010 
  162.2500   162.2400    -1.3670    -0.1100  -111.4750    58.0360    12.8510    14.1140    15.8280     2.4090 
  162.3750   162.3650    -1.3680    -0.1100  -111.4480    63.1040    13.3970    14.7420    18.8920     2.4160 
  162.5000   162.4900    -1.3700    -0.1110  -111.4180    69.6230    13.8760    15.2770    23.5340     2.4170 
  162.6250   162.6150    -1.3710    -0.1120  -111.3930    71.0800    14.0280    15.3850    25.1330     2.4140 
  162.7500   162.7400    -1.3720    -0.1130  -111.3700    66.9870    13.8240    15.0440    20.7900     2.4140 
  162.8750   162.8650    -1.3740    -0.1130  -111.3360    62.3520    13.3550    14.4520    14.9280     2.4180 
  163.0000   162.9900    -1.3750    -0.1140  -111.2740    61.1640    12.8290    13.8570    12.2350     2.4240 
  163.1250   163.1150    -1.3760    -0.1150  -111.1730    61.9320    12.3800    13.4070    11.7050     2.4250 
  163.2500   163.2400    -1.3780    -0.1160  -111.0250    61.0650    11.9300    12.9790    11.4240     2.4220 
