~V
VERS. 2.00: Ver 2.00
~W
STRT.M 65.0000:
STOP.M 239.0000:
STEP.M 0.1250:
NULL. -999.2500:
UWI. F10876:
~C
DEPT.M :
TVD. :
DX. :
DY. :
SP.MV :
GR.API :
RI. :
RML.OHMM :
RXO.OHMM :
DEN.GM/CC :
~A
# ...
  220.1250   220.1010    -2.6650     0.0940    -7.0570    75.8040     2.8790     3.1340     3.2500     2.1970 
  220.2500   220.2260    -2.6670     0.0960    -7.1880    78.2720     2.8570     3.1030     3.1030     2.2060 
  220.3750   220.3510    -2.6690     0.0980    -7.5570    83.0350     2.8250     3.0650     2.9890     2.2160 
  220.5000   220.4760    -2.6700     0.0990    -8.0090    85.1650     2.8040     3.0430     2.9570     2.2200 
  220.6250   220.6010    -2.6720     0.1010    -8.2660    83.6910     2.8070     3.0490     2.9690     2.2170 
  220.7500   220.7260    -2.6740     0.1020    -8.2390    81.7710     2.8390     3.0890     2.9830     2.2100 
  220.8750   220.8510    -2.6760     0.1040    -8.1020    80.9270     2.8920     3.1500     3.0130     2.2020 
  221.0000   220.9760    -2.6780     0.1050    -7.9330    81.0740     2.9660     3.2320     3.1980     2.1960 
  221.1250   221.1010    -2.6790     0.1070    -7.6780    79.3990     3.0610     3.3320     3.5240     2.1950 
  221.2500   221.2260    -2.6810     0.1090    -7.2740    78.0610     3.1740     3.4470     3.7750     2.1990 
  221.3750   221.3510    -2.6830     0.1100    -6.7760    79.8800     3.3010     3.5760     3.9140     2.2080 
  221.5000   221.4760    -2.6840     0.1120    -6.3850    85.7970     3.4580     3.7340     4.0160     2.2190 
  221.6250   221.6010    -2.6860     0.1130    -6.2670    90.0330     3.6510     3.9340     4.0510     2.2280 
  221.7500   221.7260    -2.6870     0.1140    -6.3760    88.5880     3.8620     4.1580     4.1170     2.2310 
  221.8750   221.8510    -2.6890     0.1160    -6.5230    84.3600     4.0460     4.3530     4.3520     2.2270 
  222.0000   221.9750    -2.6900     0.1170    -6.6750    82.2660     4.1650     4.4710     4.5700     2.2200 
  222.1250   222.1000    -2.6920     0.1190    -6.8890    83.1690     4.2070     4.5000     4.5370     2.2110 
  222.2500   222.2250    -2.6930     0.1200    -7.1720    84.8280     4.1790     4.4550     4.3040     2.2020 
  222.3750   222.3500    -2.6940     0.1210    -7.4680    86.0860     4.0990     4.3620     4.0610     2.1960 
  222.5000   222.4750    -2.6950     0.1220    -7.7370    86.2580     3.9680     4.2230     3.8910     2.1960 
  222.6250   222.6000    -2.6970     0.1240    -7.9270    84.3400     3.8100     4.0590     3.7320     2.2010 
  222.7500   222.7250    -2.6980     0.1250    -7.9710    82.0040     3.6500     3.8880     3.4900     2.2080 
  222.8750   222.8500    -2.6990     0.1260    -7.9320    83.2320     3.5030     3.7290     3.3160     2.2140 
  223.0000   222.9750    -2.7000     0.1270    -7.9750    88.8360     3.3740     3.5920     3.4480     2.2200 
  223.1250   223.1000    -2.7010     0.1290    -8.1860    92.9680     3.2650     3.4880     3.6620     2.2290 
  223.2500   223.2250    -2.7020     0.1300    -8.5150    92.7390     3.1720     3.4090     3.5700     2.2420 
  223.3750   223.3500    -2.7030     0.1310    -8.8600    90.9060     3.0780     3.3260     3.2440     2.2550 
  223.5000   223.4750    -2.7040     0.1320    -9.1390    88.4950     2.9750     3.2220     2.9750     2.2660 
  223.6250   223.6000    -2.7050     0.1330    -9.2930    85.7870     2.8770     3.1110     2.8670     2.2710 
  223.7500   223.7250    -2.7060     0.1350    -9.3270    84.9190     2.8170     3.0350     2.9020     2.2680 
  223.8750   223.8500    -2.7060     0.1360    -9.3170    87.7970     2.8350     3.0480     2.9940     2.2560 
  224.0000   223.9750    -2.7070     0.1370    -9.2980    91.8860     2.9400     3.1610     3.1050     2.2380 
  224.1250   224.1000    -2.7080     0.1380    -9.2800    93.8200     3.0900     3.3240     3.2420     2.2140 
  224.2500   224.2250    -2.7090     0.1390    -9.2610    93.1750     3.2430     3.4870     3.3640     2.1920 
  224.3750   224.3500    -2.7100     0.1410    -9.2430    91.6000     3.3590     3.6060     3.4120     2.1740 
  224.5000   224.4750    -2.7110     0.1420    -9.2240    88.8700     3.4120     3.6520     3.3860     2.1660 
  224.6250   224.6000    -2.7110     0.1430    -9.2050    87.3530     3.4020     3.6280     3.2820     2.1640 
  224.7500   224.7250    -2.7120     0.1440    -9.1870    87.6780     3.3460     3.5550     3.0260     2.1680 
  224.8750   224.8500    -2.7130     0.1450    -9.1680    87.2420     3.2730     3.4650     2.7090     2.1780 
  225.0000   224.9750    -2.7130     0.1460    -9.1500    85.5790     3.2040     3.3830     2.6060     2.1930 
  225.1250   225.1000    -2.7140     0.1480    -9.1310    84.2590     3.1550     3.3240     2.7480     2.2120 
  225.2500   225.2250    -2.7140     0.1490    -9.1130    86.0980     3.1290     3.2950     2.9150     2.2320 
  225.3750   225.3500    -2.7150     0.1500    -9.0940    87.6610     3.1230     3.2940     2.9860     2.2460 
  225.5000   225.4750    -2.7150     0.1510    -9.0760    85.7370     3.1380     3.3150     2.9880     2.2500 
  225.6250   225.6000    -2.7160     0.1530    -9.0570    80.3260     3.1660     3.3440     3.0020     2.2430 
  225.7500   225.7250    -2.7160     0.1540    -9.0380    76.2520     3.2060     3.3780     3.1140     2.2270 
  225.8750   225.8500    -2.7170     0.1550    -9.0200    77.3140     3.2630     3.4230     3.2600     2.2090 
  226.0000   225.9750    -2.7170     0.1560    -9.0010    81.6900     3.3340     3.4840     3.3490     2.1980 
  226.1250   226.1000    -2.7180     0.1570    -8.9830    83.8570     3.4150     3.5550     3.4190     2.1980 
  226.2500   226.2250    -2.7180     0.1590    -8.9640    84.0080     3.4990     3.6310     3.4850     2.2070 
  226.3750   226.3500    -2.7190     0.1600    -8.9460    84.1590     3.5830     3.7070     3.5210     2.2180 
  226.5000   226.4750    -2.7190     0.1610    -8.9270    84.9560     3.6630     3.7790     3.5470     2.2220 
  226.6250   226.6000    -2.7200     0.1620    -8.9090    83.6800     3.7340     3.8390     3.5720     2.2170 
  226.7500   226.7250    -2.7200     0.1640    -8.8900    81.6250     3.7820     3.8750     3.5730     2.2040 
  226.8750   226.8500    -2.7210     0.1650    -8.8710    81.4350     3.7920     3.8770     3.6140     2.1910 
  227.0000   226.9750    -2.7210     0.1660    -8.8530    83.9620     3.7540     3.8330     3.7360     2.1850 
  227.1250   227.1000    -2.7220     0.1670    -8.8340    86.2150     3.6700     3.7490     3.7420     2.1870 
  227.2500   227.2250    -2.7220     0.1680    -8.8160    84.9180     3.5540     3.6310     3.5190     2.1970 
  227.3750   227.3500    -2.7230     0.1700    -8.7970    81.0810     3.4380     3.5130     3.3020     2.2120 
  227.5000   227.4750    -2.7230     0.1710    -8.7790    77.5320     3.3540     3.4270     3.2320     2.2300 
  227.6250   227.6000    -2.7240     0.1720    -8.7600    77.8440     3.3150     3.3860     3.2210     2.2470 
  227.7500   227.7250    -2.7240     0.1730    -8.7420    81.5150     3.3260     3.3930     3.2190     2.2590 
  227.8750   227.8500    -2.7250     0.1740    -8.7230    84.6440     3.3710     3.4290     3.2390     2.2660 
  228.0000   227.9750    -2.7250     0.1760    -8.7040    86.1900     3.4330     3.4810     3.2950     2.2660 
  228.1250   228.1000    -2.7260     0.1770    -8.6860    86.0080     3.4950     3.5340     3.3810     2.2630 
  228.2500   228.2250    -2.7260     0.1780    -8.6670    84.7210     3.5450     3.5790     3.4710     2.2570 
  228.3750   228.3500    -2.7270     0.1790    -8.6490    82.4850     3.5810     3.6100     3.5130     2.2510 
  228.5000   228.4750    -2.7270     0.1800    -8.6300    80.9070     3.6040     3.6240     3.5000     2.2460 
  228.6250   228.6000    -2.7280     0.1820    -8.6120    80.7590     3.6240     3.6320     3.4760     2.2390 
  228.7500   228.7250    -2.7280     0.1830    -8.5930    81.6020     3.6480     3.6420     3.4710     2.2270 
  228.8750   228.8500    -2.7290     0.1840    -8.5750    82.8500     3.6900     3.6680     3.5290     2.2100 
  229.0000   228.9750    -2.7290     0.1850    -8.5560    82.9550     3.7600     3.7310     3.6950     2.1970 
  229.1250   229.1000    -2.7300     0.1860    -8.5370    82.8630     3.8550     3.8230     3.9310     2.1930 
