~V
VERS. 2.00: Ver 2.00
~W
STRT.M 50.0000:
STOP.M 213.0000:
STEP.M 0.1250:
NULL. -999.2500:
UWI. F10803:
~C
DEPT.M :
SP.MV :
GR.API :
RI. :
RML.OHMM :
RXO.OHMM :
DEN.GM/CC :
~A
# ...
   62.8750   -26.0100    66.6120     5.8250     8.8890     6.1130     2.0590 
   63.0000   -26.0910    67.7370     5.8680     8.9010     6.2660     2.0710 
   63.1250   -26.2730    67.1810     5.9060     8.8860     6.0750     2.0760 
   63.2500   -26.5420    67.3140     5.9430     8.8870     5.7820     2.0760 
   63.3750   -26.8300    67.0880     5.9840     8.9170     5.7670     2.0700 
   63.5000   -26.8950    67.3100     6.0290     8.9630     6.0150     2.0660 
   63.6250   -26.8300    66.4780     6.0880     9.0760     8.5320     2.0600 
   63.7500   -26.5930    66.4840     6.0970     9.1660    12.9870     2.0510 
   63.8750   -26.2590    67.6060     6.0410     9.2130    13.6160     2.0330 
   64.0000   -25.9760    70.0970     5.8650     9.1320    10.4840     2.0200 
   64.1250   -25.8330    73.3370     5.5420     8.8040     8.5070     2.0310 
   64.2500   -25.7620    78.1110     5.1530     8.3080     7.9620     2.0610 
   64.3750   -25.6940    83.5260     4.7200     7.6630     7.1430     2.0900 
   64.5000   -25.5050    88.1420     4.3640     7.0420     5.8930     2.1130 
   64.6250   -25.3540    91.2310     4.1740     6.6160     5.1650     2.1290 
   64.7500   -25.5350    92.2770     4.2080     6.4970     5.1790     2.1410 
   64.8750   -26.0300    90.0860     4.4960     6.8370     5.5450     2.1340 
   65.0000   -26.7080    86.4790     4.9540     7.5210     6.2660     2.1120 
   65.1250   -27.2120    81.0620     5.4820     8.3770     6.7210     2.0660 
   65.2500   -27.6810    76.0020     5.9260     9.1240     6.1580     2.0100 
   65.3750   -28.0730    71.0190     6.1430     9.5310     4.8020     1.9700 
   65.5000   -28.2850    68.5420     6.1570     9.5970     3.6500     1.9650 
   65.6250   -28.3220    67.4140     6.0290     9.3920     3.9470     1.9830 
   65.7500   -28.2780    67.0520     5.8660     9.0820     5.1660     1.9990 
   65.8750   -28.2290    66.1090     5.7500     8.8050     5.7340     2.0020 
   66.0000   -28.2270    65.8730     5.6570     8.6260     5.7100     2.0110 
   66.1250   -28.2750    66.4920     5.5860     8.5600     5.5660     2.0220 
   66.2500   -28.3190    68.1730     5.5240     8.5820     5.3480     2.0310 
   66.3750   -28.4160    69.4860     5.4910     8.6390     5.2240     2.0290 
   66.5000   -28.4480    68.8680     5.4930     8.7140     5.2220     2.0280 
   66.6250   -28.4120    67.4140     5.5060     8.7910     5.2920     2.0350 
   66.7500   -28.3330    65.3180     5.5510     8.8720     5.3690     2.0460 
   66.8750   -28.1680    63.9290     5.5990     8.8950     5.4300     2.0550 
   67.0000   -28.0140    62.9850     5.6530     8.8300     5.6080     2.0540 
   67.1250   -27.6870    62.7910     5.6920     8.6960     5.9370     2.0420 
   67.2500   -27.2000    62.2310     5.7080     8.5690     6.2100     2.0240 
   67.3750   -26.8930    61.9570     5.7030     8.5230     6.4520     2.0120 
   67.5000   -27.0030    62.4900     5.6680     8.5230     6.8320     2.0090 
   67.6250   -27.3020    64.1340     5.6320     8.5100     7.1150     2.0100 
   67.7500   -27.6810    64.6040     5.5790     8.4620     7.0320     2.0140 
   67.8750   -27.9630    63.6610     5.5510     8.4150     6.9220     2.0200 
   68.0000   -28.0880    62.7170     5.5540     8.4110     7.0590     2.0300 
   68.1250   -28.1090    63.8800     5.5830     8.5080     7.1830     2.0360 
   68.2500   -28.0410    65.6390     5.6210     8.6670     7.1510     2.0390 
   68.3750   -27.9190    65.9200     5.6550     8.7970     6.8060     2.0390 
   68.5000   -27.7830    64.7940     5.6750     8.8190     6.1070     2.0380 
   68.6250   -27.6490    62.9680     5.6750     8.7220     5.3440     2.0370 
   68.7500   -27.4950    62.8470     5.6680     8.5630     4.7770     2.0380 
   68.8750   -27.2920    63.4550     5.6500     8.4460     4.4440     2.0390 
   69.0000   -26.9190    65.6540     5.6260     8.4150     4.2890     2.0400 
   69.1250   -26.2840    65.6990     5.6040     8.4340     4.2270     2.0440 
   69.2500   -25.5490    65.2210     5.5720     8.4710     4.1220     2.0540 
   69.3750   -24.8520    65.2540     5.5120     8.4540     3.9850     2.0640 
   69.5000   -24.3820    67.7490     5.4010     8.3130     3.9420     2.0710 
   69.6250   -24.1670    70.6630     5.2430     8.0630     4.0500     2.0780 
   69.7500   -24.0700    72.5690     5.1030     7.8140     4.2080     2.0870 
   69.8750   -24.0800    73.7220     5.0220     7.6810     4.4330     2.1020 
   70.0000   -24.1410    74.4600     5.0220     7.7110     4.7670     2.1100 
   70.1250   -24.0970    74.9390     5.1210     7.9410     5.1110     2.1030 
   70.2500   -24.0020    73.2830     5.2580     8.3020     5.3510     2.0900 
   70.3750   -23.8580    71.2540     5.4000     8.6800     5.3470     2.0840 
   70.5000   -23.7650    69.2020     5.4880     8.7240     5.1930     2.0910 
   70.6250   -23.6090    68.4000     5.4580     8.7610     5.1320     2.1000 
   70.7500   -23.3680    67.6840     5.3890     8.6280     5.1680     2.1040 
   70.8750   -23.1780    67.8390     5.3330     8.4440     5.2780     2.0980 
   71.0000   -23.1750    69.7060     5.3070     8.3090     5.4140     2.0910 
   71.1250   -23.2530    72.5560     5.2760     8.2350     5.4290     2.0870 
   71.2500   -23.0090    74.9920     5.3010     8.2580     5.4320     2.0890 
   71.3750   -22.2930    77.0690     5.2750     8.3310     5.5080     2.1020 
   71.5000   -21.2490    79.0450     5.1360     8.2990     6.0530     2.1350 
   71.6250   -20.1030    81.2050     4.8630     7.7940     7.1100     2.1820 
   71.7500   -18.9770    84.2390     4.4820     7.3390     6.8390     2.2180 
   71.8750   -18.0060    89.7810     4.1050     6.7640     5.1100     2.2230 
   72.0000   -17.2890    96.8830     3.7990     6.2560     4.1890     2.2180 
   72.1250   -17.1050   102.5320     3.5920     5.9000     4.2900     2.2200 
   72.2500   -17.3430   105.1250     3.4470     5.6420     4.3450     2.2250 
   72.3750   -18.0500   104.1270     3.3980     5.4830     4.2780     2.2110 
   72.5000   -18.9670   102.6560     3.4560     5.4570     4.5010     2.1870 
   72.6250   -19.7840   100.9540     3.6960     5.8470     5.4450     2.1660 
   72.7500   -20.6690    98.9170     4.1640     6.4220     6.7010     2.1470 
   72.8750   -21.7140    93.5180     4.8010     7.3250    12.6980     2.1130 
   73.0000   -22.9070    85.1370     5.4860     8.3370    20.2800     2.0690 
   73.1250   -23.9910    75.7360     5.9530     9.1120    17.0710     2.0350 
   73.2500   -24.8980    69.1240     6.0420     9.4060     9.7360     2.0240 
   73.3750   -25.5220    64.8360     5.8280     9.1960     7.6250     2.0360 
   73.5000   -25.7010    62.6980     5.4520     8.6670     7.5490     2.0570 
   73.6250   -25.5890    60.6280     5.1480     8.0910     7.8310     2.0790 
   73.7500   -25.3760    59.8720     4.9860     7.5810     7.7700     2.0880 
   73.8750   -25.1670    59.8370     4.8890     7.1300     7.0910     2.0730 
   74.0000   -25.0200    61.6730     4.8020     6.7410     6.8140     2.0510 
   74.1250   -24.9690    62.2530     4.7310     6.4130     6.8740     2.0340 
   74.2500   -24.9250    61.3300     4.7080     6.2080     6.7120     2.0250 
   74.3750   -24.9280    59.4640     4.7470     6.1170     6.6210     2.0110 
   74.5000   -24.8670    59.0280     4.8670     6.1070     6.6340     2.0030 
   74.6250   -24.7760    59.2120     5.0410     6.3210     6.5730     2.0040 
   74.7500   -24.7180    59.7240     5.2330     6.4530     6.6080     2.0130 
   74.8750   -24.8980    59.4940     5.3890     6.7720     6.6410     2.0190 
   75.0000   -25.1420    60.1510     5.4760     6.8180     6.4510     2.0230 
   75.1250   -25.2940    60.8780     5.5070     6.8180     6.1180     2.0210 
   75.2500   -25.3280    61.3700     5.4920     6.8180     5.8460     2.0150 
   75.3750   -25.2550    60.9120     5.4660     6.7720     5.7400     2.0100 
   75.5000   -25.2270    60.4570     5.4310     6.5420     5.6890     2.0050 
   75.6250   -25.0860    61.0050     5.3700     6.3650     5.6370     2.0050 
