~V
VERS. 2.00: Ver 2.00
~W
STRT.M 40.0000:
STOP.M 216.0000:
STEP.M 0.1250:
NULL. -999.2500:
UWI. F10813:
~C
DEPT.M :
SP.MV :
GR.API :
RI. :
RML.OHMM :
RXO.OHMM :
DEN.GM/CC :
~A
# ...
  117.2500   -10.2480    50.8350    22.4760    25.0500    19.4470     2.2730 
  117.3750   -10.2790    49.5310    22.1900    24.6490    16.0110     2.3200 
  117.5000   -10.2910    50.0990    21.8560    24.2040    13.3900     2.3430 
  117.6250   -10.2050    50.6920    21.2360    23.4920    11.3190     2.3460 
  117.7500   -10.1470    51.5490    20.2660    22.3920     8.3840     2.3190 
  117.8750   -10.0460    49.2260    18.8980    20.9080     6.2560     2.2500 
  118.0000    -9.9490    46.9370    17.5100    19.3620     5.8970     2.1830 
  118.1250    -9.8860    45.5510    16.3530    18.0990     8.1480     2.1940 
  118.2500    -9.8360    46.0370    15.6470    17.3140    12.2470     2.2780 
  118.3750    -9.7270    47.4120    15.4750    17.1380    14.6720     2.3620 
  118.5000    -9.5200    48.3930    15.8340    17.4920    14.4640     2.3950 
  118.6250    -9.3210    48.8340    16.5230    18.1620    13.6170     2.3950 
  118.7500    -9.1050    48.6820    17.1510    18.7850    14.1340     2.3960 
  118.8750    -8.9160    48.5420    17.5210    19.1760    15.3040     2.4040 
  119.0000    -8.7850    49.0080    17.7150    19.3780    15.0080     2.4120 
  119.1250    -8.7280    49.5710    17.7910    19.4290    13.9180     2.4190 
  119.2500    -8.6820    50.0650    17.7600    19.3380    13.5950     2.4230 
  119.3750    -8.6850    49.2440    17.4900    19.0800    14.7270     2.4170 
  119.5000    -8.7280    48.1320    17.1980    18.8130    15.9660     2.4070 
  119.6250    -8.7140    48.7050    17.0970    18.7550    14.8700     2.3970 
  119.7500    -8.7000    50.7280    17.2880    19.0520    12.6930     2.4030 
  119.8750    -8.6720    52.0400    17.8850    19.8130    12.4710     2.4210 
  120.0000    -8.6110    51.3890    18.7300    20.9080    15.3000     2.4420 
  120.1250    -8.4660    50.3490    19.7370    22.0720    19.9760     2.4510 
  120.2500    -8.3320    50.1190    20.4390    22.8310    22.0470     2.4420 
  120.3750    -8.2230    49.7050    20.4520    22.8390    20.0530     2.4280 
  120.5000    -8.1300    48.5190    19.9220    22.2870    17.5670     2.4160 
  120.6250    -8.0650    47.7730    19.1840    21.5410    16.0700     2.4050 
  120.7500    -8.1230    47.3130    18.5440    20.9410    15.1750     2.3900 
  120.8750    -8.2070    47.9690    18.1820    20.6130    15.2040     2.3830 
  121.0000    -8.2710    49.1090    17.9900    20.4650    15.9480     2.3880 
  121.1250    -8.3450    51.1970    17.8930    20.4120    15.9920     2.3990 
  121.2500    -8.3640    52.5840    17.8640    20.4040    15.3310     2.4050 
  121.3750    -8.3670    53.3370    17.8480    20.4080    15.3830     2.4130 
  121.5000    -8.3940    53.4260    17.8000    20.3840    15.9340     2.4150 
  121.6250    -8.4930    53.8660    17.7290    20.3280    15.8100     2.4070 
  121.7500    -8.4880    53.0220    17.6390    20.2320    15.1380     2.3910 
  121.8750    -8.4480    51.7310    17.4860    20.0390    15.4460     2.3850 
  122.0000    -8.4320    50.8310    17.2050    19.7180    16.2090     2.3920 
  122.1250    -8.4100    51.7250    16.8040    19.2430    15.6860     2.3990 
  122.2500    -8.3260    53.2980    16.2630    18.6230    15.1460     2.4040 
  122.3750    -8.2410    53.6080    15.6610    17.9540    14.8650     2.4070 
  122.5000    -8.2330    52.5510    15.2050    17.4370    14.0680     2.4080 
  122.6250    -8.2110    51.5160    15.0030    17.2650    13.1640     2.4070 
  122.7500    -8.2460    51.8420    15.1610    17.4660    12.5340     2.4090 
  122.8750    -8.3400    52.2640    15.5180    17.9080    12.8520     2.4200 
  123.0000    -8.4340    53.3560    15.8980    18.3310    13.5180     2.4310 
  123.1250    -8.5030    53.9770    16.0200    18.4310    14.0110     2.4390 
  123.2500    -8.5860    55.2300    15.7440    18.0800    14.3030     2.4410 
  123.3750    -8.6090    55.8460    15.0990    17.3220    13.8880     2.4410 
  123.5000    -8.6150    56.4090    14.2830    16.4070    13.3620     2.4320 
  123.6250    -8.6280    56.9540    13.5650    15.6080    13.0950     2.4210 
  123.7500    -8.6310    56.3000    13.0470    15.0800    12.5910     2.4130 
  123.8750    -8.6950    55.0600    12.8260    14.9410    13.0450     2.4150 
  124.0000    -8.7520    53.2440    12.9340    15.1660    17.6080     2.4250 
  124.1250    -8.9160    52.4280    13.2840    15.6700    20.3670     2.4370 
  124.2500    -9.0530    51.4630    13.7690    16.2810    15.8420     2.4450 
  124.3750    -9.1490    50.6840    14.1910    16.8130    12.9940     2.4440 
  124.5000    -9.2240    49.6750    14.4940    17.1690    13.6150     2.4330 
  124.6250    -9.3530    48.2020    14.6520    17.3620    13.3910     2.4240 
  124.7500    -9.5110    47.1800    14.8090    17.5150    13.5030     2.4240 
  124.8750    -9.6970    47.1440    14.9580    17.6730    13.8930     2.4350 
  125.0000    -9.9040    47.4340    15.1160    17.8870    14.5170     2.4410 
  125.1250   -10.1050    46.7630    15.3910    18.2180    15.8230     2.4420 
  125.2500   -10.2860    45.8180    15.6670    18.5400    16.1460     2.4390 
  125.3750   -10.4190    46.6070    15.7490    18.5660    15.4430     2.4380 
  125.5000   -10.6070    48.3960    15.3110    18.0370    15.8440     2.4370 
  125.6250   -10.7300    50.2840    14.3140    16.8530    16.3620     2.4380 
  125.7500   -10.7780    52.8190    12.9840    15.2860    15.2440     2.4350 
  125.8750   -10.7800    57.7370    11.6660    13.7580    12.9260     2.4330 
  126.0000   -10.7940    63.6580    10.7180    12.6300    11.1470     2.4280 
  126.1250   -10.8260    66.5220    10.2160    12.0890    10.3890     2.4260 
  126.2500   -10.8710    66.2430    10.1830    12.1440    10.0110     2.4270 
  126.3750   -10.9250    63.1070    10.6290    12.7400    10.3340     2.4330 
  126.5000   -10.9340    61.3960    11.2570    13.5500    11.1470     2.4390 
  126.6250   -10.9510    60.6880    11.8540    14.2970    11.8230     2.4410 
  126.7500   -10.8960    61.4390    12.2510    14.7690    12.2760     2.4370 
  126.8750   -10.7830    60.2510    12.2940    14.8780    12.9480     2.4320 
  127.0000   -10.6300    57.9910    12.1940    14.8060    13.5890     2.4290 
  127.1250   -10.5550    55.0070    12.0920    14.7640    13.1130     2.4280 
  127.2500   -10.5780    53.6860    12.1380    14.9270    12.0270     2.4320 
  127.3750   -10.6950    53.9530    12.4360    15.4350    12.0060     2.4390 
  127.5000   -10.9400    55.2220    12.9770    16.2470    13.1000     2.4500 
  127.6250   -11.2340    57.5550    13.6200    17.1380    14.2580     2.4540 
  127.7500   -11.5490    59.5560    14.0760    17.7130    14.9440     2.4510 
  127.8750   -11.8400    60.3940    13.9920    17.6110    16.4360     2.4430 
  128.0000   -12.1280    60.2020    13.4660    16.9320    17.5670     2.4440 
  128.1250   -12.3270    61.6050    12.7420    15.9860    15.5500     2.4560 
  128.2500   -12.5030    64.9790    12.1020    15.1560    13.2070     2.4710 
  128.3750   -12.6400    68.7870    11.7230    14.6550    13.0320     2.4750 
  128.5000   -12.6680    71.1530    11.4960    14.4070    14.1650     2.4610 
  128.6250   -12.5780    71.3980    11.3790    14.2990    15.1090     2.4400 
  128.7500   -12.4840    72.0150    11.2750    14.1770    14.7230     2.4230 
  128.8750   -12.4320    73.3290    11.0550    13.8580    13.0850     2.4210 
  129.0000   -12.3610    74.7610    10.5730    13.2660    11.4710     2.4380 
  129.1250   -12.3770    75.7690     9.9940    12.5110    11.2030     2.4540 
  129.2500   -12.4610    76.4270     9.4220    11.7350    11.3240     2.4510 
  129.3750   -12.6300    77.0270     8.9140    11.0420    10.4290     2.4120 
  129.5000   -12.8300    76.4980     8.5600    10.5100     9.0760     2.3560 
  129.6250   -13.0920    74.7530     8.3000    10.1420     8.7430     2.2920 
  129.7500   -13.2420    73.1970     8.1700     9.9420     8.8180     2.2360 
  129.8750   -13.2910    72.6830     8.1900     9.9260     8.5770     2.2010 
  130.0000   -13.3290    73.2350     8.3160    10.0280     8.4490     2.1920 
