~V
VERS. 2.00: Ver 2.00
~W
STRT.M 1.0000:
STOP.M 205.0000:
STEP.M 0.1250:
NULL. -999.2500:
UWI. F10806:
~C
DEPT.M :
SP.MV :
GR.API :
RI. :
RML.OHMM :
RXO.OHMM :
DEN.GM/CC :
~A
# ...
  155.5000   -20.6290    69.2140    42.1020    44.1560    37.4860     2.1470 
  155.6250   -20.5980    69.4130    45.5090    47.3710    40.1120     2.1010 
  155.7500   -20.6600    69.7980    48.9020    50.3730    41.0810     2.0670 
  155.8750   -20.7850    70.7190    51.5190    52.5420    39.6490     2.0720 
  156.0000   -20.9450    72.9120    52.4950    53.2650    37.2180     2.1110 
  156.1250   -21.0980    74.3870    51.9010    52.5620    35.2630     2.1510 
  156.2500   -21.2390    75.5380    49.8260    50.7370    33.3330     2.1720 
  156.3750   -21.3900    74.9790    47.3680    48.5040    31.9480     2.1850 
  156.5000   -21.5530    73.8480    44.9690    46.4220    32.4280     2.1960 
  156.6250   -21.7220    72.6910    43.0530    44.8320    32.9720     2.2060 
  156.7500   -21.9500    73.4460    41.7730    43.9570    32.5850     2.2150 
  156.8750   -22.2640    74.2640    41.3490    43.7380    30.2020     2.2220 
  157.0000   -22.6930    73.2000    41.9730    44.5350    28.1190     2.2270 
  157.1250   -23.2400    70.1830    43.8770    47.2290    30.8080     2.2180 
  157.2500   -23.8460    67.0860    48.3330    53.0900    38.1970     2.1970 
  157.3750   -24.3950    65.5530    56.3220    62.3740    46.9300     2.1770 
  157.5000   -24.8540    65.0230    68.2640    74.7950    60.9620     2.1670 
  157.6250   -25.2590    62.1900    84.7520    93.7850    77.8370     2.1520 
  157.7500   -25.5760    57.1360   106.9850   120.4070    93.6280     2.1220 
  157.8750   -25.7400    52.6140   133.5130   147.0140   115.9110     2.0890 
  158.0000   -25.7220    50.6980   155.7890   169.8560   136.7270     2.0750 
  158.1250   -25.6370    50.6500   170.1940   184.6420   146.5270     2.0820 
  158.2500   -25.5550    50.7990   170.9250   186.4950   142.4150     2.1020 
  158.3750   -25.4280    53.3650   164.8540   180.9600   121.0300     2.1240 
  158.5000   -25.1670    57.9110   158.3500   174.2770   102.3990     2.1400 
  158.6250   -24.7610    61.8830   153.8370   169.7960   101.1220     2.1410 
  158.7500   -24.1980    62.1360   153.0070   168.7580   115.1400     2.1270 
  158.8750   -23.5170    58.9120   153.3590   168.2040   139.5350     2.1110 
  159.0000   -22.8110    53.9190   148.9720   162.5690   145.4440     2.1000 
  159.1250   -22.1870    50.8550   137.5310   149.9240   128.9350     2.0980 
  159.2500   -21.7000    52.3180   120.8010   132.9270   112.6260     2.1040 
  159.3750   -21.2830    55.8170   103.2720   115.8710    94.7340     2.1150 
  159.5000   -20.8820    58.8090    91.9480   103.9860    74.1750     2.1240 
  159.6250   -20.4880    58.8610    88.1370    99.9110    71.9110     2.1270 
  159.7500   -20.1390    57.1110    91.3970   103.9010    97.5170     2.1190 
  159.8750   -19.8330    55.0900   100.9750   114.4500   117.5910     2.0940 
  160.0000   -19.5190    53.9120   114.5310   127.5120    96.6630     2.0630 
  160.1250   -19.1930    54.8460   122.3960   132.7340    52.9700     2.0480 
  160.2500   -18.9150    58.3270   115.8840   122.2560    26.6530     2.0670 
  160.3750   -18.6530    61.9030    99.3180   104.6330    22.5970     2.1100 
  160.5000   -18.3180    63.3010    77.5940    86.2440    22.4490     2.1610 
  160.6250   -17.8330    63.0680    61.8250    71.3420    21.0270     2.2010 
  160.7500   -17.1610    64.1220    54.7770    61.7070    22.8640     2.2150 
  160.8750   -16.3700    67.8400    51.8670    55.7960    24.9920     2.2070 
  161.0000   -15.5430    71.5050    48.6050    51.0410    25.3750     2.1970 
  161.1250   -14.8030    74.4440    42.7160    45.2590    25.4720     2.2020 
  161.2500   -14.2250    76.6160    35.0890    38.4690    23.5390     2.2240 
  161.3750   -13.8020    78.8680    27.6630    32.2420    18.1270     2.2520 
  161.5000   -13.4720    81.5140    23.7910    27.5890    12.0690     2.2670 
  161.6250   -13.1480    81.2160    23.0310    26.3500    13.1340     2.2590 
  161.7500   -12.8340    79.9600    25.2270    29.1370    20.7850     2.2390 
  161.8750   -12.5690    76.9050    31.0350    34.4050    24.7690     2.2230 
  162.0000   -12.3680    75.7900    37.6210    40.4240    25.8080     2.2170 
  162.1250   -12.2260    75.4550    42.9930    45.3160    28.8770     2.2180 
  162.2500   -12.1220    76.4340    45.5390    47.1930    29.5530     2.2190 
  162.3750   -12.0480    77.2730    44.6750    46.6950    26.9330     2.2220 
  162.5000   -12.0390    77.5070    43.3850    46.1480    26.4780     2.2240 
  162.6250   -12.1280    77.0540    42.9790    45.6440    26.4320     2.2300 
  162.7500   -12.3360    76.3800    42.7090    44.5670    25.5330     2.2380 
  162.8750   -12.5770    75.1090    40.8580    41.8830    28.4850     2.2400 
  163.0000   -12.7970    73.3810    36.0900    36.7600    31.5420     2.2390 
  163.1250   -13.0240    72.7060    28.6930    30.0100    26.8160     2.2480 
  163.2500   -13.3020    74.7970    21.4460    23.4430    16.2040     2.2770 
  163.3750   -13.6170    79.3250    16.8450    18.7670     8.7720     2.3060 
  163.5000   -13.9630    83.9810    14.9490    17.3680     7.7530     2.3070 
  163.6250   -14.3350    86.2090    16.1420    19.7350    13.7940     2.2810 
  163.7500   -14.7750    84.2420    21.3710    28.2920    28.2700     2.2440 
  163.8750   -15.4030    78.8710    35.0850    45.4900    41.8030     2.2110 
  164.0000   -16.2970    71.2460    61.2770    74.0660    48.6030     2.1860 
  164.1250   -17.3790    64.9730    98.1400   112.4990    48.3790     2.1640 
  164.2500   -18.5200    61.0320   144.4280   156.7330    41.4270     2.1470 
  164.3750   -19.5750    59.5680   191.9470   197.8600    41.4690     2.1370 
  164.5000   -20.4760    60.0210   223.8160   225.1330    49.8830     2.1260 
  164.6250   -21.2720    59.3640   231.7190   233.2480    48.6080     2.1120 
  164.7500   -21.9940    59.9090   215.5890   222.8850    36.7170     2.1040 
  164.8750   -22.6720    61.3310   191.2380   206.3560    26.7570     2.1100 
  165.0000   -23.3170    64.3740   177.0070   196.7970    21.7750     2.1260 
  165.1250   -23.8780    65.7390   177.8280   199.9490    21.7680     2.1340 
  165.2500   -24.2550    65.1120   190.5850   214.4760    23.1660     2.1290 
  165.3750   -24.4680    65.1620   213.6920   233.1230    20.5930     2.1140 
  165.5000   -24.6250    66.1730   239.1920   249.5570    16.3410     2.1020 
  165.6250   -24.9550    67.5390   253.2430   257.5890    13.8730     2.0990 
  165.7500   -25.1070    67.1990   247.9290   250.2580    13.8560     2.1070 
  165.8750   -25.3460    65.9470   222.8090   227.4070    14.9800     2.1200 
  166.0000   -25.6250    64.3590   186.6570   193.0050    16.3940     2.1340 
  166.1250   -25.9020    64.3470   147.7400   155.8070    19.7660     2.1430 
  166.2500   -26.1480    66.1540   114.0530   123.1840    25.8360     2.1390 
  166.3750   -26.3440    69.1420    88.3180    99.6930    27.3500     2.1340 
  166.5000   -26.4590    70.3200    76.6160    89.4130    23.7910     2.1350 
  166.6250   -26.4860    68.9800    78.3260    93.2820    25.0880     2.1300 
  166.7500   -26.4430    65.8930    94.0360   113.7170    41.2460     2.0970 
  166.8750   -26.3880    61.4830   128.6750   148.0620    69.6270     2.0460 
  167.0000   -26.3490    57.3020   178.0720   189.9930    71.8200     2.0110 
  167.1250   -26.3070    54.7780   223.0270   228.0110    45.1870     2.0140 
  167.2500   -26.2130    55.6420   249.6330   251.9670    34.6230     2.0450 
  167.3750   -26.0490    57.9230   255.1620   260.2740    45.3080     2.0780 
  167.5000   -25.8230    58.5660   247.2290   255.1030    59.1970     2.1000 
  167.6250   -25.5650    57.7370   234.2330   242.5840    62.4260     2.1030 
  167.7500   -25.2820    56.3910   218.9210   227.3670    46.7670     2.0920 
  167.8750   -24.9600    56.9400   202.2500   212.5920    24.2940     2.0720 
  168.0000   -24.5790    57.9060   187.5200   199.6870    14.8430     2.0680 
  168.1250   -24.1510    59.3280   176.8620   190.2210    16.1010     2.0880 
  168.2500   -23.6890    59.2850   172.9780   185.8690    15.3020     2.1150 
