~V
VERS. 2.00: Ver 2.00
~W
STRT.M 63.0000:
STOP.M 247.0000:
STEP.M 0.1250:
NULL. -999.2500:
UWI. F10865:
~C
DEPT.M :
TVD. :
DX. :
DY. :
SP.MV :
GR.API :
RI. :
RML.OHMM :
RXO.OHMM :
DEN.GM/CC :
~A
# ...
  227.2500   227.2350    -1.8710    -0.6390  -114.0880    82.7990     4.3000     4.7160     5.2630     2.2570 
  227.3750   227.3600    -1.8720    -0.6400  -114.1200    79.5360     4.3590     4.7630     5.3450     2.2570 
  227.5000   227.4850    -1.8720    -0.6400  -114.1420    75.9200     4.4520     4.8510     5.2480     2.2620 
  227.6250   227.6100    -1.8730    -0.6410  -114.1560    74.2500     4.6160     5.0310     5.1910     2.2720 
  227.7500   227.7350    -1.8730    -0.6420  -114.1580    76.5780     4.8630     5.3200     5.6620     2.2860 
  227.8750   227.8600    -1.8740    -0.6430  -114.1470    80.5310     5.1090     5.6150     6.5360     2.2990 
  228.0000   227.9850    -1.8740    -0.6440  -114.1300    85.1150     5.1830     5.7010     7.3240     2.3040 
  228.1250   228.1100    -1.8740    -0.6440  -114.1170    85.4300     4.9850     5.4650     7.9270     2.3010 
  228.2500   228.2350    -1.8750    -0.6450  -114.1200    81.4320     4.5820     4.9830     7.6600     2.2930 
  228.3750   228.3600    -1.8750    -0.6460  -114.1470    76.5860     4.0840     4.4080     5.8870     2.2840 
  228.5000   228.4850    -1.8760    -0.6470  -114.2030    75.2670     3.6520     3.9390     4.1430     2.2770 
  228.6250   228.6100    -1.8760    -0.6470  -114.2800    75.2210     3.3520     3.6340     3.6070     2.2710 
  228.7500   228.7350    -1.8770    -0.6480  -114.3680    70.5310     3.1300     3.4160     3.5940     2.2660 
  228.8750   228.8600    -1.8770    -0.6490  -114.4490    62.0310     2.9840     3.2680     3.6520     2.2650 
  229.0000   228.9850    -1.8780    -0.6490  -114.5080    55.7550     2.8810     3.1530     3.6460     2.2700 
  229.1250   229.1100    -1.8780    -0.6500  -114.5400    52.7730     2.7940     3.0490     3.4170     2.2800 
  229.2500   229.2350    -1.8780    -0.6510  -114.5460    49.1350     2.7300     2.9750     3.1640     2.2920 
  229.3750   229.3600    -1.8790    -0.6510  -114.5360    43.1720     2.7020     2.9420     3.0770     2.3040 
  229.5000   229.4850    -1.8790    -0.6520  -114.5160    38.5240     2.7150     2.9540     3.0380     2.3210 
  229.6250   229.6100    -1.8790    -0.6520  -114.4960    36.5150     2.7770     3.0220     2.9060     2.3460 
  229.7500   229.7350    -1.8800    -0.6530  -114.4790    35.5200     2.8600     3.1190     2.7750     2.3790 
  229.8750   229.8600    -1.8800    -0.6530  -114.4650    33.7450     2.9340     3.2080     3.0430     2.4060 
  230.0000   229.9850    -1.8800    -0.6540  -114.4510    31.4660     2.9710     3.2570     3.7050     2.4210 
  230.1250   230.1100    -1.8810    -0.6540  -114.4320    30.6900     2.9590     3.2440     3.9380     2.4210 
  230.2500   230.2350    -1.8810    -0.6550  -114.4070    31.0490     2.9010     3.1710     3.4640     2.4180 
  230.3750   230.3600    -1.8810    -0.6550  -114.3790    31.3990     2.8240     3.0760     3.0370     2.4200 
  230.5000   230.4850    -1.8820    -0.6550  -114.3540    32.3880     2.7640     3.0040     3.0290     2.4260 
  230.6250   230.6100    -1.8820    -0.6560  -114.3350    35.1280     2.7680     3.0060     3.1240     2.4230 
  230.7500   230.7350    -1.8820    -0.6560  -114.3240    38.1490     2.8500     3.0960     3.1230     2.4090 
  230.8750   230.8600    -1.8820    -0.6560  -114.3180    38.7280     2.9650     3.2240     3.1650     2.3920 
  231.0000   230.9850    -1.8830    -0.6570  -114.3160    38.5400     3.0590     3.3330     3.5230     2.3830 
  231.1250   231.1100    -1.8830    -0.6570  -114.3150    38.6500     3.0940     3.3800     4.1050     2.3860 
  231.2500   231.2350    -1.8830    -0.6570  -114.3150    38.8260     3.0600     3.3520     4.1910     2.3920 
  231.3750   231.3600    -1.8830    -0.6570  -114.3150    39.3250     2.9670     3.2590     3.5660     2.3920 
  231.5000   231.4850    -1.8830    -0.6580  -114.3150    40.0760     2.8600     3.1540     2.9360     2.3890 
  231.6250   231.6100    -1.8830    -0.6580  -114.3150    38.9670     2.7760     3.0790     2.6680     2.3860 
  231.7500   231.7350    -1.8840    -0.6580  -114.3150    36.5070     2.7260     3.0460     2.6370     2.3850 
  231.8750   231.8600    -1.8840    -0.6580  -114.3150    36.4490     2.7070     3.0430     2.7050     2.3830 
  232.0000   231.9850    -1.8840    -0.6580  -114.3150    39.6110     2.6940     3.0300     2.7430     2.3790 
  232.1250   232.1100    -1.8840    -0.6590  -114.3150    41.7380     2.6810     2.9970     2.7870     2.3790 
  232.2500   232.2350    -1.8840    -0.6590  -114.3150    39.7040     2.7020     2.9940     2.9080     2.3850 
  232.3750   232.3600    -1.8840    -0.6590  -114.3150    35.4080     2.8630     3.1560     3.0910     2.4030 
  232.5000   232.4850    -1.8840    -0.6590  -114.3150    32.3440     3.2250     3.5660     3.5860     2.4340 
  232.6250   232.6100    -1.8840    -0.6590  -114.3150    31.7970     3.7570     4.1800     5.1610     2.4690 
  232.7500   232.7350    -1.8850    -0.6590  -114.3150    32.7700     4.3040     4.8060     8.0470     2.4940 
  232.8750   232.8600    -1.8850    -0.6590  -114.3150    32.7010     4.6070     5.1290    11.2160     2.4920 
  233.0000   232.9850    -1.8850    -0.6600  -114.3150    31.1580     4.5140     4.9750    12.6220     2.4580 
  233.1250   233.1100    -1.8850    -0.6600  -114.3150    30.5020     4.0190     4.3750    10.9890     2.4000 
  233.2500   233.2350    -1.8850    -0.6600  -114.3150    30.8620     3.3750     3.6280     7.6410     2.3390 
  233.3750   233.3600    -1.8850    -0.6600  -114.3150    31.8700     2.8030     2.9980     4.6670     2.2940 
  233.5000   233.4850    -1.8850    -0.6600  -114.3150    32.8090     2.4410     2.6220     3.1100     2.2710 
  233.6250   233.6100    -1.8850    -0.6600  -114.3150    33.8830     2.2680     2.4490     2.6110     2.2660 
  233.7500   233.7350    -1.8860    -0.6600  -114.3150    35.3320     2.1640     2.3430     2.4000     2.2630 
  233.8750   233.8600    -1.8860    -0.6610  -114.3150    36.4110     2.0990     2.2700     2.2830     2.2550 
  234.0000   233.9850    -1.8860    -0.6610  -114.3150    36.1730     2.0680     2.2310     2.2170     2.2420 
  234.1250   234.1100    -1.8860    -0.6610  -114.3150    34.7690     2.0680     2.2260     2.1960     2.2320 
  234.2500   234.2350    -1.8860    -0.6610  -114.3150    33.3030     2.0870     2.2410     2.2140     2.2280 
  234.3750   234.3600    -1.8860    -0.6610  -114.3150    32.6620     2.1130     2.2650     2.2490     2.2280 
  234.5000   234.4850    -1.8860    -0.6610  -114.3150    31.4560     2.1300     2.2790     2.3140     2.2260 
  234.6250   234.6100    -1.8860    -0.6610  -114.3150    30.4150     2.1370     2.2800     2.3650     2.2210 
  234.7500   234.7350    -1.8870    -0.6610  -114.3150    30.4100     2.1380     2.2750     2.3180     2.2180 
  234.8750   234.8600    -1.8870    -0.6620  -114.3150    31.0030     2.1380     2.2730     2.2160     2.2210 
  235.0000   234.9850    -1.8870    -0.6620  -114.3150    31.6380     2.1450     2.2790     2.1510     2.2270 
  235.1250   235.1100    -1.8870    -0.6620  -114.3150    31.6120     2.1660     2.3010     2.1460     2.2340 
  235.2500   235.2350    -1.8870    -0.6620  -114.3150    31.6540     2.2010     2.3400     2.2080     2.2390 
  235.3750   235.3600    -1.8870    -0.6620  -114.3150    32.2400     2.2440     2.3910     2.3060     2.2430 
  235.5000   235.4850    -1.8870    -0.6620  -114.3150    33.0490     2.2860     2.4420     2.4060     2.2410 
  235.6250   235.6100    -1.8870    -0.6620  -114.3150    33.9920     2.3150     2.4800     2.5200     2.2290 
  235.7500   235.7350    -1.8870    -0.6630  -114.3150    34.8870     2.3320     2.5040     2.5680     2.2110 
  235.8750   235.8600    -1.8880    -0.6630  -114.3150    35.6100     2.3370     2.5160     2.5240     2.1960 
  236.0000   235.9850    -1.8880    -0.6630  -114.3150    35.3680     2.3400     2.5240     2.5470     2.1870 
  236.1250   236.1100    -1.8880    -0.6630  -114.3150    34.9700     2.3410     2.5300     2.6430     2.1830 
  236.2500   236.2350    -1.8880    -0.6630  -114.3150    34.6730     2.3440     2.5330     2.6660     2.1780 
