~V
VERS. 2.00: Ver 2.00
~W
STRT.M 63.0000:
STOP.M 247.0000:
STEP.M 0.1250:
NULL. -999.2500:
UWI. F10865:
~C
DEPT.M :
TVD. :
DX. :
DY. :
SP.MV :
GR.API :
RI. :
RML.OHMM :
RXO.OHMM :
DEN.GM/CC :
~A
# ...
   72.1250    72.1240    -0.1220    -0.0210  -114.6220    79.1960     8.3730     9.5680     8.0000     2.2830 
   72.2500    72.2490    -0.1240    -0.0210  -115.0980    86.2220     7.2510     8.2570     7.2420     2.2570 
   72.3750    72.3740    -0.1260    -0.0210  -115.4560    87.2110     6.4960     7.4180     6.9830     2.2410 
   72.5000    72.4990    -0.1270    -0.0210  -115.6990    85.1590     6.0150     6.9190     6.1350     2.2350 
   72.6250    72.6240    -0.1290    -0.0220  -115.8400    85.3300     5.6510     6.1240     4.9970     2.2410 
   72.7500    72.7490    -0.1310    -0.0220  -115.8670    89.0090     5.2810     5.6300     4.3010     2.2570 
   72.8750    72.8740    -0.1330    -0.0220  -115.7830    92.7000     4.9240     5.2490     4.1110     2.2780 
   73.0000    72.9990    -0.1350    -0.0220  -115.5800    93.8190     4.6580     4.9660     4.1130     2.2940 
   73.1250    73.1240    -0.1360    -0.0230  -115.2760    94.2410     4.5380     4.8540     4.1260     2.2970 
   73.2500    73.2490    -0.1380    -0.0230  -114.8870    95.9660     4.5340     4.8590     4.0800     2.2870 
   73.3750    73.3740    -0.1400    -0.0230  -114.4510    97.1320     4.6630     4.9900     4.0740     2.2670 
   73.5000    73.4990    -0.1420    -0.0230  -114.0070    95.0200     4.9810     5.3520     4.3850     2.2410 
   73.6250    73.6240    -0.1440    -0.0240  -113.5970    90.5380     5.5950     6.0320     5.2310     2.2120 
   73.7500    73.7490    -0.1450    -0.0240  -113.2670    88.5280     6.5000     7.0110     6.5730     2.1840 
   73.8750    73.8740    -0.1470    -0.0240  -113.0430    85.5370     7.5850     8.2280     8.2270     2.1570 
   74.0000    73.9990    -0.1490    -0.0240  -112.9590    80.6660     8.6770     9.4980     9.4810     2.1330 
   74.1250    74.1240    -0.1510    -0.0250  -113.0210    76.3700     9.5410    10.5750     9.7660     2.1160 
   74.2500    74.2490    -0.1520    -0.0250  -113.2500    76.8610    10.1520    11.3920     9.6060     2.1060 
   74.3750    74.3740    -0.1540    -0.0250  -113.6330    79.2620    10.4270    11.8540     9.7630     2.1060 
   74.5000    74.4990    -0.1560    -0.0260  -114.1660    76.2120    10.2000    11.7300    10.4800     2.1130 
   74.6250    74.6240    -0.1580    -0.0260  -114.8000    67.7270     9.3520    10.7600    11.1940     2.1310 
   74.7500    74.7490    -0.1600    -0.0260  -115.4780    62.6490     8.1590     9.3350    10.5040     2.1580 
   74.8750    74.8740    -0.1610    -0.0260  -116.1280    68.0290     6.9000     7.7310     7.9970     2.1860 
   75.0000    74.9990    -0.1630    -0.0270  -116.6900    78.5900     5.8980     6.4680     5.7450     2.2080 
   75.1250    75.1240    -0.1650    -0.0270  -117.1410    84.1100     5.3000     5.8130     5.1160     2.2200 
   75.2500    75.2490    -0.1670    -0.0270  -117.4700    86.0550     4.9960     5.5230     5.1340     2.2280 
   75.3750    75.3740    -0.1680    -0.0280  -117.6950    88.9670     4.9090     5.4780     4.9960     2.2370 
   75.5000    75.4990    -0.1700    -0.0280  -117.8150    92.3500     4.8770     5.4590     4.7740     2.2500 
   75.6250    75.6240    -0.1720    -0.0280  -117.8350    93.3830     4.7390     5.2730     4.5300     2.2640 
   75.7500    75.7490    -0.1740    -0.0290  -117.7410    92.4710     4.5140     4.9830     4.2480     2.2760 
   75.8750    75.8740    -0.1760    -0.0290  -117.5420    90.6640     4.3670     4.7950     4.0400     2.2760 
   76.0000    75.9990    -0.1780    -0.0290  -117.2440    91.2420     4.3930     4.8100     4.0830     2.2650 
   76.1250    76.1240    -0.1790    -0.0300  -116.8750    92.0170     4.6150     5.0450     4.6040     2.2470 
   76.2500    76.2490    -0.1810    -0.0300  -116.4610    88.5360     5.0120     5.4820     5.4340     2.2350 
   76.3750    76.3740    -0.1830    -0.0300  -116.0310    80.1830     5.5670     6.1210     5.9910     2.2320 
   76.5000    76.4990    -0.1850    -0.0300  -115.6090    74.4720     6.1680     6.8110     6.0920     2.2330 
   76.6250    76.6240    -0.1870    -0.0310  -115.2100    73.7560     6.7550     7.4900     6.1580     2.2330 
   76.7500    76.7490    -0.1890    -0.0310  -114.8510    74.9320     7.3790     8.1830     6.4740     2.2280 
   76.8750    76.8740    -0.1910    -0.0310  -114.5430    73.8090     8.2160     9.0610     6.9670     2.2200 
   77.0000    76.9990    -0.1930    -0.0320  -114.3020    70.1520     9.1230     9.9550     7.6650     2.2120 
   77.1250    77.1240    -0.1950    -0.0320  -114.1260    65.7020     9.6830    10.4520     8.6400     2.2100 
   77.2500    77.2490    -0.1960    -0.0320  -114.0130    64.3220     9.6200    10.2310     9.2440     2.2150 
   77.3750    77.3740    -0.1980    -0.0320  -113.9350    66.1930     8.8510     9.5840     8.4640     2.2260 
   77.5000    77.4990    -0.2000    -0.0330  -113.8620    68.5260     7.7970     8.6050     6.7530     2.2370 
   77.6250    77.6240    -0.2020    -0.0330  -113.7670    70.7570     6.8170     7.3490     5.6660     2.2420 
   77.7500    77.7490    -0.2040    -0.0330  -113.6380    72.9360     6.1260     6.5310     5.6420     2.2420 
   77.8750    77.8740    -0.2060    -0.0340  -113.4800    73.0700     5.8190     6.1940     5.7650     2.2360 
   78.0000    77.9990    -0.2080    -0.0340  -113.2980    73.9260     5.8250     6.2240     5.5690     2.2280 
   78.1250    78.1230    -0.2100    -0.0340  -113.1010    74.7370     6.0250     6.4990     5.4780     2.2180 
   78.2500    78.2480    -0.2120    -0.0340  -112.8890    73.9260     6.2660     6.8400     5.7120     2.2090 
   78.3750    78.3730    -0.2140    -0.0350  -112.6630    71.1010     6.5180     7.1990     6.1120     2.2020 
   78.5000    78.4980    -0.2160    -0.0350  -112.4230    70.7460     6.7310     7.4860     6.5490     2.1970 
   78.6250    78.6230    -0.2180    -0.0350  -112.1760    72.6790     6.8940     7.6900     7.0620     2.1900 
   78.7500    78.7480    -0.2200    -0.0350  -111.9230    72.8570     7.0040     7.8240     7.3360     2.1780 
   78.8750    78.8730    -0.2220    -0.0350  -111.6680    71.9720     7.0850     7.9310     7.1370     2.1640 
   79.0000    78.9980    -0.2230    -0.0360  -111.4050    71.8300     7.2180     8.0830     7.1400     2.1550 
   79.1250    79.1230    -0.2250    -0.0360  -111.1240    71.4920     7.4750     8.3640     7.8540     2.1560 
   79.2500    79.2480    -0.2270    -0.0360  -110.8120    70.5510     8.0240     8.9270     8.8840     2.1700 
   79.3750    79.3730    -0.2290    -0.0360  -110.4570    69.7510     9.1170    10.0630     9.7650     2.1980 
   79.5000    79.4980    -0.2310    -0.0360  -110.0470    68.1990    10.9060    12.0620    11.0550     2.2350 
   79.6250    79.6230    -0.2330    -0.0360  -109.5860    63.8480    13.5420    15.0750    14.5410     2.2680 
   79.7500    79.7480    -0.2350    -0.0370  -109.0860    58.9840    16.3590    18.3980    19.3150     2.2810 
   79.8750    79.8730    -0.2360    -0.0370  -108.5680    56.8510    18.6870    21.1100    21.2500     2.2610 
   80.0000    79.9980    -0.2380    -0.0370  -108.0440    56.4660    19.5620    22.0010    19.6050     2.2180 
   80.1250    80.1230    -0.2400    -0.0370  -107.5120    54.8570    18.5040    20.4810    17.2300     2.1730 
   80.2500    80.2480    -0.2420    -0.0370  -106.9470    54.7090    16.1620    17.6760    14.9300     2.1420 
   80.3750    80.3730    -0.2440    -0.0380  -106.3170    56.0050    13.6100    14.7170    12.0720     2.1280 
   80.5000    80.4980    -0.2450    -0.0380  -105.5880    56.8740    11.7510    12.7630    10.1080     2.1220 
   80.6250    80.6230    -0.2470    -0.0380  -104.7730    57.9060    11.1560    12.3080    10.0700     2.1160 
   80.7500    80.7480    -0.2490    -0.0380  -103.9040    61.4090    11.5010    12.8980    11.8900     2.1090 
   80.8750    80.8730    -0.2510    -0.0380  -103.0460    63.6480    12.5990    14.3780    15.2640     2.1010 
   81.0000    80.9980    -0.2530    -0.0380  -102.2630    59.7210    14.1060    16.3000    18.2380     2.0960 
   81.1250    81.1230    -0.2550    -0.0380  -101.5820    53.8970    15.6180    18.1140    19.2410     2.0970 
