~V
VERS. 2.00: Ver 2.00
~W
STRT.M 60.0000:
STOP.M 249.0000:
STEP.M 0.1250:
NULL. -999.2500:
UWI. F10851:
~C
DEPT.M :
TVD. :
DX. :
DY. :
SP.MV :
GR.API :
RI. :
RML.OHMM :
RXO.OHMM :
DEN.GM/CC :
~A
# ...
   87.3750    87.3740     0.1250    -0.1230    -4.5660    72.1080     8.9280     9.1040     9.7670     2.2130 
   87.5000    87.4990     0.1260    -0.1230    -5.5450    74.4020     8.3000     8.4140    10.0750     2.2250 
   87.6250    87.6240     0.1270    -0.1240    -6.3390    73.3350     7.9880     8.0670     9.9950     2.2280 
   87.7500    87.7490     0.1280    -0.1250    -6.8780    71.6370     8.0140     8.0960     9.7740     2.2260 
   87.8750    87.8740     0.1290    -0.1250    -7.0940    71.7860     8.3060     8.4000     9.6390     2.2220 
   88.0000    87.9990     0.1290    -0.1260    -7.0200    71.9550     8.7170     8.7830     9.4170     2.2150 
   88.1250    88.1240     0.1300    -0.1260    -6.7020    70.8030     9.1940     9.2110     9.4130     2.2050 
   88.2500    88.2490     0.1310    -0.1270    -6.2640    69.4920     9.7520     9.7130     9.6220     2.1940 
   88.3750    88.3740     0.1320    -0.1270    -5.8220    68.0000    10.4090    10.3440     9.5120     2.1830 
   88.5000    88.4990     0.1330    -0.1280    -5.4640    66.2490    11.1210    11.0960     9.5680     2.1730 
   88.6250    88.6240     0.1330    -0.1280    -5.2310    65.0620    11.5390    11.5660    10.9810     2.1650 
   88.7500    88.7490     0.1340    -0.1290    -5.1190    65.7280    11.3320    11.3890    12.9150     2.1610 
   88.8750    88.8740     0.1350    -0.1290    -5.1050    67.8130    10.4680    10.4910    12.6760     2.1640 
   89.0000    88.9990     0.1360    -0.1300    -5.1260    71.0450     9.1170     9.0690     9.9510     2.1750 
   89.1250    89.1240     0.1370    -0.1300    -5.1380    76.0790     7.8290     7.7320     7.7830     2.1930 
   89.2500    89.2490     0.1380    -0.1310    -5.1240    81.0140     6.9890     6.8820     7.3330     2.2090 
   89.3750    89.3740     0.1380    -0.1310    -5.0510    82.4940     6.7440     6.6630     7.6610     2.2170 
   89.5000    89.4990     0.1390    -0.1320    -4.8970    78.5730     7.0190     6.9880     8.4580     2.2170 
   89.6250    89.6240     0.1400    -0.1320    -4.6510    72.7030     7.8610     7.8900     9.0430     2.2080 
   89.7500    89.7490     0.1410    -0.1330    -4.3210    69.7200     9.1480     9.2160     9.0200     2.1970 
   89.8750    89.8740     0.1420    -0.1330    -3.9020    70.9580    10.7120    10.8300     9.9400     2.1870 
   90.0000    89.9990     0.1430    -0.1340    -3.4280    72.8130    12.3320    12.5310    13.5350     2.1810 
   90.1250    90.1240     0.1440    -0.1340    -2.9540    72.0440    13.9630    14.3060    18.2280     2.1760 
   90.2500    90.2490     0.1440    -0.1350    -2.5440    69.1780    15.5730    16.1020    19.6940     2.1710 
   90.3750    90.3740     0.1450    -0.1350    -2.2960    66.2650    16.1250    16.7330    18.3870     2.1640 
   90.5000    90.4990     0.1460    -0.1360    -2.2900    65.9100    15.1610    15.7160    18.2390     2.1590 
   90.6250    90.6240     0.1470    -0.1370    -2.5830    68.7440    12.6120    12.9960    16.3140     2.1590 
   90.7500    90.7490     0.1480    -0.1370    -3.1250    74.1830     9.4140     9.6120    10.9850     2.1700 
   90.8750    90.8740     0.1490    -0.1380    -3.8430    79.0850     6.9620     7.0500     6.9770     2.1930 
   91.0000    90.9990     0.1490    -0.1380    -4.5850    82.2670     5.5890     5.6560     5.6080     2.2220 
   91.1250    91.1240     0.1500    -0.1390    -5.1940    83.0590     5.0330     5.1550     5.7120     2.2490 
   91.2500    91.2490     0.1510    -0.1390    -5.5910    82.2680     4.9340     5.1610     6.8010     2.2670 
   91.3750    91.3740     0.1520    -0.1400    -5.7690    81.5150     5.0870     5.4190     7.8580     2.2710 
   91.5000    91.4990     0.1530    -0.1400    -5.8200    81.6090     5.2170     5.5840     7.4820     2.2690 
   91.6250    91.6240     0.1540    -0.1410    -5.8390    82.3790     5.1630     5.4760     6.0790     2.2690 
   91.7500    91.7490     0.1550    -0.1410    -5.9070    83.4310     5.0390     5.2710     5.4830     2.2780 
   91.8750    91.8740     0.1560    -0.1420    -6.0540    85.8100     4.9410     5.1170     5.9070     2.2980 
   92.0000    91.9990     0.1560    -0.1430    -6.2390    89.0960     5.0080     5.1870     7.5690     2.3210 
   92.1250    92.1240     0.1570    -0.1430    -6.3890    89.6390     5.2020     5.4230     8.8670     2.3410 
   92.2500    92.2490     0.1580    -0.1440    -6.4490    87.3490     5.4070     5.6810     7.7090     2.3490 
   92.3750    92.3740     0.1590    -0.1440    -6.4000    85.8950     5.4660     5.7470     6.2650     2.3400 
   92.5000    92.4990     0.1600    -0.1450    -6.2780    86.5650     5.3730     5.6460     5.9070     2.3200 
   92.6250    92.6240     0.1610    -0.1450    -6.1230    88.3660     5.2200     5.4710     6.0770     2.2960 
   92.7500    92.7490     0.1620    -0.1460    -5.9860    87.8850     5.1270     5.3660     6.2670     2.2780 
   92.8750    92.8740     0.1630    -0.1460    -5.9140    85.3190     5.1970     5.4900     6.1100     2.2720 
   93.0000    92.9990     0.1640    -0.1470    -5.9100    82.1080     5.2610     5.5910     6.2920     2.2750 
   93.1250    93.1240     0.1650    -0.1470    -5.9760    79.8740     5.2670     5.6060     6.7480     2.2800 
   93.2500    93.2490     0.1660    -0.1480    -6.1030    80.0800     5.1620     5.5110     6.5360     2.2830 
   93.3750    93.3740     0.1660    -0.1480    -6.2780    83.1330     5.1340     5.4780     5.7160     2.2840 
   93.5000    93.4990     0.1670    -0.1490    -6.4860    86.7020     5.2710     5.6820     5.2240     2.2870 
   93.6250    93.6240     0.1680    -0.1490    -6.7330    86.9930     5.4840     5.9670     6.3760     2.2950 
   93.7500    93.7490     0.1690    -0.1500    -7.0100    84.4430     5.8030     6.3610    10.3490     2.3070 
   93.8750    93.8740     0.1700    -0.1500    -7.2950    81.3310     6.1110     6.7270    12.5400     2.3180 
   94.0000    93.9990     0.1710    -0.1510    -7.5600    79.2320     6.3360     6.9630     9.3350     2.3210 
   94.1250    94.1240     0.1720    -0.1510    -7.7660    79.4580     6.3610     6.9560     6.5430     2.3130 
   94.2500    94.2490     0.1730    -0.1520    -7.8750    81.6300     6.2480     6.7850     6.6420     2.2930 
   94.3750    94.3740     0.1740    -0.1520    -7.8640    83.3350     6.1090     6.5560     7.0270     2.2670 
   94.5000    94.4990     0.1750    -0.1530    -7.7660    82.7410     6.0350     6.3800     6.9640     2.2440 
   94.6250    94.6240     0.1760    -0.1540    -7.6340    81.3520     6.2270     6.5060     6.8010     2.2300 
   94.7500    94.7490     0.1770    -0.1540    -7.5430    80.6700     6.8180     7.1160     7.4980     2.2290 
   94.8750    94.8740     0.1780    -0.1550    -7.5680    79.2380     7.6410     8.0920    13.0020     2.2420 
   95.0000    94.9990     0.1790    -0.1550    -7.7220    75.7750     8.2390     8.8870    24.6320     2.2680 
   95.1250    95.1240     0.1800    -0.1560    -8.0080    71.6880     8.2700     8.9840    27.0350     2.3020 
   95.2500    95.2490     0.1810    -0.1570    -8.3860    69.4010     7.6780     8.3250    14.7930     2.3330 
   95.3750    95.3740     0.1820    -0.1570    -8.8070    71.7120     6.8540     7.2840     6.1670     2.3450 
   95.5000    95.4990     0.1830    -0.1580    -9.2160    76.2370     6.1790     6.4360     6.2310     2.3340 
   95.6250    95.6240     0.1840    -0.1580    -9.5950    80.1310     5.9050     6.1240     8.2960     2.3070 
   95.7500    95.7490     0.1850    -0.1590    -9.9460    83.0660     6.0400     6.3040     9.2240     2.2770 
   95.8750    95.8740     0.1860    -0.1590   -10.2680    84.4890     6.5320     6.8570     8.3570     2.2560 
   96.0000    95.9990     0.1870    -0.1600   -10.5840    84.1630     6.8960     7.2200     7.5300     2.2450 
   96.1250    96.1240     0.1880    -0.1610   -10.9240    81.6930     6.7720     7.0060     7.1620     2.2410 
   96.2500    96.2490     0.1890    -0.1610   -11.2950    80.5960     6.2540     6.3700     6.8750     2.2420 
   96.3750    96.3740     0.1900    -0.1620   -11.6940    81.6370     5.6440     5.6860     6.1790     2.2460 
