~V
VERS. 2.00: Ver 2.00
~W
STRT.M 63.0000:
STOP.M 269.0000:
STEP.M 0.1250:
NULL. -999.2500:
UWI. F10891:
~C
DEPT.M :
TVD. :
DX. :
DY. :
SP.MV :
GR.API :
RI. :
RML.OHMM :
RXO.OHMM :
DEN.GM/CC :
~A
# ...
  199.8750   199.8660    -0.7780    -1.3510   -12.7930    50.4120    32.7580    37.4230    31.9850     2.1830 
  200.0000   199.9910    -0.7780    -1.3520   -12.8250    51.7610    31.6730    36.3420    33.7080     2.2040 
  200.1250   200.1160    -0.7790    -1.3540   -12.8640    51.9930    30.6740    35.3620    35.7930     2.2400 
  200.2500   200.2410    -0.7790    -1.3550   -12.8970    51.9680    30.0490    34.7760    35.2970     2.2900 
  200.3750   200.3660    -0.7800    -1.3570   -12.9180    52.6590    30.0450    34.8450    32.5510     2.3490 
  200.5000   200.4910    -0.7800    -1.3580   -12.9280    53.4820    30.8130    35.7000    30.6000     2.4040 
  200.6250   200.6160    -0.7810    -1.3600   -12.9320    52.9520    31.9070    36.7650    32.7640     2.4420 
  200.7500   200.7410    -0.7810    -1.3620   -12.9230    51.4740    32.2650    36.7590    37.4620     2.4490 
  200.8750   200.8660    -0.7810    -1.3630   -12.8930    50.8710    30.8710    34.6260    39.3670     2.4290 
  201.0000   200.9910    -0.7820    -1.3650   -12.8300    50.9700    27.3070    30.0720    36.9990     2.3980 
  201.1250   201.1160    -0.7820    -1.3660   -12.7360    52.4420    22.5350    24.3640    30.0150     2.3710 
  201.2500   201.2410    -0.7830    -1.3680   -12.6220    55.5340    17.9110    19.1060    20.1800     2.3480 
  201.3750   201.3660    -0.7830    -1.3690   -12.5040    59.5790    14.4540    15.3300    13.6040     2.3220 
  201.5000   201.4910    -0.7830    -1.3710   -12.3950    63.3750    12.5300    13.3280    11.7650     2.2960 
  201.6250   201.6160    -0.7840    -1.3720   -12.2960    65.1950    11.7630    12.6000    11.5810     2.2720 
  201.7500   201.7410    -0.7840    -1.3740   -12.2050    66.2330    11.8330    12.7560    12.1640     2.2510 
  201.8750   201.8660    -0.7850    -1.3760   -12.1200    64.7800    12.3110    13.3210    12.8920     2.2350 
  202.0000   201.9910    -0.7850    -1.3770   -12.0490    62.5450    12.8910    13.9600    13.0720     2.2250 
  202.1250   202.1160    -0.7860    -1.3790   -12.0040    58.2070    13.3250    14.4210    12.9620     2.2230 
  202.2500   202.2410    -0.7860    -1.3800   -11.9830    57.0140    13.4380    14.5230    12.6380     2.2260 
  202.3750   202.3660    -0.7870    -1.3820   -11.9740    58.7680    13.2020    14.2480    12.0020     2.2290 
  202.5000   202.4910    -0.7870    -1.3840   -11.9650    62.9030    12.6560    13.6490    11.3950     2.2320 
  202.6250   202.6160    -0.7870    -1.3850   -11.9500    63.9320    11.9640    12.9090    10.9390     2.2390 
  202.7500   202.7410    -0.7880    -1.3870   -11.9390    63.6420    11.2980    12.2220    10.3960     2.2480 
  202.8750   202.8660    -0.7880    -1.3880   -11.9400    63.2750    10.8040    11.7470     9.9630     2.2530 
  203.0000   202.9910    -0.7890    -1.3900   -11.9580    64.8670    10.5900    11.6060     9.8920     2.2540 
  203.1250   203.1160    -0.7890    -1.3920   -11.9900    64.9200    10.6660    11.7930    10.0960     2.2540 
  203.2500   203.2410    -0.7900    -1.3930   -12.0300    65.3990    11.0240    12.2840    10.5990     2.2580 
  203.3750   203.3660    -0.7900    -1.3950   -12.0800    65.5540    11.5680    12.9710    11.2900     2.2590 
  203.5000   203.4910    -0.7900    -1.3970   -12.1420    64.1970    12.2140    13.7670    12.2160     2.2500 
  203.6250   203.6160    -0.7910    -1.3980   -12.2210    62.3330    12.8440    14.5350    13.3790     2.2400 
  203.7500   203.7410    -0.7910    -1.4000   -12.3140    60.7260    13.2820    15.0640    14.3220     2.2550 
  203.8750   203.8660    -0.7920    -1.4010   -12.4120    59.8060    13.3930    15.1900    15.3710     2.3090 
  204.0000   203.9910    -0.7920    -1.4030   -12.5010    57.2300    13.1180    14.8440    17.3640     2.3790 
  204.1250   204.1160    -0.7930    -1.4050   -12.5720    55.4280    12.5810    14.1820    18.3740     2.4180 
  204.2500   204.2410    -0.7930    -1.4060   -12.6120    56.4360    11.9410    13.4100    16.1550     2.3930 
  204.3750   204.3660    -0.7930    -1.4080   -12.6170    60.2280    11.3420    12.7070    13.2280     2.3280 
  204.5000   204.4900    -0.7940    -1.4100   -12.5820    64.6440    10.8400    12.1420    12.1650     2.2680 
  204.6250   204.6150    -0.7940    -1.4120   -12.5180    67.8210    10.4200    11.6830    11.9540     2.2390 
  204.7500   204.7400    -0.7950    -1.4130   -12.4350    67.9300    10.0800    11.3080    11.4680     2.2370 
  204.8750   204.8650    -0.7950    -1.4150   -12.3460    67.2940     9.8250    11.0240    10.7860     2.2440 
  205.0000   204.9900    -0.7960    -1.4170   -12.2610    66.9630     9.7180    10.9240    10.2260     2.2490 
  205.1250   205.1150    -0.7960    -1.4180   -12.1810    68.0710     9.7960    11.0720    10.1700     2.2490 
  205.2500   205.2400    -0.7960    -1.4200   -12.1080    68.2700    10.0290    11.4260    10.9190     2.2440 
  205.3750   205.3650    -0.7970    -1.4220   -12.0480    67.9010    10.2240    11.7260    12.0320     2.2360 
  205.5000   205.4900    -0.7970    -1.4230   -12.0090    67.8180    10.1460    11.6640    12.6860     2.2280 
  205.6250   205.6150    -0.7980    -1.4250   -11.9880    68.3790     9.7090    11.1390    12.2990     2.2260 
  205.7500   205.7400    -0.7980    -1.4270   -11.9730    69.2300     8.9740    10.2420    10.7500     2.2380 
  205.8750   205.8650    -0.7990    -1.4290   -11.9420    71.9890     8.1960     9.3090     8.8720     2.2610 
  206.0000   205.9900    -0.7990    -1.4300   -11.8800    75.0610     7.6490     8.6890     7.7740     2.2800 
  206.1250   206.1150    -0.8000    -1.4320   -11.7980    76.5520     7.4930     8.5750     7.8750     2.2810 
  206.2500   206.2400    -0.8000    -1.4340   -11.7100    75.0130     7.8200     9.0630     8.8370     2.2640 
  206.3750   206.3650    -0.8000    -1.4360   -11.6320    73.2340     8.5250     9.9950    10.0380     2.2420 
  206.5000   206.4900    -0.8010    -1.4370   -11.5730    71.2330     9.4370    11.1230    11.3300     2.2240 
  206.6250   206.6150    -0.8010    -1.4390   -11.5260    69.4830    10.3030    12.1290    12.3870     2.2100 
  206.7500   206.7400    -0.8020    -1.4410   -11.4900    69.2050    10.9090    12.7660    12.6200     2.2030 
  206.8750   206.8650    -0.8020    -1.4430   -11.4590    69.5750    11.1980    13.0130    12.2000     2.2050 
  207.0000   206.9900    -0.8030    -1.4440   -11.4290    70.2890    11.2000    12.9520    11.7780     2.2140 
  207.1250   207.1150    -0.8030    -1.4460   -11.3970    70.0470    11.0580    12.7750    11.6740     2.2230 
  207.2500   207.2400    -0.8030    -1.4480   -11.3590    70.4080    10.8750    12.5990    11.6200     2.2260 
  207.3750   207.3650    -0.8040    -1.4500   -11.3170    70.5050    10.6880    12.4320    11.3280     2.2260 
  207.5000   207.4900    -0.8040    -1.4510   -11.2770    70.2480    10.4470    12.1800    10.9410     2.2290 
  207.6250   207.6150    -0.8050    -1.4530   -11.2440    69.2840    10.1000    11.7750    10.7170     2.2360 
  207.7500   207.7400    -0.8050    -1.4550   -11.2220    67.3490     9.6510    11.2320    10.4340     2.2470 
  207.8750   207.8650    -0.8060    -1.4570   -11.2140    66.4010     9.1820    10.6740     9.6080     2.2580 
  208.0000   207.9900    -0.8060    -1.4580   -11.2320    69.1670     8.7830    10.2250     8.5650     2.2670 
  208.1250   208.1150    -0.8070    -1.4600   -11.2790    73.1470     8.4890     9.9240     8.2780     2.2710 
  208.2500   208.2400    -0.8070    -1.4620   -11.3690    76.7100     8.2820     9.7380     8.7210     2.2720 
  208.3750   208.3650    -0.8070    -1.4640   -11.5030    76.7630     8.0980     9.5680     8.8990     2.2760 
  208.5000   208.4900    -0.8080    -1.4650   -11.6810    74.8590     7.8790     9.3260     8.4850     2.2840 
  208.6250   208.6150    -0.8080    -1.4670   -11.8920    73.6930     7.6170     9.0060     7.9030     2.2940 
  208.7500   208.7400    -0.8090    -1.4690   -12.1140    72.8270     7.3720     8.6920     7.4000     2.3040 
  208.8750   208.8650    -0.8090    -1.4710   -12.3150    73.4690     7.2670     8.5560     7.0700     2.3090 
