~V
VERS. 2.00: Ver 2.00
~W
STRT.M 40.0000:
STOP.M 205.0000:
STEP.M 0.1250:
NULL. -999.2500:
UWI. F10810:
~C
DEPT.M :
SP.MV :
GR.API :
RI. :
RML.OHMM :
RXO.OHMM :
DEN.GM/CC :
~A
# ...
  194.5000    -3.1120    68.8280     9.8300    10.5100    15.8820     2.3940 
  194.6250    -3.1120    68.2960     9.8870    10.5670    15.4480     2.3900 
  194.7500    -3.1120    68.3380     9.7400    10.4370    15.0620     2.3760 
  194.8750    -3.1120    69.0860     9.5160    10.1960    14.9390     2.3530 
  195.0000    -3.1120    70.0780     9.2280     9.9120    14.9160     2.3370 
  195.1250    -3.1120    70.3690     9.0160     9.7090    13.9500     2.3370 
  195.2500    -3.1120    70.4380     8.9710     9.6720    12.5010     2.3530 
  195.3750    -3.1120    69.8320     9.0990     9.8280    12.0710     2.3720 
  195.5000    -3.1120    68.9060     9.4090    10.1600    12.6200     2.3960 
  195.6250    -3.1120    68.4380     9.7320    10.5480    13.7640     2.4170 
  195.7500    -3.1120    68.2870     9.9710    10.8850    14.5840     2.4400 
  195.8750    -3.1120    69.1530    10.1180    11.1190    13.6800     2.4630 
  196.0000    -3.1120    69.7490    10.1510    11.2360    12.6620     2.4760 
  196.1250    -3.1120    70.0980    10.1490    11.2790    12.8380     2.4680 
  196.2500    -3.1120    70.0610    10.1530    11.2920    13.1580     2.4410 
  196.3750    -3.1120    70.4860    10.1580    11.2880    13.3610     2.4120 
  196.5000    -3.1120    71.0980    10.1640    11.2760    13.5240     2.3970 
  196.6250    -3.1120    71.4850    10.1710    11.2490    13.5380     2.3990 
  196.7500    -3.1120    70.9400    10.1680    11.2220    13.6040     2.4080 
  196.8750    -3.1120    69.8000    10.1650    11.1960    13.4080     2.4090 
  197.0000    -3.1120    68.8660    10.1630    11.1820    13.5850     2.4090 
  197.1250    -3.1120    68.2100    10.1620    11.1900    14.7960     2.4210 
  197.2500    -3.1120    67.7550    10.1630    11.2070    15.3550     2.4380 
  197.3750    -3.1120    67.2390    10.1640    11.2250    14.4240     2.4350 
  197.5000    -3.1120    66.8780    10.1650    11.2340    13.4590     2.4080 
  197.6250    -3.1120    66.7970    10.1640    11.2340    13.1170     2.3740 
  197.7500    -3.1120    66.7970    10.1620    11.2270    13.6430     2.3550 
  197.8750    -3.1120    66.7970    10.1620    11.2170    14.9870     2.3530 
  198.0000    -3.1120    66.7970    10.1610    11.2180    14.7920     2.3600 
  198.1250    -3.1120    66.7970    10.1610    11.2330    13.2950     2.3660 
  198.2500    -3.1120    66.7970    10.1630    11.2540    12.6630     2.3660 
  198.3750    -3.1120    66.7970    10.1610    11.2710    11.8020     2.3590 
  198.5000    -3.1120    66.7970    10.1620    11.2730    10.5690     2.3520 
  198.6250    -3.1120    66.7970    10.1630    11.2670    10.3300     2.3470 
  198.7500    -3.1120    66.7970    10.1630    11.2650    11.1070     2.3530 
  198.8750    -3.1120    66.7970    10.1630    11.2710    12.1660     2.3670 
  199.0000    -3.1120    66.7970    10.1630    11.2770    12.3970     2.3770 
  199.1250    -3.1120    66.7970    10.1620    11.2800    11.7290     2.3640 
  199.2500    -3.1120    66.7970    10.1620    11.2800    11.2070     2.3260 
  199.3750    -3.1120    66.7970    10.1620    11.2790    13.1440     2.2850 
  199.5000    -3.1120    66.7970    10.1620    11.2810    16.2700     2.2500 
  199.6250    -3.1120    66.7970    10.1620    11.2790    14.7950     2.2270 
  199.7500    -3.1120    66.7970    10.1630    11.2710    10.0000     2.2060 
  199.8750    -3.1120    66.7970    10.1640    11.2620     6.8160     2.2160 
  200.0000    -3.1120    66.7970    10.1640    11.2540     5.3660     2.2370 
  200.1250    -3.1120    66.7970    10.1640    11.2510     4.4820     2.2500 
  200.2500    -3.1120    66.7970    10.1640    11.2510     4.0350     2.2220 
  200.3750    -3.1120    66.7970    10.1640    11.2510     4.2960     2.1910 
  200.5000    -3.1120    66.7970    10.1640    11.2510     5.1120     2.1920 
  200.6250    -3.1120    66.7970    10.1640    11.2510     6.0170     2.2290 
  200.7500    -3.1120    66.7970    10.1640    11.2510     6.5060     2.2540 
  200.8750    -3.1120    66.7970    10.1640    11.2510     7.3430     2.2330 
  201.0000    -3.1120    66.7970    10.1640    11.2510     8.9610     2.1870 
  201.1250    -3.1120    66.7970    10.1640    11.2510     9.9590     2.1540 
  201.2500    -3.1120    66.7970    10.1640    11.2510     9.8560     2.1440 
  201.3750    -3.1120    66.7970    10.1640    11.2510     9.5440     2.1410 
  201.5000    -3.1120    66.7970    10.1640    11.2510     9.4580     2.1330 
  201.6250    -3.1120    66.7970    10.1640    11.2510     9.4570     2.1220 
  201.7500    -3.1120    66.7970    10.1640    11.2510     9.4570     2.1170 
  201.8750    -3.1120    66.7970    10.1640    11.2510     9.4560     2.1160 
  202.0000    -3.1120    66.7970    10.1640    11.2510     9.4560     2.1240 
  202.1250    -3.1120    66.7970    10.1640    11.2510     9.4550     2.1350 
  202.2500    -3.1120    66.7970    10.1640    11.2510     9.4540     2.1460 
  202.3750    -3.1120    66.7970    10.1640    11.2510     9.4530     2.1540 
  202.5000    -3.1120    66.7970    10.1640    11.2510     9.4520     2.1550 
  202.6250    -3.1120    66.7970    10.1640    11.2510     9.4510     2.1510 
  202.7500    -3.1120    66.7970    10.1640    11.2510     9.4510     2.1480 
  202.8750    -3.1120    66.7970    10.1640    11.2510     9.4500     2.1490 
  203.0000    -3.1120    66.7970    10.1640    11.2510     9.4490     2.1480 
  203.1250    -3.1120    66.7970    10.1640    11.2510     9.4480     2.1410 
  203.2500    -3.1120    66.7970    10.1640    11.2510     9.4470     2.1320 
  203.3750    -3.1120    66.7970    10.1640    11.2510     9.4460     2.1280 
  203.5000    -3.1120    66.7970    10.1640    11.2510     9.4460     2.1280 
  203.6250    -3.1120    66.7970    10.1640    11.2510     9.4460     2.1280 
  203.7500    -3.1120    66.7970    10.1640    11.2510     9.4440     2.1310 
  203.8750    -3.1120    66.7970    10.1640    11.2510     9.4420     2.1330 
  204.0000    -3.1120    66.7970    10.1640    11.2510     9.4410     2.1340 
  204.1250    -3.1120    66.7970    10.1640    11.2510     9.4400     2.1310 
  204.2500    -3.1120    66.7970    10.1640    11.2510     9.4390     2.1270 
  204.3750    -3.1120    66.7970    10.1640    11.2510     9.4370     2.1250 
  204.5000    -3.1120    66.7970    10.1640    11.2510     9.4360     2.1250 
  204.6250    -3.1120    66.7970    10.1640    11.2510     9.4360     2.1280 
  204.7500    -3.1120    66.7970    10.1640    11.2510     9.4340     2.1320 
  204.8750    -3.1120    66.7970    10.1640    11.2510     9.4320     2.1340 
  205.0000    -3.1120    66.7970    10.1640    11.2510     9.4300     2.1330 
