~V
VERS. 2.00: Ver 2.00
~W
STRT.M 60.0000:
STOP.M 249.0000:
STEP.M 0.1250:
NULL. -999.2500:
UWI. F10851:
~C
DEPT.M :
TVD. :
DX. :
DY. :
SP.MV :
GR.API :
RI. :
RML.OHMM :
RXO.OHMM :
DEN.GM/CC :
~A
# ...
   69.1250    69.1250     0.0390    -0.0470     5.9470    60.7670    17.1660    15.9140    18.4340     2.1410 
   69.2500    69.2500     0.0390    -0.0470     6.3490    58.7420    16.4090    15.1720    16.6650     2.1130 
   69.3750    69.3750     0.0400    -0.0480     6.3910    58.4610    15.2700    14.2040    14.8030     2.0910 
   69.5000    69.5000     0.0400    -0.0480     6.1510    59.9520    14.3160    13.4390    13.6860     2.0780 
   69.6250    69.6250     0.0400    -0.0490     5.6930    62.5920    13.7480    12.9920    12.8360     2.0740 
   69.7500    69.7500     0.0410    -0.0500     5.1270    65.0240    13.3010    12.7060    12.4310     2.0720 
   69.8750    69.8750     0.0410    -0.0500     4.5190    66.4310    12.7450    12.3110    12.0520     2.0700 
   70.0000    70.0000     0.0420    -0.0510     3.8920    68.1950    12.1880    11.8040    10.3720     2.0670 
   70.1250    70.1250     0.0420    -0.0510     3.2170    69.4330    12.0750    11.6470     8.1330     2.0680 
   70.2500    70.2500     0.0430    -0.0520     2.4720    68.4630    12.3370    11.6980     6.9470     2.0820 
   70.3750    70.3750     0.0430    -0.0520     1.6290    66.0810    12.0470    11.5130    16.2070     2.1220 
   70.5000    70.5000     0.0430    -0.0530     0.6980    66.4250    11.1220    10.9120    33.9130     2.1900 
   70.6250    70.6250     0.0440    -0.0530    -0.2840    70.2630     9.5590     9.7860    32.7180     2.2730 
   70.7500    70.7500     0.0440    -0.0540    -1.2550    75.9640     7.9960     8.6270    14.6570     2.3400 
   70.8750    70.8750     0.0450    -0.0540    -2.1570    82.0170     6.8970     7.6340     5.7590     2.3600 
   71.0000    71.0000     0.0450    -0.0550    -2.9510    85.5690     6.1300     6.9960     5.6760     2.3340 
   71.1250    71.1250     0.0460    -0.0550    -3.6080    83.7130     5.8040     6.8320     5.8890     2.2820 
   71.2500    71.2500     0.0460    -0.0560    -4.1570    80.4930     5.8340     7.0710     5.8810     2.2360 
   71.3750    71.3750     0.0460    -0.0570    -4.6240    80.6760     6.0240     7.4290     5.6800     2.2100 
   71.5000    71.5000     0.0470    -0.0570    -5.0340    82.4230     6.0370     7.4870     5.3500     2.2050 
   71.6250    71.6250     0.0470    -0.0580    -5.3920    84.2330     5.7390     7.0940     5.2060     2.2120 
   71.7500    71.7500     0.0480    -0.0580    -5.6920    87.8330     5.3800     6.6020     5.2660     2.2220 
   71.8750    71.8750     0.0480    -0.0590    -5.8890    92.1630     5.1010     6.1270     5.1080     2.2340 
   72.0000    72.0000     0.0480    -0.0590    -5.9620    94.0180     5.0070     5.8200     4.9040     2.2520 
   72.1250    72.1250     0.0490    -0.0600    -5.9030    93.7180     5.2150     5.8830     5.7490     2.2800 
   72.2500    72.2500     0.0490    -0.0610    -5.7540    92.1970     5.7050     6.3040     7.5500     2.3140 
   72.3750    72.3750     0.0500    -0.0610    -5.5620    87.3980     6.6000     7.3180     8.5420     2.3430 
   72.5000    72.5000     0.0500    -0.0620    -5.3840    79.9590     7.7910     8.6720     8.4040     2.3600 
   72.6250    72.6250     0.0500    -0.0620    -5.2440    73.5580     8.9760    10.0160     9.9400     2.3660 
   72.7500    72.7500     0.0510    -0.0630    -5.1410    70.8360     9.9090    11.0960    12.4860     2.3690 
   72.8750    72.8750     0.0510    -0.0630    -5.0750    70.8150    10.2160    11.4020    11.5730     2.3710 
   73.0000    73.0000     0.0520    -0.0640    -5.0250    70.6640     9.8470    10.9820     8.7170     2.3660 
   73.1250    73.1250     0.0520    -0.0650    -4.9870    70.5360     8.9390     9.9370     7.1510     2.3470 
   73.2500    73.2500     0.0520    -0.0650    -4.9880    71.6630     7.6310     8.4400     6.2510     2.3190 
   73.3750    73.3750     0.0530    -0.0660    -5.0620    74.5530     6.3860     7.0410     5.3760     2.2880 
   73.5000    73.5000     0.0530    -0.0660    -5.2040    77.1140     5.4240     6.0110     4.6600     2.2630 
   73.6250    73.6250     0.0540    -0.0670    -5.4160    79.1390     4.8740     5.5190     4.3280     2.2490 
   73.7500    73.7500     0.0540    -0.0680    -5.6800    80.4570     4.5880     5.2930     4.2920     2.2460 
   73.8750    73.8750     0.0540    -0.0680    -5.9630    82.0660     4.4600     5.2000     4.2380     2.2500 
   74.0000    74.0000     0.0550    -0.0690    -6.2300    84.8440     4.3370     5.0390     4.1150     2.2580 
   74.1250    74.1250     0.0550    -0.0690    -6.4600    88.1550     4.2060     4.8150     3.9830     2.2670 
   74.2500    74.2500     0.0560    -0.0700    -6.6500    89.7110     4.1380     4.6970     3.9710     2.2790 
   74.3750    74.3750     0.0560    -0.0710    -6.8060    88.8480     4.1210     4.6620     4.4660     2.2930 
   74.5000    74.5000     0.0560    -0.0710    -6.9490    88.2200     4.2250     4.7870     5.3200     2.3050 
   74.6250    74.6250     0.0570    -0.0720    -7.0870    87.2900     4.4640     5.0900     5.2870     2.3110 
   74.7500    74.7500     0.0570    -0.0730    -7.2150    84.5610     4.7940     5.4990     4.3750     2.3070 
   74.8750    74.8750     0.0580    -0.0730    -7.3160    80.4350     5.2540     6.0630     4.1080     2.2960 
   75.0000    75.0000     0.0580    -0.0740    -7.3520    76.6190     5.9490     6.9530     5.0720     2.2920 
   75.1250    75.1250     0.0590    -0.0740    -7.2790    72.7490     6.8400     8.1000     8.4280     2.3090 
   75.2500    75.2500     0.0590    -0.0750    -7.0940    68.8860     7.5220     8.9850    14.1670     2.3460 
   75.3750    75.3750     0.0590    -0.0760    -6.8110    66.7140     7.8770     9.4190    16.1850     2.3890 
   75.5000    75.5000     0.0600    -0.0760    -6.4870    66.9170     7.7240     9.1290    11.5370     2.4110 
   75.6250    75.6250     0.0600    -0.0770    -6.1810    68.3320     7.1960     8.3520     7.0010     2.3930 
   75.7500    75.7500     0.0610    -0.0770    -5.9210    70.4200     6.7520     7.7370     6.1340     2.3430 
   75.8750    75.8750     0.0610    -0.0780    -5.7150    71.1260     6.6720     7.6400     6.6020     2.2820 
   76.0000    76.0000     0.0620    -0.0780    -5.5560    69.7100     7.0060     8.1290     7.5320     2.2290 
   76.1250    76.1250     0.0620    -0.0790    -5.4330    66.6970     7.4910     8.8040     8.4170     2.1920 
   76.2500    76.2500     0.0630    -0.0800    -5.3330    64.7570     7.7810     9.1100     8.3410     2.1700 
   76.3750    76.3750     0.0630    -0.0800    -5.2820    65.4320     7.5460     8.7390     7.5290     2.1620 
   76.5000    76.5000     0.0640    -0.0810    -5.3190    68.4040     6.9890     7.9640     6.9420     2.1670 
   76.6250    76.6250     0.0640    -0.0810    -5.4630    71.6920     6.3760     7.1550     6.7430     2.1820 
   76.7500    76.7500     0.0650    -0.0820    -5.6980    73.5050     5.8630     6.5660     6.7410     2.2000 
   76.8750    76.8750     0.0650    -0.0820    -6.0110    73.3800     5.5670     6.2380     6.8170     2.2140 
   77.0000    77.0000     0.0660    -0.0830    -6.3600    71.5680     5.4510     6.1240     6.7680     2.2220 
   77.1250    77.1250     0.0660    -0.0830    -6.7060    69.6200     5.4840     6.1710     6.8800     2.2280 
   77.2500    77.2500     0.0670    -0.0840    -7.0260    69.2180     5.5870     6.3350     7.0490     2.2350 
   77.3750    77.3750     0.0670    -0.0840    -7.3050    70.6860     5.7990     6.6780     6.9740     2.2450 
   77.5000    77.5000     0.0680    -0.0850    -7.5470    72.5650     6.0370     7.0350     7.1830     2.2550 
   77.6250    77.6250     0.0680    -0.0850    -7.7710    73.7070     6.2580     7.3310     8.0500     2.2640 
   77.7500    77.7500     0.0690    -0.0860    -7.9910    73.8120     6.3800     7.4410     8.4490     2.2700 
   77.8750    77.8750     0.0690    -0.0860    -8.1990    73.0890     6.3650     7.3900     7.9220     2.2700 
   78.0000    78.0000     0.0700    -0.0870    -8.3820    72.4330     6.2470     7.2280     7.5460     2.2650 
   78.1250    78.1250     0.0710    -0.0870    -8.5080    72.5290     6.0340     6.9830     7.4520     2.2570 
