~V
VERS. 2.00: Ver 2.00
~W
STRT.M 60.0000:
STOP.M 249.0000:
STEP.M 0.1250:
NULL. -999.2500:
UWI. F10851:
~C
DEPT.M :
TVD. :
DX. :
DY. :
SP.MV :
GR.API :
RI. :
RML.OHMM :
RXO.OHMM :
DEN.GM/CC :
~A
# ...
   96.5000    96.4990     0.1920    -0.1630   -12.1100    83.6000     5.1570     5.1440     5.2810     2.2530 
   96.6250    96.6240     0.1930    -0.1630   -12.5300    86.4380     4.8390     4.8000     5.1620     2.2640 
   96.7500    96.7490     0.1940    -0.1640   -12.9450    89.8340     4.6550     4.5880     5.5270     2.2740 
   96.8750    96.8740     0.1950    -0.1650   -13.3500    91.0240     4.6090     4.5340     5.3810     2.2800 
   97.0000    96.9990     0.1960    -0.1650   -13.7360    88.7090     4.6800     4.6310     5.0990     2.2810 
   97.1250    97.1240     0.1970    -0.1660   -14.0880    85.9180     4.8350     4.8760     5.3500     2.2780 
   97.2500    97.2490     0.1980    -0.1670   -14.3830    85.3820     4.9120     5.0800     5.9320     2.2730 
   97.3750    97.3740     0.1990    -0.1670   -14.5680    86.3570     4.8500     5.1000     6.2730     2.2700 
   97.5000    97.4990     0.2000    -0.1680   -14.6160    87.3770     4.6880     4.9680     5.8940     2.2710 
   97.6250    97.6240     0.2020    -0.1690   -14.5190    88.1660     4.5300     4.8030     5.1760     2.2760 
   97.7500    97.7490     0.2030    -0.1690   -14.3290    87.7070     4.5850     4.8820     5.0390     2.2850 
   97.8750    97.8740     0.2040    -0.1700   -14.1130    86.0970     4.8790     5.3040     6.3170     2.2950 
   98.0000    97.9990     0.2050    -0.1710   -13.9360    84.2480     5.3770     6.0070    13.6500     2.3060 
   98.1250    98.1240     0.2060    -0.1720   -13.8230    81.6300     6.1590     7.0510    20.5790     2.3120 
   98.2500    98.2490     0.2070    -0.1720   -13.7380    78.2200     6.8700     7.9600    15.7150     2.3090 
   98.3750    98.3740     0.2080    -0.1730   -13.6210    76.4230     7.3180     8.4590     9.6020     2.2910 
   98.5000    98.4990     0.2090    -0.1740   -13.3970    77.6610     7.4270     8.5290     9.2250     2.2600 
   98.6250    98.6240     0.2110    -0.1750   -12.9960    80.2130     7.3570     8.4300     8.9790     2.2260 
   98.7500    98.7490     0.2120    -0.1760   -12.4530    81.1500     7.1430     8.1780     8.3300     2.2000 
   98.8750    98.8740     0.2130    -0.1760   -11.8620    80.7320     6.9400     7.9530     7.8960     2.1880 
   99.0000    98.9990     0.2140    -0.1770   -11.3170    80.2750     6.5450     7.4660     7.1930     2.1890 
   99.1250    99.1240     0.2150    -0.1780   -10.8990    80.6650     6.0210     6.8300     6.6830     2.1990 
   99.2500    99.2490     0.2160    -0.1790   -10.6470    81.6010     5.6900     6.4420     6.7970     2.2130 
   99.3750    99.3740     0.2170    -0.1800   -10.5400    82.1750     5.6720     6.4630     7.2170     2.2300 
   99.5000    99.4990     0.2180    -0.1800   -10.4550    82.5550     5.9340     6.8180     7.8920     2.2470 
   99.6250    99.6240     0.2190    -0.1810   -10.3020    81.4130     6.2600     7.2470     9.7910     2.2650 
   99.7500    99.7490     0.2200    -0.1820   -10.0390    79.1670     6.6050     7.6930    11.0570     2.2860 
   99.8750    99.8740     0.2210    -0.1830    -9.6440    76.4840     6.7670     7.8850     9.1950     2.3020 
  100.0000    99.9990     0.2220    -0.1840    -9.1860    74.6280     6.8000     7.9170     7.7240     2.3040 
  100.1250   100.1240     0.2230    -0.1850    -8.7790    74.7600     6.6820     7.8040     8.0980     2.2870 
  100.2500   100.2490     0.2240    -0.1850    -8.4840    76.1080     6.5350     7.6910     8.3350     2.2590 
  100.3750   100.3740     0.2250    -0.1860    -8.3190    77.4880     6.2810     7.3960     8.1080     2.2360 
  100.5000   100.4990     0.2260    -0.1870    -8.2450    78.6940     6.1050     7.1880     7.5020     2.2260 
  100.6250   100.6240     0.2270    -0.1880    -8.1960    81.5250     5.9830     7.0100     6.9980     2.2270 
  100.7500   100.7490     0.2280    -0.1890    -8.0980    84.5880     5.9230     6.9390     7.2870     2.2310 
  100.8750   100.8740     0.2280    -0.1900    -7.9240    84.1180     5.9100     6.9880     8.1240     2.2280 
  101.0000   100.9990     0.2290    -0.1900    -7.7220    80.3060     5.8440     6.9690     8.4490     2.2210 
  101.1250   101.1240     0.2300    -0.1910    -7.5710    77.1370     5.7350     6.8610     7.6640     2.2170 
  101.2500   101.2490     0.2310    -0.1920    -7.5300    77.2840     5.5660     6.6380     6.3960     2.2250 
  101.3750   101.3740     0.2320    -0.1930    -7.6240    79.1460     5.3810     6.3740     7.1100     2.2430 
  101.5000   101.4990     0.2330    -0.1940    -7.8150    79.4250     5.2650     6.2270     8.5250     2.2640 
  101.6250   101.6240     0.2340    -0.1950    -8.0390    78.2540     5.1960     6.1730     7.6700     2.2790 
  101.7500   101.7490     0.2340    -0.1960    -8.2080    77.8870     5.1540     6.1540     6.9810     2.2810 
  101.8750   101.8740     0.2350    -0.1960    -8.2630    79.1880     5.0430     6.0080     6.8940     2.2740 
  102.0000   101.9990     0.2360    -0.1970    -8.2160    80.8070     4.8450     5.7240     6.0850     2.2650 
  102.1250   102.1240     0.2370    -0.1980    -8.0990    82.0560     4.5810     5.3610     5.6760     2.2630 
  102.2500   102.2490     0.2380    -0.1990    -7.9580    84.3600     4.3920     5.1140     5.6810     2.2670 
  102.3750   102.3740     0.2380    -0.2000    -7.8420    86.9110     4.3130     5.0120     5.6350     2.2740 
  102.5000   102.4990     0.2390    -0.2010    -7.7790    88.3870     4.2840     4.9630     5.5230     2.2810 
  102.6250   102.6240     0.2400    -0.2020    -7.7740    88.2000     4.2800     4.9130     5.3940     2.2860 
  102.7500   102.7490     0.2410    -0.2030    -7.8180    87.1910     4.2580     4.8230     5.3000     2.2910 
  102.8750   102.8740     0.2410    -0.2040    -7.9090    86.1390     4.2230     4.7370     5.1500     2.2970 
  103.0000   102.9990     0.2420    -0.2050    -8.0330    85.3150     4.2180     4.6980     5.0880     2.3050 
  103.1250   103.1240     0.2430    -0.2060    -8.1920    85.6420     4.2410     4.7180     5.2410     2.3130 
  103.2500   103.2490     0.2440    -0.2070    -8.3800    86.1510     4.2760     4.7600     5.3910     2.3180 
  103.3750   103.3740     0.2440    -0.2080    -8.5800    85.1780     4.3140     4.8000     5.3120     2.3160 
  103.5000   103.4990     0.2450    -0.2080    -8.7580    84.0360     4.3410     4.8330     5.0950     2.3110 
  103.6250   103.6240     0.2460    -0.2090    -8.8760    84.6800     4.3340     4.8350     5.0760     2.3040 
  103.7500   103.7490     0.2460    -0.2100    -8.9030    85.4850     4.2770     4.7980     5.4010     2.2970 
  103.8750   103.8740     0.2470    -0.2110    -8.8030    84.2590     4.1600     4.6970     5.5670     2.2910 
  104.0000   103.9990     0.2480    -0.2120    -8.5960    82.4150     3.9730     4.5000     5.3040     2.2880 
  104.1250   104.1240     0.2490    -0.2130    -8.3140    82.5960     3.8090     4.3070     5.1280     2.2910 
  104.2500   104.2490     0.2490    -0.2140    -8.0110    84.0020     3.7650     4.2300     5.0080     2.2970 
  104.3750   104.3740     0.2500    -0.2150    -7.7290    84.6440     3.9450     4.4170     5.1850     2.3010 
  104.5000   104.4990     0.2510    -0.2160    -7.4670    84.2120     4.4230     4.9380     6.4060     2.2940 
  104.6250   104.6240     0.2520    -0.2160    -7.1870    82.0180     5.2760     5.8840     8.0760     2.2740 
  104.7500   104.7490     0.2520    -0.2170    -6.8340    78.3270     6.5610     7.3170     9.0550     2.2420 
  104.8750   104.8740     0.2530    -0.2180    -6.3370    73.6870     8.2780     9.1650     9.5450     2.2070 
  105.0000   104.9990     0.2540    -0.2190    -5.6760    69.6710    10.2440    11.3150    11.2770     2.1750 
  105.1250   105.1240     0.2550    -0.2200    -4.8780    65.5570    12.4200    13.6740    15.3710     2.1500 
  105.2500   105.2490     0.2550    -0.2200    -4.0480    60.9800    14.7030    16.1350    19.6270     2.1330 
  105.3750   105.3740     0.2560    -0.2210    -3.3110    58.7570    16.4550    17.9860    22.0340     2.1210 
  105.5000   105.4990     0.2570    -0.2220    -2.7900    59.6220    16.6070    18.0000    22.9080     2.1150 
