~V
VERS. 2.00: Ver 2.00
~W
STRT.M 40.0000:
STOP.M 215.0000:
STEP.M 0.1250:
NULL. -999.2500:
UWI. F10811:
~C
DEPT.M :
SP.MV :
GR.API :
RI. :
RML.OHMM :
RXO.OHMM :
DEN.GM/CC :
~A
   40.0000   165.6740    36.0910     0.0700     0.6250     0.0970     2.2940 
   40.1250   166.4430    35.0500     0.0700     1.7480     0.0720     2.2890 
   40.2500   167.2400    34.2250     0.1770     2.9810     0.1070     2.2790 
   40.3750   168.0710    35.1960     0.4350     4.7120     0.1300     2.2760 
   40.5000   168.8450    37.5530     0.5240     5.8710     0.0830     2.2860 
   40.6250   169.4360    40.8040     0.5100     5.4540     0.0410     2.2900 
   40.7500   169.7530    43.2050     0.3540     4.3560     0.0400     2.2870 
   40.8750   169.7950    44.7480     0.1280     2.4080     0.0800     2.2880 
   41.0000   169.7630    45.1250     0.0920     0.9940     0.1490     2.3010 
   41.1250   169.7620    44.5650     0.0870     0.7580     0.1530     2.3170 
   41.2500   169.6590    43.1030     0.1170     1.1630     0.1110     2.3220 
   41.3750   169.2510    41.8240     0.1260     1.4680     0.1320     2.3100 
   41.5000   168.5800    41.8740     0.3940     2.0740     0.1750     2.2900 
   41.6250   167.8380    43.7050     0.6330     2.3710     0.2540     2.2830 
   41.7500   167.2360    47.3810     0.6260     2.2860     0.4070     2.2950 
   41.8750   166.9240    50.6280     0.6230     2.1880     0.5010     2.3140 
   42.0000   166.9430    53.3360     0.3000     1.4440     0.4220     2.3170 
   42.1250   167.3050    53.0370     0.1520     0.8340     0.2180     2.3040 
   42.2500   167.8920    52.5370     0.1260     0.5310     0.0670     2.2890 
   42.3750   168.5860    49.7820     0.0780     0.2570     0.0370     2.2870 
   42.5000   169.2140    47.1380     0.0790     0.1860     0.0490     2.2930 
   42.6250   169.6550    45.6720     0.0790     0.1870     0.0660     2.2960 
   42.7500   169.9480    45.1510     0.0800     0.1880     0.0710     2.2850 
   42.8750   170.1140    45.4330     0.0800     0.1890     0.0730     2.2600 
   43.0000   170.1470    43.6670     0.0810     0.1890     0.0810     2.2360 
   43.1250   170.0880    42.1010     0.0810     0.1900     0.0930     2.2210 
   43.2500   170.0180    39.7380     0.0950     0.2480     0.1260     2.2140 
   43.3750   169.8980    39.1240     0.1210     0.3260     0.1830     2.2170 
   43.5000   169.5290    39.4560     0.1210     0.3440     0.2500     2.2430 
   43.6250   168.6860    42.1340     0.1210     0.3670     0.3000     2.2960 
   43.7500   167.5020    44.9950     0.1120     0.5940     0.3130     2.3500 
   43.8750   166.1800    48.4640     0.1340     0.9930     0.2920     2.3770 
   44.0000   164.7420    51.1230     0.1390     1.2100     0.2410     2.3690 
   44.1250   163.0650    53.7320     0.1530     1.1830     0.1710     2.3440 
   44.2500   161.2450    55.0160     0.1180     0.7630     0.1080     2.3210 
   44.3750   159.5770    56.2240     0.1030     0.4070     0.0690     2.3110 
   44.5000   158.2490    55.6860     0.0880     0.2490     0.0670     2.3110 
   44.6250   157.2170    55.1480     0.0840     0.2020     0.0930     2.3140 
   44.7500   156.2870    53.6200     0.0830     0.2000     0.1120     2.3200 
   44.8750   155.3930    51.5500     0.0830     0.1910     0.1570     2.3370 
   45.0000   154.5150    46.8890     0.0830     0.1800     0.2620     2.3630 
   45.1250   153.6350    41.4910     0.0830     0.1820     0.3730     2.4100 
   45.2500   152.7850    36.8880     0.0850     0.1900     0.4650     2.4860 
   45.3750   151.9470    34.8100     0.0870     0.2060     0.5260     2.5590 
   45.5000   151.0810    35.3690     0.0890     0.2660     0.5160     2.5530 
   45.6250   150.3720    37.6340     0.1530     0.6230     0.5210     2.4490 
   45.7500   150.0360    39.8960     0.2160     1.1410     0.5990     2.3310 
   45.8750   150.0210    40.1430     0.3610     1.7800     0.6600     2.2700 
   46.0000   150.0000    39.2840     0.4250     2.0340     0.6620     2.2540 
   46.1250   149.6800    38.3220     0.3180     1.6180     0.6300     2.2450 
   46.2500   148.9230    37.7350     0.2390     1.0540     0.6090     2.2350 
   46.3750   147.6730    37.3660     0.1090     0.4490     0.7370     2.2250 
   46.5000   146.2010    37.5380     0.0810     0.2300     1.0410     2.2150 
   46.6250   144.9980    38.0270     0.0820     0.2180     1.1880     2.2040 
   46.7500   144.4500    38.8750     0.0820     0.2230     0.9590     2.1950 
   46.8750   144.6710    38.4050     0.0960     0.3610     0.6850     2.1940 
   47.0000   145.3760    38.5540     0.1660     0.6790     0.7270     2.2020 
   47.1250   146.3370    39.2730     0.1890     0.8550     0.9380     2.2120 
   47.2500   147.4000    41.3380     0.1890     0.8420     0.9810     2.2190 
   47.3750   148.4960    41.9250     0.1460     0.6120     0.8800     2.2200 
   47.5000   149.5590    41.6680     0.0760     0.3110     0.8170     2.2220 
   47.6250   150.5240    40.1100     0.0800     0.2280     0.7030     2.2290 
   47.7500   151.3510    39.0730     0.0800     0.2220     0.5110     2.2400 
   47.8750   152.0700    38.1470     0.0800     0.2050     0.3980     2.2470 
   48.0000   152.8710    38.0210     0.0810     0.1790     0.4140     2.2520 
   48.1250   153.9600    38.8290     0.0820     0.1610     0.4850     2.2590 
   48.2500   155.2650    39.4330     0.0820     0.1470     0.5240     2.2730 
   48.3750   156.4160    39.7560     0.0820     0.1490     0.4770     2.3020 
   48.5000   157.0280    38.5830     0.0810     0.2110     0.3740     2.3610 
   48.6250   156.9590    37.1230     0.0810     0.4700     0.2940     2.4390 
   48.7500   156.4700    35.6270     0.0900     1.1230     0.2730     2.4850 
   48.8750   155.7310    35.5910     0.1450     1.8150     0.3460     2.4410 
   49.0000   154.7730    36.2160     0.1410     2.0360     0.3930     2.3310 
   49.1250   153.5730    37.0820     0.1410     1.8880     0.2910     2.2230 
   49.2500   152.3020    38.2510     0.1190     1.4670     0.1620     2.1650 
   49.3750   151.2390    39.3760     0.0870     1.2120     0.1390     2.1590 
   49.5000   150.5760    39.8260     0.1590     1.2490     0.1830     2.1740 
   49.6250   150.4120    39.2360     0.1720     1.1480     0.2380     2.1910 
   49.7500   150.6010    38.5150     0.1890     0.8560     0.3080     2.2050 
   49.8750   150.8830    38.2630     0.1650     0.5980     0.3650     2.2150 
   50.0000   151.0460    37.3320     0.1280     0.4010     0.3790     2.2190 
   50.1250   151.1190    37.1610     0.1320     0.5290     0.3330     2.2140 
   50.2500   151.2010    37.5200     0.1720     0.9600     0.2810     2.2010 
   50.3750   151.1980    39.1300     0.2140     1.4440     0.3180     2.1910 
   50.5000   150.9590    40.3430     0.2440     1.9270     0.3420     2.1940 
   50.6250   150.4170    40.3310     0.3130     2.4510     0.2630     2.2080 
   50.7500   149.6120    39.1930     0.3580     2.5590     0.2440     2.2210 
   50.8750   148.5770    37.6560     0.3190     2.1500     0.3390     2.2220 
   51.0000   147.4780    37.7630     0.2550     1.4300     0.4010     2.2100 
   51.1250   146.4010    38.5660     0.1630     0.6090     0.3850     2.2000 
   51.2500   145.3230    39.4840     0.1120     0.2190     0.3540     2.2010 
   51.3750   144.3430    39.4860     0.1240     0.1960     0.3580     2.2130 
   51.5000   143.6150    39.7050     0.1350     0.2940     0.3780     2.2160 
   51.6250   143.2110    39.4430     0.1450     0.4730     0.3900     2.2050 
   51.7500   143.0780    39.5310     0.1180     0.6300     0.4010     2.1850 
   51.8750   143.1240    39.1110     0.0920     0.7100     0.3830     2.1800 
   52.0000   143.1080    39.1000     0.0700     0.6470     0.3560     2.1890 
   52.1250   142.8120    37.9830     0.0780     0.5050     0.3840     2.2080 
   52.2500   142.2910    37.4390     0.1130     0.3770     0.4020     2.2220 
   52.3750   141.7100    37.8060     0.1400     0.3390     0.3080     2.2300 
   52.5000   141.1350    38.6700     0.1760     0.3830     0.2330     2.2360 
   52.6250   140.4680    38.0550     0.2090     0.5050     0.3020     2.2450 
   52.7500   139.5900    36.3440     0.2880     0.6130     0.4080     2.2550 
