~V
VERS. 2.00: Ver 2.00
~W
STRT.M 65.0000:
STOP.M 239.0000:
STEP.M 0.1250:
NULL. -999.2500:
UWI. F10876:
~C
DEPT.M :
TVD. :
DX. :
DY. :
SP.MV :
GR.API :
RI. :
RML.OHMM :
RXO.OHMM :
DEN.GM/CC :
~A
# ...
  192.7500   192.7310    -2.1630    -0.0670   -16.5540    84.1570     2.3550     2.5930     2.7880     2.3510 
  192.8750   192.8560    -2.1650    -0.0660   -16.6230    81.0160     2.2750     2.5000     2.8180     2.3490 
  193.0000   192.9810    -2.1680    -0.0660   -16.6570    77.3180     2.2140     2.4300     2.7560     2.3400 
  193.1250   193.1060    -2.1700    -0.0650   -16.6250    77.3190     2.1660     2.3730     2.6360     2.3250 
  193.2500   193.2310    -2.1720    -0.0650   -16.5100    83.7340     2.1370     2.3300     2.5570     2.3100 
  193.3750   193.3560    -2.1740    -0.0640   -16.3540    95.2770     2.1290     2.3080     2.5270     2.3020 
  193.5000   193.4810    -2.1770    -0.0640   -16.1830   107.4820     2.1530     2.3200     2.5230     2.3000 
  193.6250   193.6060    -2.1790    -0.0630   -16.0090   111.2880     2.2030     2.3630     2.5690     2.2960 
  193.7500   193.7310    -2.1810    -0.0630   -15.8530   107.5390     2.2760     2.4340     2.6380     2.2890 
  193.8750   193.8560    -2.1830    -0.0620   -15.7270   106.0060     2.3670     2.5260     2.6600     2.2790 
  194.0000   193.9810    -2.1860    -0.0620   -15.6300   110.5400     2.4690     2.6220     2.6970     2.2740 
  194.1250   194.1060    -2.1880    -0.0610   -15.5370   114.5610     2.5610     2.7080     2.8370     2.2720 
  194.2500   194.2310    -2.1900    -0.0610   -15.4220   111.4920     2.6210     2.8000     3.0490     2.2750 
  194.3750   194.3560    -2.1930    -0.0600   -15.2860   105.6690     2.6450     2.8720     3.1930     2.2800 
  194.5000   194.4810    -2.1950    -0.0600   -15.1510   102.2870     2.6390     2.8900     3.1690     2.2870 
  194.6250   194.6060    -2.1970    -0.0590   -15.0180   102.0620     2.6340     2.8580     3.0790     2.2950 
  194.7500   194.7310    -2.1990    -0.0590   -14.8870   104.7080     2.6780     2.8910     3.0360     2.3060 
  194.8750   194.8560    -2.2020    -0.0580   -14.7810   103.7790     2.7980     3.1540     3.0810     2.3190 
  195.0000   194.9810    -2.2040    -0.0580   -14.7440    97.6360     3.0000     3.4630     3.3450     2.3350 
  195.1250   195.1060    -2.2060    -0.0570   -14.8100    93.0320     3.2500     3.7470     3.7560     2.3480 
  195.2500   195.2310    -2.2090    -0.0570   -15.0090    96.9950     3.5130     4.0240     3.9920     2.3510 
  195.3750   195.3560    -2.2110    -0.0560   -15.2910   104.4120     3.7340     4.2360     4.0220     2.3420 
  195.5000   195.4810    -2.2140    -0.0560   -15.5630   104.6490     3.8910     4.3660     4.1330     2.3200 
  195.6250   195.6060    -2.2160    -0.0550   -15.7500    96.1600     4.0320     4.4780     4.3960     2.2930 
  195.7500   195.7310    -2.2180    -0.0550   -15.8310    85.2250     4.2490     4.6850     4.7120     2.2690 
  195.8750   195.8550    -2.2210    -0.0540   -15.8460    80.6110     4.6000     5.0550     5.1670     2.2490 
  196.0000   195.9800    -2.2230    -0.0540   -15.8150    85.5400     5.0750     5.5720     5.9710     2.2360 
  196.1250   196.1050    -2.2260    -0.0530   -15.7370    90.9540     5.5640     6.1010     7.0000     2.2280 
  196.2500   196.2300    -2.2280    -0.0530   -15.6260    86.9500     5.9070     6.4500     7.6980     2.2280 
  196.3750   196.3550    -2.2310    -0.0520   -15.5420    77.3600     6.0280     6.5290     7.6920     2.2340 
  196.5000   196.4800    -2.2330    -0.0520   -15.5700    73.4740     5.9530     6.3790     7.1040     2.2430 
  196.6250   196.6050    -2.2360    -0.0510   -15.7450    78.5410     5.8390     6.2050     6.3370     2.2470 
  196.7500   196.7300    -2.2380    -0.0510   -16.0800    85.4030     5.9590     6.3680     6.1870     2.2420 
  196.8750   196.8550    -2.2410    -0.0510   -16.5360    85.5540     6.5020     7.0290     7.8670     2.2290 
  197.0000   196.9800    -2.2430    -0.0500   -17.0790    78.3280     7.5770     8.2320    12.4820     2.2090 
  197.1250   197.1050    -2.2460    -0.0500   -17.6430    69.8150     9.0370     9.7830    18.9720     2.1860 
  197.2500   197.2300    -2.2480    -0.0490   -18.1780    64.6910    10.4570    11.2570    22.5880     2.1620 
  197.3750   197.3550    -2.2510    -0.0490   -18.6680    61.5540    11.4410    12.2460    19.4680     2.1410 
  197.5000   197.4800    -2.2530    -0.0490   -19.1080    58.1320    11.7260    12.5290    12.9810     2.1270 
  197.6250   197.6050    -2.2560    -0.0480   -19.5220    54.9190    11.6010    12.3940    10.3780     2.1220 
  197.7500   197.7300    -2.2590    -0.0480   -19.9530    53.9040    11.4060    12.1890     9.2320     2.1260 
  197.8750   197.8550    -2.2610    -0.0470   -20.4050    55.1110    11.3390    12.1550     8.6620     2.1340 
  198.0000   197.9800    -2.2640    -0.0470   -20.8150    56.7820    11.3180    12.1730     8.5980     2.1430 
  198.1250   198.1050    -2.2660    -0.0470   -21.1340    56.2070    11.1460    12.0180     9.2470     2.1520 
  198.2500   198.2300    -2.2690    -0.0460   -21.3750    55.3650    10.7330    11.6150     9.8080     2.1580 
  198.3750   198.3550    -2.2720    -0.0460   -21.6060    57.7660    10.1520    10.9970     9.6510     2.1640 
  198.5000   198.4800    -2.2740    -0.0460   -21.8530    62.0230     9.5290    10.3030     9.2830     2.1680 
  198.6250   198.6050    -2.2770    -0.0450   -22.0660    64.3380     9.0250     9.7540     9.0720     2.1700 
  198.7500   198.7300    -2.2800    -0.0450   -22.1910    62.5480     8.7890     9.4980     9.0630     2.1670 
  198.8750   198.8550    -2.2820    -0.0440   -22.2500    61.4880     8.8310     9.5900     9.5470     2.1580 
  199.0000   198.9800    -2.2850    -0.0440   -22.2910    63.6850     9.1000     9.9440    10.1230     2.1440 
  199.1250   199.1050    -2.2870    -0.0440   -22.3190    66.5420     9.4750    10.3970    10.7470     2.1340 
  199.2500   199.2300    -2.2900    -0.0430   -22.2760    66.6060     9.8090    10.7880    11.1940     2.1310 
  199.3750   199.3550    -2.2930    -0.0430   -22.1570    65.3630     9.9830    10.9740    11.0810     2.1340 
  199.5000   199.4800    -2.2950    -0.0430   -22.0330    64.4640     9.9260    10.8700    10.7000     2.1370 
  199.6250   199.6050    -2.2980    -0.0420   -21.9810    62.7570     9.7150    10.5790    10.2910     2.1360 
  199.7500   199.7300    -2.3000    -0.0420   -22.0240    60.9990     9.5070    10.3040     9.8990     2.1310 
  199.8750   199.8550    -2.3030    -0.0410   -22.1410    62.3910     9.4360    10.2000     9.6290     2.1250 
  200.0000   199.9800    -2.3050    -0.0410   -22.3140    65.5420     9.5590    10.3210     9.5610     2.1260 
  200.1250   200.1050    -2.3080    -0.0410   -22.5190    67.0710     9.8310    10.6050     9.7300     2.1350 
  200.2500   200.2300    -2.3100    -0.0400   -22.7450    66.9210    10.1640    10.9480    10.2060     2.1470 
  200.3750   200.3550    -2.3120    -0.0400   -22.9340    65.4880    10.4750    11.2570    10.9620     2.1540 
  200.5000   200.4800    -2.3150    -0.0390   -22.9930    63.6460    10.6770    11.4380    11.7080     2.1510 
  200.6250   200.6040    -2.3170    -0.0390   -22.9050    59.8050    10.7330    11.4570    12.0960     2.1460 
  200.7500   200.7290    -2.3190    -0.0390   -22.7020    55.4670    10.6280    11.3000    12.3290     2.1460 
  200.8750   200.8540    -2.3220    -0.0380   -22.4510    55.4050    10.4190    11.0370    12.6040     2.1510 
  201.0000   200.9790    -2.3240    -0.0380   -22.1980    60.1570    10.2000    10.7750    12.5140     2.1550 
  201.1250   201.1040    -2.3260    -0.0370   -21.9810    65.1710    10.0730    10.6400    11.9950     2.1540 
  201.2500   201.2290    -2.3280    -0.0370   -21.8500    65.6290    10.1180    10.7300    11.5700     2.1480 
  201.3750   201.3540    -2.3300    -0.0370   -21.8400    62.8900    10.3380    11.0400    11.4850     2.1440 
  201.5000   201.4790    -2.3330    -0.0360   -21.9660    60.1840    10.7090    11.5230    11.5470     2.1490 
  201.6250   201.6040    -2.3350    -0.0360   -22.1950    59.6950    11.1020    12.0060    11.7690     2.1610 
  201.7500   201.7290    -2.3370    -0.0350   -22.5340    62.3020    11.3670    12.3090    12.1360     2.1720 
