~V
VERS. 2.00: Ver 2.00
~W
STRT.M 40.0000:
STOP.M 205.0000:
STEP.M 0.1250:
NULL. -999.2500:
UWI. F10807:
~C
DEPT.M :
SP.MV :
GR.API :
RI. :
RML.OHMM :
RXO.OHMM :
DEN.GM/CC :
~A
# ...
  155.8750   -23.8110    63.2800    68.4420    70.7300    62.8600     2.1600 
  156.0000   -23.9270    62.4350    66.3060    69.2180    62.1870     2.1650 
  156.1250   -24.0600    60.9880    64.8010    67.7890    67.8640     2.1680 
  156.2500   -24.1500    60.6250    64.0460    66.9350    75.2230     2.1640 
  156.3750   -24.2350    60.0530    63.6390    66.4980    73.8490     2.1580 
  156.5000   -24.2790    59.9670    63.2850    66.2320    67.6590     2.1550 
  156.6250   -24.2670    59.9150    63.0660    66.2190    62.7420     2.1610 
  156.7500   -24.2550    59.8680    63.5100    66.8890    60.7630     2.1650 
  156.8750   -24.2690    58.6430    64.9380    68.6670    63.2490     2.1680 
  157.0000   -24.3400    57.3960    67.4550    71.4680    68.9460     2.1620 
  157.1250   -24.4280    57.3440    70.6340    74.8150    75.2340     2.1560 
  157.2500   -24.5970    58.6150    73.5410    77.7460    77.5820     2.1470 
  157.3750   -24.6770    60.0920    75.2500    79.4580    76.8320     2.1450 
  157.5000   -24.7160    59.7900    75.7390    80.0030    77.8440     2.1470 
  157.6250   -24.7060    58.5630    75.5670    79.8610    77.7510     2.1480 
  157.7500   -24.6890    57.3340    75.3740    79.6980    72.9710     2.1470 
  157.8750   -24.6630    56.9440    75.4810    79.7950    70.0890     2.1420 
  158.0000   -24.5360    56.3120    75.7010    80.0390    75.0530     2.1440 
  158.1250   -24.4360    55.9990    75.9470    80.2120    79.3870     2.1530 
  158.2500   -24.3390    56.5020    75.8110    79.8870    80.0320     2.1640 
  158.3750   -24.2650    58.1190    74.7430    78.5300    82.7690     2.1680 
  158.5000   -24.1730    58.3970    72.6440    76.1540    81.5270     2.1630 
  158.6250   -24.1640    57.5940    69.9310    73.2730    75.2810     2.1550 
  158.7500   -24.1970    55.5860    67.6070    70.8050    71.3820     2.1490 
  158.8750   -24.2900    56.0670    66.3320    69.3780    69.7910     2.1420 
  159.0000   -24.3490    57.2370    66.0270    68.9500    67.8200     2.1410 
  159.1250   -24.4270    59.7070    66.5530    69.4580    68.1930     2.1410 
  159.2500   -24.5350    60.2550    67.8400    70.8190    73.6830     2.1480 
  159.3750   -24.6030    59.3830    69.8100    72.7460    79.1700     2.1520 
  159.5000   -24.6680    56.8570    72.2720    75.0570    81.4300     2.1600 
  159.6250   -24.7450    55.4190    75.2590    77.9340    84.5420     2.1640 
  159.7500   -24.9290    55.3330    79.0150    81.5300    88.7860     2.1620 
  159.8750   -25.1200    56.4800    83.2950    85.5390    90.3210     2.1500 
  160.0000   -25.3830    56.6410    86.9080    88.6760    91.0040     2.1390 
  160.1250   -25.5810    57.1900    87.7620    89.0960    97.3520     2.1360 
  160.2500   -25.7220    57.1300    85.1310    86.3440   102.0200     2.1440 
  160.3750   -25.7400    58.6310    80.0360    81.1060    90.4060     2.1590 
  160.5000   -25.6370    60.1940    73.8430    75.6390    68.9980     2.1760 
  160.6250   -25.5500    62.7070    69.2250    72.0050    60.0240     2.1830 
  160.7500   -25.5280    63.4050    67.3500    70.7550    69.2980     2.1860 
  160.8750   -25.6250    62.3960    69.6300    73.6390    78.2120     2.1820 
  161.0000   -25.7650    59.9770    75.6830    80.4560    95.7490     2.1680 
  161.1250   -25.9110    57.0140    84.8810    90.4650   125.2830     2.1490 
  161.2500   -25.9250    54.9000    95.1720   101.2740   130.4480     2.1370 
  161.3750   -25.8500    52.6600   103.7860   109.6370   120.5550     2.1330 
  161.5000   -25.7650    51.1440   109.6180   113.9600   118.6280     2.1290 
  161.6250   -25.7480    50.3290   111.4150   115.6890   116.1210     2.1190 
  161.7500   -25.7040    51.5410   111.1610   115.9620   122.5450     2.1080 
  161.8750   -25.7480    53.2440   110.8360   116.1020   133.1710     2.0980 
  162.0000   -25.7650    54.1540   110.9660   116.7730   130.8970     2.0880 
  162.1250   -25.7890    54.2620   111.8750   118.7090   121.2350     2.0800 
  162.2500   -25.7820    54.8450   114.9140   122.5320   117.1040     2.0820 
  162.3750   -25.7000    54.8530   119.1170   127.6170   126.4160     2.0970 
  162.5000   -25.5540    53.8150   123.4270   133.3230   149.3750     2.1200 
  162.6250   -25.3650    52.9020   127.8730   138.3300   171.7670     2.1390 
  162.7500   -25.1980    53.6280   131.4150   141.5270   152.9610     2.1540 
  162.8750   -25.0020    54.8260   133.0660   142.9080   125.5100     2.1650 
  163.0000   -24.8490    56.2030   132.6730   142.1540   134.4540     2.1730 
  163.1250   -24.5340    57.3230   130.6250   139.8740   132.8040     2.1780 
  163.2500   -24.1540    58.7370   128.8000   137.6560   122.1740     2.1790 
  163.3750   -23.8150    59.7440   128.3350   136.7600   122.2370     2.1830 
  163.5000   -23.6180    61.1290   128.1440   135.1320   115.7050     2.1880 
  163.6250   -23.5250    62.3990   125.7270   132.3340   121.0330     2.1940 
  163.7500   -23.4180    63.1550   121.9300   129.6930   138.0830     2.1960 
  163.8750   -23.3290    63.4260   114.3730   122.0020   127.6220     2.1980 
  164.0000   -23.2340    64.1410   103.7840   110.5870   102.7850     2.1980 
  164.1250   -23.2110    66.4540    89.8520    95.5560    99.2150     2.2010 
  164.2500   -23.2110    70.0370    74.7260    79.7310    88.5950     2.2040 
  164.3750   -23.2950    72.9180    62.7530    66.7470    60.0210     2.2150 
  164.5000   -23.3730    73.3320    54.2010    57.8770    41.7500     2.2230 
  164.6250   -23.4850    71.4110    50.7350    53.7230    35.1050     2.2290 
  164.7500   -23.6270    69.8310    50.4790    53.1830    38.5040     2.2290 
  164.8750   -23.8240    69.0220    52.8860    55.1120    54.2960     2.2270 
  165.0000   -23.9730    67.7320    55.9110    57.8760    66.1340     2.2220 
  165.1250   -24.1750    66.6180    58.3030    60.5610    65.0540     2.2190 
  165.2500   -24.4210    65.5230    60.1650    63.3700    57.4260     2.2150 
  165.3750   -24.6730    66.2390    62.7420    68.0760    48.5660     2.2100 
  165.5000   -24.9600    66.7470    68.3520    77.8940    64.6980     2.1980 
  165.6250   -25.2330    65.8020    82.4970    99.2370   120.8830     2.1800 
  165.7500   -25.4820    62.7140   112.2000   136.1790   176.2550     2.1620 
  165.8750   -25.6240    59.7800   160.8860   186.3290   442.9430     2.1500 
  166.0000   -25.6610    58.3960   211.6080   234.2900   898.5610     2.1430 
  166.1250   -25.4780    58.5590   251.1200   267.4010   897.3110     2.1410 
  166.2500   -25.2440    58.2790   275.0950   289.0730   502.2280     2.1410 
  166.3750   -25.0610    58.0330   284.9240   305.3760   287.1110     2.1380 
  166.5000   -24.9660    57.9550   295.5100   323.1690   225.7110     2.1340 
  166.6250   -24.9610    59.6210   315.5360   350.5380   201.2470     2.1310 
  166.7500   -25.0130    60.4250   355.7210   386.7770   260.5580     2.1270 
  166.8750   -24.9950    59.5980   395.1450   420.0500   357.7850     2.1170 
  167.0000   -24.9010    57.0620   419.6680   437.2420   397.8710     2.1020 
  167.1250   -24.7790    55.7930   413.8110   432.3770   332.3320     2.0940 
  167.2500   -24.6740    56.4190   386.0640   412.4800   220.5090     2.0900 
  167.3750   -24.5890    58.0250   361.6920   384.6680   200.1070     2.0920 
  167.5000   -24.4570    59.7190   332.7590   352.5180   308.3100     2.0930 
  167.6250   -24.3480    61.1010   295.0520   314.2140   344.9280     2.1030 
  167.7500   -24.2160    63.4150   255.4320   274.7800   224.4890     2.1190 
  167.8750   -24.0650    64.8310   226.1500   245.3160   122.7890     2.1340 
  168.0000   -23.8840    65.3020   212.4150   227.9480    92.4050     2.1420 
  168.1250   -23.7140    64.3670   204.9810   215.3240   178.2220     2.1380 
  168.2500   -23.5310    63.8760   192.8400   199.1560   383.9490     2.1360 
  168.3750   -23.3830    64.6940   171.4390   177.0330   466.4040     2.1430 
  168.5000   -23.3370    67.3340   146.5610   152.4690   331.1730     2.1590 
  168.6250   -23.4070    68.8950   125.0150   130.6480   153.5940     2.1680 
