~V
VERS. 2.00: Ver 2.00
~W
STRT.M 40.0000:
STOP.M 215.0000:
STEP.M 0.1250:
NULL. -999.2500:
UWI. F10811:
~C
DEPT.M :
SP.MV :
GR.API :
RI. :
RML.OHMM :
RXO.OHMM :
DEN.GM/CC :
~A
# ...
  117.2500    -2.5230    46.2970    22.6010    25.0200    21.8190     2.5360 
  117.3750    -2.5510    45.1640    22.8000    25.1380    21.9190     2.5430 
  117.5000    -2.6100    44.4730    23.0790    25.4100    22.5810     2.5400 
  117.6250    -2.7080    44.7000    23.6760    26.0330    22.7750     2.5330 
  117.7500    -2.8110    45.3880    24.5430    26.8480    22.7340     2.5260 
  117.8750    -2.8930    45.6110    25.1330    27.3640    24.1320     2.5260 
  118.0000    -2.9840    45.3550    25.1880    27.3000    27.3110     2.5250 
  118.1250    -3.1340    45.3910    24.6520    26.6300    29.3820     2.5220 
  118.2500    -3.3590    46.4240    23.8400    25.6460    27.1550     2.5080 
  118.3750    -3.6460    47.3300    22.8900    24.6140    22.6810     2.4930 
  118.5000    -3.9290    47.7930    22.1420    23.8470    21.5260     2.4810 
  118.6250    -4.1360    47.7510    21.8280    23.5710    22.7820     2.4700 
  118.7500    -4.2740    48.0490    21.9240    23.6660    22.1850     2.4550 
  118.8750    -4.3870    48.0650    22.0180    23.7170    21.7600     2.4440 
  119.0000    -4.5100    48.2390    21.7240    23.3440    23.0800     2.4440 
  119.1250    -4.6650    48.4110    20.9480    22.4890    22.6030     2.4530 
  119.2500    -4.8540    50.1030    20.0150    21.5100    19.7580     2.4540 
  119.3750    -5.0480    51.0050    19.3290    20.7770    17.7300     2.4470 
  119.5000    -5.1990    51.8670    18.9530    20.4380    17.5570     2.4420 
  119.6250    -5.2780    51.7390    19.0030    20.5740    18.4350     2.4490 
  119.7500    -5.3040    52.1800    19.3430    20.9940    20.1360     2.4530 
  119.8750    -5.2970    52.0390    19.7210    21.3950    21.8180     2.4450 
  120.0000    -5.2720    52.0020    19.9310    21.5920    22.0360     2.4260 
  120.1250    -5.2540    51.4740    19.9740    21.5480    20.5270     2.4110 
  120.2500    -5.2670    50.9210    20.0180    21.3720    18.8980     2.4090 
  120.3750    -5.3240    50.6240    20.0690    21.2720    18.9740     2.4130 
  120.5000    -5.4200    50.5090    20.0930    21.3210    20.4930     2.4150 
  120.6250    -5.5510    50.2770    20.1100    21.5220    21.8660     2.4100 
  120.7500    -5.6880    49.9580    20.1000    21.7570    21.3140     2.4060 
  120.8750    -5.7820    49.9730    20.0420    21.8170    19.2820     2.4030 
  121.0000    -5.7960    51.1080    19.9270    21.7570    18.3650     2.4070 
  121.1250    -5.7140    52.6520    19.8880    21.7580    18.7060     2.4090 
  121.2500    -5.5860    53.5890    19.9160    21.9570    18.8180     2.4060 
  121.3750    -5.4750    54.1110    20.1660    22.4120    18.8170     2.3920 
  121.5000    -5.4180    54.0070    20.5470    22.8930    19.4210     2.3800 
  121.6250    -5.4370    53.9580    20.8020    23.1950    20.6270     2.3810 
  121.7500    -5.5410    52.9660    20.8850    23.2230    21.2300     2.3960 
  121.8750    -5.7040    51.5970    20.7570    23.0260    20.4670     2.4140 
  122.0000    -5.8540    50.6060    20.4280    22.6850    19.2190     2.4230 
  122.1250    -5.9540    51.0820    20.0040    22.2360    18.2090     2.4260 
  122.2500    -6.0100    52.7270    19.5620    21.7770    17.6850     2.4280 
  122.3750    -6.0340    53.7950    19.1750    21.4370    17.8100     2.4310 
  122.5000    -6.0610    53.4040    19.0130    21.3420    18.6020     2.4260 
  122.6250    -6.1370    51.9100    19.0850    21.5200    19.1030     2.4250 
  122.7500    -6.2530    50.7110    19.3500    21.9340    19.1540     2.4340 
  122.8750    -6.3800    50.3260    19.8610    22.6010    20.3300     2.4490 
  123.0000    -6.5050    50.7950    20.4980    23.3970    21.9230     2.4480 
  123.1250    -6.6160    51.8310    21.1210    24.1420    22.2450     2.4330 
  123.2500    -6.6900    52.9240    21.5960    24.6680    21.7540     2.4170 
  123.3750    -6.7180    53.4670    21.7760    24.8670    20.9710     2.4130 
  123.5000    -6.7330    53.3850    21.8100    24.9040    20.3770     2.4190 
  123.6250    -6.7610    52.3180    21.8730    25.0430    21.1100     2.4250 
  123.7500    -6.8140    50.8260    22.2370    25.4920    22.4300     2.4250 
  123.8750    -6.9100    50.4640    22.8320    26.1030    22.9940     2.4210 
  124.0000    -7.0230    51.5320    23.1420    26.4100    23.7810     2.4240 
  124.1250    -7.0980    53.2430    22.6580    25.8000    26.1580     2.4440 
  124.2500    -7.1290    53.8830    21.0860    23.9880    29.2030     2.4700 
  124.3750    -7.1110    53.8120    18.9000    21.3660    29.2310     2.4810 
  124.5000    -7.0200    53.5360    16.9430    18.8830    23.9590     2.4740 
  124.6250    -6.8650    53.3980    15.6130    17.3520    16.1240     2.4560 
  124.7500    -6.7280    53.3150    15.2220    17.0870    14.1820     2.4460 
  124.8750    -6.6680    52.4010    15.5670    17.8910    15.5640     2.4440 
  125.0000    -6.6760    50.1970    16.3180    19.0610    17.4250     2.4420 
  125.1250    -6.7310    47.3200    17.1430    20.0200    17.5090     2.4360 
  125.2500    -6.8090    45.1530    17.5810    20.3510    16.8170     2.4310 
  125.3750    -6.8810    45.0290    17.4940    19.9500    16.7520     2.4310 
  125.5000    -6.9310    45.9360    17.1050    19.2860    17.3850     2.4330 
  125.6250    -6.9720    47.6830    16.6290    18.7100    17.5630     2.4330 
  125.7500    -7.0090    49.6690    16.2690    18.3270    16.0450     2.4300 
  125.8750    -7.0170    52.2540    16.0870    18.2210    14.7540     2.4270 
  126.0000    -7.0120    54.7240    16.0160    18.4140    15.2540     2.4230 
  126.1250    -7.0320    56.8560    16.0000    18.8030    16.0710     2.4200 
  126.2500    -7.0650    57.6310    16.0010    19.1080    16.3690     2.4210 
  126.3750    -7.0530    56.6250    15.9990    19.0130    16.0010     2.4230 
  126.5000    -6.9740    54.6490    16.0120    18.6770    14.2290     2.4180 
  126.6250    -6.8500    53.7410    15.8380    18.2440    12.0710     2.4070 
  126.7500    -6.7160    54.4850    15.6020    17.8930    11.7860     2.4030 
  126.8750    -6.5940    55.9780    15.3690    17.6930    12.9400     2.4140 
  127.0000    -6.5110    55.9240    15.1620    17.4290    13.0810     2.4250 
  127.1250    -6.4780    54.6490    15.0040    17.1330    11.9140     2.4240 
  127.2500    -6.4640    52.5980    14.8110    16.8690    11.4030     2.4140 
  127.3750    -6.4400    52.1790    14.5250    16.4920    11.6040     2.4100 
  127.5000    -6.4010    51.9540    14.3290    16.1220    11.5790     2.4110 
  127.6250    -6.3630    52.4200    14.2560    15.9570    11.5320     2.4120 
  127.7500    -6.3300    50.8410    14.2110    15.9720    11.3770     2.4050 
  127.8750    -6.2800    49.6490    14.2850    16.2400    11.2520     2.3940 
  128.0000    -6.2040    48.4980    14.4940    16.7440    11.3740     2.3840 
  128.1250    -6.1290    49.1000    14.9210    17.3860    11.9710     2.3860 
  128.2500    -6.0810    50.2950    15.4470    18.0420    13.7090     2.4010 
  128.3750    -6.0770    51.7670    15.9990    18.6510    15.6130     2.4250 
  128.5000    -6.1250    52.5360    16.3980    19.0880    16.4480     2.4430 
  128.6250    -6.2150    51.4710    16.5290    19.2610    17.2900     2.4470 
  128.7500    -6.3150    49.7850    16.5370    19.2780    18.4020     2.4390 
  128.8750    -6.3990    48.4800    16.4250    19.1710    18.6650     2.4300 
  129.0000    -6.4630    49.1950    16.1780    18.9190    18.0440     2.4280 
  129.1250    -6.5210    49.9210    15.7270    18.4320    17.3040     2.4310 
  129.2500    -6.5790    50.0990    15.0980    17.6920    16.2150     2.4400 
  129.3750    -6.6490    49.1620    14.3010    16.7510    14.4200     2.4490 
  129.5000    -6.7450    49.1670    13.6030    15.9060    13.4660     2.4560 
  129.6250    -6.8410    50.1600    13.2840    15.5360    13.6110     2.4570 
  129.7500    -6.9160    51.8350    13.4660    15.7900    13.2500     2.4660 
  129.8750    -6.9700    53.5200    14.0870    16.6190    13.2470     2.4890 
  130.0000    -7.0060    53.4800    14.9290    17.6890    15.5480     2.5140 
