~V
VERS. 2.00: Ver 2.00
~W
STRT.M 62.0000:
STOP.M 256.0000:
STEP.M 0.1250:
NULL. -999.2500:
UWI. F10886:
~C
DEPT.M :
TVD. :
DX. :
DY. :
SP.MV :
GR.API :
RI. :
RML.OHMM :
RXO.OHMM :
DEN.GM/CC :
~A
# ...
  217.1250   217.1120    -1.1930    -1.5540   -14.4490    87.5820     9.0670    11.0660    13.4430     2.2960 
  217.2500   217.2370    -1.1950    -1.5550   -14.5590    89.0250     9.6070    11.8590    14.0060     2.3170 
  217.3750   217.3620    -1.1960    -1.5560   -14.6760    89.5980     9.7250    12.0210    13.3220     2.3320 
  217.5000   217.4870    -1.1980    -1.5560   -14.7920    91.0790     9.2510    11.3860    12.4490     2.3380 
  217.6250   217.6120    -1.1990    -1.5570   -14.8950    90.4320     8.2550    10.0960    10.9290     2.3350 
  217.7500   217.7370    -1.2010    -1.5580   -14.9750    90.8880     7.1330     8.6980     8.8450     2.3220 
  217.8750   217.8620    -1.2030    -1.5590   -15.0220    88.5610     6.1950     7.5670     7.3190     2.2980 
  218.0000   217.9870    -1.2040    -1.5590   -15.0330    87.8040     5.5110     6.7680     6.5060     2.2730 
  218.1250   218.1120    -1.2060    -1.5600   -15.0020    86.0000     5.1040     6.3310     6.0570     2.2560 
  218.2500   218.2370    -1.2070    -1.5610   -14.9340    85.3630     4.9320     6.1880     5.8900     2.2490 
  218.3750   218.3620    -1.2090    -1.5620   -14.8320    82.7050     4.9270     6.2410     5.9270     2.2500 
  218.5000   218.4870    -1.2100    -1.5620   -14.7170    79.0430     4.9810     6.3460     6.0790     2.2520 
  218.6250   218.6120    -1.2120    -1.5630   -14.6080    77.4490     5.0340     6.4240     6.2220     2.2540 
  218.7500   218.7370    -1.2130    -1.5640   -14.5030    78.2330     5.0470     6.4270     6.1310     2.2550 
  218.8750   218.8620    -1.2150    -1.5650   -14.3660    81.7020     4.9860     6.3190     5.9220     2.2530 
  219.0000   218.9870    -1.2160    -1.5660   -14.1630    83.1390     4.8510     6.1200     5.8510     2.2500 
  219.1250   219.1120    -1.2180    -1.5660   -13.8840    83.6970     4.6640     5.8690     5.7160     2.2460 
  219.2500   219.2370    -1.2200    -1.5670   -13.5800    81.6300     4.4650     5.6170     5.1830     2.2450 
  219.3750   219.3620    -1.2210    -1.5680   -13.3230    79.4140     4.2990     5.4190     4.5620     2.2480 
  219.5000   219.4870    -1.2230    -1.5690   -13.1610    77.3580     4.1940     5.3050     4.4140     2.2520 
  219.6250   219.6120    -1.2240    -1.5690   -13.1180    77.2510     4.1820     5.3190     4.6670     2.2530 
  219.7500   219.7370    -1.2260    -1.5700   -13.1870    77.5750     4.2820     5.4900     5.0010     2.2510 
  219.8750   219.8620    -1.2270    -1.5710   -13.3880    78.4460     4.4790     5.7970     5.3750     2.2470 
  220.0000   219.9870    -1.2290    -1.5710   -13.7140    77.8190     4.7010     6.1320     5.9350     2.2430 
  220.1250   220.1120    -1.2310    -1.5720   -14.1550    76.3560     4.8710     6.3750     6.4590     2.2350 
  220.2500   220.2370    -1.2320    -1.5730   -14.6470    74.6790     4.9500     6.4670     6.5380     2.2270 
  220.3750   220.3620    -1.2340    -1.5740   -15.1090    75.7850     4.9650     6.4540     6.2650     2.2230 
  220.5000   220.4870    -1.2350    -1.5740   -15.4750    77.8300     4.9850     6.4520     5.9920     2.2210 
  220.6250   220.6120    -1.2370    -1.5750   -15.7040    80.6840     5.0950     6.5980     5.9160     2.2190 
  220.7500   220.7370    -1.2390    -1.5760   -15.8300    82.8710     5.3310     6.9400     6.1980     2.2180 
  220.8750   220.8620    -1.2400    -1.5760   -15.9110    85.2140     5.6480     7.3940     6.7420     2.2180 
  221.0000   220.9870    -1.2420    -1.5770   -15.9980    87.7090     5.9240     7.7700     7.2460     2.2230 
  221.1250   221.1120    -1.2430    -1.5780   -16.0860    89.0840     6.0350     7.8910     7.5320     2.2290 
  221.2500   221.2370    -1.2450    -1.5780   -16.1120    88.8420     5.9750     7.7740     7.2340     2.2370 
  221.3750   221.3620    -1.2470    -1.5790   -15.9860    85.3560     5.7980     7.5230     6.3210     2.2440 
  221.5000   221.4870    -1.2480    -1.5790   -15.6820    81.5520     5.5680     7.2400     5.8550     2.2480 
  221.6250   221.6120    -1.2500    -1.5800   -15.2220    81.1320     5.2930     6.9280     6.3530     2.2510 
  221.7500   221.7370    -1.2520    -1.5810   -14.6990    82.9490     4.9520     6.5190     6.7640     2.2530 
  221.8750   221.8620    -1.2530    -1.5810   -14.1850    84.3550     4.5340     5.9720     6.2110     2.2530 
  222.0000   221.9870    -1.2550    -1.5820   -13.7090    82.6320     4.0910     5.3610     5.1080     2.2510 
  222.1250   222.1120    -1.2560    -1.5820   -13.2670    78.5600     3.7160     4.8350     4.1800     2.2450 
  222.2500   222.2370    -1.2580    -1.5830   -12.8710    73.9800     3.5020     4.5470     3.8030     2.2360 
  222.3750   222.3620    -1.2600    -1.5840   -12.5880    69.7650     3.5120     4.5920     4.1370     2.2290 
  222.5000   222.4870    -1.2610    -1.5840   -12.4890    67.8660     3.7120     4.9040     4.9450     2.2270 
  222.6250   222.6120    -1.2630    -1.5850   -12.6340    69.5540     4.0410     5.3670     5.6600     2.2330 
  222.7500   222.7370    -1.2650    -1.5850   -12.9700    72.8820     4.3930     5.8190     5.8870     2.2460 
  222.8750   222.8620    -1.2660    -1.5860   -13.4030    73.7610     4.7280     6.2120     5.7410     2.2600 
  223.0000   222.9860    -1.2680    -1.5870   -13.8020    70.9970     5.0570     6.5910     5.7210     2.2720 
  223.1250   223.1110    -1.2690    -1.5870   -14.0790    68.1810     5.3710     6.9810     6.9510     2.2870 
  223.2500   223.2360    -1.2710    -1.5880   -14.2330    68.6070     5.6660     7.3890     9.7060     2.3080 
  223.3750   223.3610    -1.2730    -1.5880   -14.2990    70.6190     5.8980     7.7290    11.5170     2.3290 
  223.5000   223.4860    -1.2740    -1.5890   -14.3190    71.7120     5.9930     7.8640    10.5210     2.3380 
  223.6250   223.6110    -1.2760    -1.5890   -14.2970    71.8040     5.8850     7.7000     8.5340     2.3250 
  223.7500   223.7360    -1.2770    -1.5900   -14.2310    73.4020     5.6160     7.3250     7.5410     2.3020 
  223.8750   223.8610    -1.2790    -1.5900   -14.1260    76.1360     5.2970     6.9060     7.2100     2.2810 
  224.0000   223.9860    -1.2810    -1.5910   -14.0170    77.9330     5.0730     6.6400     7.1640     2.2680 
  224.1250   224.1110    -1.2820    -1.5910   -13.9420    77.5820     5.0820     6.6910     7.3490     2.2650 
  224.2500   224.2360    -1.2840    -1.5920   -13.9120    76.8770     5.3350     7.0570     7.5470     2.2680 
  224.3750   224.3610    -1.2850    -1.5920   -13.9330    77.7270     5.8290     7.7410     8.3590     2.2810 
  224.5000   224.4860    -1.2870    -1.5930   -13.9950    81.7760     6.5270     8.6930     9.5530     2.2990 
  224.6250   224.6110    -1.2890    -1.5930   -14.0950    85.0470     7.3740     9.8300     9.9670     2.3160 
  224.7500   224.7360    -1.2900    -1.5930   -14.2050    86.1950     8.1980    10.9000    10.3300     2.3270 
  224.8750   224.8610    -1.2920    -1.5940   -14.2880    86.0420     8.7070    11.5090    11.9000     2.3360 
  225.0000   224.9860    -1.2930    -1.5940   -14.3110    86.5280     8.7080    11.4170    13.2090     2.3430 
  225.1250   225.1110    -1.2950    -1.5950   -14.2430    87.0010     8.1440    10.5660    11.9040     2.3430 
  225.2500   225.2360    -1.2970    -1.5950   -14.0940    85.9080     7.2160     9.2530     8.6680     2.3260 
  225.3750   225.3610    -1.2980    -1.5960   -13.8670    84.1790     6.2000     7.8700     5.9560     2.2920 
  225.5000   225.4860    -1.3000    -1.5960   -13.5960    84.0720     5.3280     6.7290     4.8600     2.2590 
  225.6250   225.6110    -1.3010    -1.5970   -13.3190    83.6190     4.7130     5.9780     4.7410     2.2430 
  225.7500   225.7360    -1.3030    -1.5970   -13.0700    82.5140     4.3730     5.6170     4.6360     2.2390 
  225.8750   225.8610    -1.3040    -1.5970   -12.8720    79.2810     4.2810     5.5770     4.2970     2.2340 
  226.0000   225.9860    -1.3060    -1.5980   -12.7130    75.7870     4.3270     5.6960     4.1730     2.2270 
  226.1250   226.1110    -1.3070    -1.5980   -12.5730    74.1400     4.4420     5.8810     4.7440     2.2220 
