~V
VERS. 2.00: Ver 2.00
~W
STRT.M 1.0000:
STOP.M 205.0000:
STEP.M 0.1250:
NULL. -999.2500:
UWI. F10806:
~C
DEPT.M :
SP.MV :
GR.API :
RI. :
RML.OHMM :
RXO.OHMM :
DEN.GM/CC :
~A
# ...
  104.0000   -21.4650    59.0210     2.7230     3.0110     4.7200     2.0860 
  104.1250   -20.4270    56.0040     2.7360     2.9720     4.4450     2.0780 
  104.2500   -19.0430    56.2780     2.6850     2.8730     4.0250     2.0750 
  104.3750   -17.3210    62.0630     2.5530     2.7130     3.5930     2.0750 
  104.5000   -15.3470    70.7290     2.3620     2.4850     3.0730     2.0810 
  104.6250   -13.3530    80.8270     2.1410     2.2430     2.4020     2.0980 
  104.7500   -11.6130    88.8110     1.9520     2.0420     1.8820     2.1230 
  104.8750   -10.3210    94.9220     1.8050     1.8990     1.6320     2.1480 
  105.0000    -9.5510    98.7390     1.7020     1.8070     1.6250     2.1750 
  105.1250    -9.1120   101.9150     1.6240     1.7330     1.5670     2.2020 
  105.2500    -8.7920   103.1550     1.5560     1.6660     1.3400     2.2320 
  105.3750    -8.5230   103.0910     1.4830     1.5980     1.2180     2.2540 
  105.5000    -8.4060   101.8690     1.4140     1.5300     1.1830     2.2710 
  105.6250    -8.4830   100.9780     1.3640     1.4870     1.1710     2.2820 
  105.7500    -8.7280   101.1130     1.3800     1.5100     1.2580     2.2830 
  105.8750    -9.1090   100.2300     1.4830     1.6360     1.5250     2.2770 
  106.0000    -9.6650    99.6740     1.7020     1.9240     2.2060     2.2790 
  106.1250   -10.3630    96.0370     2.1170     2.4260     3.2760     2.3060 
  106.2500   -11.2000    91.1100     2.8410     3.2530     4.2990     2.3320 
  106.3750   -12.2150    84.4060     3.9730     4.4290     5.5680     2.3310 
  106.5000   -13.4450    77.0610     5.3960     5.8770     8.3590     2.2760 
  106.6250   -14.7460    70.0210     6.9260     7.3240    11.4830     2.1970 
  106.7500   -15.9150    65.4040     8.1380     8.4200    12.8870     2.1160 
  106.8750   -16.8250    64.5760     8.6990     9.0070    13.1960     2.0670 
  107.0000   -17.4020    66.4970     8.8300     9.0970    12.7610     2.0510 
  107.1250   -17.7090    69.1090     8.5950     8.8650    12.4130     2.0570 
  107.2500   -17.8160    69.7350     8.1150     8.4420    13.8750     2.0690 
  107.3750   -17.8040    69.1040     7.5880     7.9770    15.3300     2.0830 
  107.5000   -17.7140    68.4920     7.1380     7.5780    13.5800     2.0960 
  107.6250   -17.6210    68.9460     6.8130     7.3290    10.1420     2.1050 
  107.7500   -17.6270    71.0650     6.7910     7.3220    10.1350     2.1040 
  107.8750   -17.7790    73.2650     7.0200     7.5760    13.4120     2.0970 
  108.0000   -17.9520    73.9890     7.5490     8.0990    15.3950     2.0890 
  108.1250   -17.9670    72.2140     8.2870     8.8120    15.6860     2.0850 
  108.2500   -17.6940    69.1730     9.0830     9.6360    15.2340     2.0840 
  108.3750   -17.1260    66.5370     9.9340    10.3980    14.4830     2.0890 
  108.5000   -16.2770    64.5110    10.5420    10.7190    13.8190     2.1140 
  108.6250   -15.2210    64.0570    10.2030    10.3020    14.5600     2.1770 
  108.7500   -14.0030    66.3870     8.7460     8.9150    21.8130     2.2660 
  108.8750   -12.7270    71.9260     6.5590     6.9040    25.8040     2.3310 
  109.0000   -11.5830    78.8390     4.4490     4.9060    14.9810     2.3270 
  109.1250   -10.7370    85.6440     3.1430     3.4480     4.2210     2.2840 
  109.2500   -10.2770    91.4020     2.4700     2.6430     2.2980     2.2460 
  109.3750   -10.0610    96.4180     2.1180     2.2600     2.3310     2.2290 
  109.5000    -9.8850   100.0490     2.0290     2.1510     2.0340     2.2210 
  109.6250    -9.6020   104.6090     2.0790     2.1670     1.6920     2.2150 
  109.7500    -9.2470   109.3060     2.1440     2.2240     1.5130     2.2210 
  109.8750    -8.9600   112.0640     2.2020     2.2890     2.0530     2.2370 
  110.0000    -8.8240   109.7840     2.2840     2.3710     2.8750     2.2520 
  110.1250    -8.8340   107.0140     2.3840     2.4600     2.5130     2.2600 
  110.2500    -8.9730   103.6890     2.4550     2.5180     1.8500     2.2540 
  110.3750    -9.1970   101.7240     2.4560     2.5170     2.0230     2.2470 
  110.5000    -9.4530    97.8400     2.3910     2.4710     2.4300     2.2400 
  110.6250    -9.7020    95.4100     2.3410     2.4430     2.4630     2.2440 
  110.7500    -9.9470    93.0170     2.3760     2.5360     2.2670     2.2620 
  110.8750   -10.2660    91.7220     2.5680     2.8780     3.2410     2.2880 
  111.0000   -10.7910    90.0690     3.0890     3.5870     5.0960     2.3090 
  111.1250   -11.5500    87.0800     4.0550     4.6350     6.8880     2.3310 
  111.2500   -12.4420    82.0250     5.2870     5.8810     9.6100     2.3510 
  111.3750   -13.3130    75.4170     6.5340     7.0630    11.6010     2.3460 
  111.5000   -14.0980    71.3540     7.4830     7.9160    11.2300     2.2750 
  111.6250   -14.7680    71.2000     7.8210     8.3160    10.1780     2.1720 
  111.7500   -15.2740    73.2230     7.8160     8.2930    10.0290     2.0900 
  111.8750   -15.5990    75.1840     7.5480     8.0680    10.4600     2.0610 
  112.0000   -15.7600    74.9720     7.2590     7.8390    10.2000     2.0650 
  112.1250   -15.8410    74.9050     7.1190     7.7300     9.5390     2.0760 
  112.2500   -15.9210    74.3240     7.0790     7.7650     9.1520     2.0830 
  112.3750   -16.0400    74.6360     7.1190     7.9110     8.6850     2.0840 
  112.5000   -16.2170    75.7340     7.2960     8.1800     8.0170     2.0770 
  112.6250   -16.4490    77.0110     7.6340     8.5830     7.8850     2.0640 
  112.7500   -16.7050    76.2360     8.1450     9.1220     8.6050     2.0540 
  112.8750   -16.9400    73.1590     8.8090     9.7290     9.9130     2.0490 
  113.0000   -17.0950    69.2960     9.4890    10.2920    11.6290     2.0510 
  113.1250   -17.1260    65.4830    10.0520    10.6830    12.6680     2.0550 
  113.2500   -16.9920    62.9800    10.2000    10.7740    12.4830     2.0580 
  113.3750   -16.7150    63.5060     9.9450    10.5230    12.0360     2.0600 
  113.5000   -16.2970    66.9870     9.2970     9.9290    10.8990     2.0570 
  113.6250   -15.7750    71.7020     8.5010     9.1580     8.8910     2.0520 
  113.7500   -15.2090    75.1350     7.7490     8.3800     7.4720     2.0470 
  113.8750   -14.6440    77.0150     7.1280     7.6610     6.6880     2.0500 
  114.0000   -14.0850    78.4550     6.5470     6.9510     6.2770     2.0570 
  114.1250   -13.5360    79.9940     5.8390     6.1730     6.4790     2.0710 
  114.2500   -12.9860    81.7630     4.9990     5.3230     6.6240     2.0940 
  114.3750   -12.4130    84.6120     4.1530     4.5070     5.5510     2.1330 
  114.5000   -11.8410    86.7240     3.4970     3.9040     3.6090     2.1880 
  114.6250   -11.3530    88.6580     3.1930     3.6600     3.3450     2.2430 
  114.7500   -11.0340    86.9710     3.3510     3.9020     4.3030     2.2880 
  114.8750   -10.8370    83.7110     4.0510     4.5820     5.1300     2.3420 
  115.0000   -10.6860    75.7440     5.3670     5.8720     9.6530     2.4130 
  115.1250   -10.5730    67.6300     6.8210     7.1960    13.4600     2.4790 
  115.2500   -10.5600    60.1390     7.5310     7.7770    13.6660     2.5000 
  115.3750   -10.6500    57.2430     7.2180     7.4790    11.5640     2.4760 
  115.5000   -10.7930    57.3850     6.2400     6.5510     7.8440     2.4210 
  115.6250   -10.9140    59.8210     5.2040     5.6510     4.6450     2.3750 
  115.7500   -10.9380    61.1560     4.8590     5.3830     5.2140     2.3660 
  115.8750   -10.8600    60.6530     5.2840     5.9810    11.0530     2.4000 
  116.0000   -10.7440    57.4810     6.6460     7.4600    17.8670     2.4540 
  116.1250   -10.6780    53.5720     8.5840     9.3220    19.3070     2.4960 
  116.2500   -10.6750    49.3390    10.3260    10.9340    17.6800     2.5190 
  116.3750   -10.7030    47.0010    11.5020    11.9870    15.8540     2.5310 
  116.5000   -10.7380    45.7520    11.9030    12.5020    13.7440     2.5450 
  116.6250   -10.7670    45.6690    11.9980    12.7930    13.5680     2.5530 
  116.7500   -10.8110    44.9930    12.2880    13.1250    15.5180     2.5610 
