~V
VERS. 2.00: Ver 2.00
~W
STRT.M 50.0000:
STOP.M 213.0000:
STEP.M 0.1250:
NULL. -999.2500:
UWI. F10803:
~C
DEPT.M :
SP.MV :
GR.API :
RI. :
RML.OHMM :
RXO.OHMM :
DEN.GM/CC :
~A
   50.0000    59.2870    40.1200     0.0750     0.1240     0.2140     2.2300 
   50.1250    58.5410    41.2350     0.0750     0.1170     0.2260     2.2320 
   50.2500    57.9440    41.9770     0.0740     0.1140     0.2310     2.2370 
   50.3750    57.6000    43.0260     0.0780     0.1140     0.2390     2.2450 
   50.5000    57.4930    44.0860     0.0780     0.1170     0.2640     2.2550 
   50.6250    57.4930    44.7610     0.0760     0.1280     0.3050     2.2490 
   50.7500    57.3740    44.0220     0.0670     0.1430     0.3330     2.2380 
   50.8750    56.9960    41.8350     0.0670     0.1550     0.3220     2.2320 
   51.0000    56.2250    40.4280     0.0670     0.1580     0.3070     2.2420 
   51.1250    55.1090    40.6390     0.0670     0.1500     0.3280     2.2500 
   51.2500    53.9670    41.6630     0.0670     0.1380     0.3460     2.2410 
   51.3750    53.0380    42.7940     0.0670     0.1280     0.3340     2.2210 
   51.5000    52.5360    44.0730     0.0670     0.1200     0.3120     2.2060 
   51.6250    52.1410    44.3530     0.0670     0.1170     0.2930     2.2030 
   51.7500    51.5180    43.6630     0.0660     0.1150     0.2860     2.2120 
   51.8750    50.9720    43.2470     0.0660     0.1130     0.2940     2.2350 
   52.0000    50.2470    45.2150     0.0700     0.1100     0.3070     2.2660 
   52.1250    49.2330    47.5850     0.0800     0.1090     0.3240     2.2850 
   52.2500    48.2530    48.6040     0.0890     0.1090     0.3460     2.2810 
   52.3750    47.3210    47.4710     0.0990     0.1080     0.3730     2.2600 
   52.5000    46.7070    46.2040     0.1050     0.1060     0.4000     2.2390 
   52.6250    46.6150    45.2560     0.1160     0.1030     0.4130     2.2340 
   52.7500    46.9440    44.3500     0.1260     0.0990     0.4070     2.2340 
   52.8750    47.5510    43.3020     0.1350     0.0960     0.3770     2.2400 
   53.0000    48.8630    43.3310     0.1370     0.0950     0.3520     2.2410 
   53.1250    50.7220    43.6720     0.1350     0.0930     0.3650     2.2430 
   53.2500    52.8480    43.8190     0.1340     0.0930     0.4020     2.2450 
   53.3750    55.2940    43.5320     0.1250     0.0940     0.4350     2.2480 
   53.5000    57.6520    42.9310     0.1090     0.0960     0.4560     2.2460 
   53.6250    59.1990    41.4520     0.0860     0.0940     0.4730     2.2390 
   53.7500    58.7820    40.0850     0.0550     0.0820     0.5020     2.2320 
   53.8750    54.9360    39.8870     0.0330     0.0610     0.5560     2.2290 
   54.0000    47.2870    41.3980     0.0160     0.0380     0.5870     2.2210 
   54.1250    36.3550    43.8070     0.0180     0.0310     0.5110     2.2320 
   54.2500    23.7100    46.9480     0.0540     0.0630     0.8450     2.2600 
   54.3750    11.3710    51.3070     0.2340     0.2030     2.6010     2.2810 
   54.5000     0.4690    55.5300     0.7220     0.7000     4.7170     2.2190 
   54.6250    -7.9620    57.9640     1.9660     1.9340     5.3230     2.0720 
   54.7500   -13.4940    58.8840     3.2370     3.5070     5.0320     1.9250 
   54.8750   -16.4510    60.1180     4.0590     4.8610     5.3940     1.8700 
   55.0000   -17.8850    64.1090     4.2410     5.5930     6.6390     1.9260 
   55.1250   -18.3310    69.8410     3.9310     5.3260     7.2360     2.0520 
   55.2500   -18.4350    77.1490     3.8920     4.6920     7.2190     2.1920 
   55.3750   -18.4600    83.6100     4.0720     4.1100     7.4890     2.2860 
   55.5000   -18.4380    90.1440     4.3230     3.6760     6.6500     2.3120 
   55.6250   -18.4450    93.2270     4.2590     3.5700     5.1810     2.2650 
   55.7500   -18.4240    94.1930     4.2320     3.6030     4.7990     2.2020 
   55.8750   -18.3850    93.6700     4.3470     3.6560     5.1010     2.1520 
   56.0000   -18.2790    95.0310     4.4860     3.7400     5.2000     2.1290 
   56.1250   -18.2940    95.2370     4.7290     3.8710     4.8490     2.1240 
   56.2500   -18.4280    94.0440     4.9930     4.0690     4.5780     2.1430 
   56.3750   -18.3600    92.9200     5.1460     4.3210     4.4550     2.1790 
   56.5000   -18.1970    94.0780     5.2310     4.5770     4.3350     2.2110 
   56.6250   -18.1670    96.5590     5.1590     4.7670     4.5490     2.2180 
   56.7500   -18.2140    98.7550     5.0200     4.8240     4.7230     2.2090 
   56.8750   -18.2650   100.1890     4.8470     4.7680     4.6340     2.1950 
   57.0000   -18.4080   100.4320     4.7390     4.7300     4.6430     2.1860 
   57.1250   -18.6380    99.3820     4.7740     4.8130     4.8310     2.1780 
   57.2500   -19.1810    98.0540     4.8950     5.0200     5.2410     2.1690 
   57.3750   -20.0300    97.7570     5.1460     5.3380     6.0520     2.1570 
   57.5000   -21.0220    96.0610     5.4830     5.7620     6.8980     2.1450 
   57.6250   -21.9760    93.4440     5.9570     6.3990     7.2850     2.1350 
   57.7500   -22.7920    88.1650     6.6760     7.2850     9.5220     2.1320 
   57.8750   -23.5120    83.0210     7.4310     8.2980    13.0800     2.1330 
   58.0000   -24.1380    77.2710     8.1130     9.1880    15.0870     2.1340 
   58.1250   -24.8060    72.3780     8.3730     9.8980    14.6820     2.1170 
   58.2500   -25.4300    67.8140     8.2920     9.8690    10.8080     2.0900 
   58.3750   -26.0200    65.9070     7.8060     9.4010     7.4690     2.0630 
   58.5000   -26.6240    65.0490     7.2710     8.7800     7.0870     2.0510 
   58.6250   -27.2270    65.8640     6.8280     8.2680     7.2660     2.0540 
   58.7500   -27.7320    68.0420     6.5290     7.9520     7.2970     2.0700 
   58.8750   -28.1440    71.9220     6.4180     7.8190     7.0970     2.0900 
   59.0000   -28.3800    74.7880     6.3680     7.7840     6.9440     2.1030 
   59.1250   -28.0930    75.5370     6.3750     7.8190     6.9440     2.1040 
   59.2500   -27.4510    75.0730     6.3930     7.8990     6.8530     2.1000 
   59.3750   -26.6270    74.7910     6.3880     7.9610     6.7640     2.0980 
   59.5000   -25.9280    74.7170     6.3130     7.9220     6.6650     2.0960 
   59.6250   -25.3250    75.8800     6.2070     7.8080     6.4210     2.0910 
   59.7500   -25.0330    78.2200     6.3750     7.9170     6.3430     2.0910 
   59.8750   -24.8740    80.2740     7.2740     8.8380     7.2700     2.1220 
   60.0000   -24.7920    78.6780     9.0250    10.8920    15.1630     2.2000 
   60.1250   -25.1010    74.7230    11.0630    13.8480    30.6270     2.3180 
   60.2500   -25.4880    71.1310    12.6860    16.6480    33.5490     2.4070 
   60.3750   -25.7250    70.0290    12.6940    17.8340    18.3570     2.4060 
   60.5000   -25.7830    70.5340    11.2600    16.8740     6.5910     2.3140 
   60.6250   -25.8080    71.1240     9.1310    14.2350     4.2980     2.2000 
   60.7500   -25.9150    71.8900     7.1230    11.2920     4.0100     2.1190 
   60.8750   -26.3000    71.7930     6.0340     9.2250     3.9580     2.0870 
   61.0000   -26.7660    70.8570     5.6590     8.2830     4.0680     2.0730 
   61.1250   -27.0100    69.5600     5.6880     8.1780     4.2020     2.0680 
   61.2500   -27.1530    69.4540     5.9440     8.5360     4.3200     2.0650 
   61.3750   -27.3760    70.7220     6.4060     9.2140     4.5930     2.0730 
   61.5000   -27.6140    72.3840     6.8810     9.9850     5.9010     2.0880 
   61.6250   -27.7410    73.1910     7.2050    10.5860    10.0030     2.1070 
   61.7500   -27.7560    74.3410     7.2340    10.7900    13.0180     2.1150 
   61.8750   -27.5310    75.5130     6.9400    10.4810    10.4430     2.1030 
   62.0000   -27.0340    75.9930     6.4950     9.8640     7.1720     2.0800 
   62.1250   -26.3950    74.6160     6.0830     9.2040     6.3970     2.0660 
   62.2500   -26.0060    73.2410     5.7710     8.7300     6.2100     2.0650 
   62.3750   -25.8590    71.8310     5.6970     8.5790     5.9750     2.0680 
   62.5000   -25.8370    70.4170     5.7300     8.6540     5.8540     2.0630 
   62.6250   -25.8790    67.9030     5.7710     8.7820     5.9170     2.0550 
   62.7500   -25.9620    66.9790     5.8030     8.8640     5.9700     2.0530 
