~V
VERS. 2.00: Ver 2.00
~W
STRT.M 65.0000:
STOP.M 239.0000:
STEP.M 0.1250:
NULL. -999.2500:
UWI. F10876:
~C
DEPT.M :
TVD. :
DX. :
DY. :
SP.MV :
GR.API :
RI. :
RML.OHMM :
RXO.OHMM :
DEN.GM/CC :
~A
# ...
  183.6250   183.6070    -2.0080    -0.1010   -15.1460    68.1070     5.0350     5.9300     5.3460     2.2560 
  183.7500   183.7320    -2.0100    -0.1000   -15.2560    71.3450     5.0700     5.9880     5.7020     2.2590 
  183.8750   183.8570    -2.0120    -0.1000   -15.3690    71.0020     5.2680     6.2370     6.2500     2.2570 
  184.0000   183.9820    -2.0150    -0.1000   -15.4650    67.1770     5.5520     6.5720     6.3750     2.2490 
  184.1250   184.1070    -2.0170    -0.0990   -15.5620    64.1870     5.8030     6.8420     7.1410     2.2420 
  184.2500   184.2320    -2.0190    -0.0990   -15.6650    64.1360     5.9230     6.9380     6.9170     2.2380 
  184.3750   184.3570    -2.0220    -0.0980   -15.7270    63.1670     5.8920     6.8540     6.7840     2.2370 
  184.5000   184.4820    -2.0240    -0.0980   -15.7080    61.0580     5.7460     6.6550     6.5710     2.2380 
  184.6250   184.6070    -2.0260    -0.0980   -15.6440    61.3810     5.5670     6.4440     6.2100     2.2420 
  184.7500   184.7320    -2.0280    -0.0970   -15.5840    64.8430     5.3950     6.2610     5.8270     2.2510 
  184.8750   184.8570    -2.0310    -0.0970   -15.5590    66.7060     5.2510     6.1230     5.6080     2.2610 
  185.0000   184.9820    -2.0330    -0.0960   -15.6110    65.1550     5.1410     6.0250     5.6260     2.2670 
  185.1250   185.1070    -2.0350    -0.0960   -15.7830    62.5560     5.0660     5.9570     5.6660     2.2670 
  185.2500   185.2320    -2.0370    -0.0960   -16.0900    61.2890     5.0660     5.9710     5.5760     2.2600 
  185.3750   185.3570    -2.0390    -0.0950   -16.4470    61.1720     5.1960     6.1580     5.5460     2.2490 
  185.5000   185.4820    -2.0420    -0.0950   -16.7350    60.9850     5.5440     6.6360     5.9780     2.2360 
  185.6250   185.6070    -2.0440    -0.0950   -16.8960    61.0800     6.1850     7.4570     8.6780     2.2200 
  185.7500   185.7320    -2.0460    -0.0940   -16.9340    61.4720     7.1470     8.6290    21.6610     2.2000 
  185.8750   185.8570    -2.0480    -0.0940   -16.9110    60.5130     8.2440     9.8990    45.0470     2.1800 
  186.0000   185.9820    -2.0500    -0.0930   -16.8690    56.7220     9.2480    10.9850    55.4260     2.1660 
  186.1250   186.1070    -2.0520    -0.0930   -16.8480    52.5890     9.9440    11.6840    40.2750     2.1620 
  186.2500   186.2320    -2.0550    -0.0920   -16.8940    53.3370    10.2800    11.9520    19.9510     2.1760 
  186.3750   186.3570    -2.0570    -0.0920   -17.0330    58.7570    10.3450    11.9320    11.1390     2.2120 
  186.5000   186.4820    -2.0590    -0.0910   -17.2630    63.9320    10.2650    11.8150     9.8850     2.2720 
  186.6250   186.6070    -2.0610    -0.0910   -17.5140    63.3740    10.1900    11.7510    10.1070     2.3420 
  186.7500   186.7320    -2.0630    -0.0910   -17.6960    58.7510    10.0500    11.6160     9.8390     2.3960 
  186.8750   186.8570    -2.0650    -0.0900   -17.7620    54.1650     9.8120    11.3500     8.8270     2.4100 
  187.0000   186.9820    -2.0670    -0.0900   -17.6880    51.7400     9.4700    10.9370     8.2120     2.3750 
  187.1250   187.1070    -2.0690    -0.0890   -17.4970    51.2080     9.0460    10.4280     8.4850     2.3140 
  187.2500   187.2320    -2.0710    -0.0890   -17.2130    53.0500     8.6630     9.9810     8.5880     2.2560 
  187.3750   187.3570    -2.0730    -0.0880   -16.8760    56.6860     8.3640     9.6410     8.4960     2.2170 
  187.5000   187.4820    -2.0750    -0.0880   -16.5020    61.1730     8.1710     9.4160     8.6940     2.1990 
  187.6250   187.6070    -2.0770    -0.0870   -16.1200    65.1870     8.0820     9.2980     8.8270     2.1910 
  187.7500   187.7320    -2.0790    -0.0870   -15.7860    66.4300     8.1060     9.2940     8.8360     2.1880 
  187.8750   187.8570    -2.0810    -0.0860   -15.5340    65.0570     8.1760     9.3420     8.6630     2.1870 
  188.0000   187.9820    -2.0830    -0.0860   -15.3760    62.6570     8.2230     9.4070     8.4200     2.1880 
  188.1250   188.1070    -2.0850    -0.0860   -15.3040    61.8480     8.2540     9.4850     8.3090     2.1890 
  188.2500   188.2320    -2.0870    -0.0850   -15.3340    60.8650     8.2530     9.5510     8.4160     2.1900 
  188.3750   188.3570    -2.0890    -0.0840   -15.4610    59.8480     8.1820     9.5220     8.5830     2.1920 
  188.5000   188.4820    -2.0910    -0.0840   -15.6600    58.7720     7.9950     9.3280     8.6630     2.1990 
  188.6250   188.6070    -2.0930    -0.0830   -15.8560    58.3970     7.7110     9.0150     8.5710     2.2080 
  188.7500   188.7320    -2.0950    -0.0830   -16.0190    59.2830     7.3870     8.6540     8.1380     2.2190 
  188.8750   188.8570    -2.0970    -0.0820   -16.1750    61.2330     7.1060     8.3540     7.5300     2.2250 
  189.0000   188.9820    -2.0990    -0.0820   -16.3500    62.4390     6.9550     8.2390     7.2220     2.2200 
  189.1250   189.1070    -2.1010    -0.0810   -16.5370    61.1230     6.9870     8.3490     7.2850     2.2050 
  189.2500   189.2320    -2.1030    -0.0810   -16.7180    59.8070     7.2620     8.7160     7.4250     2.1820 
  189.3750   189.3570    -2.1050    -0.0800   -16.8660    62.5460     7.7670     9.3350     7.6330     2.1630 
  189.5000   189.4820    -2.1070    -0.0800   -16.9680    67.7460     8.5330    10.2030     8.3820     2.1540 
  189.6250   189.6070    -2.1090    -0.0790   -17.0490    69.0620     9.5620    11.3320     9.7560     2.1590 
  189.7500   189.7320    -2.1110    -0.0790   -17.1220    64.9970    10.7390    12.6470    11.2440     2.1750 
  189.8750   189.8570    -2.1130    -0.0780   -17.1560    60.7500    11.8960    13.9250    12.3930     2.1960 
  190.0000   189.9810    -2.1160    -0.0780   -17.1080    59.1740    12.8460    14.8190    13.4880     2.2170 
  190.1250   190.1060    -2.1180    -0.0770   -16.9920    58.8720    13.6260    14.6930    14.7250     2.2450 
  190.2500   190.2310    -2.1200    -0.0770   -16.8440    57.8300    14.4280    15.0910    15.0280     2.2940 
  190.3750   190.3560    -2.1220    -0.0760   -16.6990    55.7320    14.9640    15.9720    14.2920     2.3640 
  190.5000   190.4810    -2.1240    -0.0760   -16.5750    52.2920    13.9940    15.1820    14.8670     2.4340 
  190.6250   190.6060    -2.1260    -0.0750   -16.4620    50.4780    11.4010    12.4490    17.1270     2.4640 
  190.7500   190.7310    -2.1280    -0.0750   -16.3380    52.5290     7.8770     8.5460    16.6800     2.4320 
  190.8750   190.8560    -2.1300    -0.0740   -16.1940    54.6590     4.5720     4.8440    11.3110     2.3620 
  191.0000   190.9810    -2.1320    -0.0740   -16.0040    53.5120     2.6480     2.7550     5.0430     2.2910 
  191.1250   191.1060    -2.1350    -0.0730   -15.7350    51.2910     1.7070     1.8020     1.8680     2.2450 
  191.2500   191.2310    -2.1370    -0.0730   -15.4120    52.3380     1.2220     1.3460     1.2250     2.2220 
  191.3750   191.3560    -2.1390    -0.0720   -15.1240    55.9260     1.0140     1.1670     1.1940     2.2080 
  191.5000   191.4810    -2.1410    -0.0720   -14.9360    58.6370     0.9690     1.1410     1.2010     2.2010 
  191.6250   191.6060    -2.1430    -0.0710   -14.8490    59.8180     0.9870     1.1670     1.1460     2.2080 
  191.7500   191.7310    -2.1450    -0.0710   -14.8770    59.6920     1.0570     1.2380     1.0960     2.2360 
  191.8750   191.8560    -2.1480    -0.0700   -15.0100    62.9300     1.1940     1.3820     1.2240     2.2750 
  192.0000   191.9810    -2.1500    -0.0700   -15.2430    72.2030     1.4140     1.6270     1.6890     2.3140 
  192.1250   192.1060    -2.1520    -0.0690   -15.5430    80.3130     1.7070     1.9610     2.2930     2.3410 
  192.2500   192.2310    -2.1540    -0.0690   -15.8660    82.4950     2.0310     2.3220     2.6750     2.3540 
  192.3750   192.3560    -2.1570    -0.0680   -16.1470    81.8260     2.2900     2.5980     2.7990     2.3550 
  192.5000   192.4810    -2.1590    -0.0680   -16.3440    83.1550     2.4220     2.7180     2.7940     2.3520 
  192.6250   192.6060    -2.1610    -0.0670   -16.4690    85.2670     2.4290     2.6930     2.7660     2.3500 
