~V
VERS. 2.00: Ver 2.00
~W
STRT.M 40.0000:
STOP.M 213.0000:
STEP.M 0.1250:
NULL. -999.2500:
UWI. F10805:
~C
DEPT.M :
SP.MV :
GR.API :
RI. :
RML.OHMM :
RXO.OHMM :
DEN.GM/CC :
~A
# ...
   91.5000   -10.5920    90.9690     5.8340     6.2680     8.2840     2.2330 
   91.6250   -10.5440    89.7910     6.0110     6.4750     8.4890     2.2460 
   91.7500   -10.7370    86.8250     6.3390     6.8100     8.7360     2.2590 
   91.8750   -11.1140    83.7000     6.6330     7.0660     7.6020     2.2600 
   92.0000   -11.5150    81.4050     6.7830     7.1620     6.9390     2.2430 
   92.1250   -11.8910    79.0350     6.7220     7.0730     6.8860     2.2130 
   92.2500   -12.2530    75.6380     6.5090     6.8740     6.7170     2.1790 
   92.3750   -12.7290    71.5560     6.2700     6.6570     6.5480     2.1470 
   92.5000   -13.3140    68.6060     6.0600     6.4400     6.1370     2.1200 
   92.6250   -14.1030    66.9420     5.8400     6.2090     5.6500     2.1050 
   92.7500   -14.9500    67.4100     5.6130     5.9840     5.4650     2.0890 
   92.8750   -15.7670    68.9910     5.4210     5.7970     5.3790     2.0710 
   93.0000   -16.4100    71.1670     5.2850     5.6680     5.3050     2.0540 
   93.1250   -16.8790    71.3040     5.2170     5.5910     5.2660     2.0440 
   93.2500   -17.2030    70.2580     5.1850     5.5470     5.1770     2.0400 
   93.3750   -17.4610    69.3710     5.1780     5.5250     5.1370     2.0360 
   93.5000   -17.6800    69.6990     5.1720     5.5040     5.0560     2.0350 
   93.6250   -17.7350    69.7360     5.1640     5.4810     4.8750     2.0360 
   93.7500   -17.7390    69.2380     5.1570     5.4700     4.8720     2.0330 
   93.8750   -17.6420    68.6410     5.1530     5.4710     5.0940     2.0270 
   94.0000   -17.4800    68.4890     5.1430     5.4690     5.1570     2.0200 
   94.1250   -17.2090    67.4060     5.1300     5.4570     4.9060     2.0140 
   94.2500   -16.9670    67.2250     5.1120     5.4240     4.7790     2.0100 
   94.3750   -16.6770    66.9550     5.0950     5.3770     5.1610     2.0060 
   94.5000   -16.3560    67.0270     5.0740     5.3350     5.6480     2.0120 
   94.6250   -15.9790    66.0800     5.0410     5.2970     5.7850     2.0210 
   94.7500   -15.5810    64.9650     4.9480     5.2200     5.7570     2.0300 
   94.8750   -15.2940    64.5700     4.7730     5.0740     5.7320     2.0360 
   95.0000   -15.0610    65.2810     4.5730     4.8930     5.6560     2.0550 
   95.1250   -14.9320    67.9510     4.4280     4.7500     5.3490     2.0820 
   95.2500   -14.7990    71.0950     4.3870     4.7020     5.0440     2.1050 
   95.3750   -14.6270    73.3360     4.4820     4.7790     5.3490     2.1100 
   95.5000   -14.4080    73.2160     4.6760     4.9540     5.9340     2.1050 
   95.6250   -14.3820    70.6460     4.9220     5.1740     6.1290     2.0960 
   95.7500   -14.5080    67.8970     5.1360     5.3550     5.9920     2.0860 
   95.8750   -14.7330    66.3090     5.2340     5.4420     5.8330     2.0820 
   96.0000   -14.9550    66.9360     5.2180     5.4530     5.7830     2.0800 
   96.1250   -15.0760    68.1780     5.1300     5.4290     5.8270     2.0790 
   96.2500   -15.1260    69.2740     5.0390     5.4030     5.8560     2.0760 
   96.3750   -14.9780    69.1930     4.9500     5.3650     5.8370     2.0730 
   96.5000   -14.6980    68.7730     4.8760     5.3080     5.7660     2.0760 
   96.6250   -14.3800    67.9840     4.8150     5.2520     5.6660     2.0820 
   96.7500   -14.1980    68.4930     4.7690     5.2130     5.5710     2.0880 
   96.8750   -14.3130    69.0900     4.7280     5.1860     5.5400     2.0890 
   97.0000   -14.6510    69.5900     4.6910     5.1690     5.5330     2.0890 
   97.1250   -15.1260    67.9800     4.6700     5.1650     5.4680     2.0890 
   97.2500   -15.7690    66.5300     4.6610     5.1750     5.3870     2.0860 
   97.3750   -16.4300    66.2730     4.6690     5.1880     5.3610     2.0810 
   97.5000   -16.9140    66.4680     4.6860     5.2060     5.4120     2.0720 
   97.6250   -17.1490    66.3200     4.7140     5.2360     5.5030     2.0650 
   97.7500   -17.1880    65.4600     4.7570     5.2710     5.5530     2.0570 
   97.8750   -17.1020    64.8170     4.8020     5.3220     5.5920     2.0530 
   98.0000   -16.8640    65.2530     4.8660     5.3860     5.7340     2.0500 
   98.1250   -16.5600    65.9220     4.9430     5.4610     5.9420     2.0500 
   98.2500   -16.2970    66.4680     5.0250     5.5450     6.0680     2.0520 
   98.3750   -16.1930    66.4740     5.1040     5.6310     6.5430     2.0600 
   98.5000   -16.1940    66.8860     5.1690     5.7060     8.0970     2.0710 
   98.6250   -16.2630    67.4430     5.2040     5.7530     9.4940     2.0780 
   98.7500   -16.3760    66.9930     5.2170     5.7670     8.7830     2.0730 
   98.8750   -16.3400    65.4960     5.2050     5.7530     7.1040     2.0680 
   99.0000   -16.2970    64.0090     5.1810     5.7280     6.3360     2.0660 
   99.1250   -16.3640    64.3180     5.1590     5.7130     6.2490     2.0690 
   99.2500   -16.5330    66.4750     5.1480     5.7150     6.2770     2.0690 
   99.3750   -16.6270    68.9860     5.1580     5.7280     6.2990     2.0720 
   99.5000   -16.6910    71.0350     5.1730     5.7430     6.2800     2.0770 
   99.6250   -16.7220    70.6890     5.1760     5.7510     6.2760     2.0820 
   99.7500   -16.7300    68.9790     5.1650     5.7620     6.2880     2.0840 
   99.8750   -16.7640    66.1020     5.1440     5.7700     6.2860     2.0780 
  100.0000   -16.8070    65.2320     5.1220     5.7760     6.2600     2.0720 
  100.1250   -16.8270    67.2110     5.1140     5.7860     6.2320     2.0700 
  100.2500   -16.7750    69.6530     5.1160     5.8010     6.2320     2.0700 
  100.3750   -16.7460    70.1840     5.1360     5.8310     6.2580     2.0690 
  100.5000   -16.6890    68.6420     5.1530     5.8240     6.2030     2.0680 
  100.6250   -16.6600    67.9950     5.1620     5.7850     6.1060     2.0700 
  100.7500   -16.5930    67.8480     5.1700     5.7840     6.0270     2.0730 
  100.8750   -16.5940    67.5650     5.1610     5.7660     5.9670     2.0740 
  101.0000   -16.7750    66.0080     5.1480     5.7550     5.9900     2.0760 
  101.1250   -16.9730    64.2930     5.2280     5.8180     6.1900     2.0810 
  101.2500   -17.0990    63.9560     5.3440     5.9360     6.3290     2.0940 
  101.3750   -17.1730    65.3260     5.4630     6.0740     6.2770     2.1230 
  101.5000   -17.2170    67.3030     5.5550     6.1780     6.1320     2.1570 
  101.6250   -17.2040    68.9600     5.5430     6.1680     5.8640     2.1700 
  101.7500   -17.2120    70.0160     5.4550     6.0420     5.6800     2.1570 
  101.8750   -17.2000    70.3380     5.3130     5.8640     5.5980     2.1290 
  102.0000   -17.1910    70.0960     5.1990     5.7290     5.5650     2.1130 
  102.1250   -17.0490    68.0650     5.1430     5.6980     5.6390     2.1060 
  102.2500   -16.8060    65.9470     5.1950     5.7790     5.7260     2.1070 
  102.3750   -16.5120    64.2910     5.2620     5.8600     5.8330     2.1050 
  102.5000   -16.1370    65.4460     5.2290     5.8350     5.8790     2.1070 
  102.6250   -15.5790    67.3850     5.0050     5.6230     5.7240     2.1090 
  102.7500   -14.8410    70.1690     4.6770     5.2180     5.3990     2.1240 
  102.8750   -14.0790    72.5420     4.2770     4.7310     4.8840     2.1500 
  103.0000   -13.3170    75.0470     3.9150     4.3010     4.4270     2.1720 
  103.1250   -12.6080    77.3290     3.6680     4.0060     4.2970     2.1640 
  103.2500   -11.9420    79.0870     3.5070     3.8200     4.0060     2.1410 
  103.3750   -11.2600    79.9310     3.4120     3.7020     3.5140     2.1230 
  103.5000   -10.3980    81.3160     3.3320     3.5890     3.3620     2.1230 
  103.6250    -9.4520    84.8410     3.2360     3.4470     3.4200     2.1390 
  103.7500    -8.4850    89.8630     3.1130     3.2920     3.3660     2.1650 
  103.8750    -7.4620    96.0020     3.0350     3.1940     3.2230     2.1960 
  104.0000    -6.5410   100.2380     3.0130     3.1700     3.3080     2.2150 
  104.1250    -5.9400   103.2510     3.0060     3.1830     3.5700     2.2120 
  104.2500    -5.6850   104.3520     2.9910     3.1830     3.6440     2.2070 
