~V
VERS. 2.00: Ver 2.00
~W
STRT.M 40.0000:
STOP.M 205.0000:
STEP.M 0.1250:
NULL. -999.2500:
UWI. F10810:
~C
DEPT.M :
SP.MV :
GR.API :
RI. :
RML.OHMM :
RXO.OHMM :
DEN.GM/CC :
~A
# ...
  181.6250    -8.8360    73.9190     5.9650     7.2240     7.4180     2.3000 
  181.7500    -8.7900    73.0460     5.9470     7.1920     7.3030     2.3080 
  181.8750    -8.7090    71.3610     5.8560     7.0870     6.8460     2.3250 
  182.0000    -8.5900    69.5250     5.7040     6.9180     6.1810     2.3450 
  182.1250    -8.4390    67.6670     5.5310     6.7110     5.6850     2.3550 
  182.2500    -8.2800    66.3960     5.3640     6.5130     5.5620     2.3570 
  182.3750    -8.1420    65.5710     5.2530     6.3800     5.6690     2.3560 
  182.5000    -8.0420    65.2920     5.1970     6.3170     5.7370     2.3510 
  182.6250    -7.9820    62.9930     5.1870     6.2950     5.5840     2.3410 
  182.7500    -7.9400    60.4850     5.1770     6.2660     5.4940     2.3310 
  182.8750    -7.8900    58.5010     5.1380     6.1860     5.6750     2.3260 
  183.0000    -7.8160    58.9660     5.0430     6.0440     5.7160     2.3200 
  183.1250    -7.7160    60.3020     4.9050     5.8620     5.3800     2.3150 
  183.2500    -7.6090    61.2490     4.7540     5.6640     4.7270     2.3090 
  183.3750    -7.5210    60.8110     4.5910     5.4560     4.0950     2.3000 
  183.5000    -7.4720    59.8390     4.4510     5.2640     3.9490     2.2780 
  183.6250    -7.4700    59.1190     4.3520     5.1220     4.2120     2.2630 
  183.7500    -7.5010    59.3390     4.3160     5.0510     4.4910     2.2570 
  183.8750    -7.5420    59.6500     4.3390     5.0460     4.4890     2.2630 
  184.0000    -7.5650    59.7940     4.3870     5.0750     4.3280     2.2710 
  184.1250    -7.5540    59.3940     4.4280     5.1010     4.1390     2.2760 
  184.2500    -7.5160    59.2020     4.4420     5.0940     3.8550     2.2750 
  184.3750    -7.4780    59.6270     4.4120     5.0410     3.7070     2.2490 
  184.5000    -7.4820    60.2260     4.3470     4.9570     3.7460     2.2080 
  184.6250    -7.5680    61.2880     4.2760     4.8760     3.8730     2.1770 
  184.7500    -7.7450    64.3020     4.2400     4.8470     4.1270     2.1790 
  184.8750    -8.0010    69.0790     4.2830     4.9160     4.2600     2.2050 
  185.0000    -8.2910    73.5670     4.4360     5.1020     4.2130     2.2340 
  185.1250    -8.5630    75.0340     4.7070     5.4200     4.3710     2.2680 
  185.2500    -8.7820    73.8560     5.0660     5.8300     5.9940     2.3090 
  185.3750    -8.9250    71.0820     5.4560     6.2630    18.5480     2.3420 
  185.5000    -8.9900    68.3230     5.7960     6.6300    32.8150     2.3550 
  185.6250    -8.9640    66.0160     6.0190     6.8600    25.5630     2.3430 
  185.7500    -8.8300    65.2890     6.1410     6.9760    11.3870     2.3290 
  185.8750    -8.5450    64.8540     6.2020     7.0390     7.8250     2.3200 
  186.0000    -8.0900    64.9040     6.2690     7.1280     8.2280     2.3240 
  186.1250    -7.4510    64.8230     6.3970     7.2840     8.6140     2.3260 
  186.2500    -6.6770    64.4740     6.5560     7.4950     9.1810     2.3290 
  186.3750    -5.8320    64.4550     6.7530     7.7300     9.7480     2.3330 
  186.5000    -5.0050    64.6580     6.9300     7.9400     9.8660     2.3420 
  186.6250    -4.2780    65.5600     7.0980     8.1140    10.2330     2.3490 
  186.7500    -3.6950    65.9420     7.2570     8.2590    10.9830     2.3500 
  186.8750    -3.2870    66.4830     7.4110     8.3990    10.9640     2.3510 
  187.0000    -3.0360    65.1730     7.5720     8.5420    10.1830     2.3560 
  187.1250    -2.9230    63.9140     7.7400     8.6990    10.7120     2.3670 
  187.2500    -2.8980    63.4640     7.9210     8.8530    13.1500     2.3740 
  187.3750    -2.9200    64.9470     8.0810     8.9890    14.2080     2.3770 
  187.5000    -2.9410    65.7470     8.2180     9.0940    13.1010     2.3760 
  187.6250    -2.9280    65.2300     8.2500     9.0990    12.0480     2.3810 
  187.7500    -2.8690    63.8590     8.1660     8.9820    11.2250     2.3900 
  187.8750    -2.7680    63.4180     7.9880     8.7580     9.6610     2.3940 
  188.0000    -2.6490    63.8840     7.7610     8.4880     7.8660     2.3760 
  188.1250    -2.5410    65.1040     7.5240     8.2390     7.3310     2.3390 
  188.2500    -2.4620    65.6880     7.3870     8.0810     7.6950     2.3120 
  188.3750    -2.4190    64.7550     7.3020     7.9880     8.1980     2.3050 
  188.5000    -2.3950    62.7610     7.2580     7.9240     9.0220     2.3130 
  188.6250    -2.3680    60.7070     7.2580     7.8920    10.0100     2.3140 
  188.7500    -2.3180    59.5840     7.3170     7.9160    10.3220     2.3050 
  188.8750    -2.2350    59.4640     7.4410     8.0140     9.5400     2.2860 
  189.0000    -2.1270    59.2590     7.6540     8.1900     8.9370     2.2740 
  189.1250    -2.0120    59.5850     7.8850     8.3790     9.5550     2.2770 
  189.2500    -1.9080    59.7090     8.0540     8.5170    10.3480     2.2900 
  189.3750    -1.8290    60.3310     8.2010     8.6330    10.0460     2.3060 
  189.5000    -1.7770    60.1580     8.3460     8.7550     9.1300     2.3250 
  189.6250    -1.7490    60.1030     8.4930     8.9210     8.7440     2.3500 
  189.7500    -1.7430    59.8540     8.6430     9.2210     8.7220     2.3760 
  189.8750    -1.7650    61.2370     8.7580     9.4380     9.2170     2.3900 
  190.0000    -1.8250    62.4190     8.7630     9.4700     9.8430     2.3870 
  190.1250    -1.9390    63.3850     8.6760     9.3840     8.7140     2.3670 
  190.2500    -2.1040    62.9810     8.5260     9.2210     7.7570     2.3450 
  190.3750    -2.3100    63.6920     8.3790     9.0690     9.4800     2.3410 
  190.5000    -2.5290    64.9110     8.3680     9.0570    11.1540     2.3590 
  190.6250    -2.7300    65.8980     8.5450     9.2470    10.9530     2.3890 
  190.7500    -2.8910    65.8100     8.8600     9.5830    10.8730     2.4120 
  190.8750    -3.0000    65.9860     9.2460     9.9850    11.3140     2.4240 
  191.0000    -3.0650    67.2840     9.6190    10.3600    11.4310     2.4280 
  191.1250    -3.0960    68.9300     9.8830    10.6110    11.5900     2.4260 
  191.2500    -3.1080    69.7130    10.0030    10.7220    11.8940     2.4190 
  191.3750    -3.1120    69.9980    10.0370    10.7300    12.0810     2.4090 
  191.5000    -3.1120    70.0820    10.0040    10.6900    11.9420     2.4040 
  191.6250    -3.1120    70.9390    10.0040    10.6820    12.0220     2.4110 
  191.7500    -3.1120    71.4870    10.0530    10.7290    12.5030     2.4270 
  191.8750    -3.1120    72.4450    10.1250    10.8040    12.3560     2.4470 
  192.0000    -3.1120    72.3200    10.1570    10.8320    11.9240     2.4650 
  192.1250    -3.1120    71.2490    10.0700    10.7320    12.0060     2.4760 
  192.2500    -3.1120    69.7360     9.8510    10.5020    12.2680     2.4800 
  192.3750    -3.1120    69.6590     9.5300    10.1640    12.0930     2.4700 
  192.5000    -3.1120    71.0400     9.1890     9.8150    10.7650     2.4610 
  192.6250    -3.1120    71.7330     8.9310     9.5500     9.2090     2.4550 
  192.7500    -3.1120    71.6500     8.7940     9.4170     9.1750     2.4530 
  192.8750    -3.1120    71.0230     8.8360     9.4800    10.1250     2.4390 
  193.0000    -3.1120    70.9060     9.0600     9.7250    11.2620     2.4270 
  193.1250    -3.1120    70.6690     9.3840    10.0870    12.2120     2.4240 
  193.2500    -3.1120    70.9630     9.7400    10.4610    12.7670     2.4280 
  193.3750    -3.1120    71.1450     9.9630    10.6730    13.8970     2.4350 
  193.5000    -3.1120    71.3540     9.9520    10.6390    14.2210     2.4390 
  193.6250    -3.1120    70.1960     9.7070    10.3720    12.7850     2.4350 
  193.7500    -3.1120    69.2320     9.3610    10.0220    11.7020     2.4110 
  193.8750    -3.1120    69.1610     9.0810     9.7630    11.4440     2.3830 
  194.0000    -3.1120    69.1750     8.9510     9.7000    11.5890     2.3700 
  194.1250    -3.1120    69.4300     9.0670     9.8000    11.7860     2.3770 
  194.2500    -3.1120    69.2050     9.2940     9.9490    13.0910     2.3880 
  194.3750    -3.1120    69.4550     9.6250    10.2640    15.2960     2.3930 
