~V
VERS. 2.00: Ver 2.00
~W
STRT.M 40.0000:
STOP.M 213.0000:
STEP.M 0.1250:
NULL. -999.2500:
UWI. F10805:
~C
DEPT.M :
SP.MV :
GR.API :
RI. :
RML.OHMM :
RXO.OHMM :
DEN.GM/CC :
~A
# ...
  194.5000    -3.5800    83.9450     8.6030     9.1380     8.7030     2.3630 
  194.6250    -2.9410    80.3310     8.2580     8.7930     6.7940     2.3760 
  194.7500    -2.5600    77.3580     7.9950     8.5060     6.6660     2.3800 
  194.8750    -2.3730    75.8810     7.8220     8.3250     7.3960     2.3790 
  195.0000    -2.2780    76.4950     7.7270     8.2170     7.4300     2.3750 
  195.1250    -2.2000    76.7910     7.6160     8.1090     6.7480     2.3730 
  195.2500    -2.1770    75.8420     7.4380     7.9200     6.4000     2.3690 
  195.3750    -2.1290    72.5100     7.1100     7.6040     6.3290     2.3690 
  195.5000    -2.1630    68.4820     6.6850     7.2130     5.9740     2.3780 
  195.6250    -2.2120    65.3650     6.3460     6.8600     5.3170     2.3820 
  195.7500    -2.2340    64.6060     6.2000     6.6890     4.9500     2.3810 
  195.8750    -2.2460    65.5820     6.2980     6.8040     5.6490     2.3800 
  196.0000    -2.1900    68.0760     6.6200     7.1680     7.7230     2.3870 
  196.1250    -2.2000    70.7360     7.1630     7.7300     9.9730     2.3920 
  196.2500    -2.1870    73.8260     7.7900     8.3690    10.5190     2.3830 
  196.3750    -2.1650    76.4500     8.3750     8.9560    10.2130     2.3750 
  196.5000    -2.1220    78.4590     8.7920     9.3880    10.2550     2.3760 
  196.6250    -2.1380    80.1070     8.9810     9.6000     9.5490     2.3860 
  196.7500    -2.1290    79.4550     8.9660     9.6260     8.6940     2.3900 
  196.8750    -2.1920    78.0400     8.8240     9.5220     8.8830     2.3900 
  197.0000    -2.2480    75.6420     8.6460     9.3880    10.2210     2.3910 
  197.1250    -2.2510    75.2020     8.5390     9.3240    11.5290     2.3940 
  197.2500    -2.1900    75.0090     8.5860     9.3750    12.3320     2.4010 
  197.3750    -2.1210    75.6060     8.7500     9.5260    13.3840     2.4000 
  197.5000    -2.1430    76.9040     8.9530     9.6780    13.8060     2.3950 
  197.6250    -2.1270    78.6200     9.0260     9.7090    14.5040     2.3850 
  197.7500    -2.2480    80.5100     8.9160     9.5580    14.2760     2.3770 
  197.8750    -2.2580    80.5630     8.5880     9.2200    10.7360     2.3720 
  198.0000    -2.2890    79.3530     8.1650     8.7820     7.1950     2.3610 
  198.1250    -2.2380    77.1150     7.7190     8.3410     6.7430     2.3470 
  198.2500    -2.1940    75.4240     7.3370     7.9510     7.5730     2.3360 
  198.3750    -2.1940    73.6090     7.0130     7.5990     7.3740     2.3460 
  198.5000    -2.1940    70.7150     6.6540     7.2330     6.5900     2.3640 
  198.6250    -2.1940    68.3330     6.2610     6.8280     5.6840     2.3810 
  198.7500    -2.1940    66.5360     5.8480     6.4230     4.6780     2.3930 
  198.8750    -2.1940    66.5970     5.5260     6.1150     3.9480     2.4040 
  199.0000    -2.1940    66.0580     5.3850     5.9900     3.6140     2.4090 
  199.1250    -2.1940    65.9140     5.4830     6.1080     4.7290     2.3980 
  199.2500    -2.1940    66.2520     5.7770     6.4340     7.2550     2.3720 
  199.3750    -2.1940    68.0300     6.2170     6.8930     8.8770     2.3400 
  199.5000    -2.1940    70.3690     6.6560     7.3370     8.2320     2.3210 
  199.6250    -2.1940    71.8080     6.9320     7.6160     6.6110     2.3220 
  199.7500    -2.1940    72.2090     6.9760     7.6680     5.9890     2.3300 
  199.8750    -2.1940    70.8290     6.7770     7.5120     7.2180     2.3290 
  200.0000    -2.1940    68.9430     6.5150     7.2830     8.6940     2.3190 
  200.1250    -2.1940    67.9130     6.3200     7.1180     7.8810     2.3160 
  200.2500    -2.1940    67.4660     6.2760     7.0980     6.3200     2.3180 
  200.3750    -2.1940    67.3800     6.3930     7.2680     6.8530     2.3190 
  200.5000    -2.1940    67.2950     6.6850     7.6000     8.2510     2.3180 
  200.6250    -2.1940    67.9270     7.0840     8.0300     8.4470     2.3290 
  200.7500    -2.1940    69.9380     7.4810     8.4340     8.3960     2.3450 
  200.8750    -2.1940    71.4260     7.7400     8.6820     8.2700     2.3610 
  201.0000    -2.1940    72.5970     7.7880     8.7130     7.6690     2.3690 
  201.1250    -2.1940    70.9270     7.5930     8.5020     7.2700     2.3760 
  201.2500    -2.1940    69.7710     7.2340     8.1260     7.1060     2.3760 
  201.3750    -2.1940    68.9710     6.7800     7.6730     6.8610     2.3670 
  201.5000    -2.1940    69.3420     6.3570     7.2440     6.0190     2.3560 
  201.6250    -2.1940    68.2790     6.0250     6.9160     5.0950     2.3490 
  201.7500    -2.1940    67.1470     5.8210     6.7050     5.2790     2.3530 
  201.8750    -2.1940    66.3080     5.7040     6.5970     6.0830     2.3600 
  202.0000    -2.1940    66.6700     5.6540     6.5530     6.1820     2.3660 
  202.1250    -2.1940    66.6050     5.6550     6.5660     5.9220     2.3510 
  202.2500    -2.1940    66.6850     5.7110     6.6300     6.1590     2.3290 
  202.3750    -2.1940    66.5990     5.8270     6.7670     6.9260     2.3140 
  202.5000    -2.1940    66.3860     6.0560     7.0270     8.0120     2.3240 
  202.6250    -2.1940    66.3760     6.4150     7.4350     8.6800     2.3580 
  202.7500    -2.1940    66.7840     6.8590     7.9390     9.3620     2.3990 
  202.8750    -2.1940    67.8320     7.3270     8.4600    10.3520     2.4180 
  203.0000    -2.1940    67.8140     7.7150     8.9070    10.2950     2.4130 
  203.1250    -2.1940    67.3250     7.9670     9.2040     9.5190     2.3950 
  203.2500    -2.1940    66.4440     8.0620     9.3310     8.8950     2.3850 
  203.3750    -2.1940    67.0310     7.9820     9.2740     8.1510     2.3880 
  203.5000    -2.1940    67.4020     7.7670     9.0800     7.1910     2.3930 
  203.6250    -2.1940    67.2690     7.5160     8.8500     6.5880     2.3860 
  203.7500    -2.1940    66.5980     7.3000     8.6760     6.8360     2.3650 
  203.8750    -2.1940    66.0990     7.1830     8.6070     7.4100     2.3500 
  204.0000    -2.1940    66.2010     7.1680     8.6170     7.8130     2.3510 
  204.1250    -2.1940    65.9900     7.1700     8.6410     8.2090     2.3530 
  204.2500    -2.1940    66.2870     7.1870     8.6520     8.2180     2.3380 
  204.3750    -2.1940    65.9300     7.1860     8.6510     7.8430     2.3200 
  204.5000    -2.1940    66.0190     7.1820     8.6510     7.5600     2.3100 
  204.6250    -2.1940    65.6150     7.1810     8.6520     7.3400     2.3120 
  204.7500    -2.1940    66.0920     7.1820     8.6590     7.2650     2.3220 
  204.8750    -2.1940    66.8430     7.1820     8.6710    12.4120     2.3450 
  205.0000    -2.1940    67.5380     7.1820     8.6840    21.4020     2.3700 
  205.1250    -2.1940    67.8390     7.1830     8.6970    20.0640     2.3860 
  205.2500    -2.1940    67.8540     7.1830     8.7050    11.0020     2.3830 
  205.3750    -2.1940    67.8540     7.1830     8.7090     7.1370     2.3570 
  205.5000    -2.1940    67.8540     7.1830     8.7130     7.0890     2.3220 
  205.6250    -2.1940    67.8540     7.1820     8.7190     6.3700     2.3070 
  205.7500    -2.1940    67.8540     7.1820     8.7230     5.1040     2.3170 
  205.8750    -2.1940    67.8540     7.1810     8.7260     5.2620     2.3250 
  206.0000    -2.1940    67.8540     7.1870     8.7240     6.6110     2.3040 
  206.1250    -2.1940    67.8540     7.1940     8.7180     6.6470     2.2800 
  206.2500    -2.1940    67.8540     7.2010     8.7170     5.4480     2.2770 
  206.3750    -2.1940    67.8540     7.2060     8.7180     4.4240     2.3120 
  206.5000    -2.1940    67.8540     7.2060     8.7170     4.0240     2.3460 
  206.6250    -2.1940    67.8540     7.2060     8.7150     4.5200     2.3640 
  206.7500    -2.1940    67.8540     7.2060     8.7100     5.6860     2.3530 
  206.8750    -2.1940    67.8540     7.2060     8.7090     6.3200     2.3430 
  207.0000    -2.1940    67.8540     7.2060     8.7110     5.7750     2.3500 
  207.1250    -2.1940    67.8540     7.2060     8.7140     5.1950     2.3550 
  207.2500    -2.1940    67.8540     7.2060     8.7170     5.1900     2.3390 
