~V
VERS. 2.00: Ver 2.00
~W
STRT.M 40.0000:
STOP.M 215.0000:
STEP.M 0.1250:
NULL. -999.2500:
UWI. F10811:
~C
DEPT.M :
SP.MV :
GR.API :
RI. :
RML.OHMM :
RXO.OHMM :
DEN.GM/CC :
~A
# ...
  168.7500    -3.3670    88.5870     4.8800     6.3010     6.2430     2.1650 
  168.8750    -3.1440    87.8750     5.2910     6.9270     6.0450     2.1970 
  169.0000    -2.9940    86.8210     5.8420     7.6190     6.0770     2.2170 
  169.1250    -2.9110    87.2690     6.2420     8.0540     6.2260     2.2290 
  169.2500    -2.8400    87.5630     6.3930     8.1380     6.3110     2.2430 
  169.3750    -2.7430    86.0760     6.2630     7.9090     7.1460     2.2540 
  169.5000    -2.6180    82.2420     5.9810     7.5150     8.1790     2.2450 
  169.6250    -2.5040    76.3080     5.6550     7.1090     7.2570     2.2110 
  169.7500    -2.4720    72.0610     5.3880     6.8070     5.4950     2.1790 
  169.8750    -2.5850    70.2580     5.2080     6.6370     5.0490     2.1790 
  170.0000    -2.7860    71.5060     5.0690     6.5470     5.1840     2.2030 
  170.1250    -2.9500    73.4240     4.9350     6.4890     4.8400     2.2230 
  170.2500    -3.0170    75.1280     4.7860     6.4170     4.2810     2.2200 
  170.3750    -3.0640    74.4970     4.6060     6.3210     4.6770     2.1990 
  170.5000    -3.1840    71.4980     4.4310     6.2140     6.7490     2.1880 
  170.6250    -3.3240    68.9920     4.2970     6.1170     8.3590     2.1990 
  170.7500    -3.3330    67.7110     4.1860     6.0270     7.2130     2.2180 
  170.8750    -3.1290    67.6380     4.0870     5.9210     5.1050     2.2250 
  171.0000    -2.7750    65.6410     3.9800     5.7980     4.1810     2.1980 
  171.1250    -2.3510    63.4700     3.8950     5.6830     3.9830     2.1230 
  171.2500    -1.9480    61.5690     3.8340     5.6030     3.9730     2.0270 
  171.3750    -1.6520    61.0520     3.8180     5.5710     4.1700     1.9870 
  171.5000    -1.4830    61.6380     3.8140     5.5740     4.3390     2.0370 
  171.6250    -1.4260    61.7050     3.8230     5.6100     4.2980     2.1370 
  171.7500    -1.4190    61.0220     3.8560     5.6870     4.1370     2.2080 
  171.8750    -1.4000    59.6370     3.9180     5.8150     4.0160     2.2120 
  172.0000    -1.3400    61.7330     3.9980     5.9720     4.1330     2.1730 
  172.1250    -1.2440    65.0970     4.0850     6.1220     4.4950     2.1130 
  172.2500    -1.1110    68.5310     4.1400     6.2280     4.6670     2.0600 
  172.3750    -0.9700    69.0210     4.1540     6.2680     4.4130     2.0420 
  172.5000    -0.8560    68.8420     4.1240     6.2430     4.0500     2.0620 
  172.6250    -0.8200    68.4150     4.0660     6.1800     3.6960     2.1000 
  172.7500    -0.8700    68.2450     4.0200     6.1380     3.4800     2.1330 
  172.8750    -0.9860    67.1390     4.0270     6.1610     3.6700     2.1590 
  173.0000    -1.1210    66.8490     4.0750     6.2590     4.1740     2.1870 
  173.1250    -1.2650    68.8810     4.1550     6.4220     4.9600     2.2140 
  173.2500    -1.4250    72.1790     4.2460     6.6000     5.6250     2.2300 
  173.3750    -1.6090    73.7180     4.3170     6.7430     5.5080     2.2350 
  173.5000    -1.8250    72.0720     4.3670     6.8240     5.0170     2.2450 
  173.6250    -2.0660    69.3440     4.3930     6.8500     4.8590     2.2680 
  173.7500    -2.2600    68.2440     4.4240     6.8690     4.9910     2.2900 
  173.8750    -2.3140    67.9530     4.5040     6.9650     5.0470     2.3020 
  174.0000    -2.2350    68.3770     4.6720     7.1960     5.0290     2.3140 
  174.1250    -2.1170    68.0540     4.9260     7.5730     5.1260     2.3370 
  174.2500    -2.0630    67.6910     5.2570     8.0520     5.0920     2.3560 
  174.3750    -2.0970    67.0870     5.5810     8.5040     5.2200     2.3560 
  174.5000    -2.1780    66.6630     5.7900     8.7590     5.8950     2.3350 
  174.6250    -2.2550    67.6010     5.8100     8.6980     6.5510     2.3080 
  174.7500    -2.2580    68.2610     5.6670     8.3850     6.6320     2.2900 
  174.8750    -2.1300    67.6420     5.4060     7.9190     6.1380     2.2940 
  175.0000    -1.9070    65.1730     5.1140     7.4490     5.6950     2.3060 
  175.1250    -1.6580    62.4030     4.8080     7.0410     5.4260     2.3010 
  175.2500    -1.4260    60.0150     4.5570     6.7080     5.0310     2.2610 
  175.3750    -1.2290    59.1100     4.3770     6.4570     4.5980     2.2010 
  175.5000    -1.0800    60.1240     4.2810     6.2900     4.1930     2.1510 
  175.6250    -0.9880    61.7350     4.2630     6.2310     4.1210     2.1400 
  175.7500    -0.9360    63.2870     4.3230     6.2990     4.4450     2.1560 
  175.8750    -0.8890    62.9740     4.4780     6.5060     4.7020     2.1570 
  176.0000    -0.7970    62.4690     4.6790     6.7760     4.8240     2.1410 
  176.1250    -0.6250    61.9660     4.8730     7.0170     4.9480     2.1370 
  176.2500    -0.3890    61.9340     4.9870     7.1380     4.9350     2.1680 
  176.3750    -0.1210    61.7430     4.9550     7.0580     5.0160     2.2110 
  176.5000     0.1250    60.7370     4.7800     6.7920     5.3240     2.2380 
  176.6250     0.2800    59.5380     4.5280     6.4220     5.1280     2.2450 
  176.7500     0.3070    58.9280     4.2970     6.0890     4.3700     2.2490 
  176.8750     0.1980    60.1840     4.2190     5.9690     3.9030     2.2590 
  177.0000    -0.0160    62.3500     4.3360     6.1390     4.0460     2.2720 
  177.1250    -0.3270    66.1890     4.6880     6.6400     5.8820     2.2720 
  177.2500    -0.6970    70.0140     5.2200     7.3490    10.1880     2.2690 
  177.3750    -1.0560    74.7440     5.7620     8.0580    13.1820     2.2730 
  177.5000    -1.3400    78.7520     6.1560     8.5210    11.7120     2.2850 
  177.6250    -1.4990    82.8470     6.2160     8.5500     9.2240     2.2840 
  177.7500    -1.5280    84.4920     5.9810     8.2080     8.3720     2.2670 
  177.8750    -1.4270    81.5840     5.5650     7.6410     7.7170     2.2450 
  178.0000    -1.2530    76.8840     5.1350     7.0600     6.6330     2.2310 
  178.1250    -1.1020    73.3270     4.8090     6.6380     6.0810     2.2280 
  178.2500    -1.0560    72.2990     4.6780     6.4660     6.5130     2.2370 
  178.3750    -1.1390    72.1200     4.7590     6.5800     6.3690     2.2530 
  178.5000    -1.2960    72.1940     4.9740     6.8740     5.3920     2.2650 
  178.6250    -1.4630    73.3510     5.2960     7.2620     5.4360     2.2650 
  178.7500    -1.6010    75.0340     5.6330     7.6280     6.2820     2.2610 
  178.8750    -1.7090    76.4120     5.8720     7.8600     6.4350     2.2640 
  179.0000    -1.8020    77.7450     6.0080     7.9310     5.9700     2.2750 
  179.1250    -1.8650    80.2070     5.9670     7.7920     6.1630     2.2810 
  179.2500    -1.8430    82.8790     5.7720     7.4770     7.0920     2.2680 
  179.3750    -1.6720    83.4400     5.5060     7.0780     7.3310     2.2560 
  179.5000    -1.4010    81.6490     5.2150     6.6960     6.3730     2.2660 
  179.6250    -1.1270    76.9970     4.9730     6.3990     5.5020     2.2990 
  179.7500    -0.8970    71.4150     4.8150     6.2110     5.5010     2.3220 
  179.8750    -0.7020    66.2730     4.7500     6.1360     5.4900     2.3140 
  180.0000    -0.5490    63.1770     4.7800     6.1600     5.0240     2.2890 
  180.1250    -0.4620    62.2180     4.9090     6.2990     4.5650     2.2730 
  180.2500    -0.4350    61.7720     5.1210     6.5280     4.5770     2.2850 
  180.3750    -0.4520    61.3130     5.3430     6.7740     5.2870     2.3230 
  180.5000    -0.5240    61.0960     5.5140     6.9460     5.9940     2.3500 
  180.6250    -0.6900    61.7410     5.6050     7.0010     5.9000     2.3390 
  180.7500    -0.9390    64.4040     5.6310     6.9860     5.3300     2.3040 
  180.8750    -1.2350    68.6440     5.6970     7.0110     4.8410     2.2840 
  181.0000    -1.5440    73.6130     5.8520     7.1060     4.8930     2.2830 
  181.1250    -1.8250    77.3000     5.9970     7.2690     6.4650     2.2760 
  181.2500    -2.0220    80.8460     6.1080     7.5260     9.3370     2.2600 
  181.3750    -2.0800    84.8130     6.2330     7.7330    10.5960     2.2610 
  181.5000    -2.0030    87.7050     6.2300     7.8760     9.3620     2.2890 
