~V
VERS. 2.00: Ver 2.00
~W
STRT.M 62.0000:
STOP.M 256.0000:
STEP.M 0.1250:
NULL. -999.2500:
UWI. F10886:
~C
DEPT.M :
TVD. :
DX. :
DY. :
SP.MV :
GR.API :
RI. :
RML.OHMM :
RXO.OHMM :
DEN.GM/CC :
~A
# ...
   98.5000    98.4960    -0.2190    -0.4630   -13.2560    77.5700     6.4330     7.0310     7.2360     2.1980 
   98.6250    98.6210    -0.2200    -0.4640   -13.3550    75.6700     6.9180     7.7180     7.9510     2.1710 
   98.7500    98.7460    -0.2210    -0.4660   -13.4860    73.0070     7.2700     8.1920     8.2510     2.1530 
   98.8750    98.8710    -0.2220    -0.4680   -13.5680    71.9200     7.2750     8.1850     7.8550     2.1550 
   99.0000    98.9960    -0.2230    -0.4690   -13.5000    72.3240     6.9610     7.7640     7.0520     2.1710 
   99.1250    99.1210    -0.2240    -0.4710   -13.2260    74.2490     6.5160     7.1980     6.4420     2.1950 
   99.2500    99.2460    -0.2250    -0.4720   -12.8240    76.6810     6.2280     6.8630     6.3060     2.2130 
   99.3750    99.3710    -0.2250    -0.4740   -12.4330    78.3840     6.2780     6.9780     6.6010     2.2120 
   99.5000    99.4960    -0.2260    -0.4760   -12.1950    76.8870     6.6440     7.4930     7.1710     2.1930 
   99.6250    99.6210    -0.2270    -0.4770   -12.1920    74.5410     7.2500     8.2920     7.7120     2.1670 
   99.7500    99.7460    -0.2280    -0.4790   -12.3910    73.2570     7.8900     9.1070     8.3340     2.1500 
   99.8750    99.8710    -0.2290    -0.4800   -12.7020    75.5700     8.3290     9.6430     9.2320     2.1490 
  100.0000    99.9960    -0.2300    -0.4820   -12.9890    78.2450     8.4220     9.7180     9.7830     2.1630 
  100.1250   100.1210    -0.2310    -0.4840   -13.1240    78.7930     8.1150     9.2890     9.0170     2.1910 
  100.2500   100.2460    -0.2310    -0.4850   -13.0570    77.6480     7.5430     8.5470     7.4750     2.2310 
  100.3750   100.3710    -0.2320    -0.4870   -12.7840    75.3720     6.8450     7.6950     6.5340     2.2690 
  100.5000   100.4960    -0.2330    -0.4880   -12.3760    75.6910     6.1630     6.9140     6.1200     2.2890 
  100.6250   100.6210    -0.2340    -0.4900   -11.8990    78.6510     5.5780     6.2830     5.7570     2.2820 
  100.7500   100.7460    -0.2350    -0.4910   -11.4220    82.1660     5.1270     5.8170     5.3460     2.2650 
  100.8750   100.8710    -0.2360    -0.4930   -10.9920    84.0170     4.8200     5.5020     4.9880     2.2580 
  101.0000   100.9960    -0.2370    -0.4950   -10.6310    82.9630     4.5970     5.2570     4.7020     2.2600 
  101.1250   101.1210    -0.2380    -0.4960   -10.3470    81.0120     4.4210     5.0440     4.4330     2.2630 
  101.2500   101.2460    -0.2380    -0.4980   -10.1200    80.9300     4.2810     4.8600     4.2110     2.2630 
  101.3750   101.3710    -0.2390    -0.4990    -9.9360    82.1900     4.1930     4.7350     4.1410     2.2620 
  101.5000   101.4960    -0.2400    -0.5010    -9.7770    84.1110     4.1790     4.7020     4.2340     2.2640 
  101.6250   101.6210    -0.2410    -0.5020    -9.6500    86.7010     4.2640     4.7910     4.3750     2.2700 
  101.7500   101.7460    -0.2420    -0.5040    -9.5680    89.2560     4.4190     4.9680     4.4580     2.2750 
  101.8750   101.8710    -0.2430    -0.5050    -9.5600    89.3550     4.5810     5.1570     4.7480     2.2720 
  102.0000   101.9960    -0.2440    -0.5070    -9.6360    83.5150     4.6520     5.2410     5.3970     2.2570 
  102.1250   102.1210    -0.2450    -0.5090    -9.8040    78.5470     4.5610     5.1350     5.7730     2.2360 
  102.2500   102.2460    -0.2460    -0.5100   -10.0330    77.0610     4.3600     4.9070     5.4250     2.2230 
  102.3750   102.3710    -0.2470    -0.5120   -10.2900    80.3970     4.1410     4.6730     4.8050     2.2240 
  102.5000   102.4960    -0.2480    -0.5140   -10.5280    84.0790     3.9870     4.5310     4.4850     2.2330 
  102.6250   102.6210    -0.2490    -0.5150   -10.7150    86.3180     3.9290     4.5090     4.5860     2.2380 
  102.7500   102.7460    -0.2500    -0.5170   -10.8450    87.9260     3.9190     4.5350     4.8830     2.2330 
  102.8750   102.8710    -0.2510    -0.5180   -10.9240    90.5010     3.9320     4.5590     5.0830     2.2230 
  103.0000   102.9960    -0.2520    -0.5200   -10.9730    91.7670     3.9970     4.6320     5.0550     2.2220 
  103.1250   103.1210    -0.2530    -0.5220   -10.9900    90.4480     4.1850     4.8680     4.9130     2.2410 
  103.2500   103.2460    -0.2540    -0.5230   -10.9660    85.9990     4.5220     5.3210     5.0720     2.2740 
  103.3750   103.3710    -0.2550    -0.5250   -10.8820    82.0370     5.0080     5.9910     5.8380     2.3000 
  103.5000   103.4960    -0.2560    -0.5270   -10.7430    77.9480     5.4820     6.6240     6.4520     2.2990 
  103.6250   103.6210    -0.2570    -0.5280   -10.5610    74.2150     5.6970     6.8600     5.9900     2.2650 
  103.7500   103.7460    -0.2580    -0.5300   -10.3640    70.9480     5.5590     6.6010     4.9920     2.2290 
  103.8750   103.8710    -0.2590    -0.5310   -10.1720    71.5680     5.0920     5.9290     4.2930     2.2190 
  104.0000   103.9960    -0.2600    -0.5330   -10.0020    74.4810     4.5170     5.1780     3.9600     2.2360 
  104.1250   104.1210    -0.2610    -0.5350    -9.8670    79.6780     4.0720     4.6620     3.8920     2.2570 
  104.2500   104.2460    -0.2620    -0.5360    -9.7730    82.4360     3.8120     4.3960     3.9970     2.2640 
  104.3750   104.3710    -0.2630    -0.5380    -9.7210    85.1800     3.6940     4.2890     4.1140     2.2620 
  104.5000   104.4960    -0.2640    -0.5390    -9.6960    85.9950     3.6380     4.2360     4.1150     2.2590 
  104.6250   104.6210    -0.2650    -0.5410    -9.6890    89.7660     3.6090     4.1980     3.9680     2.2580 
  104.7500   104.7460    -0.2660    -0.5430    -9.6890    91.9960     3.6120     4.1990     3.7850     2.2550 
  104.8750   104.8710    -0.2670    -0.5440    -9.6960    93.8800     3.6760     4.2870     3.7740     2.2490 
  105.0000   104.9960    -0.2680    -0.5460    -9.7120    92.4170     3.8170     4.4760     3.9950     2.2430 
  105.1250   105.1210    -0.2690    -0.5470    -9.7430    89.1920     4.0180     4.7330     4.3130     2.2350 
  105.2500   105.2460    -0.2700    -0.5490    -9.7900    84.8600     4.2070     4.9530     4.5600     2.2270 
  105.3750   105.3710    -0.2710    -0.5510    -9.8520    82.1580     4.3090     5.0380     4.6750     2.2230 
  105.5000   105.4960    -0.2720    -0.5520    -9.9150    82.3520     4.3060     4.9790     4.6710     2.2230 
  105.6250   105.6210    -0.2730    -0.5540    -9.9670    85.4090     4.2350     4.8460     4.5660     2.2290 
  105.7500   105.7460    -0.2740    -0.5550   -10.0050    88.0860     4.1850     4.7620     4.4220     2.2360 
  105.8750   105.8710    -0.2750    -0.5570   -10.0390    88.9840     4.2280     4.8220     4.4000     2.2400 
  106.0000   105.9960    -0.2760    -0.5590   -10.0820    86.7930     4.3800     5.0320     4.6490     2.2410 
  106.1250   106.1210    -0.2780    -0.5600   -10.1410    85.6810     4.6210     5.3620     5.0580     2.2490 
  106.2500   106.2460    -0.2790    -0.5620   -10.2090    84.5020     4.8640     5.6860     5.4670     2.2720 
  106.3750   106.3710    -0.2800    -0.5630   -10.2690    85.6510     5.0030     5.8600     5.9230     2.2970 
  106.5000   106.4950    -0.2810    -0.5650   -10.3100    85.2010     4.9920     5.8330     6.1790     2.3030 
  106.6250   106.6200    -0.2820    -0.5670   -10.3330    85.0860     4.8370     5.6200     5.8050     2.2820 
  106.7500   106.7450    -0.2830    -0.5680   -10.3580    85.7470     4.6280     5.3510     5.1260     2.2550 
  106.8750   106.8700    -0.2840    -0.5700   -10.4060    86.6430     4.4780     5.1680     4.7610     2.2400 
  107.0000   106.9950    -0.2850    -0.5710   -10.4830    86.1170     4.4720     5.1670     4.7700     2.2360 
  107.1250   107.1200    -0.2860    -0.5730   -10.5900    84.6880     4.7040     5.4640     4.9440     2.2370 
  107.2500   107.2450    -0.2870    -0.5750   -10.7170    84.2570     5.2370     6.1430     5.4000     2.2480 
  107.3750   107.3700    -0.2880    -0.5760   -10.8670    83.3100     6.1440     7.2870     6.8190     2.2890 
  107.5000   107.4950    -0.2890    -0.5780   -11.0400    79.2280     7.2510     8.6360     9.1200     2.3690 
