~V
VERS. 2.00: Ver 2.00
~W
STRT.M 40.0000:
STOP.M 205.0000:
STEP.M 0.1250:
NULL. -999.2500:
UWI. F10807:
~C
DEPT.M :
SP.MV :
GR.API :
RI. :
RML.OHMM :
RXO.OHMM :
DEN.GM/CC :
~A
   40.0000   105.6240    37.5560     0.0760     0.2950     0.1240     2.3380 
   40.1250   105.2200    37.3420     0.0760     0.2960     0.1140     2.3390 
   40.2500   105.0240    36.5810     0.0760     0.2950     0.1340     2.3410 
   40.3750   104.9710    36.1640     0.0760     0.2940     0.0920     2.3430 
   40.5000   105.0370    37.5430     0.0760     0.2930     0.0790     2.3450 
   40.6250   105.1290    39.7040     0.0760     0.2930     0.1160     2.3490 
   40.7500   105.2100    42.1300     0.0770     0.2930     0.1300     2.3610 
   40.8750   105.3680    43.8720     0.0770     0.2940     0.1280     2.3720 
   41.0000   105.6620    45.2260     0.0770     0.2950     0.1270     2.3730 
   41.1250   106.2160    45.2250     0.0770     0.2960     0.1670     2.3480 
   41.2500   106.9700    43.3610     0.0770     0.2980     0.2130     2.3290 
   41.3750   107.8950    41.1630     0.0780     0.2990     0.1530     2.3170 
   41.5000   108.6360    40.3790     0.0790     0.3010     0.1130     2.3170 
   41.6250   108.7760    41.1160     0.0790     0.3010     0.1750     2.3080 
   41.7500   108.0560    41.7890     0.0790     0.3000     0.1690     2.3080 
   41.8750   106.9540    41.9200     0.0790     0.3000     0.1300     2.3160 
   42.0000   105.5770    41.0410     0.0790     0.3000     0.1390     2.3310 
   42.1250   103.8890    39.8760     0.0790     0.3010     0.1290     2.3280 
   42.2500   102.3900    39.1690     0.0790     0.3020     0.0970     2.3040 
   42.3750   101.3030    40.2260     0.0800     0.3030     0.0800     2.2160 
   42.5000   100.5490    42.5370     0.0800     0.3000     0.0710     2.0470 
   42.6250   100.0180    43.7580     0.0800     0.2920     0.0510     1.8310 
   42.7500    99.6840    44.1000     0.0800     0.2860     0.0760     1.7140 
   42.8750    99.5110    44.9670     0.0800     0.2790     0.1440     1.7810 
   43.0000    99.4670    47.7970     0.0800     0.2770     0.1800     1.9550 
   43.1250    99.4910    50.8580     0.0810     0.2770     0.1960     2.1000 
   43.2500    99.5490    53.3040     0.0810     0.2690     0.2140     2.1630 
   43.3750    99.5980    55.0040     0.0810     0.2690     0.2040     2.1700 
   43.5000    99.6540    56.9620     0.0810     0.2680     0.1940     2.1680 
   43.6250    99.7390    58.0140     0.0810     0.2690     0.2250     2.1740 
   43.7500    99.8540    58.0230     0.0810     0.2790     0.2410     2.1860 
   43.8750   100.0510    57.0770     0.0820     0.2890     0.2230     2.1920 
   44.0000   100.2810    55.3200     0.0820     0.2980     0.2130     2.1950 
   44.1250   100.4970    52.2520     0.0820     0.2980     0.2180     2.2030 
   44.2500   100.6410    47.8760     0.0820     0.2890     0.2230     2.2290 
   44.3750   100.8690    42.3360     0.0820     0.2780     0.2170     2.2730 
   44.5000   101.2380    37.6150     0.0820     0.2760     0.2070     2.3250 
   44.6250   101.7690    35.5780     0.0820     0.2780     0.2020     2.3730 
   44.7500   102.3570    35.9650     0.0820     0.2830     0.1980     2.4100 
   44.8750   102.8100    37.4960     0.0830     0.2820     0.1960     2.4380 
   45.0000   103.0080    38.5040     0.0830     0.2780     0.1960     2.4510 
   45.1250   102.9250    38.7810     0.0830     0.2750     0.1950     2.4480 
   45.2500   102.8590    39.2350     0.0830     0.2730     0.1930     2.4170 
   45.3750   102.9490    40.1110     0.0840     0.2760     0.1880     2.3700 
   45.5000   103.2390    40.4910     0.0850     0.2810     0.2790     2.3620 
   45.6250   103.5940    39.3120     0.0850     0.2950     0.4000     2.4440 
   45.7500   104.0060    38.3330     0.0850     0.3070     0.3330     2.5540 
   45.8750   104.3500    38.1750     0.0850     0.3100     0.2130     2.5570 
   46.0000   104.6030    39.3690     0.0840     0.3010     0.1840     2.4560 
   46.1250   104.7970    40.2020     0.0840     0.2850     0.1820     2.3490 
   46.2500   104.9350    40.6800     0.0840     0.2730     0.1810     2.3060 
   46.3750   105.0320    40.0290     0.0840     0.2740     0.1800     2.3140 
   46.5000   104.9590    39.1710     0.0850     0.2780     0.1820     2.3300 
   46.6250   104.6770    38.6800     0.0860     0.2800     0.1850     2.3470 
   46.7500   104.2500    38.6580     0.0860     0.2820     0.1860     2.3610 
   46.8750   103.8200    38.3830     0.0860     0.2790     0.1850     2.3650 
   47.0000   103.3420    37.8220     0.0860     0.2770     0.1840     2.3630 
   47.1250   102.8500    37.7220     0.0860     0.2750     0.1850     2.3580 
   47.2500   102.3720    39.0320     0.0860     0.2720     0.1850     2.3580 
   47.3750   101.9230    39.8870     0.0870     0.2710     0.1870     2.3660 
   47.5000   101.5010    41.0030     0.0870     0.2710     0.1900     2.3720 
   47.6250   101.1070    42.4420     0.0870     0.2710     0.1910     2.3740 
   47.7500   100.7410    45.2090     0.0870     0.2710     0.1890     2.3730 
   47.8750   100.3340    45.5900     0.0870     0.2700     0.1880     2.3760 
   48.0000    99.9310    44.4110     0.0870     0.2700     0.1850     2.3810 
   48.1250    99.5480    43.0080     0.0880     0.2700     0.1770     2.3800 
   48.2500    99.2290    42.6990     0.0880     0.2690     0.1690     2.3760 
   48.3750    98.9100    43.3030     0.0880     0.2680     0.1740     2.3780 
   48.5000    98.6800    43.3940     0.0880     0.2670     0.1880     2.3930 
   48.6250    98.5310    43.6900     0.0880     0.2660     0.1920     2.4060 
   48.7500    98.4220    43.4900     0.0880     0.2650     0.1890     2.4110 
   48.8750    98.3240    43.2690     0.0880     0.2640     0.1910     2.4040 
   49.0000    98.1510    42.7470     0.0880     0.2630     0.1910     2.3970 
   49.1250    97.9970    42.3530     0.0880     0.2660     0.1870     2.3890 
   49.2500    97.7950    42.1770     0.0890     0.2700     0.1820     2.3830 
   49.3750    97.5380    40.8450     0.0900     0.2710     0.1810     2.3760 
   49.5000    97.1820    39.2110     0.0900     0.2690     0.1800     2.3780 
   49.6250    96.7360    37.7470     0.0900     0.2640     0.1770     2.3810 
   49.7500    96.1990    37.4970     0.0890     0.2620     0.1730     2.3860 
   49.8750    95.7200    37.8440     0.0880     0.2650     0.1710     2.3790 
   50.0000    95.3510    38.0650     0.0880     0.2640     0.1740     2.3710 
   50.1250    95.1250    38.4140     0.0880     0.2600     0.1750     2.3580 
   50.2500    95.0830    39.2270     0.0980     0.2510     0.1720     2.3550 
   50.3750    95.0590    40.5270     0.1010     0.2500     0.1690     2.3500 
   50.5000    95.0600    41.3750     0.1130     0.2590     0.1680     2.3530 
   50.6250    94.9760    42.4620     0.1100     0.2800     0.1690     2.3430 
   50.7500    94.5880    44.7490     0.1020     0.2970     0.1750     2.3230 
   50.8750    93.7490    47.8080     0.0970     0.3040     0.1790     2.2860 
   51.0000    92.9470    49.5900     0.1020     0.3000     0.1830     2.2590 
   51.1250    92.3940    50.3870     0.1160     0.2820     0.1850     2.2600 
   51.2500    91.9840    51.5610     0.1410     0.2640     0.1840     2.2870 
   51.3750    91.6100    53.5760     0.1580     0.2490     0.1820     2.3340 
   51.5000    91.2080    53.7830     0.1700     0.2400     0.1830     2.3760 
   51.6250    90.9030    51.0040     0.1750     0.2370     0.1860     2.4050 
   51.7500    90.6550    46.5420     0.1760     0.2360     0.1860     2.4110 
   51.8750    90.4310    42.9070     0.1760     0.2370     0.1820     2.4030 
   52.0000    90.2080    40.7130     0.1760     0.2380     0.1810     2.3950 
   52.1250    89.9840    39.4560     0.1760     0.2380     0.1850     2.3940 
   52.2500    89.6690    39.1580     0.1760     0.2380     0.1880     2.4020 
   52.3750    89.3470    40.1510     0.1760     0.2370     0.1900     2.4170 
   52.5000    89.1060    41.9100     0.1760     0.2370     0.1920     2.4370 
   52.6250    89.0280    42.3720     0.1760     0.2370     0.2010     2.4510 
   52.7500    89.0550    42.0980     0.1760     0.2410     0.2120     2.4570 
