~V
VERS. 2.00: Ver 2.00
~W
STRT.M 54.0000:
STOP.M 205.0000:
STEP.M 0.1250:
NULL. -999.2500:
UWI. F10812:
~C
DEPT.M :
SP.MV :
GR.API :
RI. :
RML.OHMM :
RXO.OHMM :
DEN.GM/CC :
~A
# ...
  105.5000   -10.8850    80.0550     5.1390     5.4050    21.2400     2.3570 
  105.6250   -10.0620    87.4340     4.2350     4.4150     5.7350     2.3420 
  105.7500    -9.6790    94.4190     3.6930     3.8980     3.6110     2.3100 
  105.8750    -9.7150    98.3300     3.6040     3.8400     3.9950     2.2900 
  106.0000   -10.0590    99.4050     3.7590     4.0260     3.7470     2.2750 
  106.1250   -10.6340    98.0660     3.9810     4.2550     3.4690     2.2510 
  106.2500   -11.3630    95.2240     4.1430     4.4180     3.7720     2.2190 
  106.3750   -12.2220    90.9410     4.2500     4.5400     4.2530     2.1960 
  106.5000   -13.1450    88.8320     4.3950     4.6950     4.4710     2.1810 
  106.6250   -14.0900    88.7220     4.5400     4.8400     4.4770     2.1750 
  106.7500   -14.9950    90.2650     4.6060     4.9090     4.9400     2.1650 
  106.8750   -15.7770    90.4070     4.6330     4.9470     6.0010     2.1530 
  107.0000   -16.4160    89.0310     4.7680     5.0910     6.2240     2.1450 
  107.1250   -16.9470    87.6810     5.0820     5.4800     5.3080     2.1600 
  107.2500   -17.4790    86.0710     5.6750     6.2820     6.1880     2.2100 
  107.3750   -18.1450    88.1430     6.8080     7.7990    10.9360     2.2980 
  107.5000   -18.9980    90.9090     8.5860     9.9890    14.2430     2.3860 
  107.6250   -20.0290    92.6660    10.6000    12.3180    14.1240     2.4360 
  107.7500   -21.1540    87.2210    12.0800    13.9450    17.5670     2.4420 
  107.8750   -22.2750    77.1350    12.4200    14.1170    22.0280     2.4110 
  108.0000   -23.3470    67.2640    11.3930    12.8860    20.3390     2.3400 
  108.1250   -24.3680    63.9140     9.7940    10.9460    14.7970     2.2330 
  108.2500   -25.3470    65.2790     8.0870     9.0090    10.2060     2.1350 
  108.3750   -26.2840    67.4110     6.7750     7.6100     8.4900     2.0850 
  108.5000   -27.1500    69.7750     6.0390     6.8740     8.6840     2.0700 
  108.6250   -27.8810    71.4990     5.7860     6.6520     8.7120     2.0700 
  108.7500   -28.4390    73.1420     5.7940     6.6950     8.3050     2.0730 
  108.8750   -28.7950    73.0570     5.9290     6.8410     8.1710     2.0810 
  109.0000   -28.9860    71.0440     6.0870     6.9990     8.5710     2.0860 
  109.1250   -29.0480    69.8550     6.2780     7.1710     9.3450     2.0830 
  109.2500   -29.0290    68.8590     6.4740     7.3330     9.8610     2.0750 
  109.3750   -28.9270    69.5110     6.6220     7.4370     9.6180     2.0670 
  109.5000   -28.7110    70.2220     6.6950     7.4810     9.0760     2.0630 
  109.6250   -28.2970    70.6660     6.6960     7.4460     8.8240     2.0620 
  109.7500   -27.6360    69.8670     6.5550     7.2890     8.5810     2.0630 
  109.8750   -26.6960    68.9610     6.2260     6.9770     8.1930     2.0650 
  110.0000   -25.5590    70.0360     5.7930     6.5390     8.0080     2.0700 
  110.1250   -24.3460    73.1260     5.3140     6.0490     7.7970     2.0790 
  110.2500   -23.2290    77.2900     4.8940     5.6110     7.2730     2.0910 
  110.3750   -22.4070    80.8720     4.6300     5.3170     6.7910     2.1020 
  110.5000   -21.9820    83.4290     4.5010     5.2090     6.4800     2.1110 
  110.6250   -22.0270    83.1280     4.6200     5.3780     6.2260     2.1150 
  110.7500   -22.4570    80.7300     4.9870     5.8440     6.2650     2.1140 
  110.8750   -23.1260    77.2490     5.6460     6.6420     7.4040     2.1060 
  111.0000   -23.8060    74.7560     6.5680     7.6710     9.7940     2.0930 
  111.1250   -24.2810    73.8310     7.5230     8.6870    12.0030     2.0770 
  111.2500   -24.4170    73.1480     8.3000     9.4500    12.4090     2.0670 
  111.3750   -24.1130    72.5570     8.6740     9.7520    11.7520     2.0640 
  111.5000   -23.3870    71.5520     8.6620     9.6530    11.7430     2.0730 
  111.6250   -22.2310    71.3560     8.4520     9.3680    12.0260     2.0870 
  111.7500   -20.7330    70.4800     8.2980     9.1550    11.8750     2.1030 
  111.8750   -18.9570    69.7330     8.3480     9.2010    11.5640     2.1240 
  112.0000   -17.0360    67.0530     8.6750     9.6100    11.7510     2.1650 
  112.1250   -15.0970    64.3970     9.2970    10.3070    13.5060     2.2470 
  112.2500   -13.2890    60.5850     9.8540    10.8760    14.9400     2.3500 
  112.3750   -11.7540    58.1810     9.8650    10.7960    15.6850     2.4350 
  112.5000   -10.5530    57.4030     9.1650     9.9110    16.6760     2.4740 
  112.6250    -9.7530    59.4840     7.8740     8.4260    13.4890     2.4620 
  112.7500    -9.2980    62.7470     6.4910     6.8970     8.2290     2.4070 
  112.8750    -9.1510    67.4820     5.4860     5.7880     6.4270     2.3290 
  113.0000    -9.2000    71.1570     4.9090     5.1830     5.8540     2.2550 
  113.1250    -9.3600    73.7760     4.7460     5.0030     6.2600     2.2070 
  113.2500    -9.5350    73.9330     4.7650     4.9950     6.5360     2.1840 
  113.3750    -9.6300    73.0450     4.8000     5.0140     6.3960     2.1780 
  113.5000    -9.6050    71.4960     4.8040     5.0360     6.4720     2.1830 
  113.6250    -9.4480    71.4880     4.8930     5.1700     6.1710     2.1940 
  113.7500    -9.1920    72.6710     5.3610     5.7030     5.6320     2.2130 
  113.8750    -8.8940    72.0330     6.3960     6.9030     6.4630     2.2500 
  114.0000    -8.6300    67.3650     7.9970     8.5740    10.7360     2.3160 
  114.1250    -8.4570    60.1290     9.2580     9.8790    18.2510     2.3910 
  114.2500    -8.4010    56.1130     9.6760    10.2140    21.9850     2.4380 
  114.3750    -8.4580    56.7940     8.9490     9.3740    16.9790     2.4220 
  114.5000    -8.5490    61.1520     7.7020     8.0840     9.7010     2.3620 
  114.6250    -8.5710    64.5910     7.0410     7.4840     6.4730     2.3040 
  114.7500    -8.4480    65.1920     7.4780     8.2360     7.6880     2.2900 
  114.8750    -8.1520    60.1910     9.7700    11.0540    15.1940     2.3340 
  115.0000    -7.7570    53.7360    13.9110    15.5360    25.4110     2.4060 
  115.1250    -7.3730    47.6960    18.5000    20.2800    29.6280     2.4710 
  115.2500    -7.0880    44.2740    22.1120    24.0040    29.0540     2.5140 
  115.3750    -6.9530    42.9800    23.6210    25.6450    29.4060     2.5350 
  115.5000    -6.9460    43.4950    23.6800    25.6900    29.1690     2.5420 
  115.6250    -7.0240    43.8050    23.1820    25.1700    28.4940     2.5370 
  115.7500    -7.1370    44.3270    22.8680    24.7330    33.5220     2.5310 
  115.8750    -7.2530    44.0900    22.4320    24.1900    37.2630     2.5280 
  116.0000    -7.3550    44.3400    21.6860    23.3770    31.8270     2.5270 
  116.1250    -7.4430    43.6760    20.8470    22.4650    26.2760     2.5220 
  116.2500    -7.5190    44.3210    20.0890    21.7450    24.1830     2.5130 
  116.3750    -7.5830    45.5320    19.8350    21.5730    21.9330     2.5010 
  116.5000    -7.6270    46.6490    20.0450    21.8660    19.9440     2.4970 
  116.6250    -7.6430    46.3040    20.4040    22.2480    22.8340     2.5050 
  116.7500    -7.6300    45.2910    20.5490    22.3060    28.4080     2.5190 
  116.8750    -7.5850    43.3660    20.2070    21.8090    27.5210     2.5290 
  117.0000    -7.5170    42.4730    19.5670    21.0340    23.4510     2.5370 
  117.1250    -7.4250    41.5920    19.0900    20.4660    20.8980     2.5410 
  117.2500    -7.3250    42.3120    18.9780    20.3700    18.6730     2.5340 
  117.3750    -7.2400    41.9380    19.3400    20.8050    19.8710     2.5170 
  117.5000    -7.1850    42.3810    19.9570    21.4470    24.6260     2.5020 
  117.6250    -7.1760    42.8800    20.2820    21.7330    26.6970     2.4940 
  117.7500    -7.1970    44.2540    20.0300    21.4120    23.5410     2.4900 
  117.8750    -7.2200    44.8930    19.3180    20.5390    19.6770     2.4880 
  118.0000    -7.2320    44.9610    18.2730    19.3940    17.9700     2.4930 
  118.1250    -7.2220    44.2270    17.3880    18.4450    18.4570     2.4990 
  118.2500    -7.1940    43.5860    16.9070    17.9190    19.6450     2.4960 
