~V
VERS. 2.00: Ver 2.00
~W
STRT.M 62.0000:
STOP.M 256.0000:
STEP.M 0.1250:
NULL. -999.2500:
UWI. F10886:
~C
DEPT.M :
TVD. :
DX. :
DY. :
SP.MV :
GR.API :
RI. :
RML.OHMM :
RXO.OHMM :
DEN.GM/CC :
~A
# ...
  198.8750   198.8640    -0.9930    -1.4130   -11.9460    62.6510    30.8390    33.3690    39.8680     2.2280 
  199.0000   198.9890    -0.9940    -1.4140   -12.0630    60.8810    30.8470    33.0240    34.4950     2.2550 
  199.1250   199.1140    -0.9960    -1.4150   -12.1670    61.0870    29.9850    32.1190    31.8700     2.3040 
  199.2500   199.2390    -0.9970    -1.4160   -12.2570    62.9300    28.1950    30.4160    35.8100     2.3750 
  199.3750   199.3640    -0.9980    -1.4170   -12.3270    64.3960    24.7200    26.7660    42.7040     2.4560 
  199.5000   199.4890    -0.9990    -1.4180   -12.3620    63.1990    19.5660    21.1230    43.3770     2.5280 
  199.6250   199.6140    -1.0010    -1.4190   -12.3400    61.9240    13.7090    14.6260    34.9940     2.5630 
  199.7500   199.7390    -1.0020    -1.4200   -12.2440    62.3320     8.5070     8.8930    22.8640     2.5330 
  199.8750   199.8640    -1.0030    -1.4210   -12.0480    65.3790     5.0430     5.1840    11.9190     2.4340 
  200.0000   199.9890    -1.0040    -1.4230   -11.7540    66.3790     3.2090     3.2850     5.3410     2.3130 
  200.1250   200.1140    -1.0060    -1.4240   -11.3730    66.1000     2.3810     2.4580     3.0250     2.2250 
  200.2500   200.2390    -1.0070    -1.4250   -10.9570    64.2650     2.0090     2.1170     2.2130     2.1810 
  200.3750   200.3640    -1.0080    -1.4260   -10.5690    64.1920     1.9870     2.1540     2.0790     2.1700 
  200.5000   200.4890    -1.0100    -1.4270   -10.2580    65.6750     2.2190     2.4590     2.4170     2.1850 
  200.6250   200.6140    -1.0110    -1.4280   -10.0580    69.4970     2.6510     2.9720     3.1950     2.2290 
  200.7500   200.7390    -1.0120    -1.4290    -9.9620    74.5390     3.1930     3.5870     4.3290     2.2870 
  200.8750   200.8640    -1.0130    -1.4300    -9.9730    78.2860     3.7360     4.1650     5.1420     2.3350 
  201.0000   200.9890    -1.0150    -1.4310   -10.0640    80.0520     4.1610     4.5770     5.2940     2.3640 
  201.1250   201.1140    -1.0160    -1.4330   -10.2090    78.6140     4.3860     4.7450     5.1850     2.3760 
  201.2500   201.2390    -1.0170    -1.4340   -10.3680    79.1430     4.4380     4.7300     5.1080     2.3800 
  201.3750   201.3630    -1.0190    -1.4350   -10.5150    79.2210     4.3820     4.6340     5.1290     2.3800 
  201.5000   201.4880    -1.0200    -1.4360   -10.6380    81.2450     4.3040     4.5590     5.2450     2.3780 
  201.6250   201.6130    -1.0210    -1.4370   -10.7380    83.1310     4.2340     4.5360     5.3480     2.3770 
  201.7500   201.7380    -1.0230    -1.4380   -10.8230    87.0570     4.1700     4.5440     5.2700     2.3750 
  201.8750   201.8630    -1.0240    -1.4390   -10.8990    90.0590     4.1230     4.5800     5.0340     2.3690 
  202.0000   201.9880    -1.0250    -1.4400   -10.9710    92.0460     4.1150     4.6580     4.8680     2.3600 
  202.1250   202.1130    -1.0260    -1.4410   -11.0470    95.0170     4.1700     4.8060     4.9260     2.3520 
  202.2500   202.2380    -1.0280    -1.4420   -11.1320   100.2650     4.2890     5.0180     5.1680     2.3450 
  202.3750   202.3630    -1.0290    -1.4430   -11.2340   107.8120     4.4550     5.2620     5.4690     2.3390 
  202.5000   202.4880    -1.0300    -1.4450   -11.3470   114.3550     4.6180     5.4730     5.6710     2.3330 
  202.6250   202.6130    -1.0320    -1.4460   -11.4560   118.9820     4.7360     5.5950     5.7070     2.3260 
  202.7500   202.7380    -1.0330    -1.4470   -11.5410   120.0590     4.7980     5.6300     5.6650     2.3190 
  202.8750   202.8630    -1.0340    -1.4480   -11.5940   119.1380     4.8240     5.6180     5.6180     2.3090 
  203.0000   202.9880    -1.0360    -1.4490   -11.6270   117.0210     4.8590     5.6230     5.5910     2.2960 
  203.1250   203.1130    -1.0370    -1.4500   -11.6630   114.8400     4.9440     5.7030     5.6140     2.2840 
  203.2500   203.2380    -1.0380    -1.4510   -11.7220   113.2890     5.1030     5.8850     5.7420     2.2810 
  203.3750   203.3630    -1.0400    -1.4520   -11.8170   111.7250     5.3400     6.1690     6.0050     2.2910 
  203.5000   203.4880    -1.0410    -1.4530   -11.9350   111.3530     5.6110     6.4930     6.2160     2.3070 
  203.6250   203.6130    -1.0420    -1.4540   -12.0630   109.8850     5.8580     6.7850     6.2250     2.3230 
  203.7500   203.7380    -1.0440    -1.4550   -12.1850   107.9730     6.0210     6.9700     6.1510     2.3290 
  203.8750   203.8630    -1.0450    -1.4570   -12.3020   102.7910     6.0550     6.9910     6.0410     2.3230 
  204.0000   203.9880    -1.0460    -1.4580   -12.4180    98.1100     5.9920     6.8890     5.9160     2.3140 
  204.1250   204.1130    -1.0470    -1.4590   -12.5370    95.8890     5.9080     6.7650     5.8670     2.3110 
  204.2500   204.2380    -1.0490    -1.4600   -12.6480    98.2760     5.9170     6.7680     5.9130     2.3140 
  204.3750   204.3630    -1.0500    -1.4610   -12.7320    98.7630     6.1710     7.0970     6.1370     2.3190 
  204.5000   204.4880    -1.0510    -1.4620   -12.7770    97.5530     6.8060     7.9150     6.8610     2.3220 
  204.6250   204.6130    -1.0530    -1.4630   -12.7790    92.9280     8.0800     9.5270     8.6860     2.3190 
  204.7500   204.7380    -1.0540    -1.4640   -12.7610    91.8550    10.1110    12.0360    11.8320     2.3110 
  204.8750   204.8630    -1.0550    -1.4650   -12.7440    88.5460    12.8160    15.2560    15.9010     2.2970 
  205.0000   204.9880    -1.0570    -1.4660   -12.7520    85.9220    15.6790    18.5010    19.8230     2.2810 
  205.1250   205.1130    -1.0580    -1.4670   -12.7950    81.8280    18.1530    21.1170    23.4550     2.2690 
  205.2500   205.2380    -1.0590    -1.4680   -12.8670    78.7990    20.1130    23.0530    25.0010     2.2620 
  205.3750   205.3630    -1.0610    -1.4690   -12.9660    75.5990    21.8820    24.8140    26.0690     2.2580 
  205.5000   205.4880    -1.0620    -1.4700   -13.0860    72.7790    24.0850    27.2650    29.5520     2.2540 
  205.6250   205.6130    -1.0640    -1.4710   -13.2400    70.5710    27.4740    31.4090    38.1190     2.2460 
  205.7500   205.7380    -1.0650    -1.4720   -13.4300    68.1530    32.2440    37.3640    48.2560     2.2340 
  205.8750   205.8630    -1.0660    -1.4730   -13.6430    66.3950    37.8980    44.1380    55.3850     2.2180 
  206.0000   205.9880    -1.0680    -1.4740   -13.8420    65.1600    42.6740    49.3020    60.9370     2.2030 
  206.1250   206.1130    -1.0690    -1.4750   -13.9880    64.0740    44.1510    50.2540    63.0020     2.1910 
  206.2500   206.2380    -1.0700    -1.4760   -14.0720    63.4260    41.8640    47.0960    57.7430     2.1860 
  206.3750   206.3630    -1.0720    -1.4770   -14.1010    64.8730    37.5770    41.7120    49.9270     2.1970 
  206.5000   206.4880    -1.0730    -1.4780   -14.1050    66.5240    33.8780    37.0210    40.6400     2.2320 
  206.6250   206.6130    -1.0740    -1.4790   -14.1020    66.4610    32.2500    34.8990    35.5010     2.2970 
  206.7500   206.7380    -1.0760    -1.4800   -14.1060    64.3270    32.9890    35.7110    39.7700     2.3770 
  206.8750   206.8630    -1.0770    -1.4810   -14.1250    64.0710    36.1660    39.8060    50.6490     2.4470 
  207.0000   206.9880    -1.0780    -1.4820   -14.1590    65.7060    40.9590    45.5580    61.1950     2.4930 
  207.1250   207.1130    -1.0800    -1.4830   -14.2130    65.3600    45.9760    50.6500    69.1760     2.5140 
  207.2500   207.2380    -1.0810    -1.4840   -14.2830    63.5070    49.5640    53.6910    74.2360     2.5170 
  207.3750   207.3630    -1.0820    -1.4850   -14.3680    60.4070    50.5700    54.0710    74.5400     2.4940 
  207.5000   207.4880    -1.0840    -1.4860   -14.4620    61.3730    49.2630    52.5440    68.9770     2.4390 
  207.6250   207.6130    -1.0850    -1.4870   -14.5610    63.6150    46.3990    49.3870    59.0360     2.3600 
  207.7500   207.7380    -1.0860    -1.4880   -14.6680    67.3300    42.8300    45.2540    53.0560     2.2860 
  207.8750   207.8630    -1.0880    -1.4890   -14.7870    70.2700    39.0750    41.0640    51.0400     2.2430 
