~V
VERS. 2.00: Ver 2.00
~W
STRT.M 40.0000:
STOP.M 216.0000:
STEP.M 0.1250:
NULL. -999.2500:
UWI. F10813:
~C
DEPT.M :
SP.MV :
GR.API :
RI. :
RML.OHMM :
RXO.OHMM :
DEN.GM/CC :
~A
   40.0000   126.1380    38.4800     0.0520     0.2600     0.0100     2.2660 
   40.1250   126.4130    37.6300     0.0500     0.3030     0.0070     2.2520 
   40.2500   126.5590    37.4970     0.0410     0.3540    -0.0110     2.2390 
   40.3750   126.3910    37.1560     0.0340     0.3770    -0.0210     2.2440 
   40.5000   125.8490    37.0340     0.0340     0.3690    -0.0040     2.2650 
   40.6250   124.8860    37.5740     0.0340     0.3250     0.0100     2.2790 
   40.7500   123.8730    39.5400     0.0340     0.2830     0.0100     2.2810 
   40.8750   124.1640    40.3630     0.0410     0.2540     0.0110     2.2780 
   41.0000   125.1290    40.6840     0.0410     0.2480     0.0110     2.2800 
   41.1250   126.3110    39.3140     0.0420     0.2590     0.0120     2.2840 
   41.2500   127.1340    39.1100     0.0420     0.2660     0.0120     2.2850 
   41.3750   127.4520    40.2160     0.0470     0.2630     0.0110     2.2840 
   41.5000   127.3520    42.2880     0.0570     0.2550     0.0110     2.2850 
   41.6250   126.6240    43.6560     0.0660     0.2540     0.0110     2.2880 
   41.7500   126.4310    43.8310     0.0680     0.2560     0.0110     2.2860 
   41.8750   126.8030    42.9720     0.0680     0.2510     0.0120     2.2750 
   42.0000   126.9780    41.8980     0.0680     0.2410     0.0120     2.2600 
   42.1250   126.9110    40.8720     0.0690     0.2370     0.0120     2.2410 
   42.2500   126.6260    39.9410     0.0690     0.2370     0.0120     2.2240 
   42.3750   126.2370    38.3680     0.0690     0.2370     0.0120     2.2170 
   42.5000   125.8850    37.1890     0.0700     0.2270     0.0140     2.2210 
   42.6250   125.5380    37.3230     0.0700     0.2180     0.0150     2.2340 
   42.7500   125.3030    38.7340     0.0700     0.2240     0.0150     2.2380 
   42.8750   125.0920    41.1080     0.0700     0.2280     0.0130     2.2430 
   43.0000   124.7380    42.8650     0.0700     0.2280     0.0120     2.2480 
   43.1250   124.4400    44.0760     0.0700     0.2300     0.0120     2.2590 
   43.2500   124.2740    44.0870     0.0710     0.2250     0.0120     2.2610 
   43.3750   124.1720    43.4610     0.0710     0.2270     0.0120     2.2560 
   43.5000   124.0180    43.4500     0.0670     0.2280     0.0110     2.2440 
   43.6250   123.9100    45.0900     0.0570     0.2280     0.0110     2.2340 
   43.7500   123.8420    48.4160     0.0470     0.2270     0.0110     2.2280 
   43.8750   123.7700    51.0600     0.0390     0.2200     0.0130     2.2290 
   44.0000   123.6160    51.3690     0.0470     0.2180     0.0140     2.2350 
   44.1250   123.5360    49.6720     0.0480     0.2180     0.0140     2.2390 
   44.2500   123.4410    46.8850     0.0520     0.2260     0.0130     2.2410 
   44.3750   123.3250    44.5540     0.0460     0.2370     0.0120     2.2390 
   44.5000   123.4050    42.7700     0.0480     0.2430     0.0130     2.2430 
   44.6250   123.6910    43.0910     0.0480     0.2370     0.0120     2.2550 
   44.7500   124.2130    44.2990     0.0440     0.2280     0.0420     2.2720 
   44.8750   124.8630    45.4730     0.0420     0.2220     0.0820     2.2700 
   45.0000   125.5060    44.6880     0.0360     0.2270     0.0610     2.2450 
   45.1250   125.9330    42.2220     0.0450     0.2400     0.0260     2.2420 
   45.2500   126.1040    39.8590     0.0450     0.2490     0.0310     2.3190 
   45.3750   125.8910    38.6410     0.0560     0.2560     0.0380     2.4530 
   45.5000   125.4170    38.9830     0.0620     0.2580     0.0260     2.5070 
   45.6250   124.9480    40.2830     0.0680     0.2610     0.0170     2.4390 
   45.7500   124.6550    41.8670     0.0730     0.2650     0.0170     2.3200 
   45.8750   124.5760    42.7720     0.0710     0.2630     0.0160     2.2580 
   46.0000   124.5610    42.5460     0.0610     0.2550     0.0160     2.2430 
   46.1250   124.6000    41.7550     0.0510     0.2470     0.0160     2.2570 
   46.2500   124.5960    40.6050     0.0410     0.2400     0.0150     2.2690 
   46.3750   124.4360    39.6250     0.0370     0.2370     0.0150     2.2780 
   46.5000   124.1530    38.5480     0.0370     0.2370     0.0150     2.2720 
   46.6250   124.0300    39.0490     0.0370     0.2380     0.0140     2.2600 
   46.7500   123.9140    40.3970     0.0370     0.2420     0.0120     2.2500 
   46.8750   123.8230    41.8840     0.0380     0.2490     0.0120     2.2470 
   47.0000   123.7560    41.9860     0.0380     0.2560     0.0110     2.2530 
   47.1250   123.7600    40.5650     0.0380     0.2620     0.0090     2.2570 
   47.2500   123.8350    38.7980     0.0420     0.2660     0.0120     2.2530 
   47.3750   123.8340    37.2580     0.0460     0.2670     0.0230     2.2440 
   47.5000   123.6360    36.9710     0.0460     0.2690     0.0260     2.2410 
   47.6250   122.9890    37.2220     0.0460     0.2690     0.0160     2.2440 
   47.7500   122.3450    37.7220     0.0380     0.2680     0.0100     2.2410 
   47.8750   121.8240    37.8940     0.0380     0.2680     0.0130     2.2300 
   48.0000   121.3490    37.7350     0.0420     0.2700     0.0150     2.2190 
   48.1250   120.9600    37.4180     0.0530     0.2740     0.0130     2.2140 
   48.2500   120.7740    37.1170     0.0550     0.2810     0.0110     2.2110 
   48.3750   120.7410    36.1230     0.0550     0.2910     0.0100     2.2040 
   48.5000   120.7140    35.0680     0.0470     0.3010     0.0110     2.1850 
   48.6250   120.7030    34.5450     0.0380     0.3080     0.0120     2.1490 
   48.7500   120.6440    35.6850     0.0380     0.3130     0.0160     2.1050 
   48.8750   120.5920    38.0340     0.0380     0.3400     0.0190     2.0640 
   49.0000   120.3870    39.6030     0.0380     0.4160     0.0160     2.0330 
   49.1250   120.1100    39.8680     0.0440     0.4720     0.0120     2.0160 
   49.2500   119.8090    39.9360     0.0540     0.4590     0.0120     2.0140 
   49.3750   119.4430    40.7320     0.0710     0.3820     0.0120     2.0310 
   49.5000   119.0810    40.7720     0.0810     0.2670     0.0120     2.0640 
   49.6250   118.8190    39.2880     0.0790     0.1940     0.0120     2.1220 
   49.7500   118.6140    36.6170     0.0780     0.1660     0.0110     2.1920 
   49.8750   118.3840    35.4030     0.0820     0.1490     0.0110     2.2560 
   50.0000   118.0960    35.6970     0.0900     0.1400     0.0120     2.2930 
   50.1250   117.6090    36.6380     0.0990     0.1390     0.0150     2.3110 
   50.2500   117.0870    36.7050     0.1000     0.1360     0.0170     2.3140 
   50.3750   116.5760    35.8280     0.0940     0.1340     0.0170     2.3110 
   50.5000   116.1730    36.4580     0.0850     0.1350     0.0190     2.3030 
   50.6250   115.9970    38.5530     0.0760     0.1370     0.0210     2.3050 
   50.7500   116.0650    40.6970     0.0700     0.1390     0.0220     2.3110 
   50.8750   116.4310    40.1440     0.0700     0.1380     0.0230     2.3110 
   51.0000   117.0940    38.7600     0.0740     0.1350     0.0280     2.3050 
   51.1250   117.7930    37.9180     0.0810     0.1330     0.0350     2.3040 
   51.2500   118.4620    38.8380     0.0890     0.1330     0.0440     2.3090 
   51.3750   119.1410    39.0470     0.0980     0.1340     0.0490     2.3170 
   51.5000   119.7140    38.8870     0.1000     0.1360     0.0500     2.3160 
   51.6250   120.3370    38.8090     0.1000     0.1370     0.0500     2.3090 
   51.7500   120.9930    39.1610     0.1000     0.1380     0.0460     2.3030 
   51.8750   121.4550    39.5840     0.1000     0.1380     0.0390     2.3030 
   52.0000   121.7710    40.0550     0.1000     0.1370     0.0330     2.3040 
   52.1250   122.0670    41.0930     0.1000     0.1350     0.0250     2.3040 
   52.2500   122.1960    41.0680     0.1000     0.1330     0.0190     2.3000 
   52.3750   122.0310    40.0530     0.1000     0.1320     0.0170     2.3020 
   52.5000   121.6310    38.6330     0.1000     0.1330     0.0160     2.3000 
   52.6250   121.1570    39.2410     0.1050     0.1340     0.0150     2.3050 
   52.7500   120.6590    40.8300     0.1070     0.1340     0.0160     2.3110 
