~V
VERS. 2.00: Ver 2.00
~W
STRT.M 50.0000:
STOP.M 213.0000:
STEP.M 0.1250:
NULL. -999.2500:
UWI. F10803:
~C
DEPT.M :
SP.MV :
GR.API :
RI. :
RML.OHMM :
RXO.OHMM :
DEN.GM/CC :
~A
# ...
  191.6250    -0.1380    67.4360     5.1430     6.5530     5.3840     2.2780 
  191.7500    -0.2120    65.8760     5.2870     6.6810     5.4220     2.2860 
  191.8750    -0.1480    66.7220     5.4990     6.8840     6.0480     2.2980 
  192.0000    -0.0770    69.8170     5.7450     7.1510     6.6120     2.3180 
  192.1250    -0.0290    74.7340     6.0030     7.4510     6.9570     2.3380 
  192.2500     0.0420    78.2590     6.2530     7.7440     8.3360     2.3420 
  192.3750     0.0860    79.5100     6.5120     8.0350     9.7240     2.3260 
  192.5000     0.2120    78.9280     6.8400     8.3780     9.7210     2.3080 
  192.6250     0.3510    78.1780     7.2400     8.8250    10.2230     2.3040 
  192.7500     0.4960    79.7600     7.7000     9.3540    17.2520     2.3060 
  192.8750     0.6610    82.8910     8.1360     9.8770    25.0440     2.3120 
  193.0000     0.8050    86.1320     8.4410    10.2840    22.0450     2.3230 
  193.1250     0.8460    87.6560     8.5720    10.4970    16.1890     2.3370 
  193.2500     1.0020    88.3300     8.5480    10.5380    12.6130     2.3420 
  193.3750     1.1200    87.7250     8.4450    10.4730     9.3650     2.3310 
  193.5000     1.2120    86.7310     8.3480    10.3750     9.5950     2.3190 
  193.6250     1.1610    86.3390     8.1890    10.2030    11.4570     2.3170 
  193.7500     1.4020    87.2470     7.8920     9.8860    11.5030     2.3260 
  193.8750     1.7900    87.0600     7.5210     9.4270    10.1370     2.3260 
  194.0000     2.2940    85.6770     7.1800     8.9600     9.7010     2.3200 
  194.1250     2.8730    83.8980     7.1080     8.7200    10.5850     2.3040 
  194.2500     3.0360    84.5770     7.4000     8.8880    10.1130     2.2870 
  194.3750     3.4430    86.8590     8.1200     9.5590     9.4680     2.2890 
  194.5000     4.1040    89.0650     9.0400    10.5370    13.8850     2.3130 
  194.6250     4.7280    89.5390     9.7910    11.4530    22.3630     2.3420 
  194.7500     4.8540    89.5150    10.0540    11.9130    23.4440     2.3390 
  194.8750     5.1570    89.6760     9.6640    11.6630    15.4000     2.3200 
  195.0000     5.6170    89.3780     8.8940    10.8890    10.5130     2.3050 
  195.1250     5.8400    87.8800     8.1030     9.9470     9.7660     2.3060 
  195.2500     5.9420    84.9270     7.5760     9.2080     8.5910     2.3180 
  195.3750     5.9880    82.3410     7.3950     8.8840     8.1870     2.3270 
  195.5000     5.9560    79.4740     7.4730     8.9150     9.0310     2.3400 
  195.6250     6.0180    77.5040     7.6700     9.1470    10.3590     2.3520 
  195.7500     5.9560    75.3360     7.7930     9.3340    11.5440     2.3630 
  195.8750     5.7620    75.0370     7.7210     9.2950    14.0290     2.3620 
  196.0000     5.8740    75.9050     7.5440     9.0540    14.9870     2.3410 
  196.1250     5.7640    77.7990     7.3280     8.7410    10.8850     2.3080 
  196.2500     5.6950    78.8260     7.2570     8.5310     8.2170     2.2840 
  196.3750     5.6340    80.7900     7.3810     8.5460     8.8340     2.2980 
  196.5000     5.5620    83.1920     7.6630     8.7530     8.6590     2.3330 
  196.6250     5.4130    86.2290     7.9670     9.0390     8.4030     2.3610 
  196.7500     5.3010    86.0610     8.1130     9.2190     9.0320     2.3500 
  196.8750     5.1660    83.7820     7.9830     9.1210    12.0990     2.3230 
  197.0000     5.0500    79.8540     7.5210     8.7000    15.9640     2.2990 
  197.1250     5.0520    76.3470     6.8780     8.0210    15.3460     2.2980 
  197.2500     5.0710    72.5540     6.2530     7.2910    11.8390     2.2980 
  197.3750     5.0350    69.3870     5.7530     6.6720     8.7150     2.3000 
  197.5000     4.9110    67.2380     5.4450     6.2390     6.4550     2.2960 
  197.6250     4.8280    67.2220     5.3260     6.0240     5.8890     2.2970 
  197.7500     4.5890    69.2040     5.3420     5.9780     6.2700     2.2910 
  197.8750     4.5320    71.2010     5.4740     6.0760     6.8670     2.2880 
  198.0000     4.7590    72.1480     5.6620     6.2620     7.5540     2.2860 
  198.1250     4.8100    72.6310     5.8720     6.4850     7.6580     2.2830 
  198.2500     4.8100    73.4590     6.0310     6.6770     7.4280     2.2690 
  198.3750     4.8100    74.1350     6.1260     6.7940     7.5410     2.2580 
  198.5000     4.8100    74.1170     6.1490     6.8370     7.4340     2.2600 
  198.6250     4.8100    72.7440     6.1310     6.8220     7.3620     2.2690 
  198.7500     4.8100    71.2670     6.0900     6.7870     7.7380     2.2750 
  198.8750     4.8100    69.2910     6.0500     6.7570     7.2020     2.2800 
  199.0000     4.8100    67.5540     6.0140     6.7420     6.1090     2.2860 
  199.1250     4.8100    65.2560     6.0150     6.7570     8.4000     2.2820 
  199.2500     4.8100    64.2690     6.0450     6.8000    16.8250     2.2710 
  199.3750     4.8100    63.5350     6.0800     6.8530    81.3020     2.2570 
  199.5000     4.8100    63.8230     6.1290     6.9080   155.3190     2.2470 
  199.6250     4.8100    63.8380     6.1930     6.9720   109.4470     2.2430 
  199.7500     4.8100    64.1390     6.2740     7.0500    27.7530     2.2480 
  199.8750     4.8100    63.5490     6.3810     7.1510     7.5970     2.2630 
  200.0000     4.8100    62.6720     6.5020     7.2760     7.6930     2.2820 
  200.1250     4.8100    61.7530     6.6490     7.4280     7.3510     2.2890 
  200.2500     4.8100    61.3420     6.8000     7.5900     6.9600     2.2880 
  200.3750     4.8100    61.4830     6.9000     7.7270     6.4390     2.2900 
  200.5000     4.8100    62.4240     6.9380     7.8080     6.3340     2.3080 
  200.6250     4.8100    63.2210     6.8970     7.8100     6.8780     2.3160 
  200.7500     4.8100    63.1510     6.8070     7.7460     7.4520     2.2960 
  200.8750     4.8100    61.8630     6.6990     7.6420     7.6660     2.2530 
  201.0000     4.8100    60.7260     6.6620     7.5790     7.5720     2.2220 
  201.1250     4.8100    59.6270     6.8250     7.6830     7.2910     2.2260 
  201.2500     4.8100    59.7240     7.2280     8.0250     9.5710     2.2620 
  201.3750     4.8100    60.1790     7.8050     8.6090    13.3980     2.3030 
  201.5000     4.8100    61.4100     8.5100     9.3510    14.9050     2.3230 
  201.6250     4.8100    61.9430     9.2590    10.1500    14.7360     2.3260 
  201.7500     4.8100    62.1480     9.8330    10.8290    13.5370     2.3350 
  201.8750     4.8100    61.7690    10.1110    11.2100    12.2010     2.3640 
  202.0000     4.8100    62.1940    10.0500    11.2620    10.7510     2.3860 
  202.1250     4.8100    62.5490     9.7880    11.0540     9.1770     2.3930 
  202.2500     4.8100    62.6970     9.5380    10.7840     9.4700     2.3870 
  202.3750     4.8100    62.0060     9.3570    10.5640    10.2560     2.3870 
  202.5000     4.8100    61.1560     9.1920    10.3950    11.9900     2.3920 
  202.6250     4.8100    60.6530     9.0940    10.2840    18.5260     2.4060 
  202.7500     4.8100    60.5840     9.0710    10.2430    20.9840     2.4270 
  202.8750     4.8100    60.4320     9.1270    10.2800    13.7570     2.4340 
  203.0000     4.8100    60.5700     9.2400    10.3800     9.7430     2.4120 
  203.1250     4.8100    61.1220     9.4040    10.5350    12.0720     2.3730 
  203.2500     4.8100    61.8210     9.6430    10.7450    14.0640     2.3500 
  203.3750     4.8100    61.9570     9.8970    10.9940    15.5860     2.3520 
  203.5000     4.8100    61.1280    10.1190    11.2200    16.3320     2.3650 
  203.6250     4.8100    60.4300    10.1790    11.3430    14.4560     2.3750 
  203.7500     4.8100    60.1550    10.1810    11.3680    12.1340     2.3740 
  203.8750     4.8100    60.7790    10.1340    11.3480    11.2790     2.3660 
  204.0000     4.8100    59.9720    10.1080    11.3370    10.7930     2.3510 
  204.1250     4.8100    58.1780    10.1010    11.3570    10.2510     2.3260 
  204.2500     4.8100    56.5260    10.0920    11.3810    10.1370     2.2870 
  204.3750     4.8100    57.7450    10.0880    11.3920    10.6360     2.2620 
