~V
VERS. 2.00: Ver 2.00
~W
STRT.M 1.0000:
STOP.M 205.0000:
STEP.M 0.1250:
NULL. -999.2500:
UWI. F10806:
~C
DEPT.M :
SP.MV :
GR.API :
RI. :
RML.OHMM :
RXO.OHMM :
DEN.GM/CC :
~A
# ...
  116.8750   -10.8770    44.3890    12.6640    13.5360    16.6150     2.5650 
  117.0000   -10.9640    43.8360    12.9540    13.8810    17.0980     2.5660 
  117.1250   -11.0630    43.9280    13.0860    14.0060    17.7790     2.5550 
  117.2500   -11.1760    44.2960    12.8510    13.7820    16.4140     2.5400 
  117.3750   -11.3040    45.1800    12.2730    13.3000    14.5820     2.5250 
  117.5000   -11.4490    45.2620    11.5950    12.6480    13.8280     2.5040 
  117.6250   -11.5790    45.0880    11.0960    12.0240    12.0940     2.4690 
  117.7500   -11.6290    45.3590    10.7600    11.6430    11.8770     2.4240 
  117.8750   -11.5860    46.8040    10.6090    11.4330    23.0680     2.4070 
  118.0000   -11.4740    49.3750    10.4870    11.2540    32.6100     2.4310 
  118.1250   -11.3490    50.8240    10.3020    11.0220    21.6970     2.4650 
  118.2500   -11.2650    50.5370    10.1190    10.8010     9.9790     2.4670 
  118.3750   -11.2400    48.4480     9.9800    10.6340     9.0890     2.4370 
  118.5000   -11.2320    46.9210     9.8420    10.4680    10.8720     2.4150 
  118.6250   -11.1890    46.2390     9.5720    10.1910    12.4420     2.4250 
  118.7500   -11.0720    46.4950     9.1440     9.7040    11.6520     2.4560 
  118.8750   -10.9300    46.2900     8.4970     8.9940     9.5840     2.4750 
  119.0000   -10.8550    44.7620     7.7940     8.2400     8.2240     2.4590 
  119.1250   -10.8620    43.4160     7.2850     7.6970     8.1250     2.4280 
  119.2500   -10.9060    43.1290     7.1160     7.5480     8.9370     2.4040 
  119.3750   -10.9270    44.6520     7.3110     7.7910    10.6100     2.4060 
  119.5000   -10.9090    45.1690     7.7460     8.2740    11.9050     2.4230 
  119.6250   -10.8650    44.9960     8.1840     8.7340    11.3270     2.4430 
  119.7500   -10.8010    44.5320     8.4440     8.9910     9.8470     2.4560 
  119.8750   -10.7130    45.7690     8.5160     9.0360     8.9850     2.4630 
  120.0000   -10.6090    48.6260     8.4210     8.9190    10.1220     2.4660 
  120.1250   -10.5040    51.4630     8.2750     8.7670    12.1740     2.4680 
  120.2500   -10.4160    52.2710     8.2060     8.6900    11.7730     2.4750 
  120.3750   -10.3470    50.2170     8.2610     8.7140    10.1250     2.4830 
  120.5000   -10.3060    47.9090     8.3400     8.7810     9.9640     2.4900 
  120.6250   -10.3130    46.9070     8.4000     8.8280    11.6570     2.4920 
  120.7500   -10.3470    48.2380     8.3530     8.7870    12.8720     2.4880 
  120.8750   -10.3870    49.0270     8.2010     8.6370    11.2770     2.4760 
  121.0000   -10.4120    49.6860     7.9880     8.4100     9.4700     2.4590 
  121.1250   -10.4210    50.3760     7.7500     8.1620     8.9810     2.4490 
  121.2500   -10.4230    50.7060     7.5640     7.9930     9.2310     2.4490 
  121.3750   -10.4380    49.4790     7.5050     7.9870     9.8480     2.4550 
  121.5000   -10.4830    47.0880     7.6750     8.1830     9.8140     2.4560 
  121.6250   -10.5630    45.0350     7.8990     8.4350     9.5260     2.4510 
  121.7500   -10.6740    45.3000     8.0770     8.6460    10.5200     2.4510 
  121.8750   -10.7680    46.0160     8.2470     8.8330    11.6390     2.4530 
  122.0000   -10.8050    47.3300     8.4340     9.0580    10.8820     2.4570 
  122.1250   -10.7900    47.9690     8.7280     9.3870    10.5140     2.4600 
  122.2500   -10.7510    48.5800     9.1450     9.8810    12.0490     2.4680 
  122.3750   -10.7230    47.7040     9.7130    10.5220    13.5550     2.4710 
  122.5000   -10.7370    46.9390    10.3770    11.2410    13.6270     2.4560 
  122.6250   -10.7750    47.1790    11.0360    11.9180    12.8420     2.4320 
  122.7500   -10.7960    48.8150    11.4860    12.3700    13.5220     2.4160 
  122.8750   -10.7900    50.1670    11.6940    12.5990    15.5150     2.4150 
  123.0000   -10.7790    49.9050    11.7760    12.6800    16.2090     2.4190 
  123.1250   -10.7620    49.7100    11.7460    12.6360    15.5800     2.4240 
  123.2500   -10.7190    47.4960    11.5210    12.3900    15.0890     2.4310 
  123.3750   -10.6700    45.8960    11.1240    11.9580    14.9800     2.4400 
  123.5000   -10.6400    45.1690    10.6110    11.4190    13.5560     2.4480 
  123.6250   -10.6350    47.3770    10.1120    10.8830    11.0000     2.4510 
  123.7500   -10.6510    49.0660     9.7290    10.4890    10.0120     2.4510 
  123.8750   -10.7170    49.5810     9.5150    10.2770    10.2320     2.4510 
  124.0000   -10.8280    48.3630     9.4350    10.1960    10.4290     2.4530 
  124.1250   -10.9300    48.6420     9.3600    10.1170    10.9880     2.4510 
  124.2500   -10.9970    50.6130     9.2170     9.9350    11.0140     2.4440 
  124.3750   -11.0300    53.1930     8.9750     9.6770     9.6780     2.4320 
  124.5000   -11.0230    54.7610     8.8220     9.5180     8.4070     2.4180 
  124.6250   -10.9810    54.6140     8.8570     9.5760     9.0710     2.4170 
  124.7500   -10.8990    52.8110     9.1140     9.8820    11.3370     2.4310 
  124.8750   -10.7810    49.2300     9.5060    10.3400    12.8470     2.4470 
  125.0000   -10.6710    46.1270     9.9380    10.8150    12.9020     2.4450 
  125.1250   -10.5930    44.4670    10.2710    11.1540    12.5840     2.4320 
  125.2500   -10.5570    44.4350    10.3920    11.2810    12.3610     2.4260 
  125.3750   -10.5510    44.3180    10.3960    11.2940    12.3070     2.4330 
  125.5000   -10.5440    43.5850    10.4260    11.3290    12.4340     2.4420 
  125.6250   -10.5400    42.9190    10.5070    11.4090    13.0420     2.4480 
  125.7500   -10.5740    42.2620    10.5540    11.4570    13.5540     2.4490 
  125.8750   -10.6410    42.7800    10.5180    11.4210    13.1610     2.4470 
  126.0000   -10.7190    43.8900    10.3950    11.2710    12.7110     2.4440 
  126.1250   -10.7990    44.3940    10.1330    10.9810    12.7680     2.4370 
  126.2500   -10.8590    43.8430     9.7140    10.5220    13.1440     2.4370 
  126.3750   -10.8660    43.6200     9.1960     9.9620    12.6780     2.4350 
  126.5000   -10.7850    44.7590     8.6850     9.4100    10.5400     2.4310 
  126.6250   -10.6360    46.3880     8.3070     8.9820     8.7330     2.4200 
  126.7500   -10.4700    47.5620     8.0940     8.7330     8.6810     2.4210 
  126.8750   -10.3400    49.6490     7.9670     8.5990     9.6430     2.4290 
  127.0000   -10.2900    52.1910     7.9200     8.5360    10.7200     2.4420 
  127.1250   -10.3060    54.6900     7.8600     8.4530    10.5110     2.4480 
  127.2500   -10.3550    55.4120     7.7580     8.3200     9.2840     2.4520 
  127.3750   -10.3970    53.9820     7.6400     8.1970     8.8240     2.4560 
  127.5000   -10.4030    51.8900     7.6260     8.2180     8.8710     2.4630 
  127.6250   -10.3600    49.9020     7.8160     8.4400     9.2830     2.4690 
  127.7500   -10.3140    48.2180     8.0740     8.7260    10.3740     2.4720 
  127.8750   -10.2990    46.2020     8.2190     8.8860    11.5200     2.4700 
  128.0000   -10.3200    45.6270     8.1120     8.7560    11.5590     2.4600 
  128.1250   -10.3820    47.9600     7.7620     8.3670     9.9160     2.4430 
  128.2500   -10.5030    53.9930     7.3570     7.9000     8.3530     2.4210 
  128.3750   -10.6760    61.3440     7.0290     7.5560     7.9050     2.4120 
  128.5000   -10.8860    69.0340     6.9810     7.5140     8.4730     2.4130 
  128.6250   -11.1140    75.0180     7.1810     7.7640     9.6080     2.4170 
  128.7500   -11.3230    79.3360     7.5600     8.1910    10.0140     2.4160 
  128.8750   -11.5020    80.5530     7.9090     8.5730     9.7850     2.4070 
  129.0000   -11.6420    79.5510     8.0740     8.7660     9.2570     2.3990 
  129.1250   -11.7490    77.8480     8.1170     8.7910     8.7400     2.3970 
  129.2500   -11.8270    76.6580     8.0240     8.6920     8.7660     2.4060 
  129.3750   -11.8960    76.3010     7.9610     8.6350     9.3750     2.4110 
  129.5000   -11.9740    75.7770     8.0370     8.7300     9.8220     2.4060 
  129.6250   -12.0740    75.9150     8.2240     8.9650     9.5100     2.3940 
