~V
VERS. 2.00: Ver 2.00
~W
STRT.M 40.0000:
STOP.M 213.0000:
STEP.M 0.1250:
NULL. -999.2500:
UWI. F10805:
~C
DEPT.M :
SP.MV :
GR.API :
RI. :
RML.OHMM :
RXO.OHMM :
DEN.GM/CC :
~A
# ...
   65.7500   -19.0650    77.7230     3.9780     4.6650     4.9100     2.0570 
   65.8750   -18.1270    81.5570     3.6600     4.3650     4.7660     2.0680 
   66.0000   -17.2400    86.5540     3.3410     4.0880     4.2740     2.0990 
   66.1250   -16.4970    90.5290     3.1190     3.8720     3.9060     2.1350 
   66.2500   -16.1100    94.0140     3.0520     3.7790     4.0120     2.1570 
   66.3750   -16.3790    93.8010     3.1410     3.8630     5.2570     2.1580 
   66.5000   -16.9290    90.7600     3.4460     4.1800     6.3450     2.1460 
   66.6250   -17.5060    86.0130     3.9380     4.7380     5.5620     2.1250 
   66.7500   -17.8570    80.7780     4.5780     5.4590     4.9720     2.1080 
   66.8750   -17.9780    74.9930     5.2440     6.2000     5.1870     2.1080 
   67.0000   -18.1340    70.5940     5.7490     6.7440     5.0380     2.1220 
   67.1250   -18.4920    69.2560     5.8890     6.9240     4.9460     2.1280 
   67.2500   -19.0650    70.0050     5.6740     6.7150     5.2720     2.1290 
   67.3750   -19.6170    71.8710     5.2110     6.2290     5.8310     2.1200 
   67.5000   -20.0980    72.9610     4.7400     5.7140     6.2400     2.1080 
   67.6250   -20.6620    72.5110     4.4430     5.4200     6.3540     2.0840 
   67.7500   -21.2870    69.8780     4.3030     5.2990     6.4880     2.0680 
   67.8750   -21.5880    66.6300     4.3100     5.3040     6.9050     2.0590 
   68.0000   -21.8180    64.4550     4.3620     5.3510     7.1950     2.0530 
   68.1250   -22.1530    63.0260     4.3980     5.3550     7.1650     2.0420 
   68.2500   -22.4680    62.2770     4.4130     5.3170     7.0430     2.0300 
   68.3750   -22.6840    61.5970     4.3980     5.2480     6.7020     2.0240 
   68.5000   -22.7960    62.3020     4.3760     5.1500     6.2330     2.0300 
   68.6250   -22.9560    63.6080     4.3900     5.1320     5.9170     2.0460 
   68.7500   -23.1060    64.6220     4.4240     5.2120     5.8800     2.0600 
   68.8750   -23.1990    64.7890     4.4750     5.3430     6.1430     2.0630 
   69.0000   -23.2640    64.3270     4.5220     5.5050     6.3910     2.0560 
   69.1250   -23.3490    64.2150     4.5480     5.6480     6.4080     2.0460 
   69.2500   -23.4330    63.5250     4.5790     5.7650     6.3750     2.0420 
   69.3750   -23.4780    62.9210     4.5870     5.8370     6.2700     2.0420 
   69.5000   -23.4860    62.2410     4.5960     5.8040     6.0210     2.0430 
   69.6250   -23.4280    62.5010     4.5880     5.6480     5.7880     2.0390 
   69.7500   -23.3490    62.8470     4.5760     5.5150     5.5700     2.0410 
   69.8750   -23.1550    63.6520     4.5760     5.4240     5.3280     2.0430 
   70.0000   -22.9100    65.1910     4.5840     5.3720     5.2390     2.0420 
   70.1250   -22.5940    66.6710     4.6040     5.3630     5.3100     2.0350 
   70.2500   -22.2210    67.6790     4.6170     5.3830     5.2410     2.0290 
   70.3750   -21.6180    67.0370     4.5880     5.3770     5.1300     2.0210 
   70.5000   -20.9070    65.5340     4.4700     5.2800     5.1510     2.0120 
   70.6250   -20.1000    63.5420     4.2620     5.0700     4.8740     1.9990 
   70.7500   -19.2820    63.1110     3.9760     4.7630     4.4450     1.9890 
   70.8750   -18.4540    65.7310     3.6770     4.4230     4.3090     1.9960 
   71.0000   -17.6970    70.3430     3.4380     4.1360     4.1150     2.0330 
   71.1250   -17.1510    75.7510     3.3050     3.9810     3.9600     2.0810 
   71.2500   -16.8790    78.9250     3.3160     3.9960     4.2270     2.1130 
   71.3750   -17.0100    79.9410     3.4730     4.2060     4.6700     2.1180 
   71.5000   -17.3790    77.2360     3.7440     4.5970     5.0890     2.1110 
   71.6250   -17.8700    73.3520     4.0450     5.0020     5.3930     2.0990 
   71.7500   -18.3000    68.4600     4.3270     5.3230     5.4850     2.0860 
   71.8750   -18.8290    66.3050     4.5350     5.5390     5.6080     2.0770 
   72.0000   -19.4890    65.4810     4.6620     5.6590     5.7630     2.0770 
   72.1250   -20.1820    65.4680     4.7190     5.6530     5.7380     2.0820 
   72.2500   -20.8280    65.2540     4.7090     5.5380     5.6700     2.0870 
   72.3750   -21.3660    64.5260     4.6440     5.4220     5.6930     2.0830 
   72.5000   -21.8610    64.1050     4.5480     5.2970     5.6990     2.0690 
   72.6250   -22.3030    63.6850     4.4460     5.1800     5.6320     2.0540 
   72.7500   -22.6360    64.9240     4.3640     5.0940     5.6060     2.0470 
   72.8750   -22.7390    68.0390     4.3090     5.0360     5.5890     2.0470 
   73.0000   -22.7430    72.7090     4.2900     5.0080     5.5880     2.0510 
   73.1250   -22.7340    75.5510     4.2940     5.0060     5.6450     2.0580 
   73.2500   -22.7250    76.3700     4.3100     5.0220     5.6940     2.0640 
   73.3750   -22.6600    75.0990     4.3360     5.0500     5.6770     2.0700 
   73.5000   -22.5980    73.7550     4.3580     5.0780     5.5460     2.0730 
   73.6250   -22.5570    71.9190     4.3730     5.0990     5.3320     2.0740 
   73.7500   -22.4680    69.5220     4.3580     5.0890     5.0340     2.0720 
   73.8750   -22.2950    66.8460     4.3180     5.0190     4.8130     2.0700 
   74.0000   -21.9280    64.8600     4.2450     4.8970     4.8720     2.0700 
   74.1250   -21.2530    63.1300     4.1540     4.7780     5.0490     2.0730 
   74.2500   -20.1530    62.3630     4.0830     4.7170     5.1790     2.0760 
   74.3750   -18.7080    62.5280     4.2190     4.9250     5.2170     2.0770 
   74.5000   -17.1680    64.3070     4.7620     5.4670     5.0750     2.0880 
   74.6250   -15.5500    66.2240     5.4950     6.1150    11.6850     2.1370 
   74.7500   -13.7320    67.8180     5.9720     6.4990    36.3670     2.2430 
   74.8750   -11.7550    71.1070     5.8650     6.3570    53.9300     2.3590 
   75.0000    -9.8420    77.5120     5.1290     5.6970    35.3020     2.4180 
   75.1250    -8.3950    87.0270     4.1110     4.6740    10.1610     2.3890 
   75.2500    -7.5650    97.2400     3.2150     3.6630     3.2130     2.3300 
   75.3750    -7.2460   105.3420     2.6140     2.9700     3.1800     2.2880 
   75.5000    -7.2450   110.8930     2.3270     2.6430     3.1170     2.2680 
   75.6250    -7.5890   113.5770     2.3630     2.6360     2.9820     2.2620 
   75.7500    -8.4040   113.7930     2.5660     2.8330     2.8780     2.2640 
   75.8750    -9.6830   108.6000     2.9130     3.2090     3.2460     2.2570 
   76.0000   -11.3590    98.7580     3.4290     3.7390     4.4320     2.2150 
   76.1250   -13.2760    87.1710     4.1110     4.3680     5.6230     2.1390 
   76.2500   -14.9730    77.4400     4.7590     4.9490     6.3920     2.0630 
   76.3750   -16.0380    72.1170     5.1970     5.3330     6.7180     2.0190 
   76.5000   -16.7210    71.2740     5.3740     5.4870     6.3620     2.0070 
   76.6250   -17.2310    73.5180     5.2880     5.4630     5.9620     2.0130 
   76.7500   -17.5510    75.0550     5.1600     5.4150     5.9130     2.0230 
   76.8750   -17.7650    74.2190     5.1030     5.4770     6.0230     2.0350 
   77.0000   -17.8380    71.5110     5.2210     5.6930     6.2290     2.0550 
   77.1250   -17.7510    68.4290     5.4690     5.9940     6.3980     2.0840 
   77.2500   -17.4600    65.3750     5.7610     6.2590     6.3510     2.1180 
   77.3750   -17.0980    64.2210     6.0060     6.4330     6.2700     2.1480 
   77.5000   -16.8010    64.2020     6.1520     6.4920     6.3350     2.1620 
   77.6250   -16.5730    65.0780     6.1200     6.4430     6.7070     2.1520 
   77.7500   -16.5450    65.6710     5.9490     6.3310     8.5890     2.1230 
   77.8750   -16.8890    65.0650     5.7070     6.1530    10.4040     2.0790 
   78.0000   -17.4800    62.7620     5.4320     5.9410     9.2390     2.0410 
   78.1250   -18.1250    59.4830     5.2670     5.7330     6.9770     2.0190 
   78.2500   -18.7640    56.8030     5.1310     5.5470     6.0370     2.0130 
   78.3750   -19.2920    56.5540     5.0210     5.4240     5.9590     2.0120 
   78.5000   -19.6550    57.7550     4.9580     5.3690     5.8340     2.0060 
