~V
VERS. 2.00: Ver 2.00
~W
STRT.M 40.0000:
STOP.M 205.0000:
STEP.M 0.1250:
NULL. -999.2500:
UWI. F10810:
~C
DEPT.M :
SP.MV :
GR.API :
RI. :
RML.OHMM :
RXO.OHMM :
DEN.GM/CC :
~A
# ...
   52.8750   131.9750    38.7680     0.1220     0.1740     0.0200     2.3950 
   53.0000   127.3400    41.1260     0.1060     0.1580     0.0210     2.3770 
   53.1250   121.7490    44.3400     0.0840     0.1360     0.0230     2.3250 
   53.2500   114.9720    46.9560     0.0570     0.0990     0.0240     2.2560 
   53.3750   106.5340    46.1920     0.0390     0.0610     0.0260     2.2080 
   53.5000    96.2860    44.9540     0.0360     0.0430     0.0310     2.1880 
   53.6250    84.0450    46.4510     0.0850     0.0750    -0.5810     2.2090 
   53.7500    70.2920    52.6210     0.2070     0.1870    -2.5870     2.2380 
   53.8750    55.6800    62.4790     0.5310     0.5660    -2.2690     2.2410 
   54.0000    41.2310    75.6600     1.2220     1.5460     2.1200     2.1940 
   54.1250    27.9930    86.0360     2.2830     2.9530     5.0620     2.1430 
   54.2500    16.5740    91.1100     3.2970     4.1110     5.9650     2.1220 
   54.3750     7.4550    88.4440     4.1240     4.7260     7.8460     2.1280 
   54.5000     0.4030    85.2330     4.6660     4.7310     9.3520     2.1350 
   54.6250    -4.7420    82.1020     5.0830     4.6090     9.0960     2.1330 
   54.7500    -8.5070    79.8110     5.4970     4.7250     8.3880     2.1230 
   54.8750   -11.1480    76.1200     5.7840     4.8950     8.5000     2.1090 
   55.0000   -13.0170    74.0260     5.8540     4.9640     9.0610     2.0920 
   55.1250   -14.2700    74.1750     5.7500     4.9060     9.4790     2.0820 
   55.2500   -15.1250    76.9700     5.5300     4.7450     9.4410     2.0860 
   55.3750   -15.7150    81.7930     5.2770     4.5570     8.7170     2.1040 
   55.5000   -16.2010    87.2190     5.0920     4.4530     8.1440     2.1270 
   55.6250   -16.6830    90.3540     5.0970     4.5370     8.0570     2.1420 
   55.7500   -17.2160    88.4710     5.3120     4.8210     8.3530     2.1460 
   55.8750   -17.8120    83.4420     5.6550     5.2390     9.6430     2.1390 
   56.0000   -18.4360    77.5020     6.0150     5.6580    10.7340     2.1260 
   56.1250   -19.0540    74.2060     6.2340     5.9440    10.6110     2.1130 
   56.2500   -19.6480    72.1010     6.3900     6.1920    10.1370     2.1080 
   56.3750   -20.2260    72.6010     6.7080     6.5840     9.6180     2.1090 
   56.5000   -20.8200    73.8040     7.0810     7.1100    10.0930     2.1100 
   56.6250   -21.4720    75.2630     7.4370     7.6810    18.9730     2.1030 
   56.7500   -22.1970    75.2960     7.6320     8.0910    35.9410     2.0820 
   56.8750   -22.9940    75.1730     7.5720     8.1600    38.7410     2.0500 
   57.0000   -23.8230    76.5320     7.2840     7.9230    22.6900     2.0290 
   57.1250   -24.6250    77.5350     6.8930     7.5480    10.2830     2.0300 
   57.2500   -25.3390    77.0010     6.5670     7.2640     7.7650     2.0380 
   57.3750   -25.8990    73.6630     6.4750     7.2450     8.1470     2.0420 
   57.5000   -26.2830    70.9310     6.6210     7.4360     9.0780     2.0510 
   57.6250   -26.4660    71.1770     6.8080     7.6420     9.6710     2.0700 
   57.7500   -26.4810    73.8180     6.8680     7.7330     9.7220     2.0900 
   57.8750   -26.3540    76.4760     6.7980     7.7140     9.3500     2.0990 
   58.0000   -26.1380    77.7850     6.6270     7.6270     8.9330     2.0990 
   58.1250   -25.8650    77.0300     6.4180     7.6470     8.9920     2.0930 
   58.2500   -25.5630    75.1400     6.1710     7.4180     8.8760     2.0780 
   58.3750   -25.2420    74.9770     5.8050     7.0140     8.0360     2.0480 
   58.5000   -24.9200    76.2160     5.4000     6.5260     7.6010     2.0180 
   58.6250   -24.6280    79.6360     5.0840     6.1420     7.6730     2.0230 
   58.7500   -24.4090    82.0270     5.0800     6.1560     7.0310     2.0720 
   58.8750   -24.3310    82.3370     5.5040     6.8860     6.7950     2.1450 
   59.0000   -24.4330    79.4520     6.5690     8.6130     9.1250     2.2190 
   59.1250   -24.7490    75.7500     8.6640    11.4930    16.0170     2.3050 
   59.2500   -25.2420    72.0080    10.7120    14.0020    27.6460     2.4030 
   59.3750   -25.8620    69.2670    11.8330    15.3620    39.7630     2.4830 
   59.5000   -26.5180    66.3540    11.5190    14.7330    38.8240     2.4830 
   59.6250   -27.1340    65.3920     9.4490    12.2510    22.2410     2.3900 
   59.7500   -27.6720    67.1590     7.3890     9.5860    10.3930     2.2520 
   59.8750   -28.1220    70.5250     5.8670     7.7160     8.1790     2.1540 
   60.0000   -28.5210    72.6420     5.0090     6.8050     7.3620     2.1100 
   60.1250   -28.9040    72.2610     4.8260     6.7830     7.8030     2.1010 
   60.2500   -29.2940    70.4510     4.9390     7.2100     9.2310     2.0860 
   60.3750   -29.6890    68.4480     5.2180     7.7730    10.4170     2.0670 
   60.5000   -30.0630    67.1890     5.4950     8.2360    10.8940     2.0540 
   60.6250   -30.3820    65.5420     5.6930     8.4850    10.4550     2.0560 
   60.7500   -30.6250    64.5760     5.7640     8.5300     9.9660     2.0630 
   60.8750   -30.7690    64.4100     5.7420     8.4620    10.3340     2.0700 
   61.0000   -30.8140    65.3360     5.7060     8.3720    10.9300     2.0700 
   61.1250   -30.7510    66.6850     5.6460     8.2500    11.0810     2.0660 
   61.2500   -30.5920    68.2970     5.5670     8.0740    10.8750     2.0630 
   61.3750   -30.3450    68.2400     5.4490     7.9920    10.7110     2.0620 
   61.5000   -30.0440    67.6420     5.3180     7.7400    10.5630     2.0600 
   61.6250   -29.7200    66.2710     5.2300     7.6060    10.2240     2.0580 
   61.7500   -29.4110    66.2460     5.2460     7.7020     9.8830     2.0580 
   61.8750   -29.1510    64.7720     5.4310     8.0810     9.8280     2.0700 
   62.0000   -28.9540    63.8900     5.7960     8.6980     9.7930     2.0890 
   62.1250   -28.8360    62.8540     6.1060     9.5060     9.9420     2.1150 
   62.2500   -28.7890    63.2390     6.7160    10.4390    10.6400     2.1340 
   62.3750   -28.8150    64.5750     7.2590    11.2860    10.9430     2.1520 
   62.5000   -28.9020    65.1200     7.5650    11.6470    10.0400     2.1950 
   62.6250   -29.0400    64.4610     7.5310    11.5320     8.7990     2.2790 
   62.7500   -29.2050    62.5140     7.1410    10.8480     8.5780     2.3510 
   62.8750   -29.3710    61.8310     6.5450     9.8550     9.1840     2.3350 
   63.0000   -29.5060    62.7200     5.9590     8.9380     9.6650     2.2390 
   63.1250   -29.5800    64.5600     5.4900     8.3500     9.6410     2.1390 
   63.2500   -29.5830    65.9930     5.2680     8.1740     8.8190     2.0880 
   63.3750   -29.5080    65.5810     5.2650     8.3410     8.1110     2.0760 
   63.5000   -29.3700    63.9390     5.3790     8.6630     8.7880     2.0760 
   63.6250   -29.1810    61.3490     5.5020     8.9500     9.9420     2.0870 
   63.7500   -28.9620    60.9260     5.5500     9.0780    10.5050     2.1260 
   63.8750   -28.7410    62.0300     5.4860     9.0010    10.4140     2.1990 
   64.0000   -28.5520    63.6870     5.3190     8.7640     9.8170     2.2630 
   64.1250   -28.4420    64.4320     5.1240     8.4790     9.4530     2.2630 
   64.2500   -28.4480    65.6060     4.9570     8.2460     9.4680     2.2010 
   64.3750   -28.6120    67.9880     4.8610     8.1300     9.5210     2.1310 
   64.5000   -28.9290    69.8330     4.8500     8.1470     9.7320     2.0910 
   64.6250   -29.3920    69.9510     4.9120     8.2850     9.9770     2.0830 
   64.7500   -29.9450    67.8760     5.0200     8.4910    10.1010     2.0790 
   64.8750   -30.5310    65.5640     5.1570     8.6320    10.3130     2.0740 
   65.0000   -31.0840    63.9890     5.2900     8.8460    10.6420     2.0740 
   65.1250   -31.5370    65.0710     5.3950     9.0160    10.7500     2.0790 
   65.2500   -31.8540    67.8330     5.4630     9.1180    10.5000     2.0910 
   65.3750   -31.9920    70.9650     5.4850     9.1210    10.0590     2.0980 
   65.5000   -31.9510    71.5970     5.4430     9.0290     9.7430     2.1020 
   65.6250   -31.7140    69.8060     5.3750     8.8940     9.9670     2.0980 
