~V
VERS. 2.00: Ver 2.00
~W
STRT.M 54.0000:
STOP.M 205.0000:
STEP.M 0.1250:
NULL. -999.2500:
UWI. F10812:
~C
DEPT.M :
SP.MV :
GR.API :
RI. :
RML.OHMM :
RXO.OHMM :
DEN.GM/CC :
~A
# ...
  118.3750    -7.1690    42.5770    16.7710    17.8230    18.4610     2.4820 
  118.5000    -7.1700    42.3870    16.9530    18.0960    16.9900     2.4700 
  118.6250    -7.2100    42.7170    17.4580    18.6740    17.4180     2.4730 
  118.7500    -7.2910    44.8000    18.0620    19.3320    18.5240     2.4790 
  118.8750    -7.4100    46.7930    18.5420    19.8250    20.4400     2.4840 
  119.0000    -7.5330    48.6800    18.8110    20.0320    21.4580     2.4820 
  119.1250    -7.6360    48.6790    18.7000    19.8610    20.5140     2.4790 
  119.2500    -7.7170    48.0250    18.3050    19.4480    19.6740     2.4650 
  119.3750    -7.7790    46.8180    17.8290    18.9850    20.0570     2.4470 
  119.5000    -7.8420    46.5410    17.4350    18.6310    20.7680     2.4280 
  119.6250    -7.9150    46.5840    17.2550    18.5040    20.0450     2.4150 
  119.7500    -7.9960    46.9120    17.3250    18.6020    18.6410     2.4060 
  119.8750    -8.0820    47.7520    17.5670    18.8850    18.5310     2.4030 
  120.0000    -8.1780    48.2020    17.9850    19.3360    19.2020     2.4000 
  120.1250    -8.2950    48.0030    18.5220    19.8920    19.5610     2.3950 
  120.2500    -8.4430    47.9630    18.9980    20.3820    20.0480     2.3930 
  120.3750    -8.6230    47.8810    19.2360    20.6710    20.8670     2.4070 
  120.5000    -8.8000    48.1060    19.2500    20.7420    21.5880     2.4290 
  120.6250    -8.9430    47.0950    19.0990    20.6430    22.1370     2.4380 
  120.7500    -9.0460    46.6760    18.8380    20.4290    21.3430     2.4240 
  120.8750    -9.1180    46.3470    18.4820    20.1310    19.4050     2.4030 
  121.0000    -9.1870    47.0150    18.1310    19.8410    18.9340     2.3980 
  121.1250    -9.2960    47.9380    17.8610    19.6150    19.6820     2.4070 
  121.2500    -9.4340    48.6000    17.6470    19.4220    19.1730     2.4110 
  121.3750    -9.5500    48.2740    17.4500    19.2380    17.7150     2.4030 
  121.5000    -9.6110    47.5180    17.2980    19.1110    17.3550     2.3970 
  121.6250    -9.5770    47.5140    17.3070    19.1530    18.6050     2.4060 
  121.7500    -9.4640    48.5490    17.5250    19.4200    19.4980     2.4260 
  121.8750    -9.3310    49.2630    17.9400    19.8780    18.8860     2.4450 
  122.0000    -9.2250    49.4030    18.3630    20.3470    18.7480     2.4520 
  122.1250    -9.1820    48.4130    18.6650    20.6630    19.4610     2.4450 
  122.2500    -9.2100    48.2730    18.6950    20.6930    19.2280     2.4350 
  122.3750    -9.2790    47.7990    18.4120    20.3700    18.3780     2.4280 
  122.5000    -9.3560    48.4560    17.8870    19.8010    17.7850     2.4220 
  122.6250    -9.4340    48.9270    17.2720    19.1860    17.1750     2.4160 
  122.7500    -9.5080    50.8110    16.8340    18.7600    16.6770     2.4100 
  122.8750    -9.6050    51.7150    16.6260    18.5940    16.0260     2.4110 
  123.0000    -9.7480    51.2950    16.5880    18.6170    15.8710     2.4140 
  123.1250    -9.9400    48.8970    16.7070    18.8110    17.5270     2.4070 
  123.2500   -10.1550    46.3910    16.9610    19.1280    19.1630     2.3840 
  123.3750   -10.3460    45.4050    17.2880    19.5300    18.4990     2.3440 
  123.5000   -10.4910    45.5290    17.6820    20.0160    17.9320     2.3100 
  123.6250   -10.5890    45.6920    18.1940    20.6480    19.1200     2.3070 
  123.7500   -10.6690    45.5080    18.8550    21.4450    20.0810     2.3390 
  123.8750   -10.7510    46.1850    19.5690    22.2440    21.6540     2.3830 
  124.0000   -10.8400    47.4150    19.9550    22.6220    23.5430     2.4170 
  124.1250   -10.9170    48.1080    19.5850    22.1550    23.3210     2.4300 
  124.2500   -10.9540    47.9350    18.5350    20.9510    22.0130     2.4290 
  124.3750   -10.9410    48.0220    17.1570    19.3950    20.1510     2.4240 
  124.5000   -10.8910    48.9330    15.9510    18.0280    17.3030     2.4200 
  124.6250   -10.8130    49.2630    15.1600    17.2470    15.2100     2.4250 
  124.7500   -10.7160    48.6460    15.0130    17.1600    15.1550     2.4320 
  124.8750   -10.5990    47.0340    15.3190    17.6030    16.0590     2.4370 
  125.0000   -10.4730    45.9410    15.8220    18.2350    16.5130     2.4340 
  125.1250   -10.3390    44.3420    16.2890    18.7770    16.4390     2.4290 
  125.2500   -10.2090    43.3620    16.5910    19.1290    16.8120     2.4270 
  125.3750   -10.1130    43.7170    16.7870    19.3900    18.1220     2.4340 
  125.5000   -10.0630    45.1040    17.0000    19.6340    19.3280     2.4400 
  125.6250   -10.0760    46.2270    17.1110    19.7630    18.8090     2.4420 
  125.7500   -10.1500    45.4460    17.0610    19.7310    17.4750     2.4350 
  125.8750   -10.2780    45.7330    16.9440    19.5770    17.2710     2.4270 
  126.0000   -10.4230    46.9470    16.7090    19.2730    16.8310     2.4240 
  126.1250   -10.5640    49.9370    16.2570    18.7940    15.2950     2.4260 
  126.2500   -10.6920    52.0160    15.7250    18.2170    14.8080     2.4310 
  126.3750   -10.8010    53.0760    15.0680    17.5490    15.5500     2.4360 
  126.5000   -10.9070    53.9550    14.3860    16.8610    15.4070     2.4390 
  126.6250   -11.0250    54.8840    13.7700    16.1830    14.3940     2.4440 
  126.7500   -11.1490    54.6530    13.1300    15.5020    14.1910     2.4450 
  126.8750   -11.2610    53.5640    12.5980    14.9310    14.2270     2.4420 
  127.0000   -11.3480    53.3500    12.2340    14.5540    13.1000     2.4330 
  127.1250   -11.3920    54.8260    12.0880    14.4310    11.9590     2.4200 
  127.2500   -11.3960    55.7770    12.1350    14.5500    11.8140     2.4040 
  127.3750   -11.3870    54.2550    12.3850    14.9070    12.1210     2.3950 
  127.5000   -11.4010    51.1840    12.7640    15.3940    12.3090     2.3970 
  127.6250   -11.4770    47.5730    13.1690    15.9120    12.9550     2.4100 
  127.7500   -11.6300    45.5770    13.5810    16.4580    14.7940     2.4250 
  127.8750   -11.8690    45.4610    14.0020    16.9130    15.7760     2.4400 
  128.0000   -12.1720    47.1500    13.9340    16.8710    15.1790     2.4530 
  128.1250   -12.5100    49.7770    13.3390    16.1590    15.0300     2.4560 
  128.2500   -12.8460    53.4400    12.3500    14.9430    16.1400     2.4520 
  128.3750   -13.1360    57.0570    11.1440    13.5080    15.8550     2.4220 
  128.5000   -13.3330    60.1920    10.2210    12.2830    12.1770     2.3680 
  128.6250   -13.4000    62.3970     9.4670    11.3600     9.5100     2.2910 
  128.7500   -13.3520    64.6870     8.9260    10.7480     9.5010     2.2270 
  128.8750   -13.2200    66.1450     8.6700    10.4810     9.1560     2.1930 
  129.0000   -13.0650    67.7910     8.6230    10.4170     8.8390     2.1800 
  129.1250   -12.9400    68.6840     8.5900    10.3610     9.1820     2.1750 
  129.2500   -12.8670    69.2710     8.5290    10.2860     8.9350     2.1700 
  129.3750   -12.8410    68.6120     8.5530    10.3280     8.3980     2.1690 
  129.5000   -12.8540    67.6080     8.7100    10.5420     8.3240     2.1700 
  129.6250   -12.8950    67.7120     8.9480    10.8810     8.5580     2.1740 
  129.7500   -12.9640    67.4750     9.1580    11.1830     9.2590     2.1770 
  129.8750   -13.0790    67.6780     9.1670    11.2210    10.1210     2.1770 
  130.0000   -13.2200    66.9750     8.9260    10.9240    10.1710     2.1780 
  130.1250   -13.3640    68.0740     8.4850    10.3930     9.2330     2.1800 
  130.2500   -13.4740    68.9730     8.0510     9.8820     8.2030     2.1840 
  130.3750   -13.4950    71.3530     7.8260     9.6880     8.0190     2.1910 
  130.5000   -13.4410    72.2480     8.0110    10.0460     8.8320     2.1950 
  130.6250   -13.3490    71.3360     8.7390    11.0680     9.6630     2.2010 
  130.7500   -13.2800    67.1310     9.7990    12.5370    10.0060     2.2100 
  130.8750   -13.3050    62.6280    11.1580    14.3120    11.4840     2.2240 
  131.0000   -13.4250    61.2550    12.4590    15.9940    14.3610     2.2270 
  131.1250   -13.6390    62.8990    13.3170    17.0440    15.8750     2.2120 
