~V
VERS. 2.00: Ver 2.00
~W
STRT.M 63.0000:
STOP.M 236.0000:
STEP.M 0.1250:
NULL. -999.2500:
UWI. F10859:
~C
DEPT.M :
TVD. :
DX. :
DY. :
SP.MV :
GR.API :
RI. :
RML.OHMM :
RXO.OHMM :
DEN.GM/CC :
~A
# ...
  136.0000   135.9920    -1.0130     0.3780   -35.4340    60.1530    43.7280    44.0140    45.3090     2.1200 
  136.1250   136.1170    -1.0150     0.3790   -35.2210    63.2190    39.5440    39.4770    42.5760     2.1470 
  136.2500   136.2420    -1.0170     0.3790   -34.9810    65.3040    34.7660    34.6580    32.8160     2.1970 
  136.3750   136.3670    -1.0180     0.3790   -34.7230    65.8250    30.6790    30.7590    23.7090     2.2620 
  136.5000   136.4920    -1.0200     0.3790   -34.4710    65.2040    28.1090    28.4620    24.6390     2.3240 
  136.6250   136.6170    -1.0220     0.3790   -34.2480    63.5420    27.2000    27.8280    31.3440     2.3700 
  136.7500   136.7420    -1.0240     0.3800   -34.0870    62.6970    28.0320    28.9140    33.9960     2.4030 
  136.8750   136.8670    -1.0250     0.3800   -33.9890    61.5340    30.1320    31.2360    33.3250     2.4340 
  137.0000   136.9920    -1.0270     0.3800   -33.9410    60.6110    33.1050    34.4020    37.2290     2.4670 
  137.1250   137.1170    -1.0290     0.3800   -33.9200    57.6480    36.4060    37.8330    44.7910     2.4890 
  137.2500   137.2420    -1.0310     0.3800   -33.9200    57.0340    39.3870    40.8010    47.7890     2.4870 
  137.3750   137.3670    -1.0320     0.3810   -33.9440    56.7290    41.4230    42.6880    44.8450     2.4700 
  137.5000   137.4920    -1.0340     0.3810   -33.9880    58.0200    42.1710    43.2690    39.5790     2.4590 
  137.6250   137.6170    -1.0360     0.3810   -34.0400    57.2700    42.1110    43.1960    35.4110     2.4700 
  137.7500   137.7420    -1.0370     0.3810   -34.0870    56.6260    41.9310    43.2360    35.9080     2.4980 
  137.8750   137.8670    -1.0390     0.3810   -34.1260    55.9550    41.9920    43.6320    40.8590     2.5180 
  138.0000   137.9920    -1.0410     0.3820   -34.1580    55.0080    42.1190    44.0630    45.1660     2.5120 
  138.1250   138.1170    -1.0430     0.3820   -34.1870    54.3140    42.0660    44.2140    44.0980     2.4890 
  138.2500   138.2420    -1.0440     0.3820   -34.2140    54.4550    41.8770    44.1530    39.0910     2.4730 
  138.3750   138.3670    -1.0460     0.3820   -34.2350    55.0150    41.8710    44.2820    36.2700     2.4820 
  138.5000   138.4920    -1.0480     0.3830   -34.2470    54.1310    42.4550    45.0740    38.0590     2.5140 
  138.6250   138.6170    -1.0490     0.3830   -34.2460    52.3710    43.7130    46.5690    41.4190     2.5530 
  138.7500   138.7420    -1.0510     0.3830   -34.2330    50.2590    45.3190    48.3230    44.0780     2.5820 
  138.8750   138.8670    -1.0530     0.3830   -34.2170    49.5990    46.5660    49.5580    46.2980     2.5920 
  139.0000   138.9920    -1.0540     0.3830   -34.2050    49.6260    46.8050    49.6270    47.5680     2.5830 
  139.1250   139.1170    -1.0560     0.3840   -34.2070    50.4750    45.9370    48.5210    45.7860     2.5660 
  139.2500   139.2420    -1.0580     0.3840   -34.2240    51.4230    44.0960    46.4340    40.7880     2.5560 
  139.3750   139.3670    -1.0590     0.3840   -34.2530    52.9670    41.6930    43.8040    36.2850     2.5540 
  139.5000   139.4920    -1.0610     0.3840   -34.2910    53.5740    39.0290    40.9590    34.4050     2.5480 
  139.6250   139.6170    -1.0630     0.3840   -34.3300    53.6430    36.4740    38.3000    33.5230     2.5310 
  139.7500   139.7410    -1.0640     0.3850   -34.3680    53.0440    34.4250    36.2560    31.4340     2.5060 
  139.8750   139.8660    -1.0660     0.3850   -34.3970    52.3410    33.0900    35.0190    28.1560     2.4860 
  140.0000   139.9910    -1.0680     0.3850   -34.4030    50.8470    32.6710    34.7820    26.1850     2.4850 
  140.1250   140.1160    -1.0690     0.3850   -34.3720    49.1620    33.1980    35.5610    26.7630     2.5040 
  140.2500   140.2410    -1.0710     0.3850   -34.2860    48.1090    34.7510    37.4170    28.6860     2.5350 
  140.3750   140.3660    -1.0730     0.3860   -34.1460    47.1910    36.9430    39.8870    31.0040     2.5660 
  140.5000   140.4910    -1.0740     0.3860   -33.9540    47.2220    39.0650    42.1630    35.7010     2.5830 
  140.6250   140.6160    -1.0760     0.3860   -33.7230    47.5060    40.3410    43.4220    42.7590     2.5830 
  140.7500   140.7410    -1.0780     0.3860   -33.4600    48.0490    40.2650    43.1770    46.4090     2.5680 
  140.8750   140.8660    -1.0790     0.3860   -33.1760    48.8260    39.1100    41.8110    43.0190     2.5510 
  141.0000   140.9910    -1.0810     0.3870   -32.8800    48.8150    37.4430    40.0150    35.9520     2.5400 
  141.1250   141.1160    -1.0830     0.3870   -32.5830    50.4090    36.0100    38.6150    31.8650     2.5340 
  141.2500   141.2410    -1.0840     0.3870   -32.2870    50.9630    35.3630    38.1940    33.5040     2.5330 
  141.3750   141.3660    -1.0860     0.3870   -31.9860    51.6950    35.5320    38.6940    37.0080     2.5350 
  141.5000   141.4910    -1.0880     0.3870   -31.6710    50.6080    36.1770    39.6440    39.4110     2.5440 
  141.6250   141.6160    -1.0890     0.3880   -31.3500    51.1730    36.6220    40.2330    40.2450     2.5570 
  141.7500   141.7410    -1.0910     0.3880   -31.0380    53.4710    36.2360    39.7440    38.5510     2.5700 
  141.8750   141.8660    -1.0930     0.3880   -30.7480    55.2920    34.8810    38.0950    35.5360     2.5770 
  142.0000   141.9910    -1.0940     0.3880   -30.4820    55.9210    32.7510    35.5870    33.1110     2.5710 
  142.1250   142.1160    -1.0960     0.3880   -30.2280    55.0800    30.4330    32.9350    30.6730     2.5540 
  142.2500   142.2410    -1.0980     0.3890   -29.9760    55.2580    28.4880    30.7820    27.5400     2.5350 
  142.3750   142.3660    -1.0990     0.3890   -29.7260    55.3990    27.1760    29.3960    24.6340     2.5240 
  142.5000   142.4910    -1.1010     0.3890   -29.4950    55.8750    26.4690    28.7280    23.1700     2.5280 
  142.6250   142.6160    -1.1030     0.3890   -29.3040    53.8950    25.9950    28.3390    23.4090     2.5430 
  142.7500   142.7410    -1.1040     0.3900   -29.1760    52.4270    25.3650    27.7630    24.0740     2.5570 
  142.8750   142.8660    -1.1060     0.3900   -29.1150    52.2770    24.3550    26.7230    22.9680     2.5580 
  143.0000   142.9910    -1.1080     0.3900   -29.1200    54.7510    22.9600    25.2130    19.7930     2.5460 
  143.1250   143.1160    -1.1090     0.3910   -29.1750    55.9630    21.4580    23.5720    17.0970     2.5340 
  143.2500   143.2410    -1.1110     0.3910   -29.2620    54.5090    20.1710    22.1840    16.6020     2.5280 
  143.3750   143.3660    -1.1130     0.3910   -29.3610    53.1970    19.2830    21.2540    17.0760     2.5270 
  143.5000   143.4910    -1.1140     0.3910   -29.4580    52.7630    18.8830    20.8660    17.1740     2.5280 
  143.6250   143.6160    -1.1160     0.3920   -29.5600    53.3930    18.9010    20.9230    17.0340     2.5280 
  143.7500   143.7410    -1.1180     0.3920   -29.6820    52.8600    19.2860    21.3650    17.1710     2.5320 
  143.8750   143.8660    -1.1190     0.3920   -29.8270    51.1390    19.8990    22.0480    17.9110     2.5410 
  144.0000   143.9910    -1.1210     0.3920   -29.9780    49.8110    20.5960    22.8280    19.4870     2.5510 
  144.1250   144.1160    -1.1230     0.3930   -30.1020    49.0850    21.1880    23.5000    20.7630     2.5590 
  144.2500   144.2410    -1.1240     0.3930   -30.1760    49.9120    21.4350    23.8110    20.1680     2.5620 
  144.3750   144.3660    -1.1260     0.3930   -30.2060    50.9250    21.1810    23.5930    18.5450     2.5660 
  144.5000   144.4910    -1.1280     0.3940   -30.2050    54.1220    20.2930    22.6940    17.4590     2.5750 
  144.6250   144.6160    -1.1290     0.3940   -30.1920    57.2400    18.9000    21.2230    16.5180     2.5860 
  144.7500   144.7410    -1.1310     0.3940   -30.1790    60.2300    17.2280    19.3920    14.9440     2.5870 
  144.8750   144.8660    -1.1330     0.3940   -30.1670    58.9590    15.6060    17.5640    13.3560     2.5750 
  145.0000   144.9910    -1.1340     0.3950   -30.1620    56.1530    14.3120    16.0750    12.1450     2.5580 
