~V
VERS. 2.00: Ver 2.00
~W
STRT.M 40.0000:
STOP.M 213.0000:
STEP.M 0.1250:
NULL. -999.2500:
UWI. F10805:
~C
DEPT.M :
SP.MV :
GR.API :
RI. :
RML.OHMM :
RXO.OHMM :
DEN.GM/CC :
~A
# ...
  168.7500   -15.6500    65.9790    70.1220    76.8940    73.6830     2.1820 
  168.8750   -15.6050    66.5110    70.6830    77.5020    72.0910     2.1910 
  169.0000   -15.5840    66.3340    70.6670    77.4360    67.9720     2.1950 
  169.1250   -15.5710    64.8550    70.9580    77.2870    67.8720     2.1930 
  169.2500   -15.5620    63.7670    71.2920    76.5880    71.5870     2.1970 
  169.3750   -15.4820    63.2110    69.7260    73.8020    77.5170     2.2160 
  169.5000   -15.5070    64.2980    64.4890    68.1010    73.4590     2.2430 
  169.6250   -15.6010    66.0040    55.2170    59.6710    49.9030     2.2610 
  169.7500   -15.6820    68.4960    45.6450    50.3530    25.2530     2.2600 
  169.8750   -15.6270    71.0130    38.4430    42.5660    17.5490     2.2510 
  170.0000   -15.4370    73.2500    33.7780    37.6710    20.0880     2.2370 
  170.1250   -15.1390    74.6690    32.3470    35.6370    30.0690     2.2290 
  170.2500   -14.8320    75.3790    32.7270    35.1500    36.8310     2.2260 
  170.3750   -14.4570    75.9360    33.6410    35.0690    32.4050     2.2290 
  170.5000   -14.0170    76.3790    33.3340    34.3980    31.2920     2.2230 
  170.6250   -13.6940    75.6980    31.6060    32.4900    31.8880     2.2030 
  170.7500   -13.3710    73.7950    28.3550    29.6930    28.2610     2.1920 
  170.8750   -13.0490    71.7580    25.6690    27.1450    23.3930     2.2010 
  171.0000   -12.7870    70.1460    24.2040    25.6290    19.4950     2.2010 
  171.1250   -12.7320    70.2450    23.6440    25.3900    18.2730     2.1550 
  171.2500   -12.7520    71.0460    24.3200    26.3300    15.2120     2.0850 
  171.3750   -12.7600    72.6770    26.3910    28.6020    14.5900     2.0580 
  171.5000   -12.7100    73.1950    29.4990    32.3470    21.9460     2.0980 
  171.6250   -12.7060    71.2490    34.0470    38.1780    29.8720     2.1590 
  171.7500   -12.7090    67.4160    40.6230    46.5990    37.6810     2.1860 
  171.8750   -12.6740    64.6050    50.7170    58.4780    51.3920     2.1740 
  172.0000   -12.6120    63.6570    64.9170    73.5900    80.7130     2.1550 
  172.1250   -12.5150    63.5900    82.2280    90.7710   119.6900     2.1470 
  172.2500   -12.4280    62.3280    99.8860   106.7280   135.6400     2.1430 
  172.3750   -12.2210    61.7340   110.2160   116.8940   122.4210     2.1420 
  172.5000   -11.9560    62.1080   110.7090   119.7870   103.9840     2.1420 
  172.6250   -11.6280    62.9700   105.2530   118.0070    94.8580     2.1460 
  172.7500   -11.3470    62.4620   100.1340   117.9760    85.4840     2.1540 
  172.8750   -10.9820    60.1110   103.5330   127.1830    78.7790     2.1790 
  173.0000   -10.5870    57.8410   116.7590   153.1500   127.0650     2.2470 
  173.1250   -10.1590    55.3470   152.7420   205.8910   244.4740     2.3670 
  173.2500    -9.7510    53.7170   225.2350   273.7020   369.2910     2.5040 
  173.3750    -9.3660    50.9660   283.9400   316.4720   500.2660     2.5960 
  173.5000    -8.9600    48.7690   279.6790   301.8530   692.5630     2.6360 
  173.6250    -8.5460    47.9160   214.5520   226.5400   827.3610     2.6340 
  173.7500    -8.0700    51.8050   105.5640   130.2460   648.7080     2.6040 
  173.8750    -7.6270    59.5150    39.3370    57.9210   266.8840     2.5320 
  174.0000    -7.2380    67.9510    13.2130    21.6800    48.7550     2.4360 
  174.1250    -6.9090    73.2700     7.5110    10.9740    10.1430     2.3610 
  174.2500    -6.6470    76.5640     5.5460     7.2370     5.0910     2.3270 
  174.3750    -6.5890    79.0260     4.9460     5.7690     4.7100     2.3220 
  174.5000    -6.6530    81.6010     4.9060     5.4220     4.9200     2.3160 
  174.6250    -6.6810    82.7750     5.1390     5.5110     4.9290     2.3010 
  174.7500    -6.6140    81.6030     5.3750     5.6640     4.3600     2.2880 
  174.8750    -6.5000    78.6100     5.5090     5.7700     4.1860     2.2930 
  175.0000    -6.3550    75.4610     5.5730     5.8370     4.3360     2.3000 
  175.1250    -6.2040    74.5380     5.6470     5.9040     4.5540     2.2950 
  175.2500    -6.0290    73.2420     5.7370     5.9890     5.1150     2.2810 
  175.3750    -5.8480    73.2680     5.8260     6.0760     5.3740     2.2750 
  175.5000    -5.7490    73.2140     5.8500     6.1480     5.3460     2.2860 
  175.6250    -5.7710    75.2550     5.8370     6.1970     5.6040     2.3020 
  175.7500    -5.9180    75.4610     5.7750     6.2190     5.8140     2.3120 
  175.8750    -6.1120    75.1910     5.6590     6.2040     5.6330     2.3150 
  176.0000    -6.3470    75.4590     5.5020     6.1680     5.2780     2.3150 
  176.1250    -6.4460    78.1240     5.3700     6.1660     5.1290     2.3100 
  176.2500    -6.5030    81.7250     5.3320     6.2580     5.7510     2.2980 
  176.3750    -6.5630    83.4600     5.4350     6.4870     7.2000     2.2860 
  176.5000    -6.6590    83.0540     5.6100     6.8240     7.8970     2.2820 
  176.6250    -6.7250    82.3080     5.8410     7.2420     7.6520     2.2900 
  176.7500    -6.8320    82.5240     5.9980     7.5550     7.9190     2.3030 
  176.8750    -6.9510    82.9070     5.9980     7.5810     8.0660     2.3170 
  177.0000    -7.0190    82.6670     5.8060     7.4070     7.5760     2.3210 
  177.1250    -7.0310    82.4660     5.5750     7.1780     6.8320     2.3150 
  177.2500    -7.0530    82.6490     5.4510     7.0780     5.8210     2.3020 
  177.3750    -7.1240    83.1700     5.5450     7.2440     5.9430     2.3080 
  177.5000    -7.1750    85.0430     5.8600     7.6520     7.9730     2.3330 
  177.6250    -7.2830    87.8580     6.2790     8.1770     9.5700     2.3640 
  177.7500    -7.4020    91.0210     6.6540     8.5960     8.6670     2.3720 
  177.8750    -7.4830    93.3590     6.7460     8.6980     6.8400     2.3540 
  178.0000    -7.4390    93.8110     6.5380     8.4520     6.8480     2.3240 
  178.1250    -7.3700    93.4830     6.0830     7.9510     8.1240     2.3010 
  178.2500    -7.2090    90.9590     5.6150     7.3910     8.4780     2.2900 
  178.3750    -6.9950    88.0240     5.2190     6.8810     7.8910     2.2920 
  178.5000    -6.7980    83.7880     4.8700     6.4370     6.7020     2.3030 
  178.6250    -6.6140    80.4750     4.5540     6.0710     5.0400     2.3110 
  178.7500    -6.5370    77.4200     4.3140     5.7970     4.0800     2.3110 
  178.8750    -6.5320    74.6690     4.1660     5.6460     4.0160     2.3020 
  179.0000    -6.5780    71.1980     4.1240     5.6240     4.0270     2.2940 
  179.1250    -6.6270    68.9840     4.2190     5.7440     4.2490     2.2950 
  179.2500    -6.7540    68.7680     4.4010     5.9580     4.8910     2.3000 
  179.3750    -6.8610    71.1170     4.6030     6.1790     5.3430     2.3070 
  179.5000    -6.9140    73.4940     4.7450     6.3090     5.1890     2.3100 
  179.6250    -6.8370    73.8300     4.7220     6.2830     4.7260     2.3070 
  179.7500    -6.7480    71.9000     4.6150     6.1480     4.4320     2.3020 
  179.8750    -6.6420    68.0850     4.4760     5.9840     4.4570     2.2990 
  180.0000    -6.5240    65.8890     4.3660     5.8660     5.8100     2.2970 
  180.1250    -6.4440    65.9650     4.3270     5.8300     7.3660     2.2970 
  180.2500    -6.3540    68.1450     4.3320     5.8460     6.4760     2.2950 
  180.3750    -6.2240    69.4960     4.3520     5.8730     4.9430     2.2940 
  180.5000    -6.0020    70.1010     4.3520     5.8880     4.4190     2.2870 
  180.6250    -5.7780    71.2420     4.3620     5.8960     4.2060     2.2750 
  180.7500    -5.5980    72.8770     4.3630     5.9150     4.2090     2.2640 
  180.8750    -5.5730    73.8610     4.4050     5.9670     4.3220     2.2620 
  181.0000    -5.5570    71.8030     4.4830     6.0480     4.4830     2.2600 
  181.1250    -5.6010    68.9380     4.5760     6.1300     4.4850     2.2630 
  181.2500    -5.6250    66.1350     4.6460     6.1810     4.4440     2.2690 
  181.3750    -5.7340    64.4030     4.6680     6.1770     4.6680     2.2890 
  181.5000    -5.8690    62.4410     4.6480     6.1220     4.8880     2.3050 
