~V
VERS. 2.00: Ver 2.00
~W
STRT.M 62.0000:
STOP.M 256.0000:
STEP.M 0.1250:
NULL. -999.2500:
UWI. F10886:
~C
DEPT.M :
TVD. :
DX. :
DY. :
SP.MV :
GR.API :
RI. :
RML.OHMM :
RXO.OHMM :
DEN.GM/CC :
~A
# ...
  244.5000   244.4860    -1.4450    -1.6460    -7.3130    79.5300     6.2020     6.8660     6.9110     2.2430 
  244.6250   244.6110    -1.4450    -1.6460    -7.3130    79.3060     6.4130     7.0970     7.6370     2.2380 
  244.7500   244.7360    -1.4460    -1.6470    -7.3130    79.6290     6.6880     7.4020     8.3540     2.2330 
  244.8750   244.8610    -1.4460    -1.6470    -7.3130    81.1400     6.9590     7.6910     8.8430     2.2370 
  245.0000   244.9860    -1.4460    -1.6470    -7.3130    81.8040     7.1860     7.9260     8.9690     2.2480 
  245.1250   245.1110    -1.4470    -1.6470    -7.3130    83.1000     7.3570     8.1050     8.9610     2.2570 
  245.2500   245.2360    -1.4470    -1.6470    -7.3130    84.7190     7.5010     8.2760     9.2080     2.2600 
  245.3750   245.3610    -1.4470    -1.6480    -7.3130    87.0590     7.6110     8.4340     9.6100     2.2570 
  245.5000   245.4860    -1.4480    -1.6480    -7.3130    87.1850     7.6340     8.4980    10.0370     2.2580 
  245.6250   245.6110    -1.4480    -1.6480    -7.3130    84.9150     7.5040     8.3770    10.3500     2.2650 
  245.7500   245.7360    -1.4480    -1.6480    -7.3130    82.5610     7.2060     8.0460    10.0040     2.2750 
  245.8750   245.8610    -1.4480    -1.6490    -7.3130    81.3730     6.7640     7.5400     8.7530     2.2820 
  246.0000   245.9860    -1.4490    -1.6490    -7.3130    82.2530     6.2890     6.9950     7.3680     2.2790 
  246.1250   246.1110    -1.4490    -1.6490    -7.3130    83.7970     5.8810     6.5390     6.5820     2.2660 
  246.2500   246.2360    -1.4500    -1.6490    -7.3130    85.7930     5.6150     6.2550     6.3300     2.2510 
  246.3750   246.3610    -1.4500    -1.6500    -7.3130    87.3680     5.5510     6.2100     6.3990     2.2410 
  246.5000   246.4860    -1.4500    -1.6500    -7.3130    88.8390     5.6650     6.3620     6.7090     2.2390 
  246.6250   246.6110    -1.4510    -1.6500    -7.3130    88.3390     5.9290     6.6720     7.2030     2.2380 
  246.7500   246.7360    -1.4510    -1.6500    -7.3130    86.1320     6.2920     7.0790     7.8870     2.2380 
  246.8750   246.8610    -1.4510    -1.6510    -7.3130    83.4110     6.6790     7.5030     8.9910     2.2430 
  247.0000   246.9860    -1.4520    -1.6510    -7.3130    81.8210     6.9680     7.8020    10.0330     2.2550 
  247.1250   247.1110    -1.4520    -1.6510    -7.3130    82.7780     7.0500     7.8470     9.7820     2.2670 
  247.2500   247.2360    -1.4530    -1.6520    -7.3130    84.6610     6.9520     7.7010     8.4910     2.2710 
  247.3750   247.3610    -1.4530    -1.6520    -7.3130    86.3700     6.7760     7.5110     7.8410     2.2670 
  247.5000   247.4860    -1.4530    -1.6520    -7.3130    86.0790     6.6480     7.4160     8.3030     2.2630 
  247.6250   247.6110    -1.4540    -1.6530    -7.3130    84.8920     6.6070     7.4330     8.6420     2.2610 
  247.7500   247.7360    -1.4540    -1.6530    -7.3130    84.2090     6.5990     7.4650     8.0930     2.2580 
  247.8750   247.8610    -1.4550    -1.6530    -7.3130    84.5860     6.5990     7.4730     7.2170     2.2520 
  248.0000   247.9860    -1.4550    -1.6540    -7.3130    84.9590     6.6010     7.4740     6.5580     2.2470 
  248.1250   248.1110    -1.4550    -1.6540    -7.3130    84.9810     6.6040     7.4740     6.0110     2.2460 
  248.2500   248.2360    -1.4560    -1.6540    -7.3130    84.9810     6.6070     7.4740     5.6540     2.2460 
  248.3750   248.3610    -1.4560    -1.6540    -7.3130    84.9810     6.6100     7.4740     5.6110     2.2470 
  248.5000   248.4860    -1.4570    -1.6550    -7.3130    84.9810     6.6100     7.4740     5.5200     2.2480 
  248.6250   248.6110    -1.4570    -1.6550    -7.3130    84.9810     6.6070     7.4740     5.3150     2.2490 
  248.7500   248.7360    -1.4570    -1.6550    -7.3130    84.9810     6.6060     7.4740     5.4190     2.2500 
  248.8750   248.8610    -1.4580    -1.6560    -7.3130    84.9810     6.6060     7.4740     5.8850     2.2530 
  249.0000   248.9860    -1.4580    -1.6560    -7.3130    84.9810     6.6090     7.4740     6.3000     2.2600 
  249.1250   249.1110    -1.4590    -1.6570    -7.3130    84.9810     6.6110     7.4740     6.6760     2.2740 
  249.2500   249.2360    -1.4590    -1.6570    -7.3130    84.9810     6.6090     7.4740     7.3380     2.2950 
  249.3750   249.3610    -1.4590    -1.6570    -7.3130    84.9810     6.6050     7.4740     8.3450     2.3180 
  249.5000   249.4860    -1.4600    -1.6580    -7.3130    84.9810     6.6000     7.4740     9.6290     2.3320 
  249.6250   249.6110    -1.4600    -1.6580    -7.3130    84.9810     6.5970     7.4740    10.8720     2.3300 
  249.7500   249.7360    -1.4610    -1.6580    -7.3130    84.9810     6.5970     7.4740    11.3610     2.3150 
  249.8750   249.8610    -1.4610    -1.6590    -7.3130    84.9810     6.5990     7.4740    10.8810     2.2930 
  250.0000   249.9850    -1.4610    -1.6590    -7.3130    84.9810     6.6020     7.4740     9.9180     2.2660 
  250.1250   250.1100    -1.4620    -1.6590    -7.3130    84.9810     6.6060     7.4740     8.8210     2.2390 
  250.2500   250.2350    -1.4620    -1.6600    -7.3130    84.9810     6.6070     7.4740     7.8490     2.2200 
  250.3750   250.3600    -1.4620    -1.6600    -7.3130    84.9810     6.6070     7.4740     7.1610     2.2110 
  250.5000   250.4850    -1.4630    -1.6600    -7.3130    84.9810     6.6060     7.4740     6.9470     2.2090 
  250.6250   250.6100    -1.4630    -1.6610    -7.3130    84.9810     6.6050     7.4740     7.2000     2.2070 
  250.7500   250.7350    -1.4640    -1.6610    -7.3130    84.9810     6.6050     7.4740     7.4880     2.2010 
  250.8750   250.8600    -1.4640    -1.6610    -7.3130    84.9810     6.6050     7.4740     7.5760     2.1940 
  251.0000   250.9850    -1.4640    -1.6620    -7.3130    84.9810     6.6050     7.4740     7.3940     2.1940 
  251.1250   251.1100    -1.4650    -1.6620    -7.3130    84.9810     6.6050     7.4740     6.9030     2.2110 
  251.2500   251.2350    -1.4650    -1.6620    -7.3130    84.9810     6.6050     7.4740     6.3900     2.2400 
  251.3750   251.3600    -1.4660    -1.6630    -7.3130    84.9810     6.6050     7.4740     6.1600     2.2640 
  251.5000   251.4850    -1.4660    -1.6630    -7.3130    84.9810     6.6050     7.4740     6.2010     2.2720 
  251.6250   251.6100    -1.4660    -1.6630    -7.3130    84.9810     6.6050     7.4740     6.3870     2.2610 
  251.7500   251.7350    -1.4670    -1.6640    -7.3130    84.9810     6.6050     7.4740     6.5630     2.2420 
  251.8750   251.8600    -1.4670    -1.6640    -7.3130    84.9810     6.6050     7.4740     6.5660     2.2260 
  252.0000   251.9850    -1.4670    -1.6650    -7.3130    84.9810     6.6050     7.4740     6.2590     2.2200 
  252.1250   252.1100    -1.4680    -1.6650    -7.3130    84.9810     6.6050     7.4740     5.6080     2.2230 
  252.2500   252.2350    -1.4680    -1.6650    -7.3130    84.9810     6.6050     7.4740     4.7230     2.2310 
  252.3750   252.3600    -1.4690    -1.6660    -7.3130    84.9810     6.6050     7.4740     3.9340     2.2380 
  252.5000   252.4850    -1.4690    -1.6660    -7.3130    84.9810     6.6050     7.4740     3.6390     2.2390 
  252.6250   252.6100    -1.4690    -1.6660    -7.3130    84.9810     6.6050     7.4740     3.6200     2.2330 
  252.7500   252.7350    -1.4700    -1.6670    -7.3130    84.9810     6.6050     7.4740     3.6200     2.2260 
  252.8750   252.8600    -1.4700    -1.6670    -7.3130    84.9810     6.6050     7.4740     3.6200     2.2220 
  253.0000   252.9850    -1.4700    -1.6670    -7.3130    84.9810     6.6050     7.4740     3.6200     2.2210 
  253.1250   253.1100    -1.4710    -1.6680    -7.3130    84.9810     6.6050     7.4740     3.6200     2.2220 
  253.2500   253.2350    -1.4710    -1.6680    -7.3130    84.9810     6.6050     7.4740     3.6200     2.2210 
  253.3750   253.3600    -1.4720    -1.6690    -7.3130    84.9810     6.6050     7.4740     3.6200     2.2200 
  253.5000   253.4850    -1.4720    -1.6690    -7.3130    84.9810     6.6050     7.4740     3.6180     2.2210 
