~V
VERS. 2.00: Ver 2.00
~W
STRT.M 40.0000:
STOP.M 205.0000:
STEP.M 0.1250:
NULL. -999.2500:
UWI. F10810:
~C
DEPT.M :
SP.MV :
GR.API :
RI. :
RML.OHMM :
RXO.OHMM :
DEN.GM/CC :
~A
# ...
  143.0000   -37.6110    51.9710   202.9970   234.2670   217.4610     2.1470 
  143.1250   -37.2420    50.9680   192.9310   222.9620   223.0880     2.1450 
  143.2500   -36.8930    50.7680   187.3550   215.8740   228.2080     2.1380 
  143.3750   -36.5530    50.8170   181.5630   208.3320   213.4340     2.1330 
  143.5000   -36.2000    52.2880   172.4470   196.3960   183.7830     2.1250 
  143.6250   -35.8130    53.1940   157.0070   177.6430   169.9000     2.1160 
  143.7500   -35.3800    53.3480   138.2670   155.2480   161.9390     2.1140 
  143.8750   -34.8930    53.8460   120.2780   133.2150   130.3750     2.1250 
  144.0000   -34.3620    55.1760   103.6830   113.7160    91.6460     2.1410 
  144.1250   -33.7950    57.6650    91.1660    98.9710    70.9870     2.1580 
  144.2500   -33.2100    59.3010    82.7700    89.1830    65.6480     2.1670 
  144.3750   -32.6210    60.2790    79.5890    84.5850    62.2260     2.1700 
  144.5000   -32.0340    61.1830    79.1800    83.3980    61.5330     2.1650 
  144.6250   -31.4560    64.9390    80.9720    84.9140    78.6020     2.1540 
  144.7500   -30.8880    69.8570    84.4110    87.6790    89.7550     2.1430 
  144.8750   -30.3370    74.4200    83.4900    87.0570    70.6460     2.1460 
  145.0000   -29.8090    74.5030    75.2300    78.5860    51.0330     2.1630 
  145.1250   -29.3220    72.3220    61.2880    63.8120    53.4080     2.1920 
  145.2500   -28.8860    70.4650    45.7650    48.8530    58.0050     2.2240 
  145.3750   -28.5170    71.6170    37.4110    40.1510    50.8680     2.2560 
  145.5000   -28.2140    73.1960    34.8770    37.8700    40.4060     2.2720 
  145.6250   -27.9790    73.0070    37.9210    42.3290    36.3980     2.2630 
  145.7500   -27.7970    71.1580    47.8040    53.7030    39.6940     2.2390 
  145.8750   -27.6560    69.6760    61.6720    68.0180    40.4450     2.2300 
  146.0000   -27.5430    69.2560    73.4670    78.9050    37.8880     2.2430 
  146.1250   -27.4550    69.4950    78.7570    83.0990    38.0690     2.2490 
  146.2500   -27.3900    70.0970    75.9780    80.2150    37.5540     2.2310 
  146.3750   -27.3540    70.4820    70.2120    74.2360    35.3040     2.1990 
  146.5000   -27.3460    70.8510    64.6930    68.6640    35.2580     2.1830 
  146.6250   -27.3660    70.9080    60.3650    64.6920    36.8570     2.1830 
  146.7500   -27.4020    71.3180    57.7550    62.7430    38.4620     2.1880 
  146.8750   -27.4440    71.2720    57.3500    63.0240    37.5600     2.1860 
  147.0000   -27.4790    71.1880    58.4520    64.8470    31.4740     2.1750 
  147.1250   -27.5010    70.3340    60.4090    67.4680    25.8850     2.1560 
  147.2500   -27.5090    70.2910    62.4610    69.9030    24.5160     2.1440 
  147.3750   -27.5100    70.8070    63.6470    71.4910    24.7720     2.1510 
  147.5000   -27.5160    71.8260    64.5510    72.5370    24.7800     2.1730 
  147.6250   -27.5420    72.4850    65.0940    73.0180    23.2420     2.1950 
  147.7500   -27.5950    74.0040    65.0890    73.2660    20.9730     2.2150 
  147.8750   -27.6850    76.1730    66.0230    74.6780    19.7370     2.2290 
  148.0000   -27.8050    77.4530    68.9040    78.4770    19.5510     2.2360 
  148.1250   -27.9460    76.2790    74.6630    85.4410    19.7450     2.2360 
  148.2500   -28.0940    74.3660    82.4190    94.5890    20.1820     2.2330 
  148.3750   -28.2400    73.2250    91.1340   103.9460    20.5890     2.2310 
  148.5000   -28.3840    73.1890    97.1700   109.9830    20.2990     2.2260 
  148.6250   -28.5300    72.6690    97.8230   109.9350    19.4960     2.2240 
  148.7500   -28.6900    70.7080    93.5490   104.3980    18.5430     2.2290 
  148.8750   -28.8700    69.3760    85.3090    95.4850    17.2980     2.2360 
  149.0000   -29.0670    69.4370    77.8410    87.7510    15.8810     2.2390 
  149.1250   -29.2740    72.2160    74.5670    84.5660    15.5000     2.2350 
  149.2500   -29.4730    75.4590    75.4760    86.1520    17.1320     2.2330 
  149.3750   -29.6480    76.1290    80.2980    92.2970    21.7440     2.2200 
  149.5000   -29.7870    74.2710    88.2230   101.3800    29.1660     2.1880 
  149.6250   -29.8760    70.5920    96.9660   111.1280    34.7300     2.1380 
  149.7500   -29.9170    67.7090   104.8110   119.0670    35.0490     2.1100 
  149.8750   -29.9050    64.7980   109.5800   123.4220    32.2110     2.1260 
  150.0000   -29.8510    63.2100   112.4910   125.3990    28.3310     2.1710 
  150.1250   -29.7590    62.0850   113.9880   126.1950    25.0480     2.2110 
  150.2500   -29.6360    61.3710   114.9350   126.4500    25.4910     2.2160 
  150.3750   -29.4840    60.3380   115.2320   125.9930    29.5370     2.1840 
  150.5000   -29.3030    60.2810   114.0370   124.2310    31.4520     2.1480 
  150.6250   -29.0900    61.4950   111.8370   121.7030    28.2770     2.1340 
  150.7500   -28.8440    62.3630   110.4340   120.0550    24.7300     2.1370 
  150.8750   -28.5690    62.8650   110.6840   120.4380    24.4000     2.1430 
  151.0000   -28.2750    63.4350   113.0720   123.1670    25.0440     2.1460 
  151.1250   -27.9760    65.0260   117.5630   127.8530    24.4750     2.1450 
  151.2500   -27.6860    66.2300   122.5420   132.8020    23.6360     2.1410 
  151.3750   -27.4190    65.9380   126.2740   136.1880    22.6800     2.1320 
  151.5000   -27.1800    65.1510   127.6880   137.4140    20.7230     2.1260 
  151.6250   -26.9730    64.1650   127.7240   137.1150    18.5790     2.1250 
  151.7500   -26.7970    64.3310   126.8930   136.3060    17.1040     2.1270 
  151.8750   -26.6550    64.8940   126.4140   136.5830    16.5950     2.1330 
  152.0000   -26.5490    64.5110   128.9000   140.0280    16.9480     2.1500 
  152.1250   -26.4830    62.9200   135.4240   148.0040    16.9520     2.1770 
  152.2500   -26.4560    62.0260   146.1330   160.2850    15.9440     2.1980 
  152.3750   -26.4670    62.9560   160.4040   175.8670    14.7900     2.1990 
  152.5000   -26.5070    63.5380   175.9910   192.1500    14.3570     2.1840 
  152.6250   -26.5620    64.5150   190.4060   205.3800    14.3610     2.1630 
  152.7500   -26.6150    65.1320   199.0970   212.4530    14.5910     2.1520 
  152.8750   -26.6420    66.9030   201.7960   214.1420    15.9430     2.1490 
  153.0000   -26.6260    66.5770   199.2580   213.3720    18.6020     2.1510 
  153.1250   -26.5460    67.2880   196.1690   208.8300    22.3560     2.1480 
  153.2500   -26.4020    68.0330   191.5970   202.3180    26.3480     2.1460 
  153.3750   -26.2010    69.4360   184.4200   192.2570    28.8380     2.1450 
  153.5000   -25.9700    70.0450   170.0080   176.1420    29.4440     2.1480 
  153.6250   -25.7390    71.2060   150.8350   156.8730    28.8740     2.1560 
  153.7500   -25.5360    71.9530   135.3270   140.9630    28.2590     2.1710 
  153.8750   -25.3770    71.3830   126.0510   132.7890    29.1170     2.1840 
  154.0000   -25.2610    70.3250   126.4250   134.3100    33.0330     2.1840 
  154.1250   -25.1780    69.1160   136.3560   147.0370    40.9700     2.1690 
  154.2500   -25.1080    67.1810   157.6480   169.9180    47.7960     2.1480 
  154.3750   -25.0380    65.3600   182.1580   195.9360    49.2330     2.1320 
  154.5000   -24.9570    64.1110   203.7430   215.0990    48.9620     2.1240 
  154.6250   -24.8620    64.6070   217.0220   226.0370    47.6280     2.1210 
  154.7500   -24.7530    64.4610   222.2250   232.1780    45.5430     2.1180 
  154.8750   -24.6330    63.7680   228.6590   238.9240    45.9960     2.1130 
  155.0000   -24.5060    62.6210   237.3650   248.2720    48.0560     2.1080 
  155.1250   -24.3720    61.7600   246.9110   257.8260    48.7070     2.1040 
  155.2500   -24.2340    60.9920   252.1780   262.3130    49.7540     2.1010 
  155.3750   -24.0950    61.6270   245.8220   259.1610    55.3430     2.1000 
  155.5000   -23.9610    63.1620   229.1990   244.8330    61.8710     2.1060 
  155.6250   -23.8450    64.8900   204.7990   217.2330    65.2860     2.1220 
  155.7500   -23.7550    66.0850   174.9340   185.2980    68.0830     2.1450 
