~V
VERS. 2.00: Ver 2.00
~W
STRT.M 40.0000:
STOP.M 205.0000:
STEP.M 0.1250:
NULL. -999.2500:
UWI. F10810:
~C
DEPT.M :
SP.MV :
GR.API :
RI. :
RML.OHMM :
RXO.OHMM :
DEN.GM/CC :
~A
# ...
   91.5000   -29.2860    65.2530     6.7040     7.2100    10.9830     2.0980 
   91.6250   -29.3060    63.5830     6.8160     7.3340    10.9970     2.1020 
   91.7500   -29.2130    62.0080     6.9170     7.4490    11.3770     2.1070 
   91.8750   -28.9810    61.2900     6.9720     7.5300    11.7480     2.1120 
   92.0000   -28.6170    60.9950     6.9680     7.5260    11.9150     2.1130 
   92.1250   -28.1270    61.4900     6.7790     7.2560    11.6620     2.1140 
   92.2500   -27.5620    62.8460     6.4250     6.8740    11.1760     2.1130 
   92.3750   -26.9850    64.6760     5.9360     6.3590    10.7180     2.1160 
   92.5000   -26.4740    65.6850     5.4690     5.8730     9.5490     2.1210 
   92.6250   -26.1130    66.2950     5.2100     5.5980     8.0520     2.1290 
   92.7500   -25.9330    65.5070     5.1680     5.5990     7.2710     2.1320 
   92.8750   -25.9530    64.1900     5.4430     5.9420     7.4350     2.1230 
   93.0000   -26.1200    61.8370     5.9470     6.5540     8.7290     2.1070 
   93.1250   -26.3820    60.4480     6.6130     7.2870    10.0670     2.1030 
   93.2500   -26.6700    59.2300     7.1770     7.8810    11.1110     2.1250 
   93.3750   -26.9380    59.2300     7.4790     8.1610    11.7050     2.1730 
   93.5000   -27.1640    60.0670     7.5050     8.1420    11.0490     2.2180 
   93.6250   -27.3360    60.4900     7.3340     7.9190    10.3840     2.2230 
   93.7500   -27.4590    61.3700     7.1200     7.6610    10.5080     2.1860 
   93.8750   -27.5240    62.6380     6.9160     7.4360    10.8030     2.1410 
   94.0000   -27.5340    64.5390     6.7370     7.2500    10.8880     2.1100 
   94.1250   -27.4850    64.9920     6.6110     7.1240    10.7390     2.0980 
   94.2500   -27.3880    64.4290     6.5690     7.0860    10.4010     2.0930 
   94.3750   -27.2560    63.1410     6.6620     7.2810    10.0150     2.0970 
   94.5000   -27.1080    62.6270     6.9370     7.6090     9.8860     2.1030 
   94.6250   -26.9590    62.5530     7.3570     8.1110    10.0980     2.1090 
   94.7500   -26.8200    62.9680     7.8020     8.6300    10.5730     2.1100 
   94.8750   -26.6940    62.9410     8.0710     8.9510    10.9960     2.1090 
   95.0000   -26.5760    62.6390     8.0730     8.9480    10.9480     2.1040 
   95.1250   -26.4570    63.8180     7.7620     8.4270    10.5720     2.1010 
   95.2500   -26.3300    66.1930     7.2770     7.9070    10.2890     2.1050 
   95.3750   -26.1790    67.0700     6.8170     7.4320     9.9810     2.1080 
   95.5000   -25.9920    64.4930     6.5120     7.1410     9.4620     2.1050 
   95.6250   -25.7510    60.9340     6.3990     7.0610     8.8360     2.1000 
   95.7500   -25.4430    59.6570     6.3660     7.0710     8.5810     2.1020 
   95.8750   -25.0510    61.8470     6.3070     7.0310     9.0760     2.1080 
   96.0000   -24.5800    64.2300     6.1630     6.8660     9.7840     2.1130 
   96.1250   -24.0320    65.5840     5.9420     6.5950    10.0680     2.1150 
   96.2500   -23.4280    65.3980     5.7580     6.3510     9.9540     2.1230 
   96.3750   -22.7760    66.0870     5.7040     6.2800     9.6520     2.1390 
   96.5000   -22.0810    67.1550     5.8130     6.4080     9.6140     2.1540 
   96.6250   -21.3250    68.5760     5.9750     6.5970    10.5350     2.1510 
   96.7500   -20.4950    69.3790     5.9520     6.5960    11.6160     2.1310 
   96.8750   -19.5840    70.5440     5.6370     6.2430    11.0870     2.1130 
   97.0000   -18.6240    73.2170     5.0910     5.6290     8.6330     2.1160 
   97.1250   -17.6710    78.5070     4.5100     4.9690     6.5270     2.1440 
   97.2500   -16.7970    84.0390     4.0660     4.4930     5.0870     2.1750 
   97.3750   -16.0790    90.6860     3.8690     4.3160     6.0210     2.1880 
   97.5000   -15.5450    95.5370     3.8210     4.3190     7.0220     2.1790 
   97.6250   -15.2120   100.9110     3.8070     4.3370     6.5050     2.1630 
   97.7500   -15.0350   104.1400     3.7550     4.2880     5.4320     2.1550 
   97.8750   -14.9690   106.0340     3.7240     4.3250     4.7150     2.1580 
   98.0000   -14.9450   104.6950     3.7600     4.3650     4.4920     2.1680 
   98.1250   -14.9100   100.6830     3.8880     4.5220     5.9230     2.1720 
   98.2500   -14.8350    93.9640     4.0170     4.6890     8.0860     2.1700 
   98.3750   -14.7210    87.8240     4.0210     4.7190     7.7550     2.1660 
   98.5000   -14.6100    82.9280     3.8910     4.5670     5.6960     2.1740 
   98.6250   -14.5720    79.8050     3.6480     4.2800     4.4970     2.1910 
   98.7500   -14.6630    79.1510     3.4150     4.0120     4.4960     2.2040 
   98.8750   -14.9320    79.2640     3.3340     3.9510     5.1970     2.2040 
   99.0000   -15.3590    79.4000     3.4850     4.1450     5.1930     2.2010 
   99.1250   -15.8950    77.3940     3.7860     4.5070     5.0790     2.1990 
   99.2500   -16.4410    75.0320     4.1440     4.9270     6.7650     2.1910 
   99.3750   -16.8880    73.0780     4.5290     5.3470     8.1850     2.1700 
   99.5000   -17.1580    72.9720     4.8900     5.7430     7.2830     2.1430 
   99.6250   -17.1800    74.3120     5.2710     6.1480     6.2600     2.1260 
   99.7500   -16.9590    76.3660     5.6610     6.5580     6.2510     2.1190 
   99.8750   -16.4960    76.7690     5.9600     6.7340     6.5790     2.1180 
  100.0000   -15.8510    76.9650     6.0320     6.7340     7.5720     2.1210 
  100.1250   -15.0650    78.6160     5.7640     6.4100     8.4260     2.1280 
  100.2500   -14.2070    83.8190     5.1630     5.7300     7.5430     2.1410 
  100.3750   -13.3350    90.2150     4.4310     4.9150     5.5930     2.1620 
  100.5000   -12.5090    95.8720     3.8150     4.2460     4.4820     2.1860 
  100.6250   -11.7890    99.3200     3.4550     3.9220     4.3870     2.2020 
  100.7500   -11.2060   101.1040     3.3380     3.8450     4.5280     2.2060 
  100.8750   -10.7920   101.6100     3.4110     4.0830     4.5170     2.2050 
  101.0000   -10.5330   102.4540     3.6550     4.4080     4.4000     2.2080 
  101.1250   -10.4230   102.0770     4.0020     4.8230     4.5880     2.2190 
  101.2500   -10.4240    99.3520     4.3390     5.2280     6.0210     2.2410 
  101.3750   -10.5080    93.7990     4.5940     5.4050     8.6200     2.2820 
  101.5000   -10.6330    89.5850     4.6690     5.4590     8.9890     2.3220 
  101.6250   -10.7650    87.9210     4.5330     5.2420     6.6140     2.3250 
  101.7500   -10.8780    87.8850     4.2970     4.9020     5.2360     2.2760 
  101.8750   -10.9590    87.1550     4.1450     4.7270     5.3080     2.2130 
  102.0000   -11.0270    86.1320     4.3240     5.0010     5.7090     2.1730 
  102.1250   -11.1260    84.6720     5.2630     6.1040     6.8890     2.1800 
  102.2500   -11.3190    82.6340     6.9200     8.0640    10.4130     2.2270 
  102.3750   -11.6960    79.6290     9.0490    10.4560    18.2420     2.3150 
  102.5000   -12.3040    75.6650    10.7610    12.2900    26.4620     2.4100 
  102.6250   -13.1970    74.2630    11.2030    12.6330    27.9990     2.4780 
  102.7500   -14.3360    74.3710    10.2980    11.5210    22.8400     2.4860 
  102.8750   -15.6740    76.7550     8.5330     9.5480    15.9000     2.4240 
  103.0000   -17.1020    76.3120     6.8760     7.6960    11.2130     2.3140 
  103.1250   -18.5100    74.9590     5.7860     6.5420     9.6930     2.2080 
  103.2500   -19.8040    74.6540     5.2960     6.0960     9.4470     2.1380 
  103.3750   -20.8970    76.5330     5.2750     6.1940     8.9030     2.1080 
  103.5000   -21.7600    79.1260     5.5260     6.5620     8.9190     2.0960 
  103.6250   -22.3480    78.9550     5.8570     6.9510    10.4150     2.0880 
  103.7500   -22.6710    76.8180     6.0890     7.2020    11.8260     2.0840 
  103.8750   -22.7090    74.2290     6.2890     7.3670    11.9880     2.0800 
  104.0000   -22.4950    73.3710     6.5250     7.5450    11.0990     2.0850 
  104.1250   -22.0350    74.2830     6.8270     7.8250    10.7900     2.1040 
  104.2500   -21.3800    73.9580     7.1960     8.2280    14.3940     2.1360 
