~V
VERS. 2.00: Ver 2.00
~W
STRT.M 50.0000:
STOP.M 213.0000:
STEP.M 0.1250:
NULL. -999.2500:
UWI. F10803:
~C
DEPT.M :
SP.MV :
GR.API :
RI. :
RML.OHMM :
RXO.OHMM :
DEN.GM/CC :
~A
# ...
  114.3750   -10.1150    67.4980     4.1900     4.6340     6.2430     2.2250 
  114.5000   -10.0220    68.2460     4.0760     4.4530     5.9140     2.1980 
  114.6250   -10.0070    68.3450     4.0850     4.4090     5.6600     2.1810 
  114.7500   -10.0050    67.7210     4.4710     4.7110     6.3150     2.1790 
  114.8750    -9.7470    66.4050     5.4060     5.6330     7.8330     2.1930 
  115.0000    -9.4460    66.2900     6.9940     7.1340    10.6930     2.2470 
  115.1250    -9.0280    65.5160     8.4590     8.7300    15.7520     2.3310 
  115.2500    -8.5400    63.3380     9.0620     9.6950    20.3440     2.4160 
  115.3750    -7.9500    61.3030     8.3300     9.5190    18.2750     2.4370 
  115.5000    -7.3430    61.4730     6.7250     8.1180    10.3960     2.3840 
  115.6250    -6.9380    65.7110     5.2130     6.3540     5.4840     2.2880 
  115.7500    -6.8680    70.6410     4.4100     5.1270     5.0580     2.2230 
  115.8750    -7.2600    72.8090     4.5070     4.9060     6.3590     2.2310 
  116.0000    -7.8590    69.7640     5.4010     5.7110    10.3200     2.2990 
  116.1250    -8.4930    62.5530     7.4950     7.7010    16.4740     2.3950 
  116.2500    -9.0960    55.6990    10.1720    10.4740    19.8880     2.4810 
  116.3750    -9.5960    50.2830    12.7620    13.2200    19.3040     2.5320 
  116.5000    -9.8050    46.8860    14.2730    15.1220    18.2830     2.5430 
  116.6250    -9.8610    45.0940    14.4660    15.8200    17.3670     2.5280 
  116.7500    -9.8830    44.9250    13.8670    15.3760    16.6230     2.4980 
  116.8750    -9.9980    45.4850    13.4830    14.7670    16.4220     2.4830 
  117.0000   -10.1070    45.8760    13.6290    14.4270    16.3420     2.4780 
  117.1250   -10.2630    46.9140    14.1020    14.8430    18.6220     2.4940 
  117.2500   -10.4970    47.8900    14.6240    15.4720    22.6060     2.5130 
  117.3750   -10.7320    48.6420    14.9910    16.0010    22.7270     2.5250 
  117.5000   -11.0430    48.3500    15.0430    16.2290    19.6520     2.5190 
  117.6250   -11.3560    48.8050    14.8420    16.1120    18.8420     2.4980 
  117.7500   -11.5920    48.8450    14.5890    15.8490    19.8080     2.4870 
  117.8750   -11.7460    48.4320    14.5300    15.7310    20.9780     2.4880 
  118.0000   -11.9170    48.1800    14.9370    15.9680    22.4230     2.4950 
  118.1250   -12.0340    47.5640    15.4990    16.4910    22.5390     2.4970 
  118.2500   -12.2090    46.9510    16.0120    17.0160    22.2780     2.5010 
  118.3750   -12.4650    45.2520    16.2780    17.4200    21.5090     2.5040 
  118.5000   -12.6260    44.9420    16.4830    17.7800    19.9670     2.5090 
  118.6250   -12.7520    44.4490    16.6890    18.0480    20.3580     2.5110 
  118.7500   -12.8970    44.5450    16.8110    18.1890    21.8620     2.5120 
  118.8750   -13.0030    44.2270    16.9050    18.2670    23.8570     2.5100 
  119.0000   -12.9650    45.1140    16.9460    18.3050    24.8500     2.5060 
  119.1250   -12.8740    46.2400    16.8300    18.2120    22.5370     2.5010 
  119.2500   -12.7720    46.5850    16.4770    17.9030    21.1220     2.4930 
  119.3750   -12.7520    46.2280    15.9840    17.4030    20.7100     2.4850 
  119.5000   -12.7550    46.4130    15.5710    16.8900    19.6450     2.4770 
  119.6250   -12.7700    48.0410    15.3090    16.5360    20.3860     2.4760 
  119.7500   -12.6940    49.9990    15.2380    16.3590    20.9290     2.4790 
  119.8750   -12.4190    51.1780    15.0570    16.2210    21.1700     2.4850 
  120.0000   -12.0900    53.0280    14.8180    16.0100    21.8220     2.4740 
  120.1250   -11.6210    55.8840    14.5240    15.7180    19.3080     2.4440 
  120.2500   -11.2160    58.0380    14.1820    15.3850    15.5340     2.4090 
  120.3750   -10.9490    57.7860    13.9540    15.1070    15.2290     2.3800 
  120.5000   -10.8430    54.9310    13.8770    14.9470    17.1900     2.3620 
  120.6250   -10.7660    53.1930    13.9080    14.8780    17.9970     2.3570 
  120.7500   -10.5650    52.2240    13.9200    14.8020    17.5060     2.3680 
  120.8750   -10.2810    52.8860    13.8160    14.6470    16.6120     2.3830 
  121.0000   -10.0630    52.3410    13.6430    14.4470    15.9800     2.3970 
  121.1250    -9.9130    52.0800    13.5190    14.3020    16.3410     2.4010 
  121.2500    -9.8120    52.4820    13.4940    14.2750    18.0440     2.4090 
  121.3750    -9.8050    53.0120    13.5630    14.3620    19.6570     2.4090 
  121.5000    -9.7640    53.6270    13.6390    14.4810    18.4540     2.4040 
  121.6250    -9.7350    53.7920    13.6340    14.5260    15.8750     2.3850 
  121.7500    -9.7270    54.4430    13.4710    14.4140    14.5890     2.3690 
  121.8750    -9.8250    54.1480    13.1260    14.1110    14.7320     2.3620 
  122.0000    -9.9780    53.9850    12.7330    13.7340    15.0290     2.3730 
  122.1250   -10.2250    54.8390    12.5190    13.4580    14.4080     2.3910 
  122.2500   -10.5030    56.7560    12.5030    13.3710    14.4100     2.4080 
  122.3750   -10.8480    56.6370    12.6240    13.4790    16.5220     2.4130 
  122.5000   -11.2290    54.6620    12.9340    13.7570    18.7410     2.4100 
  122.6250   -11.5580    52.5570    13.3470    14.1850    18.5630     2.4070 
  122.7500   -11.8160    52.8380    13.7940    14.6690    17.6150     2.4060 
  122.8750   -12.1340    53.8450    14.1720    15.1230    17.9110     2.4070 
  123.0000   -12.5790    53.0840    14.5200    15.5320    18.5320     2.4080 
  123.1250   -12.8970    50.5880    14.8920    15.9570    19.3670     2.4170 
  123.2500   -13.1310    48.7520    15.3260    16.4140    20.6750     2.4320 
  123.3750   -13.2810    48.7920    15.5810    16.7550    22.0880     2.4380 
  123.5000   -13.4030    49.4880    15.4850    16.8040    23.0130     2.4420 
  123.6250   -13.4570    49.5940    15.0920    16.5000    22.2730     2.4430 
  123.7500   -13.4600    50.1510    14.6730    15.9770    19.4160     2.4420 
  123.8750   -13.4910    51.3780    14.3460    15.4740    16.7920     2.4260 
  124.0000   -13.4940    51.0600    14.1980    15.2450    16.3270     2.4090 
  124.1250   -13.5890    49.2940    14.3090    15.3400    17.4520     2.3940 
  124.2500   -13.6500    47.8060    14.6290    15.6710    18.5510     2.3960 
  124.3750   -13.6790    48.0770    15.0400    16.1230    18.9050     2.4030 
  124.5000   -13.6370    48.9220    15.3310    16.5170    19.7770     2.4220 
  124.6250   -13.5910    50.5070    15.4950    16.7520    20.2630     2.4360 
  124.7500   -13.6030    53.0850    15.5190    16.8380    19.6370     2.4450 
  124.8750   -13.6350    55.7860    15.5140    16.8300    20.1300     2.4400 
  125.0000   -13.6230    56.7600    15.4930    16.7850    21.4380     2.4310 
  125.1250   -13.5740    56.5170    15.3960    16.7070    20.9960     2.4260 
  125.2500   -13.4700    55.0920    15.3540    16.6660    20.4270     2.4270 
  125.3750   -13.2910    53.7450    15.4820    16.7900    21.1570     2.4270 
  125.5000   -13.0940    52.7760    15.7410    17.0700    21.3070     2.4320 
  125.6250   -12.9160    53.5690    15.8960    17.3260    21.6060     2.4420 
  125.7500   -12.7580    54.6190    15.6740    17.2690    22.8650     2.4530 
  125.8750   -12.6450    55.3250    14.8740    16.6260    22.0580     2.4570 
  126.0000   -12.5410    56.0170    13.6780    15.4880    18.6690     2.4490 
  126.1250   -12.5190    56.6150    12.4970    14.1710    15.7160     2.4310 
  126.2500   -12.6700    56.6110    11.5660    13.0400    14.6240     2.4150 
  126.3750   -12.9990    54.2890    11.1130    12.3740    14.8480     2.4140 
  126.5000   -13.3380    52.6220    11.1790    12.2460    14.7310     2.4240 
  126.6250   -13.5990    50.9670    11.5940    12.2370    14.0440     2.4370 
  126.7500   -13.6910    49.4290    12.2600    12.8810    14.1460     2.4410 
  126.8750   -13.7400    46.9270    13.0170    13.6920    15.2280     2.4410 
  127.0000   -13.7380    45.4150    13.7460    14.4850    17.1760     2.4390 
  127.1250   -13.7550    45.9220    14.0670    14.9910    19.3690     2.4480 
