~V
VERS. 2.00: Ver 2.00
~W
STRT.M 40.0000:
STOP.M 205.0000:
STEP.M 0.1250:
NULL. -999.2500:
UWI. F10807:
~C
DEPT.M :
SP.MV :
GR.API :
RI. :
RML.OHMM :
RXO.OHMM :
DEN.GM/CC :
~A
# ...
   91.5000   -18.4940    78.8670     5.7070     5.8890    19.7730     2.1230 
   91.6250   -19.0670    77.7440     5.6290     5.7900    11.5440     2.1050 
   91.7500   -19.5590    74.8440     5.5110     5.6540     8.3480     2.0890 
   91.8750   -20.0170    70.9840     5.3910     5.5250     8.3540     2.0770 
   92.0000   -20.5250    67.9720     5.3170     5.4510     8.1770     2.0710 
   92.1250   -20.9390    68.1430     5.3150     5.4480     7.8230     2.0810 
   92.2500   -21.2510    68.6220     5.3560     5.4860     7.6090     2.1010 
   92.3750   -21.5240    69.0600     5.3890     5.5120     7.6060     2.1120 
   92.5000   -21.6880    68.4110     5.3840     5.4950     7.7470     2.1030 
   92.6250   -21.8730    69.8930     5.3290     5.4210     7.8710     2.0910 
   92.7500   -22.0540    71.5750     5.2280     5.3030     7.7570     2.0920 
   92.8750   -22.2660    73.3830     5.1110     5.1750     7.4660     2.1030 
   93.0000   -22.4780    73.2520     5.0190     5.0740     7.2190     2.1000 
   93.1250   -22.6960    73.8240     4.9800     5.0270     7.1680     2.0800 
   93.2500   -22.9120    74.7490     4.9830     5.0170     7.2320     2.0570 
   93.3750   -23.1540    75.2210     5.0080     5.0370     7.2150     2.0460 
   93.5000   -23.3830    74.2410     5.0500     5.0740     7.1720     2.0460 
   93.6250   -23.4070    73.4050     5.1000     5.1240     7.2130     2.0490 
   93.7500   -23.2610    72.8490     5.1610     5.1940     7.2760     2.0530 
   93.8750   -22.9660    72.1420     5.2620     5.3110     7.3150     2.0600 
   94.0000   -22.6470    70.0920     5.4370     5.5100     7.3490     2.0730 
   94.1250   -22.3140    69.3670     5.6620     5.7510     7.6710     2.0970 
   94.2500   -22.0430    69.4400     5.8190     5.9230     8.6850     2.1290 
   94.3750   -21.7210    70.0380     5.8280     5.9260     9.4350     2.1540 
   94.5000   -21.2970    70.1050     5.7010     5.7930     8.5410     2.1560 
   94.6250   -20.7190    69.9430     5.6090     5.6910     7.2220     2.1380 
   94.7500   -20.0360    69.9760     5.7580     5.8720     7.3780     2.1340 
   94.8750   -19.4060    69.5240     6.4160     6.6740     8.8530     2.1780 
   95.0000   -18.9500    69.1060     7.7100     8.1960    16.8420     2.2580 
   95.1250   -18.7770    68.8130     9.5120    10.1720    37.4260     2.3350 
   95.2500   -18.8420    68.5300    11.3550    12.0280    50.4560     2.3640 
   95.3750   -19.1960    69.3370    12.5040    13.0560    38.1140     2.3440 
   95.5000   -19.6660    70.5330    12.6170    13.0190    21.6590     2.3110 
   95.6250   -20.1080    73.0010    11.9040    12.1670    16.3260     2.2840 
   95.7500   -20.4050    73.3470    10.9890    11.1690    14.5860     2.2670 
   95.8750   -20.6270    74.6250    10.3130    10.4540    13.0830     2.2570 
   96.0000   -20.8690    75.2420     9.9500    10.0550    12.3120     2.2580 
   96.1250   -21.1330    77.5040     9.6810     9.8090    11.9260     2.2590 
   96.2500   -21.3980    77.5880     9.3990     9.5270    12.4320     2.2560 
   96.3750   -21.6740    76.9280     8.9020     9.0660    12.9030     2.2410 
   96.5000   -21.9230    73.7700     8.2680     8.4270    12.8530     2.2150 
   96.6250   -22.1010    70.2590     7.4830     7.6380    12.2370     2.1690 
   96.7500   -22.2520    67.3590     6.6950     6.8590     9.9120     2.1210 
   96.8750   -22.3010    65.5230     6.0920     6.2490     7.9340     2.0850 
   97.0000   -22.2930    64.3470     5.6560     5.8360     7.6250     2.0680 
   97.1250   -22.1770    63.4920     5.4190     5.6210     7.5880     2.0610 
   97.2500   -22.0320    63.1780     5.2810     5.5130     7.4230     2.0590 
   97.3750   -21.9110    62.9170     5.2140     5.4580     7.2320     2.0570 
   97.5000   -21.7970    62.8240     5.1560     5.4090     7.0980     2.0580 
   97.6250   -21.7450    62.7570     5.1020     5.3580     7.0260     2.0580 
   97.7500   -21.6650    63.3280     5.0720     5.3240     6.8910     2.0610 
   97.8750   -21.5210    64.0380     5.0670     5.3130     6.7530     2.0630 
   98.0000   -21.3060    65.2220     5.0800     5.2970     6.7280     2.0660 
   98.1250   -21.1870    66.5210     5.0940     5.2330     6.7580     2.0670 
   98.2500   -21.0750    67.3640     5.1040     5.2100     6.7130     2.0760 
   98.3750   -20.9460    67.2750     5.1100     5.2160     6.7010     2.0840 
   98.5000   -20.7700    66.4570     5.1050     5.2230     6.7710     2.0860 
   98.6250   -20.5750    65.0270     5.0970     5.2310     6.8510     2.0820 
   98.7500   -20.4300    64.6510     5.0800     5.2330     6.9710     2.0790 
   98.8750   -20.3270    64.7820     5.0240     5.1990     6.9940     2.0780 
   99.0000   -20.2230    66.1090     4.9160     5.1040     6.9290     2.0770 
   99.1250   -20.0980    66.0370     4.7450     4.9400     6.7650     2.0740 
   99.2500   -19.9990    66.0040     4.5200     4.7250     6.3820     2.0690 
   99.3750   -19.9160    65.5120     4.2920     4.5010     6.0480     2.0660 
   99.5000   -19.9010    65.8770     4.1010     4.3180     5.8920     2.0680 
   99.6250   -19.8860    67.4320     3.9730     4.2050     5.8420     2.0720 
   99.7500   -19.8840    69.3560     3.9200     4.1650     5.8960     2.0730 
   99.8750   -19.8280    70.4880     3.9440     4.2040     5.9080     2.0690 
  100.0000   -19.6840    70.1700     4.0220     4.2950     5.9060     2.0600 
  100.1250   -19.4650    69.7560     4.1240     4.4230     5.9880     2.0560 
  100.2500   -19.1820    69.6060     4.2360     4.5650     5.9300     2.0570 
  100.3750   -18.7290    68.4780     4.3110     4.6630     5.7300     2.0660 
  100.5000   -18.0700    66.9510     4.2960     4.6650     5.6750     2.0710 
  100.6250   -17.3340    66.1620     4.1440     4.5170     5.8400     2.0750 
  100.7500   -16.5980    66.1290     3.8860     4.2400     5.8700     2.0790 
  100.8750   -16.0980    67.7280     3.6000     3.9290     5.4520     2.0970 
  101.0000   -15.9160    71.0790     3.4030     3.7190     5.0630     2.1150 
  101.1250   -16.3010    75.0690     3.4000     3.7310     5.0950     2.1210 
  101.2500   -17.2010    77.3600     3.5890     3.9810     5.6910     2.1070 
  101.3750   -18.3910    76.5260     3.9920     4.4440     6.8460     2.0940 
  101.5000   -19.4970    73.4300     4.5040     4.9860     7.7160     2.0950 
  101.6250   -20.1020    69.6840     4.9930     5.4980     7.9460     2.1040 
  101.7500   -20.1510    65.4410     5.4840     6.0130     7.9620     2.1090 
  101.8750   -19.6490    62.2570     6.0320     6.6190     8.0880     2.0990 
  102.0000   -18.8320    60.7030     6.6250     7.2800     9.7850     2.0870 
  102.1250   -17.7010    62.0060     6.9960     7.7260    13.8810     2.0720 
  102.2500   -16.3330    64.0050     6.9490     7.6980    16.2870     2.0640 
  102.3750   -14.6730    66.2610     6.3120     7.0180    13.0280     2.0700 
  102.5000   -12.9350    69.2120     5.3010     5.9180     7.7280     2.0950 
  102.6250   -11.3020    73.3570     4.2590     4.7600     5.4420     2.1280 
  102.7500   -10.1070    76.1760     3.4060     3.8260     5.1770     2.1580 
  102.8750    -9.4440    79.4650     2.9090     3.2970     4.6190     2.1750 
  103.0000    -9.1270    81.7230     2.7190     3.1130     4.2520     2.1870 
  103.1250    -9.2840    83.3250     2.7490     3.1680     4.7310     2.1830 
  103.2500   -10.0120    81.5390     2.9040     3.3590     5.5300     2.1710 
  103.3750   -11.2710    78.9700     3.1680     3.6500     6.0690     2.1480 
  103.5000   -12.4430    77.3560     3.4950     4.0120     6.3560     2.1310 
  103.6250   -13.2510    78.2760     3.8300     4.3220     6.5270     2.1200 
  103.7500   -13.6400    79.7820     4.0980     4.4960     6.6220     2.1160 
  103.8750   -13.7020    80.1670     4.1920     4.5430     6.7280     2.1130 
  104.0000   -13.5280    78.9070     4.1570     4.4880     6.8660     2.1140 
  104.1250   -13.2270    78.4350     4.0340     4.3690     6.5110     2.1250 
  104.2500   -12.8390    77.9500     3.9210     4.2440     5.8480     2.1440 
