~V
VERS. 2.00: Ver 2.00
~W
STRT.M 40.0000:
STOP.M 215.0000:
STEP.M 0.1250:
NULL. -999.2500:
UWI. F10811:
~C
DEPT.M :
SP.MV :
GR.API :
RI. :
RML.OHMM :
RXO.OHMM :
DEN.GM/CC :
~A
# ...
  207.3750     2.6980    75.3490     6.7960     8.9060     4.2590     2.2500 
  207.5000     2.6980    79.5690     6.7970     9.0180     3.9930     2.2510 
  207.6250     2.6980    82.3890     6.7980     9.0780     3.9770     2.2590 
  207.7500     2.6980    83.5150     6.7980     9.0990     4.3510     2.2690 
  207.8750     2.6980    83.5150     6.7980     9.0980     5.0420     2.2760 
  208.0000     2.6980    83.5150     6.7980     9.0920     5.8600     2.2800 
  208.1250     2.6980    83.5150     6.7980     9.0870     6.4930     2.2800 
  208.2500     2.6980    83.5150     6.7980     9.0820     7.2220     2.2800 
  208.3750     2.6980    83.5150     6.7980     9.0850     8.3150     2.2800 
  208.5000     2.6980    83.5150     6.7980     9.0900     8.8370     2.2820 
  208.6250     2.6980    83.5150     6.7980     9.0920     8.4120     2.2880 
  208.7500     2.6980    83.5150     6.7990     9.0930     8.1400     2.2930 
  208.8750     2.6980    83.5150     6.7990     9.0980     8.2270     2.2990 
  209.0000     2.6980    83.5150     6.7990     9.1040     7.8330     2.3010 
  209.1250     2.6980    83.5150     6.7990     9.1140     7.5010     2.2980 
  209.2500     2.6980    83.5150     6.8010     9.1220     7.7490     2.2960 
  209.3750     2.6980    83.5150     6.8010     9.1230     8.2500     2.2960 
  209.5000     2.6980    83.5150     6.8000     9.1230     9.3330     2.3020 
  209.6250     2.6980    83.5150     6.7990     9.1200    10.7640     2.3120 
  209.7500     2.6980    83.5150     6.7980     9.0870    10.7590     2.3180 
  209.8750     2.6980    83.5150     6.7990     9.0050     8.9910     2.3240 
  210.0000     2.6980    83.5150     6.8010     8.9120     7.4660     2.3340 
  210.1250     2.6980    83.5150     6.8030     8.8290     6.6610     2.3400 
  210.2500     2.6980    83.5150     6.8030     8.7920     6.0310     2.3270 
  210.3750     2.6980    83.5150     6.8030     8.7900     5.6130     2.2790 
  210.5000     2.6980    83.5150     6.8030     8.7900     5.5630     2.2170 
  210.6250     2.6980    83.5150     6.8030     8.7900     5.6680     2.1750 
  210.7500     2.6980    83.5150     6.8030     8.7900     5.4070     2.1620 
  210.8750     2.6980    83.5150     6.8030     8.7900     5.1200     2.1670 
  211.0000     2.6980    83.5150     6.8030     8.7900     5.1100     2.1700 
  211.1250     2.6980    83.5150     6.8030     8.7900     5.1440     2.1670 
  211.2500     2.6980    83.5150     6.8030     8.7900     5.1460     2.1600 
  211.3750     2.6980    83.5150     6.8030     8.7900     5.1460     2.1550 
  211.5000     2.6980    83.5150     6.8030     8.7900     5.1460     2.1560 
  211.6250     2.6980    83.5150     6.8030     8.7900     5.1460     2.1600 
  211.7500     2.6980    83.5150     6.8030     8.7900     5.1460     2.1650 
  211.8750     2.6980    83.5150     6.8030     8.7900     5.1460     2.1720 
  212.0000     2.6980    83.5150     6.8030     8.7900     5.1460     2.1770 
  212.1250     2.6980    83.5150     6.8030     8.7900     5.1460     2.1800 
  212.2500     2.6980    83.5150     6.8030     8.7900     5.1450     2.1810 
  212.3750     2.6980    83.5150     6.8030     8.7900     5.1460     2.1770 
  212.5000     2.6980    83.5150     6.8030     8.7900     5.1460     2.1690 
  212.6250     2.6980    83.5150     6.8030     8.7900     5.1450     2.1640 
  212.7500     2.6980    83.5150     6.8030     8.7900     5.1450     2.1640 
  212.8750     2.6980    83.5150     6.8030     8.7900     5.1450     2.1670 
  213.0000     2.6980    83.5150     6.8030     8.7900     5.1440     2.1650 
  213.1250     2.6980    83.5150     6.8030     8.7900     5.1440     2.1610 
  213.2500     2.6980    83.5150     6.8030     8.7900     5.1440     2.1590 
  213.3750     2.6980    83.5150     6.8030     8.7900     5.1440     2.1650 
  213.5000     2.6980    83.5150     6.8030     8.7900     5.1430     2.1740 
  213.6250     2.6980    83.5150     6.8030     8.7900     5.1430     2.1810 
  213.7500     2.6980    83.5150     6.8030     8.7900     5.1430     2.1800 
  213.8750     2.6980    83.5150     6.8030     8.7900     5.1430     2.1730 
  214.0000     2.6980    83.5150     6.8030     8.7900     5.1430     2.1660 
  214.1250     2.6980    83.5150     6.8030     8.7900     5.1430     2.1610 
  214.2500     2.6980    83.5150     6.8030     8.7900     5.1420     2.1620 
  214.3750     2.6980    83.5150     6.8030     8.7900     5.1420     2.1660 
  214.5000     2.6980    83.5150     6.8030     8.7900     5.1420     2.1670 
  214.6250     2.6980    83.5150     6.8030     8.7900     5.1420     2.1640 
  214.7500     2.6980    83.5150     6.8030     8.7900     5.1410     2.1600 
  214.8750     2.6980    83.5150     6.8030     8.7900     5.1410     2.1580 
  215.0000     2.6980    83.5150     6.8030     8.7900     5.1400     2.1570 
