~V
VERS. 2.00: Ver 2.00
~W
STRT.M 63.0000:
STOP.M 269.0000:
STEP.M 0.1250:
NULL. -999.2500:
UWI. F10891:
~C
DEPT.M :
TVD. :
DX. :
DY. :
SP.MV :
GR.API :
RI. :
RML.OHMM :
RXO.OHMM :
DEN.GM/CC :
~A
# ...
  236.3750   236.3620    -0.9150    -1.8960   -13.4930    93.9530     7.5070     9.7870     9.1620     2.2270 
  236.5000   236.4870    -0.9160    -1.8980   -13.5400    96.6590     7.4170     9.6210     9.7860     2.2290 
  236.6250   236.6120    -0.9160    -1.9000   -13.4680    94.5020     7.0640     9.1200     9.3170     2.2380 
  236.7500   236.7360    -0.9170    -1.9020   -13.2610    89.1130     6.5660     8.4460     7.9890     2.2540 
  236.8750   236.8610    -0.9180    -1.9040   -12.9470    83.7130     6.0510     7.7730     6.8730     2.2750 
  237.0000   236.9860    -0.9190    -1.9060   -12.5510    80.2750     5.6050     7.2120     6.3300     2.2940 
  237.1250   237.1110    -0.9190    -1.9080   -12.1340    79.0120     5.2670     6.8080     6.0810     2.3100 
  237.2500   237.2360    -0.9200    -1.9100   -11.7650    78.6850     5.0750     6.6060     5.9110     2.3190 
  237.3750   237.3610    -0.9210    -1.9130   -11.4970    79.2550     5.0500     6.6290     5.7240     2.3180 
  237.5000   237.4860    -0.9210    -1.9150   -11.3790    79.6290     5.2580     6.9650     5.6490     2.3060 
  237.6250   237.6110    -0.9220    -1.9170   -11.4090    80.9970     5.7160     7.6410     6.0330     2.2880 
  237.7500   237.7360    -0.9230    -1.9190   -11.5990    84.0040     6.4190     8.6420     7.0690     2.2690 
  237.8750   237.8610    -0.9240    -1.9210   -11.9180    88.6390     7.2300     9.7570     8.3110     2.2560 
  238.0000   237.9860    -0.9240    -1.9230   -12.3320    90.5850     7.9400    10.6600     9.1720     2.2480 
  238.1250   238.1110    -0.9250    -1.9250   -12.7700    91.1600     8.3700    11.1130     9.6140     2.2450 
  238.2500   238.2360    -0.9260    -1.9270   -13.1550    91.2590     8.4620    11.0840     9.9370     2.2500 
  238.3750   238.3610    -0.9270    -1.9290   -13.4420    90.9870     8.3890    10.8780     9.9610     2.2650 
  238.5000   238.4860    -0.9280    -1.9310   -13.6020    89.0550     8.3550    10.8090     9.4650     2.2880 
  238.6250   238.6110    -0.9280    -1.9340   -13.6520    86.7420     8.4610    10.9780     9.5080     2.3190 
  238.7500   238.7360    -0.9290    -1.9360   -13.6150    83.4090     8.6790    11.2860    10.9790     2.3580 
  238.8750   238.8610    -0.9300    -1.9380   -13.5340    79.7410     8.8990    11.5250    12.7830     2.3950 
  239.0000   238.9860    -0.9310    -1.9400   -13.4450    74.0480     9.0260    11.5520    13.7060     2.4130 
  239.1250   239.1110    -0.9320    -1.9420   -13.3710    71.3170     9.0440    11.3980    13.5210     2.3990 
  239.2500   239.2360    -0.9330    -1.9440   -13.3090    72.9150     9.0070    11.2110    12.4480     2.3590 
  239.3750   239.3610    -0.9330    -1.9460   -13.2380    79.0030     9.0140    11.1680    11.6170     2.3180 
  239.5000   239.4860    -0.9340    -1.9480   -13.1390    82.2640     9.0940    11.2960    11.6450     2.2920 
  239.6250   239.6110    -0.9350    -1.9500   -12.9990    82.3180     9.1390    11.3800    11.7640     2.2800 
  239.7500   239.7360    -0.9360    -1.9520   -12.8000    80.8790     8.9420    11.1030    11.5550     2.2770 
  239.8750   239.8610    -0.9370    -1.9540   -12.5330    80.9150     8.3760    10.3130    11.4180     2.2810 
  240.0000   239.9860    -0.9380    -1.9560   -12.1780    79.3780     7.4360     9.0500    11.1160     2.2910 
  240.1250   240.1110    -0.9380    -1.9580   -11.7450    74.4440     6.3220     7.6070    10.0440     2.3050 
  240.2500   240.2360    -0.9390    -1.9600   -11.2510    65.9670     5.2570     6.2760     8.3750     2.3200 
  240.3750   240.3610    -0.9400    -1.9620   -10.7350    58.1480     4.4150     5.2620     6.5160     2.3340 
  240.5000   240.4860    -0.9410    -1.9640   -10.2470    50.8090     3.8970     4.6760     4.8100     2.3430 
  240.6250   240.6110    -0.9420    -1.9660    -9.8260    44.9750     3.6570     4.4400     3.8940     2.3460 
  240.7500   240.7360    -0.9430    -1.9680    -9.5190    38.9810     3.6460     4.4790     3.8070     2.3440 
  240.8750   240.8610    -0.9430    -1.9700    -9.3330    34.8910     3.7750     4.6820     3.9290     2.3360 
  241.0000   240.9860    -0.9440    -1.9720    -9.2810    34.3500     3.9880     4.9820     4.0900     2.3260 
  241.1250   241.1110    -0.9450    -1.9740    -9.3380    36.1670     4.2190     5.2940     4.4380     2.3220 
  241.2500   241.2360    -0.9460    -1.9760    -9.4850    38.1160     4.4100     5.5350     4.9610     2.3310 
  241.3750   241.3610    -0.9470    -1.9780    -9.6880    38.8540     4.5200     5.6490     5.3240     2.3530 
  241.5000   241.4860    -0.9480    -1.9800    -9.9140    38.4490     4.5400     5.6270     5.3070     2.3770 
  241.6250   241.6110    -0.9480    -1.9820   -10.1390    39.3840     4.5290     5.5620     5.0030     2.3830 
  241.7500   241.7360    -0.9490    -1.9840   -10.3540    43.0110     4.5840     5.6050     4.6080     2.3610 
  241.8750   241.8610    -0.9500    -1.9860   -10.5710    50.4270     4.8010     5.8950     4.6170     2.3210 
  242.0000   241.9860    -0.9510    -1.9880   -10.8290    59.9240     5.2500     6.5270     5.4300     2.2760 
  242.1250   242.1110    -0.9510    -1.9900   -11.1600    69.3090     5.8780     7.4150     6.5930     2.2370 
  242.2500   242.2360    -0.9520    -1.9920   -11.5800    75.8570     6.5490     8.3530     7.5520     2.2140 
  242.3750   242.3610    -0.9530    -1.9930   -12.0340    81.7190     7.0660     9.0520     8.3010     2.2060 
  242.5000   242.4860    -0.9540    -1.9950   -12.4200    86.0110     7.2450     9.2550     8.8790     2.2100 
  242.6250   242.6110    -0.9550    -1.9970   -12.6500    89.8740     7.0730     8.9700     8.8460     2.2180 
  242.7500   242.7360    -0.9550    -1.9990   -12.6520    90.4340     6.6360     8.3500     7.8910     2.2290 
  242.8750   242.8610    -0.9560    -2.0010   -12.4470    88.9890     6.1240     7.6710     6.7580     2.2460 
  243.0000   242.9860    -0.9570    -2.0030   -12.0650    85.1590     5.6720     7.1170     6.0180     2.2630 
  243.1250   243.1110    -0.9580    -2.0050   -11.5830    80.4220     5.3300     6.7270     5.6070     2.2770 
  243.2500   243.2360    -0.9590    -2.0060   -11.0680    74.2200     5.0920     6.4700     5.6040     2.2840 
  243.3750   243.3610    -0.9590    -2.0080   -10.5890    69.8450     4.9180     6.2840     5.7930     2.2880 
  243.5000   243.4850    -0.9600    -2.0100   -10.2020    68.9860     4.8010     6.1510     5.6160     2.2880 
  243.6250   243.6100    -0.9610    -2.0120    -9.9240    71.3270     4.7340     6.0680     5.0970     2.2810 
  243.7500   243.7350    -0.9620    -2.0140    -9.7720    72.5230     4.7300     6.0490     4.8340     2.2650 
  243.8750   243.8600    -0.9630    -2.0150    -9.7290    72.2240     4.7940     6.1040     5.1590     2.2460 
  244.0000   243.9850    -0.9630    -2.0170    -9.7900    71.2310     4.9430     6.2510     5.7820     2.2340 
  244.1250   244.1100    -0.9640    -2.0190    -9.9300    71.6960     5.1740     6.4910     6.0400     2.2310 
  244.2500   244.2350    -0.9650    -2.0210   -10.1220    71.6770     5.5010     6.8520     5.8290     2.2360 
  244.3750   244.3600    -0.9660    -2.0220   -10.3430    71.6020     5.9290     7.3500     5.7890     2.2430 
  244.5000   244.4850    -0.9660    -2.0240   -10.5820    72.9820     6.4560     7.9900     6.2370     2.2500 
  244.6250   244.6100    -0.9670    -2.0260   -10.8380    76.7610     7.0080     8.6730     6.9020     2.2600 
  244.7500   244.7350    -0.9680    -2.0270   -11.1090    81.0750     7.4360     9.2020     7.5260     2.2710 
  244.8750   244.8600    -0.9690    -2.0290   -11.3710    82.6270     7.5940     9.3790     7.8690     2.2760 
  245.0000   244.9850    -0.9690    -2.0310   -11.5850    81.4900     7.3660     9.0600     7.5610     2.2680 
  245.1250   245.1100    -0.9700    -2.0330   -11.7130    78.9750     6.8220     8.3470     6.6830     2.2550 
  245.2500   245.2350    -0.9710    -2.0340   -11.7180    77.5540     6.1080     7.4460     5.7800     2.2480 
  245.3750   245.3600    -0.9720    -2.0360   -11.5960    75.7080     5.4360     6.6310     5.2580     2.2540 
