~V
VERS. 2.00: Ver 2.00
~W
STRT.M 40.0000:
STOP.M 216.0000:
STEP.M 0.1250:
NULL. -999.2500:
UWI. F10813:
~C
DEPT.M :
SP.MV :
GR.API :
RI. :
RML.OHMM :
RXO.OHMM :
DEN.GM/CC :
~A
# ...
   78.6250   -24.9560    62.0570     5.1830     6.4280     9.0320     2.0770 
   78.7500   -24.5030    62.0200     5.1830     6.4490     8.5080     2.0650 
   78.8750   -23.8710    61.2530     5.1690     6.4630     8.5380     2.0560 
   79.0000   -23.0500    60.7990     5.0920     6.3970     8.9170     2.0560 
   79.1250   -22.1650    60.5060     4.9360     6.2150     8.8820     2.0660 
   79.2500   -21.2080    61.6670     4.7520     5.9710     8.3500     2.0790 
   79.3750   -20.2170    64.7250     4.5980     5.7630     7.2810     2.0920 
   79.5000   -19.3010    68.2550     4.5460     5.6810     6.5540     2.0990 
   79.6250   -18.5190    69.3220     4.5900     5.7380     7.1190     2.1070 
   79.7500   -17.7540    69.7580     4.7010     5.8850     7.7050     2.1200 
   79.8750   -17.0240    71.5760     4.8560     6.0760     7.5430     2.1330 
   80.0000   -16.2980    73.9030     5.0130     6.2270     6.9480     2.1400 
   80.1250   -15.4650    73.8350     5.0290     6.2080     6.6490     2.1330 
   80.2500   -14.5640    72.7720     4.8960     6.0140     7.9860     2.1330 
   80.3750   -13.5360    73.7300     4.6650     5.6890     9.2210     2.1520 
   80.5000   -12.1010    78.5320     4.3700     5.2940     7.8870     2.1910 
   80.6250   -10.4760    85.2000     4.0850     4.9400     5.9740     2.2290 
   80.7500    -9.3470    90.2580     3.9130     4.7190     5.5230     2.2520 
   80.8750    -8.8480    92.1730     3.8670     4.6860     5.3740     2.2490 
   81.0000    -8.7890    91.6600     3.9870     4.8220     4.8270     2.2290 
   81.1250    -8.9940    89.9900     4.1390     5.0120     5.4530     2.1980 
   81.2500    -9.3510    88.5580     4.2350     5.1240     7.0170     2.1750 
   81.3750    -9.4490    88.3350     4.1810     5.0540     6.7690     2.1740 
   81.5000    -8.9770    91.0390     4.0000     4.8190     5.0660     2.1910 
   81.6250    -8.2850    95.2960     3.7400     4.4870     4.1120     2.2150 
   81.7500    -7.8470    99.1550     3.4870     4.1920     3.9470     2.2240 
   81.8750    -7.8050   101.8800     3.3950     4.1110     4.0240     2.2170 
   82.0000    -8.1240   104.4280     3.5330     4.3280     4.1630     2.2020 
   82.1250    -8.8620   104.9120     3.9410     4.8420     4.3630     2.1950 
   82.2500    -9.8890   101.8980     4.4450     5.5000     5.0640     2.1960 
   82.3750   -11.2400    96.1570     5.0060     6.1640     6.2010     2.2040 
   82.5000   -12.5700    90.6480     5.4560     6.6470     6.9590     2.2010 
   82.6250   -13.5660    85.9240     5.6540     6.8040     7.2770     2.1750 
   82.7500   -14.2640    82.1540     5.6500     6.7030     7.5250     2.1390 
   82.8750   -14.7400    80.5280     5.4860     6.4600     7.7010     2.1140 
   83.0000   -15.0670    81.7230     5.3130     6.2450     7.9010     2.1050 
   83.1250   -15.1440    84.1280     5.2340     6.1640     8.1010     2.1010 
   83.2500   -15.1000    86.0930     5.2370     6.1670     8.1770     2.0960 
   83.3750   -14.9680    87.9190     5.2100     6.1470     8.3050     2.0910 
   83.5000   -14.7930    88.8750     5.1140     6.0690     8.4790     2.0940 
   83.6250   -14.4450    87.3040     4.9890     5.9540     8.3260     2.1070 
   83.7500   -13.9440    85.4710     4.8600     5.8310     7.6800     2.1310 
   83.8750   -13.2610    85.6410     4.6950     5.6600     7.3580     2.1490 
   84.0000   -12.6070    89.6010     4.4710     5.4030     7.9030     2.1560 
   84.1250   -12.2100    96.1100     4.2000     5.0760     8.0170     2.1680 
   84.2500   -11.7790   102.0900     3.9400     4.7650     6.7260     2.1980 
   84.3750   -11.2310   105.7300     3.8100     4.5870     4.8650     2.2320 
   84.5000   -11.0820   106.5980     3.8120     4.5850     4.1020     2.2420 
   84.6250   -11.9160   104.6620     3.9690     4.8070     5.1150     2.2130 
   84.7500   -13.3570   100.9940     4.3200     5.2530     6.4960     2.1710 
   84.8750   -14.6280    97.2620     4.7910     5.8050     6.8750     2.1400 
   85.0000   -15.1900    95.2680     5.1840     6.2470     6.7960     2.1300 
   85.1250   -15.2830    94.0530     5.3650     6.4170     7.1630     2.1320 
   85.2500   -15.1750    92.1810     5.3130     6.3360     7.5910     2.1380 
   85.3750   -14.9850    90.1330     5.1490     6.1330     7.3240     2.1360 
   85.5000   -14.7570    87.9440     5.0020     5.9540     6.5930     2.1300 
   85.6250   -14.6480    87.8260     4.9240     5.8750     6.3610     2.1190 
   85.7500   -15.0070    89.4280     4.9610     5.9700     6.7400     2.1120 
   85.8750   -15.7170    91.8050     5.2690     6.3590     7.1870     2.1060 
   86.0000   -16.3520    91.9500     5.7730     6.9900     7.6400     2.1190 
   86.1250   -16.8560    88.1620     6.4040     7.7360     7.7640     2.1640 
   86.2500   -17.1000    83.6790     6.9920     8.3880     7.5790     2.2430 
   86.3750   -17.1320    80.8180     7.3500     8.7570     7.2710     2.3080 
   86.5000   -17.0140    80.4290     7.5050     8.8460     7.0410     2.3190 
   86.6250   -16.7540    81.7340     7.4570     8.7200     7.6610     2.2730 
   86.7500   -16.3480    81.6710     7.2990     8.4780     8.5750     2.2250 
   86.8750   -15.7680    80.6640     7.0150     8.1390     9.1360     2.2070 
   87.0000   -14.9870    79.3270     6.6330     7.6970     9.8020     2.2190 
   87.1250   -14.2050    82.5870     6.1120     7.1100     9.9890     2.2380 
   87.2500   -13.4870    89.3240     5.5240     6.4570     8.6580     2.2520 
   87.3750   -13.0660    98.4130     5.0470     5.9100     6.7830     2.2490 
   87.5000   -13.0490   105.0300     4.7470     5.5830     6.4050     2.2360 
   87.6250   -13.5450   107.0760     4.7010     5.5490     7.1090     2.2140 
   87.7500   -14.3060   104.2980     4.8340     5.7150     7.6070     2.1950 
   87.8750   -15.0900    99.1900     5.0560     5.9470     7.8400     2.1840 
   88.0000   -15.6710    95.4060     5.2450     6.1070     7.7140     2.1890 
   88.1250   -16.0690    94.1550     5.3270     6.1330     7.6630     2.2010 
   88.2500   -16.4400    93.1910     5.3290     6.0800     7.9550     2.2060 
   88.3750   -16.8900    92.3440     5.3050     6.0190     8.0270     2.1980 
   88.5000   -17.5470    90.2310     5.3190     6.0230     7.6690     2.1840 
   88.6250   -18.3200    89.4690     5.3950     6.1020     7.4920     2.1630 
   88.7500   -19.1470    87.0090     5.4940     6.2190     7.9610     2.1380 
   88.8750   -19.9720    83.1640     5.5980     6.3410     8.6590     2.1100 
   89.0000   -20.7700    77.2770     5.6800     6.4460     9.0850     2.0950 
   89.1250   -21.5290    72.0990     5.7480     6.5230     9.3180     2.0910 
   89.2500   -22.3320    68.3560     5.7900     6.5730     9.3910     2.0900 
   89.3750   -23.1420    66.0950     5.8180     6.6080     9.0700     2.0800 
   89.5000   -23.8460    64.5520     5.8480     6.6440     8.5700     2.0700 
   89.6250   -24.4380    64.1140     5.8680     6.6880     8.2650     2.0630 
   89.7500   -24.8730    63.8980     5.9010     6.7680     8.1890     2.0670 
   89.8750   -25.1990    62.9290     5.9990     6.9440     8.1570     2.0750 
   90.0000   -25.3330    62.2470     6.2010     7.2380     8.1260     2.0900 
   90.1250   -25.3980    62.8500     6.4680     7.6080     8.2900     2.1050 
   90.2500   -25.3760    64.8970     6.7110     7.9360    10.4510     2.1140 
   90.3750   -25.2430    66.6540     6.8270     8.0810    12.9840     2.1060 
   90.5000   -25.0150    66.2620     6.7650     7.9890    11.4850     2.0920 
   90.6250   -24.7650    63.9240     6.5470     7.7030     8.7490     2.0810 
   90.7500   -24.5150    61.9330     6.2950     7.3850     8.1040     2.0840 
   90.8750   -24.2790    61.4460     6.1480     7.1890     8.2820     2.0950 
   91.0000   -24.0800    62.8050     6.1240     7.1620     8.4910     2.1130 
   91.1250   -23.9030    63.0430     6.2510     7.2940     9.0160     2.1330 
   91.2500   -23.7740    62.6110     6.4410     7.4900     9.8640     2.1500 
   91.3750   -23.5620    61.4110     6.6260     7.7030    10.1210     2.1540 
