~V
VERS. 2.00: Ver 2.00
~W
STRT.M 1.0000:
STOP.M 205.0000:
STEP.M 0.1250:
NULL. -999.2500:
UWI. F10806:
~C
DEPT.M :
SP.MV :
GR.API :
RI. :
RML.OHMM :
RXO.OHMM :
DEN.GM/CC :
~A
    1.0000   -37.6940    11.4150     0.6480     3.4180     0.8710     2.3400 
    1.1250   -37.6940    11.4150     0.6480     3.4180     0.8710     2.3400 
    1.2500   -37.6940    11.4150     0.6480     3.4180     0.8710     2.3400 
    1.3750   -39.5980    12.3920     0.6480     3.4180     0.8710     2.3400 
    1.5000   -37.6940    11.4150     0.6480     3.4180     0.8710     2.3400 
    1.6250   -39.5980    12.3920     0.6480     3.4180     0.8710     2.3400 
    1.7500   -37.6940    11.4150     0.6480     3.4180     0.8710     2.3400 
    1.8750   -37.6940    11.4150     0.6480     3.4180     0.8710     2.3400 
    2.0000   -38.6460    11.9030     0.6480     3.4180     0.8710     2.3400 
    2.1250   -39.5980    12.3920     0.6480     3.4180     0.8710     2.3400 
    2.2500   -35.1890    10.2670     0.6480     3.4180     0.8710     2.3400 
    2.3750   -31.9670     9.5000     0.6480     3.4180     0.8710     2.3400 
    2.5000   -29.8620     9.0100     0.6480     3.4380     0.8710     2.3400 
    2.6250   -28.2520     9.2460     0.6480     3.8440     0.8710     2.3400 
    2.7500   -26.7890     9.6150     0.4740     4.3930     0.8710     2.3400 
    2.8750   -25.3960    10.0210     0.6840     3.8940     0.8710     2.3400 
    3.0000   -24.0530    10.1380     0.8600     3.5850     0.8710     2.3400 
    3.1250   -22.5620    10.0970     1.0020     3.5440     0.8710     2.3400 
    3.2500   -20.5260     9.6370     1.1750     3.3160     0.8710     2.3400 
    3.3750   -17.6860     9.1160     1.4020     3.2630     0.8710     2.3400 
    3.5000   -13.8990     8.7540     1.6730     3.4890     0.8710     2.3400 
    3.6250    -9.3080     8.7050     1.8640     3.6290     0.8710     2.3400 
    3.7500    -3.9900     8.9690     1.8480     3.5320     0.8710     2.3400 
    3.8750     1.8270     9.3070     1.6760     3.2480     0.8710     2.3400 
    4.0000     7.8530     9.5420     1.3730     2.7660     0.8710     2.3400 
    4.1250    13.6040     9.9960     1.0950     2.1560     0.8710     2.3400 
    4.2500    18.5810    11.1090     0.9370     1.6300     0.8710     2.3400 
    4.3750    22.7170    13.4050     0.9040     1.3280     0.8710     2.3400 
    4.5000    26.0700    16.3700     1.0240     1.3950     0.8710     2.3400 
    4.6250    28.6940    20.9030     1.1940     1.6850     0.8710     2.3400 
    4.7500    30.3720    25.7260     1.3760     2.0500     0.8710     2.3400 
    4.8750    31.1210    30.7190     1.5300     2.4930     0.8710     2.3400 
    5.0000    31.0080    35.4320     1.6640     3.0740     0.8710     2.3400 
    5.1250    30.4200    39.6220     1.7830     3.6250     0.8710     2.3400 
    5.2500    29.7390    42.4560     1.8720     4.1630     0.8710     2.3400 
    5.3750    29.2120    43.2200     1.8930     4.9550     0.8710     2.3400 
    5.5000    28.9280    43.4270     1.8970     5.6850     0.8710     2.3400 
    5.6250    28.8870    43.5330     1.9130     6.0940     0.8710     2.3400 
    5.7500    29.0810    44.6590     1.9010     6.1150     0.8710     2.3400 
    5.8750    29.3940    46.8410     1.9040     5.5350     0.8710     2.3400 
    6.0000    29.7390    48.6660     1.9040     4.8780     0.8710     2.3400 
    6.1250    30.0840    49.4790     1.8830     4.2880     0.8710     2.3400 
    6.2500    30.4220    48.3880     1.8580     3.9110     0.8710     2.3400 
    6.3750    30.7510    46.7150     1.7930     3.9250     0.8710     2.3400 
    6.5000    31.0730    45.3290     1.7330     4.3660     0.8710     2.3400 
    6.6250    31.4320    45.1730     1.6790     4.8620     0.8710     2.3400 
    6.7500    31.9050    46.4120     1.6560     5.0610     0.8710     2.3400 
    6.8750    32.4960    47.8720     1.6390     4.9050     0.8710     2.3400 
    7.0000    33.1680    48.9990     1.6230     4.3300     0.8710     2.3400 
    7.1250    33.8410    48.9110     1.6320     3.4980     0.8710     2.3400 
    7.2500    34.4310    47.1620     1.6350     2.9110     0.8710     2.3400 
    7.3750    34.8860    45.7770     1.6300     2.8430     0.8710     2.3400 
    7.5000    35.1730    45.8720     1.6160     3.4220     0.8710     2.3400 
    7.6250    35.3280    47.2730     1.5860     4.3420     0.8710     2.3400 
    7.7500    35.4190    47.3930     1.5690     5.0210     0.8710     2.3400 
    7.8750    35.5090    46.7660     1.5560     5.3660     0.8710     2.3400 
    8.0000    35.6090    45.2990     1.5430     5.4350     0.8710     2.3400 
    8.1250    35.7300    42.0330     1.5310     5.4030     0.8710     2.3400 
    8.2500    35.9070    36.7290     1.5310     5.4400     0.8770     2.3400 
    8.3750    36.1540    30.2840     1.5290     5.5790     0.8760     2.3400 
    8.5000    36.4620    26.0690     1.5290     5.6320     0.8740     2.3400 
    8.6250    36.8090    24.2920     1.5250     5.3760     0.8680     2.3400 
    8.7500    37.2460    24.7730     1.5240     4.8360     0.8630     2.3400 
    8.8750    37.8950    25.4890     1.5330     4.1640     0.8620     2.3400 
    9.0000    38.4690    25.6110     1.5410     3.7970     0.8620     2.3400 
    9.1250    38.2050    25.2690     1.5470     3.9440     0.8590     2.3400 
    9.2500    37.3110    25.7790     1.5520     4.5150     0.8550     2.3400 
    9.3750    36.9130    27.0080     1.5430     5.1550     0.8520     2.3400 
    9.5000    36.9570    28.6440     1.5340     5.3250     0.8520     2.3400 
    9.6250    36.6970    28.8010     1.5210     4.9500     0.8540     2.3400 
    9.7500    36.2810    27.9500     1.5060     4.3260     0.8580     2.3400 
    9.8750    36.3050    28.1200     1.4930     4.0720     0.8620     2.3400 
   10.0000    36.5800    30.2700     1.4820     4.3790     0.8610     2.3400 
   10.1250    36.8600    33.0950     1.4730     4.7540     0.8500     2.3400 
   10.2500    37.1890    33.7610     1.4230     4.8060     0.7970     2.3400 
   10.3750    37.2730    33.8520     1.3170     4.3460     0.6800     2.3400 
   10.5000    37.1410    33.7760     1.2050     3.6370     0.5440     2.3400 
   10.6250    36.9770    34.0140     1.1040     3.1070     0.4450     2.3400 
   10.7500    36.8080    33.4940     1.1120     2.9020     0.3940     2.3400 
   10.8750    36.7560    34.0200     1.1330     3.1430     0.3700     2.3400 
   11.0000    36.9200    34.6150     1.1290     3.6490     0.3500     2.3400 
   11.1250    37.1810    35.4460     1.1040     4.1270     0.3180     2.3400 
   11.2500    37.5920    35.2110     1.0600     4.4880     0.2800     2.3400 
   11.3750    38.0040    36.5220     1.0500     4.5380     0.2510     2.3400 
   11.5000    38.2710    37.9740     1.0460     4.3730     0.3250     2.3400 
   11.6250    38.8580    39.1040     1.0390     4.1820     0.6900     2.3400 
   11.7500    40.0780    38.5620     1.0270     3.9070     0.9150     2.3400 
   11.8750    40.9790    38.4890     1.0230     3.6270     0.6200     2.3400 
   12.0000    40.9100    38.4660     1.0240     3.3090     0.4270     2.3400 
   12.1250    40.6960    37.9010     1.0220     3.0800     0.5150     2.3400 
   12.2500    40.4000    37.3920     1.0220     3.1440     0.5820     2.3400 
   12.3750    39.3540    38.0170     1.0110     3.5190     0.6230     2.3400 
   12.5000    38.8760    40.2790     0.9880     3.9800     0.6470     2.3400 
   12.6250    39.6490    42.4370     0.9850     4.1350     0.6580     2.3400 
   12.7500    40.1440    43.5810     0.9810     3.8390     0.6610     2.3400 
   12.8750    40.5520    43.5860     0.9840     3.4370     0.6710     2.3400 
   13.0000    41.7640    43.4200     0.9980     3.3100     0.7050     2.3400 
   13.1250    42.4680    42.9680     1.0020     3.5150     0.7560     2.3400 
   13.2500    41.9340    43.0320     1.0160     3.7960     0.8080     2.3400 
   13.3750    40.5930    43.0130     1.0210     3.7460     0.8470     2.3400 
   13.5000    38.2350    43.4710     1.0180     3.4110     0.8670     2.3400 
   13.6250    37.2980    43.6400     0.9990     3.2180     0.8740     2.3400 
   13.7500    38.7320    43.7450     0.9950     3.4040     0.8740     2.3400 
