~V
VERS. 2.00: Ver 2.00
~W
STRT.M 50.0000:
STOP.M 213.0000:
STEP.M 0.1250:
NULL. -999.2500:
UWI. F10803:
~C
DEPT.M :
SP.MV :
GR.API :
RI. :
RML.OHMM :
RXO.OHMM :
DEN.GM/CC :
~A
# ...
  178.7500     0.6490    78.0770     4.6950     5.3680     4.3760     2.2230 
  178.8750     0.2300    79.4620     5.0620     5.6540     4.4130     2.2090 
  179.0000    -0.1580    82.5650     5.6190     6.1580     5.5670     2.1880 
  179.1250    -0.4800    85.4430     6.2440     6.7750     7.4520     2.1820 
  179.2500    -0.5620    88.0990     6.7320     7.3190     8.1720     2.2000 
  179.3750    -0.3820    89.5650     6.9510     7.6320     7.8100     2.2220 
  179.5000    -0.1110    91.0350     6.9090     7.7010     7.6800     2.2300 
  179.6250     0.1610    91.6340     6.7400     7.6000     7.6270     2.2230 
  179.7500     0.2930    91.7060     6.5590     7.4790     7.4000     2.2200 
  179.8750     0.2660    89.6910     6.4270     7.4280     7.0320     2.2320 
  180.0000     0.2220    87.1650     6.3000     7.4380     6.5790     2.2460 
  180.1250     0.2150    84.8770     6.1400     7.4380     6.6440     2.2380 
  180.2500     0.3980    84.0830     5.8650     7.3260     6.8170     2.2110 
  180.3750     0.4960    84.0900     5.4760     7.0370     6.4770     2.1910 
  180.5000     0.5340    82.9790     5.0800     6.6440     5.7590     2.1880 
  180.6250     0.4660    80.1260     4.7710     6.2830     4.7700     2.1880 
  180.7500     0.3780    79.5600     4.6780     6.0960     4.0830     2.1800 
  180.8750     0.3250    83.1070     4.8110     6.1890     3.9710     2.1740 
  181.0000     0.2010    89.1080     5.1780     6.5690     4.8200     2.1830 
  181.1250    -0.0630    93.0490     5.7530     7.2440     6.9510     2.2140 
  181.2500    -0.4160    95.8580     6.4790     8.1130     8.8810     2.2420 
  181.3750    -0.8630    98.3020     7.1080     8.9660     9.6930     2.2460 
  181.5000    -1.3350   100.6370     7.4950     9.5580    11.1070     2.2270 
  181.6250    -1.6500   100.7370     7.4620     9.6870    12.6920     2.2070 
  181.7500    -1.7920    99.7560     7.1300     9.3920    12.6530     2.2060 
  181.8750    -1.7310    96.9500     6.6250     8.8240    11.5520     2.2130 
  182.0000    -1.7140    93.4520     6.1650     8.2400     9.2680     2.2110 
  182.1250    -1.6600    89.5200     5.8470     7.8260     7.1310     2.2000 
  182.2500    -1.6090    86.5930     5.6930     7.6220     6.3380     2.2030 
  182.3750    -1.5250    84.7710     5.6690     7.6050     6.1900     2.2210 
  182.5000    -1.4700    84.3430     5.6680     7.6490     6.7740     2.2300 
  182.6250    -1.4260    84.9420     5.6330     7.6460     7.1130     2.2220 
  182.7500    -1.4060    84.0960     5.5410     7.5520     7.0090     2.2150 
  182.8750    -1.3890    82.1520     5.3870     7.3650     7.0370     2.2190 
  183.0000    -1.3750    79.1170     5.2410     7.1560     6.5770     2.2260 
  183.1250    -1.3550    77.6050     5.1420     7.0060     5.8040     2.2330 
  183.2500    -1.2230    77.4230     5.1360     6.9680     5.2280     2.2370 
  183.3750    -1.1410    79.5120     5.1960     6.9200     5.0260     2.2410 
  183.5000    -0.9990    82.0600     5.3310     7.1010     5.3140     2.2370 
  183.6250    -0.8410    84.6080     5.4670     7.3200     6.3150     2.2300 
  183.7500    -0.7450    85.8820     5.5920     7.5210     7.4270     2.2200 
  183.8750    -0.7750    86.6140     5.7070     7.6940     7.1700     2.2130 
  184.0000    -0.9240    86.1460     5.8150     7.8480     6.1520     2.2100 
  184.1250    -1.2330    85.2980     5.9120     7.9840     6.1260     2.2150 
  184.2500    -1.4630    83.3500     5.9920     8.0990     6.9280     2.2260 
  184.3750    -1.6210    81.2690     6.0450     8.1790     7.6120     2.2420 
  184.5000    -1.6600    80.1110     6.0510     8.2120     7.7890     2.2580 
  184.6250    -1.5410    80.1990     6.0520     8.2220     7.3140     2.2670 
  184.7500    -1.3890    81.7360     6.0760     8.2590     6.9730     2.2620 
  184.8750    -1.1700    82.9630     6.1610     8.3650     7.1620     2.2430 
  185.0000    -0.9210    84.5700     6.2980     8.5430     8.3760     2.2280 
  185.1250    -0.6840    84.3890     6.4730     8.7690    11.4510     2.2320 
  185.2500    -0.4190    84.7430     6.6170     8.9620    13.7170     2.2590 
  185.3750    -0.0900    84.1240     6.6080     8.9930    11.6030     2.2910 
  185.5000     0.1950    84.9160     6.4510     8.9950     7.8500     2.3110 
  185.6250     0.4120    86.0910     6.2220     8.6630     6.5160     2.3140 
  185.7500     0.5130    89.1760     6.0280     8.3440     7.0740     2.2960 
  185.8750     0.5300    89.8530     6.0250     8.2270    19.2780     2.2570 
  186.0000     0.4390    88.8470     6.2080     8.3830    30.6590     2.2240 
  186.1250     0.2660    84.3750     6.5160     8.7350    18.7300     2.2290 
  186.2500     0.0450    80.1080     6.7400     9.0620     6.8460     2.2660 
  186.3750    -0.1530    77.2670     6.7830     9.1650     8.2510     2.2850 
  186.5000    -0.2090    75.1310     6.6220     9.0010     9.6900     2.2810 
  186.6250    -0.1770    75.7210     6.3420     8.6470     7.3470     2.2690 
  186.7500    -0.0160    77.5950     6.1230     8.3120     5.9750     2.2630 
  186.8750     0.1560    81.5340     6.0090     8.1270     7.4610     2.2580 
  187.0000     0.3680    83.5330     5.9700     8.0560     7.6190     2.2440 
  187.1250     0.5030    82.5320     5.9170     7.9880     6.8040     2.2240 
  187.2500     0.7740    79.5140     5.7780     7.8250     7.0530     2.2030 
  187.3750     1.0220    75.5030     5.5720     7.5540     7.5820     2.1940 
  187.5000     1.0730    72.2120     5.3520     7.2590     7.1540     2.1960 
  187.6250     0.9930    70.4900     5.2280     7.0560     6.1240     2.2070 
  187.7500     0.7610    71.4520     5.2040     6.9880     5.2090     2.2210 
  187.8750     0.4640    73.5180     5.2460     7.0300     4.9250     2.2320 
  188.0000     0.1370    74.3230     5.3300     7.1220     5.7230     2.2270 
  188.1250    -0.0390    72.9510     5.4300     7.2260     6.6990     2.2070 
  188.2500    -0.1750    71.4960     5.5090     7.3240     6.5960     2.1900 
  188.3750    -0.3750    71.6370     5.5990     7.4340     6.6070     2.1930 
  188.5000    -0.6530    72.4640     5.7070     7.5610     7.2080     2.2140 
  188.6250    -0.6600    72.2600     5.7660     7.6530     7.1740     2.2310 
  188.7500    -0.4970    72.1540     5.7820     7.6790     7.3650     2.2370 
  188.8750    -0.1800    73.9890     5.7450     7.6400     8.4520     2.2270 
  189.0000    -0.0050    75.8470     5.7010     7.5760     7.9820     2.2140 
  189.1250    -0.0140    76.3130     5.6770     7.5340     5.8340     2.2060 
  189.2500    -0.0500    75.3300     5.7160     7.5570     5.1310     2.2060 
  189.3750    -0.0210    76.3280     5.8280     7.6750     5.7840     2.2150 
  189.5000     0.0860    79.0200     5.9790     7.8580     6.3050     2.2190 
  189.6250     0.1490    81.9640     6.1260     8.0400     6.9610     2.2300 
  189.7500     0.2900    82.8360     6.2200     8.1640     7.7850     2.2460 
  189.8750     0.3760    81.3550     6.2990     8.2250     8.0710     2.2530 
  190.0000     0.4180    79.9930     6.3530     8.2540     7.5140     2.2310 
  190.1250     0.3230    78.6500     6.4100     8.2740     6.7940     2.2000 
  190.2500     0.2690    79.3350     6.4760     8.3030     6.7910     2.1920 
  190.3750     0.1420    80.9640     6.5460     8.3440     7.1690     2.2010 
  190.5000     0.0760    83.1210     6.5890     8.3770     7.2230     2.2130 
  190.6250     0.0710    82.6930     6.5400     8.3380     7.6110     2.2140 
  190.7500     0.1230    79.3540     6.3290     8.1560     8.4200     2.2220 
  190.8750     0.1470    75.2710     5.9920     7.8050     8.0700     2.2380 
  191.0000     0.2320    71.8670     5.6300     7.3720     6.7790     2.2590 
  191.1250     0.2930    70.5150     5.3160     6.9580     5.8740     2.2730 
  191.2500     0.2180    69.3680     5.1080     6.6480     5.3030     2.2770 
  191.3750     0.0880    69.0120     5.0350     6.5000     5.2230     2.2750 
  191.5000    -0.0530    68.2480     5.0580     6.4840     5.4530     2.2740 
