~V
VERS. 2.00: Ver 2.00
~W
STRT.M 40.0000:
STOP.M 216.0000:
STEP.M 0.1250:
NULL. -999.2500:
UWI. F10813:
~C
DEPT.M :
SP.MV :
GR.API :
RI. :
RML.OHMM :
RXO.OHMM :
DEN.GM/CC :
~A
# ...
  207.3750    -3.5680    75.8460     6.1860     7.8690     8.3270     2.3470 
  207.5000    -3.5680    75.4230     6.1840     7.8640     7.6050     2.3600 
  207.6250    -3.5680    75.4800     6.1820     7.8620     6.7010     2.3850 
  207.7500    -3.5680    75.0150     6.1810     7.8620     6.3830     2.3960 
  207.8750    -3.5680    74.8190     6.1760     7.8640     6.5450     2.3750 
  208.0000    -3.5680    74.5360     6.1750     7.8630     6.6280     2.3380 
  208.1250    -3.5680    74.5880     6.1810     7.8620     7.2780     2.3160 
  208.2500    -3.5680    74.5880     6.1850     7.8630     8.7450     2.3190 
  208.3750    -3.5680    74.5880     6.1910     7.8630     9.9150     2.3260 
  208.5000    -3.5680    74.5880     6.1940     7.8610    11.5980     2.3110 
  208.6250    -3.5680    74.5880     6.1880     7.8580    20.7490     2.2740 
  208.7500    -3.5680    74.5880     6.1830     7.8560    26.4900     2.2480 
  208.8750    -3.5680    74.5880     6.1780     7.8540    14.8540     2.2460 
  209.0000    -3.5680    74.5880     6.1780     7.8530     4.7660     2.2570 
  209.1250    -3.5680    74.5880     6.1770     7.8570     4.5020     2.2630 
  209.2500    -3.5680    74.5880     6.1770     7.8610     4.8140     2.2750 
  209.3750    -3.5680    74.5880     6.1770     7.8670     5.0430     2.2930 
  209.5000    -3.5680    74.5880     6.1770     7.8700     6.6450     2.3110 
  209.6250    -3.5680    74.5880     6.1770     7.8670     9.3410     2.3130 
  209.7500    -3.5680    74.5880     6.1770     7.8640     9.3700     2.3090 
  209.8750    -3.5680    74.5880     6.1790     7.8620     6.5640     2.3110 
  210.0000    -3.5680    74.5880     6.1810     7.8580     4.9110     2.3080 
  210.1250    -3.5680    74.5880     6.1830     7.8590     4.6780     2.2660 
  210.2500    -3.5680    74.5880     6.1830     7.8650     4.5240     2.1920 
  210.3750    -3.5680    74.5880     6.1830     7.8750     4.8250     2.1290 
  210.5000    -3.5680    74.5880     6.1840     7.8870     5.2130     2.1130 
  210.6250    -3.5680    74.5880     6.1840     7.8930     4.9910     2.1290 
  210.7500    -3.5680    74.5880     6.1840     7.8940     4.4110     2.1400 
  210.8750    -3.5680    74.5880     6.1840     7.8940     3.8510     2.1380 
  211.0000    -3.5680    74.5880     6.1840     7.8940     3.5580     2.1290 
  211.1250    -3.5680    74.5880     6.1840     7.8940     3.5220     2.1240 
  211.2500    -3.5680    74.5880     6.1840     7.8940     3.5210     2.1160 
  211.3750    -3.5680    74.5880     6.1840     7.8940     3.5200     2.1090 
  211.5000    -3.5680    74.5880     6.1840     7.8940     3.5190     2.1070 
  211.6250    -3.5680    74.5880     6.1840     7.8940     3.5190     2.1120 
  211.7500    -3.5680    74.5880     6.1840     7.8940     3.5170     2.1180 
  211.8750    -3.5680    74.5880     6.1840     7.8940     3.5170     2.1150 
  212.0000    -3.5680    74.5880     6.1840     7.8940     3.5160     2.1080 
  212.1250    -3.5680    74.5880     6.1840     7.8940     3.5140     2.0980 
  212.2500    -3.5680    74.5880     6.1840     7.8940     3.5130     2.0890 
  212.3750    -3.5680    74.5880     6.1840     7.8940     3.5120     2.0870 
  212.5000    -3.5680    74.5880     6.1840     7.8940     3.5110     2.0920 
  212.6250    -3.5680    74.5880     6.1840     7.8940     3.5100     2.1020 
  212.7500    -3.5680    74.5880     6.1840     7.8940     3.5090     2.1080 
  212.8750    -3.5680    74.5880     6.1840     7.8940     3.5090     2.1090 
  213.0000    -3.5680    74.5880     6.1840     7.8940     3.5070     2.1060 
  213.1250    -3.5680    74.5880     6.1840     7.8940     3.5060     2.1030 
  213.2500    -3.5680    74.5880     6.1840     7.8940     3.5050     2.1010 
  213.3750    -3.5680    74.5880     6.1840     7.8940     3.5040     2.1000 
  213.5000    -3.5680    74.5880     6.1840     7.8940     3.5030     2.0950 
  213.6250    -3.5680    74.5880     6.1840     7.8940     3.5020     2.0890 
  213.7500    -3.5680    74.5880     6.1840     7.8940     3.5000     2.0870 
  213.8750    -3.5680    74.5880     6.1840     7.8940     3.4990     2.0870 
  214.0000    -3.5680    74.5880     6.1840     7.8940     3.4980     2.0880 
  214.1250    -3.5680    74.5880     6.1840     7.8940     3.4970     2.0880 
  214.2500    -3.5680    74.5880     6.1840     7.8940     3.4960     2.0880 
  214.3750    -3.5680    74.5880     6.1840     7.8940     3.4950     2.0880 
  214.5000    -3.5680    74.5880     6.1840     7.8940     3.4940     2.0880 
  214.6250    -3.5680    74.5880     6.1840     7.8940     3.4930     2.0880 
  214.7500    -3.5680    74.5880     6.1840     7.8940     3.4920     2.0880 
  214.8750    -3.5680    74.5880     6.1840     7.8940     3.4900     2.0880 
  215.0000    -3.5680    74.5880     6.1840     7.8940     3.4890     2.0880 
  215.1250    -3.5680    74.5880     6.1840     7.8940     3.4880     2.0880 
  215.2500    -3.5680    74.5880     6.1840     7.8940     3.4870     2.0880 
  215.3750    -3.5680    74.5880     6.1840     7.8940     3.4860     2.0880 
  215.5000    -3.5680    74.5880     6.1840     7.8940     3.4840     2.0880 
  215.6250    -3.5680    74.5880     6.1840     7.8940     3.4820     2.0880 
  215.7500    -3.5680    74.5880     6.1840     7.8940     3.4740     2.0880 
  215.8750    -3.5680    74.5880     6.1840     7.8940     3.4610     2.0880 
  216.0000    -3.5680    74.5880     6.1840     7.8940     3.4540     2.0880 
