~V
VERS. 2.00: Ver 2.00
~W
STRT.M 62.0000:
STOP.M 256.0000:
STEP.M 0.1250:
NULL. -999.2500:
UWI. F10886:
~C
DEPT.M :
TVD. :
DX. :
DY. :
SP.MV :
GR.API :
RI. :
RML.OHMM :
RXO.OHMM :
DEN.GM/CC :
~A
# ...
   89.3750    89.3720    -0.1600    -0.3370   -18.2010    64.3550     9.0960    10.4020     9.0070     2.0840 
   89.5000    89.4970    -0.1610    -0.3390   -18.4910    62.9500     9.0680    10.3970     9.0340     2.0880 
   89.6250    89.6220    -0.1620    -0.3400   -18.6690    60.4290     9.0630    10.4260     9.3620     2.0900 
   89.7500    89.7470    -0.1630    -0.3420   -18.7420    57.0470     9.1040    10.5090     9.9820     2.0950 
   89.8750    89.8720    -0.1640    -0.3440   -18.7460    56.2950     9.2080    10.6570    10.7580     2.1060 
   90.0000    89.9970    -0.1640    -0.3460   -18.7400    58.3530     9.3610    10.8520    11.2480     2.1190 
   90.1250    90.1220    -0.1650    -0.3480   -18.7610    62.2190     9.5320    11.0510    11.3040     2.1300 
   90.2500    90.2470    -0.1660    -0.3490   -18.8070    64.4060     9.6780    11.2000    11.3480     2.1390 
   90.3750    90.3720    -0.1670    -0.3510   -18.8510    64.6230     9.7850    11.2800    11.4660     2.1410 
   90.5000    90.4970    -0.1680    -0.3530   -18.8630    62.7840     9.8860    11.3510    11.3790     2.1380 
   90.6250    90.6220    -0.1690    -0.3550   -18.8140    60.5890    10.0510    11.5150    11.1850     2.1310 
   90.7500    90.7470    -0.1690    -0.3560   -18.6960    58.4080    10.3250    11.8390    11.2020     2.1250 
   90.8750    90.8720    -0.1700    -0.3580   -18.4960    58.7970    10.6890    12.2950    11.5650     2.1200 
   91.0000    90.9970    -0.1710    -0.3600   -18.2220    59.9420    10.9620    12.6270    12.2100     2.1150 
   91.1250    91.1220    -0.1720    -0.3620   -17.8680    61.4850    10.7930    12.3760    12.1270     2.1090 
   91.2500    91.2470    -0.1730    -0.3640   -17.4310    63.1070     9.9980    11.3320    10.5080     2.1040 
   91.3750    91.3720    -0.1740    -0.3650   -16.8780    64.9660     8.6370     9.6180     8.6450     2.1100 
   91.5000    91.4970    -0.1740    -0.3670   -16.2030    67.4840     7.1030     7.7490     7.4350     2.1360 
   91.6250    91.6220    -0.1750    -0.3690   -15.3990    69.5250     5.7860     6.2020     6.3010     2.1760 
   91.7500    91.7470    -0.1760    -0.3710   -14.5190    72.9840     4.8630     5.1610     5.0600     2.2120 
   91.8750    91.8720    -0.1770    -0.3730   -13.6380    76.3950     4.3530     4.6150     4.4000     2.2330 
   92.0000    91.9970    -0.1780    -0.3740   -12.8440    80.4650     4.1460     4.4210     4.3080     2.2400 
   92.1250    92.1220    -0.1790    -0.3760   -12.2160    82.2560     4.1790     4.4920     4.3400     2.2410 
   92.2500    92.2470    -0.1790    -0.3780   -11.7590    83.0020     4.3260     4.6710     4.4520     2.2410 
   92.3750    92.3720    -0.1800    -0.3800   -11.4600    82.7900     4.4760     4.8330     4.7010     2.2370 
   92.5000    92.4970    -0.1810    -0.3810   -11.2580    82.4160     4.5500     4.8930     4.8450     2.2270 
   92.6250    92.6220    -0.1820    -0.3830   -11.1120    82.7800     4.5020     4.8150     4.7880     2.2180 
   92.7500    92.7470    -0.1830    -0.3850   -10.9910    83.8030     4.3510     4.6300     4.6090     2.2160 
   92.8750    92.8720    -0.1830    -0.3870   -10.8740    85.6750     4.1280     4.3720     4.3610     2.2230 
   93.0000    92.9970    -0.1840    -0.3890   -10.7500    86.7000     3.9100     4.1320     4.1880     2.2350 
   93.1250    93.1220    -0.1850    -0.3900   -10.6180    85.4890     3.7920     4.0190     4.0860     2.2460 
   93.2500    93.2470    -0.1860    -0.3920   -10.4880    83.2580     3.8170     4.0830     3.9890     2.2540 
   93.3750    93.3720    -0.1870    -0.3940   -10.4000    80.4130     4.0350     4.3840     4.1900     2.2520 
   93.5000    93.4970    -0.1870    -0.3960   -10.3960    77.3290     4.4530     4.9250     4.7810     2.2390 
   93.6250    93.6220    -0.1880    -0.3970   -10.5340    73.8080     5.0550     5.6720     5.4260     2.2190 
   93.7500    93.7470    -0.1890    -0.3990   -10.8270    70.4320     5.7490     6.5060     5.9530     2.1980 
   93.8750    93.8720    -0.1900    -0.4010   -11.2820    67.8010     6.4460     7.3240     6.4780     2.1790 
   94.0000    93.9970    -0.1900    -0.4030   -11.8550    67.0600     7.0660     8.0400     7.1270     2.1620 
   94.1250    94.1220    -0.1910    -0.4040   -12.5120    66.9520     7.5600     8.6060     7.7570     2.1490 
   94.2500    94.2470    -0.1920    -0.4060   -13.2100    66.7280     7.9590     9.0630     8.3030     2.1390 
   94.3750    94.3720    -0.1930    -0.4080   -13.9200    65.4250     8.3050     9.4540     8.8630     2.1300 
   94.5000    94.4970    -0.1930    -0.4090   -14.6240    65.8190     8.6410     9.8280     9.3260     2.1200 
   94.6250    94.6220    -0.1940    -0.4110   -15.2980    66.0450     8.9910    10.2360     9.5430     2.1130 
   94.7500    94.7470    -0.1950    -0.4130   -15.9120    66.7610     9.3650    10.7100     9.9090     2.1120 
   94.8750    94.8720    -0.1960    -0.4140   -16.4050    66.3660     9.7810    11.2580    10.5570     2.1170 
   95.0000    94.9970    -0.1970    -0.4160   -16.7280    69.2340    10.2200    11.8130    11.2520     2.1270 
   95.1250    95.1220    -0.1970    -0.4180   -16.8240    73.3900    10.5930    12.2100    12.0660     2.1360 
   95.2500    95.2470    -0.1980    -0.4200   -16.7080    77.3250    10.7300    12.2170    12.7810     2.1380 
   95.3750    95.3720    -0.1990    -0.4210   -16.3900    76.4120    10.4330    11.6360    12.5030     2.1290 
   95.5000    95.4970    -0.2000    -0.4230   -15.9120    72.1740     9.7240    10.5800    11.3240     2.1160 
   95.6250    95.6220    -0.2010    -0.4250   -15.2700    67.4330     8.7080     9.2410     9.6390     2.1120 
   95.7500    95.7470    -0.2010    -0.4260   -14.4710    65.8290     7.6070     7.9110     7.7380     2.1260 
   95.8750    95.8720    -0.2020    -0.4280   -13.5130    67.9890     6.5750     6.7660     6.6390     2.1570 
   96.0000    95.9970    -0.2030    -0.4300   -12.4580    72.9930     5.7010     5.8570     6.0900     2.1910 
   96.1250    96.1220    -0.2040    -0.4310   -11.4010    79.6130     5.0470     5.2170     5.4190     2.2170 
   96.2500    96.2470    -0.2050    -0.4330   -10.4510    86.0230     4.5890     4.7920     4.8270     2.2310 
   96.3750    96.3720    -0.2050    -0.4350    -9.7110    87.7210     4.3020     4.5330     4.4840     2.2340 
   96.5000    96.4970    -0.2060    -0.4360    -9.2000    84.2930     4.1170     4.3600     4.2610     2.2330 
   96.6250    96.6220    -0.2070    -0.4380    -8.9280    79.1500     4.0090     4.2480     4.1350     2.2340 
   96.7500    96.7470    -0.2080    -0.4400    -8.8450    77.1030     3.9730     4.1970     4.0330     2.2410 
   96.8750    96.8720    -0.2090    -0.4410    -8.9280    78.1360     4.0580     4.2760     3.9650     2.2450 
   97.0000    96.9970    -0.2090    -0.4430    -9.1350    79.5030     4.3700     4.6220     4.1610     2.2400 
   97.1250    97.1220    -0.2100    -0.4440    -9.4600    80.9380     5.1350     5.5030     4.7930     2.2310 
   97.2500    97.2470    -0.2110    -0.4460    -9.8870    81.0490     6.4180     6.9880     7.1010     2.2330 
   97.3750    97.3720    -0.2120    -0.4480   -10.4120    79.9960     8.1240     8.9580    14.0810     2.2560 
   97.5000    97.4960    -0.2130    -0.4490   -10.9950    75.6360     9.8710    10.9340    23.1390     2.2870 
   97.6250    97.6210    -0.2140    -0.4510   -11.5780    70.0810    10.9840    12.0840    25.6530     2.3010 
   97.7500    97.7460    -0.2140    -0.4530   -12.1040    64.8480    11.0100    11.9340    20.6660     2.2820 
   97.8750    97.8710    -0.2150    -0.4540   -12.5240    62.7420     9.9090    10.5290    13.9240     2.2400 
   98.0000    97.9960    -0.2160    -0.4560   -12.8360    63.2970     8.2850     8.6300     9.3470     2.2070 
   98.1250    98.1210    -0.2170    -0.4580   -13.0350    65.5960     6.8850     7.1170     7.3580     2.2030 
   98.2500    98.2460    -0.2180    -0.4590   -13.1470    70.2640     6.1490     6.4160     6.6210     2.2150 
   98.3750    98.3710    -0.2190    -0.4610   -13.2010    75.0910     6.0960     6.4980     6.6550     2.2170 
