~V
VERS. 2.00: Ver 2.00
~W
STRT.M 65.0000:
STOP.M 239.0000:
STEP.M 0.1250:
NULL. -999.2500:
UWI. F10876:
~C
DEPT.M :
TVD. :
DX. :
DY. :
SP.MV :
GR.API :
RI. :
RML.OHMM :
RXO.OHMM :
DEN.GM/CC :
~A
# ...
  101.5000   101.4960    -0.5220    -0.0820   -17.6740    75.6010     5.3590     6.2880     6.1450     2.2330 
  101.6250   101.6210    -0.5240    -0.0830   -18.0140    73.6690     5.2150     6.1070     6.0740     2.2410 
  101.7500   101.7460    -0.5260    -0.0830   -18.1960    76.0360     5.1940     6.0550     5.7470     2.2410 
  101.8750   101.8710    -0.5280    -0.0830   -18.3160    81.7030     5.2190     6.0400     5.5300     2.2350 
  102.0000   101.9960    -0.5300    -0.0840   -18.4370    86.1100     5.2300     6.0000     5.6710     2.2330 
  102.1250   102.1210    -0.5320    -0.0840   -18.5940    85.0330     5.2010     5.8970     5.8090     2.2400 
  102.2500   102.2460    -0.5340    -0.0840   -18.7870    83.2260     5.1090     5.7010     5.6150     2.2540 
  102.3750   102.3710    -0.5360    -0.0850   -18.9780    86.1090     4.9680     5.4430     5.2910     2.2650 
  102.5000   102.4960    -0.5390    -0.0850   -19.1300    90.7100     4.8020     5.1780     5.0160     2.2660 
  102.6250   102.6210    -0.5410    -0.0860   -19.2430    91.3110     4.6970     5.0240     4.8170     2.2560 
  102.7500   102.7460    -0.5430    -0.0860   -19.3370    89.2500     4.7530     5.0840     4.8120     2.2390 
  102.8750   102.8710    -0.5450    -0.0860   -19.4130    87.5730     4.9450     5.2890     4.9890     2.2230 
  103.0000   102.9960    -0.5470    -0.0870   -19.4460    83.9800     5.1390     5.4890     4.8910     2.2210 
  103.1250   103.1210    -0.5490    -0.0870   -19.4380    76.8430     5.2020     5.5570     5.1680     2.2390 
  103.2500   103.2460    -0.5510    -0.0880   -19.4320    72.9760     5.0850     5.4420     5.0150     2.2720 
  103.3750   103.3710    -0.5530    -0.0880   -19.4710    75.0270     4.8160     5.1730     4.4700     2.3040 
  103.5000   103.4960    -0.5550    -0.0880   -19.5540    81.6850     4.4740     4.8150     4.1850     2.3200 
  103.6250   103.6210    -0.5570    -0.0890   -19.6280    86.6120     4.1690     4.4820     4.3190     2.3210 
  103.7500   103.7460    -0.5590    -0.0890   -19.6320    87.1510     4.0350     4.3730     4.3740     2.3240 
  103.8750   103.8710    -0.5610    -0.0900   -19.5720    87.4840     4.3020     4.7550     4.3320     2.3490 
  104.0000   103.9960    -0.5630    -0.0900   -19.4680    89.1100     5.3210     5.8290     5.8680     2.4090 
  104.1250   104.1210    -0.5650    -0.0910   -19.3180    90.6380     7.0940     7.6980    12.9430     2.4920 
  104.2500   104.2460    -0.5670    -0.0910   -19.0820    86.4310    10.3410    11.3560    27.8790     2.5720 
  104.3750   104.3710    -0.5690    -0.0910   -18.7410    75.3730    15.8850    17.7980    43.1050     2.6280 
  104.5000   104.4960    -0.5710    -0.0920   -18.2970    64.5740    23.0570    26.1830    51.1700     2.6460 
  104.6250   104.6210    -0.5730    -0.0920   -17.7920    59.8020    28.6440    32.6180    54.0030     2.6290 
  104.7500   104.7460    -0.5750    -0.0930   -17.2270    58.8050    29.5480    33.5270    53.1250     2.5720 
  104.8750   104.8710    -0.5770    -0.0930   -16.5700    54.7310    26.0660    29.1590    48.6050     2.4800 
  105.0000   104.9960    -0.5790    -0.0940   -15.7970    50.7270    20.3170    22.3830    41.3900     2.3650 
  105.1250   105.1210    -0.5810    -0.0940   -14.9550    52.1870    15.5120    16.8750    31.4950     2.2530 
  105.2500   105.2460    -0.5830    -0.0950   -14.1040    57.6670    12.5510    13.6500    20.0980     2.1710 
  105.3750   105.3710    -0.5850    -0.0950   -13.2790    61.0910    10.5970    11.7850    12.3350     2.1220 
  105.5000   105.4960    -0.5870    -0.0960   -12.4890    61.8930     9.6050    10.8930     9.9220     2.0970 
  105.6250   105.6210    -0.5890    -0.0960   -11.7380    61.2880     9.3700    10.7230     9.5970     2.0810 
  105.7500   105.7460    -0.5910    -0.0970   -11.0480    58.8070     9.6500    11.0680     9.9520     2.0680 
  105.8750   105.8710    -0.5930    -0.0970   -10.4150    55.8840    10.1950    11.6310    10.7160     2.0600 
  106.0000   105.9960    -0.5950    -0.0970    -9.8200    53.2710    10.8720    12.2490    11.3970     2.0590 
  106.1250   106.1210    -0.5970    -0.0980    -9.2540    51.2140    11.5460    12.8130    11.8200     2.0650 
  106.2500   106.2450    -0.5990    -0.0980    -8.7530    50.0860    12.1390    13.2430    12.2660     2.0750 
  106.3750   106.3700    -0.6010    -0.0990    -8.3630    49.8280    12.6140    13.5380    12.8290     2.0820 
  106.5000   106.4950    -0.6030    -0.0990    -8.1560    51.6940    13.0300    13.7800    13.4110     2.0850 
  106.6250   106.6200    -0.6050    -0.1000    -8.1670    53.6950    13.4940    14.1130    13.9400     2.0850 
  106.7500   106.7450    -0.6070    -0.1000    -8.4440    55.0340    13.9550    14.5120    14.2590     2.0930 
  106.8750   106.8700    -0.6090    -0.1010    -9.0000    54.2070    14.0790    14.6210    14.2260     2.1130 
  107.0000   106.9950    -0.6110    -0.1010    -9.9040    51.5070    13.2730    13.7510    13.9260     2.1440 
  107.1250   107.1200    -0.6130    -0.1010   -11.1470    49.8510    11.5740    11.9150    13.4900     2.1810 
  107.2500   107.2450    -0.6150    -0.1020   -12.6820    52.4920     9.3880     9.5760    12.1510     2.2190 
  107.3750   107.3700    -0.6170    -0.1020   -14.3240    59.5810     7.2970     7.3490     9.3960     2.2540 
  107.5000   107.4950    -0.6190    -0.1030   -15.8510    68.9200     5.8170     5.8230     6.4610     2.2820 
  107.6250   107.6200    -0.6210    -0.1030   -17.0650    76.2150     4.8710     4.8740     4.8560     2.3020 
  107.7500   107.7450    -0.6230    -0.1040   -17.7910    80.6010     4.3700     4.3760     4.3490     2.3160 
  107.8750   107.8700    -0.6250    -0.1040   -18.0420    84.9570     4.3060     4.3680     4.1050     2.3340 
  108.0000   107.9950    -0.6270    -0.1040   -17.8650    88.5890     4.8040     4.9650     4.3480     2.3650 
  108.1250   108.1200    -0.6290    -0.1050   -17.4020    87.4990     6.0570     6.2680     6.3310     2.4030 
  108.2500   108.2450    -0.6310    -0.1050   -16.7170    79.4470     8.2350     8.6000    12.4680     2.4190 
  108.3750   108.3700    -0.6330    -0.1060   -15.8530    69.0230    11.0400    11.6070    20.8360     2.3920 
  108.5000   108.4950    -0.6350    -0.1060   -14.7900    61.8490    13.7620    14.5090    23.8730     2.3300 
  108.6250   108.6200    -0.6370    -0.1070   -13.5540    57.8800    15.4290    16.2690    19.6910     2.2690 
  108.7500   108.7450    -0.6390    -0.1070   -12.2050    57.0920    15.6780    16.4190    14.6070     2.2380 
  108.8750   108.8700    -0.6410    -0.1070   -10.8550    57.8710    15.1740    15.7810    12.6680     2.2290 
  109.0000   108.9950    -0.6440    -0.1080    -9.5600    58.0450    14.6450    15.2040    13.1200     2.2150 
  109.1250   109.1200    -0.6460    -0.1080    -8.2860    58.0790    14.7310    15.3400    15.1020     2.1830 
  109.2500   109.2450    -0.6480    -0.1080    -6.9880    57.7030    15.5870    16.3160    17.4680     2.1370 
  109.3750   109.3700    -0.6500    -0.1090    -5.7000    56.0900    16.8570    17.7410    18.7780     2.0950 
  109.5000   109.4950    -0.6520    -0.1090    -4.5430    54.2100    18.2010    19.2330    19.1870     2.0710 
  109.6250   109.6200    -0.6540    -0.1100    -3.6250    53.8000    19.3310    20.4570    19.0600     2.0640 
  109.7500   109.7450    -0.6560    -0.1100    -3.0090    54.1980    19.9450    21.0720    18.3370     2.0710 
  109.8750   109.8700    -0.6580    -0.1100    -2.6460    53.6400    20.1390    21.2200    21.2890     2.0840 
  110.0000   109.9950    -0.6600    -0.1110    -2.5080    53.3220    20.1110    21.1340    20.8140     2.0910 
  110.1250   110.1200    -0.6630    -0.1110    -2.5170    53.7760    19.9650    20.9580    20.5500     2.0880 
  110.2500   110.2450    -0.6650    -0.1110    -2.6230    53.9520    19.7480    20.7560    20.5260     2.0790 
  110.3750   110.3700    -0.6670    -0.1120    -2.7800    54.9640    19.4900    20.5510    20.3300     2.0710 
  110.5000   110.4950    -0.6690    -0.1120    -2.9650    57.3630    19.2280    20.3530    19.6680     2.0710 
