~V
VERS. 2.00: Ver 2.00
~W
STRT.M 1.0000:
STOP.M 205.0000:
STEP.M 0.1250:
NULL. -999.2500:
UWI. F10806:
~C
DEPT.M :
SP.MV :
GR.API :
RI. :
RML.OHMM :
RXO.OHMM :
DEN.GM/CC :
~A
# ...
  194.1250   -14.2470    74.8000     5.6580     6.4080     5.5260     2.2720 
  194.2500   -14.2470    74.8170     5.7510     6.4910     5.7370     2.2590 
  194.3750   -14.2470    72.8380     5.7930     6.5170     5.8730     2.2390 
  194.5000   -14.2470    72.1060     5.7910     6.4870     5.6490     2.2500 
  194.6250   -14.2470    72.7730     5.7530     6.4270     5.2640     2.2930 
  194.7500   -14.2470    74.2880     5.6900     6.3430     5.0980     2.3200 
  194.8750   -14.2470    74.2190     5.6120     6.2580     5.1550     2.3010 
  195.0000   -14.2470    75.0380     5.5600     6.2030     4.7310     2.2620 
  195.1250   -14.2470    75.1370     5.5400     6.1770     4.0570     2.2520 
  195.2500   -14.2470    74.9020     5.5350     6.1680     4.3600     2.2510 
  195.3750   -14.2470    75.5430     5.5400     6.1650     5.1280     2.2120 
  195.5000   -14.2470    77.1430     5.5390     6.1630     9.1090     2.1510 
  195.6250   -14.2470    78.9420     5.5390     6.1600    12.9700     2.1250 
  195.7500   -14.2470    78.3670     5.5390     6.1590     9.2210     2.1260 
  195.8750   -14.2470    76.7270     5.5390     6.1580     5.8390     2.1060 
  196.0000   -14.2470    74.6040     5.5400     6.1560     6.8190     2.0520 
  196.1250   -14.2470    73.5770     5.5400     6.1510     7.2460     1.9840 
  196.2500   -14.2470    73.1800     5.5400     6.1440     7.0770     1.9030 
  196.3750   -14.2470    74.2900     5.5410     6.1360     6.9340     1.8260 
  196.5000   -14.2470    75.0850     5.5410     6.1340     6.5670     1.8160 
  196.6250   -14.2470    75.6680     5.5410     6.1350     5.8120     1.9040 
  196.7500   -14.2470    74.5560     5.5410     6.1370     7.1510     2.0450 
  196.8750   -14.2470    74.0010     5.5410     6.1390     8.6910     2.1630 
  197.0000   -14.2470    74.6410     5.5410     6.1390     6.1190     2.2240 
  197.1250   -14.2470    76.0710     5.5410     6.1390     4.7300     2.2450 
  197.2500   -14.2470    77.0180     5.5410     6.1390     6.5920     2.2470 
  197.3750   -14.2470    77.1570     5.5400     6.1380     8.2580     2.2520 
  197.5000   -14.2470    77.1570     5.5400     6.1380    10.4690     2.2450 
  197.6250   -14.2470    77.1570     5.5410     6.1390    10.9310     2.1990 
  197.7500   -14.2470    77.1570     5.5410     6.1400     8.5640     2.1120 
  197.8750   -14.2470    77.1570     5.5410     6.1410     7.5260     2.0580 
  198.0000   -14.2470    77.1570     5.5400     6.1410     7.5500     2.0960 
  198.1250   -14.2470    77.1570     5.5400     6.1400     6.8270     2.1940 
  198.2500   -14.2470    77.1570     5.5400     6.1390     5.9190     2.2800 
  198.3750   -14.2470    77.1570     5.5420     6.1400     5.1850     2.3200 
  198.5000   -14.2470    77.1570     5.5420     6.1410     4.9050     2.3140 
  198.6250   -14.2470    77.1570     5.5420     6.1420     5.0190     2.2800 
  198.7500   -14.2470    77.1570     5.5420     6.1430     5.9710     2.2420 
  198.8750   -14.2470    77.1570     5.5420     6.1430     6.8470     2.2280 
  199.0000   -14.2470    77.1570     5.5420     6.1440     6.1760     2.2530 
  199.1250   -14.2470    77.1570     5.5430     6.1440     5.5630     2.2960 
  199.2500   -14.2470    77.1570     5.5430     6.1420     6.0370     2.3230 
  199.3750   -14.2470    77.1570     5.5410     6.1400     6.1680     2.3150 
  199.5000   -14.2470    77.1570     5.5390     6.1360     5.6100     2.2780 
  199.6250   -14.2470    77.1570     5.5370     6.1330     5.1240     2.2400 
  199.7500   -14.2470    77.1570     5.5360     6.1320     4.9560     2.2250 
  199.8750   -14.2470    77.1570     5.5360     6.1320     5.0160     2.2330 
  200.0000   -14.2480    77.1570     5.5360     6.1320     5.1160     2.2470 
  200.1250   -14.2500    77.1570     5.5360     6.1320     5.1550     2.2530 
  200.2500   -14.2570    77.1570     5.5360     6.1320     5.2260     2.2520 
  200.3750   -14.2690    77.1570     5.5360     6.1320     5.2200     2.2490 
  200.5000   -14.2890    77.1570     5.5360     6.1320     5.1420     2.2480 
  200.6250   -14.3160    77.1570     5.5360     6.1320     5.1510     2.2460 
  200.7500   -14.3480    77.1570     5.5360     6.1320     5.1900     2.2440 
  200.8750   -14.3810    77.1570     5.5360     6.1320     5.1940     2.2390 
  201.0000   -14.4110    77.1570     5.5360     6.1320     5.1950     2.2360 
  201.1250   -14.4350    77.1570     5.5360     6.1320     5.1950     2.2300 
  201.2500   -14.4520    77.1570     5.5360     6.1320     5.1950     2.2290 
  201.3750   -14.4690    77.1570     5.5360     6.1320     5.1950     2.2290 
  201.5000   -14.4900    77.1570     5.5360     6.1320     5.1950     2.2350 
  201.6250   -14.5220    77.1570     5.5360     6.1320     5.1950     2.2410 
  201.7500   -14.5680    77.1570     5.5360     6.1320     5.1950     2.2470 
  201.8750   -14.6240    77.1570     5.5360     6.1320     5.1950     2.2490 
  202.0000   -14.6860    77.1570     5.5360     6.1320     5.1950     2.2470 
  202.1250   -14.7450    77.1570     5.5360     6.1320     5.1950     2.2400 
  202.2500   -14.7920    77.1570     5.5360     6.1320     5.1950     2.2370 
  202.3750   -14.8260    77.1570     5.5360     6.1320     5.1950     2.2350 
  202.5000   -14.8460    77.1570     5.5360     6.1320     5.1950     2.2380 
  202.6250   -14.8560    77.1570     5.5360     6.1320     5.1950     2.2420 
  202.7500   -14.8590    77.1570     5.5360     6.1320     5.1950     2.2460 
  202.8750   -14.8600    77.1570     5.5360     6.1320     5.1950     2.2460 
  203.0000   -14.8610    77.1570     5.5360     6.1320     5.1950     2.2430 
  203.1250   -14.8610    77.1570     5.5360     6.1320     5.1950     2.2420 
  203.2500   -14.8610    77.1570     5.5360     6.1320     5.1950     2.2440 
  203.3750   -14.8610    77.1570     5.5360     6.1320     5.1950     2.2430 
  203.5000   -14.8610    77.1570     5.5360     6.1320     5.1950     2.2400 
  203.6250   -14.8610    77.1570     5.5360     6.1320     5.1950     2.2370 
  203.7500   -14.8600    77.1570     5.5360     6.1320     5.1950     2.2330 
  203.8750   -14.8600    77.1570     5.5360     6.1320     5.1950     2.2280 
  204.0000   -14.8560    77.1570     5.5360     6.1320     5.1950     2.2260 
  204.1250   -14.8480    77.1570     5.5360     6.1320     5.1950     2.2290 
  204.2500   -14.8290    77.1570     5.5360     6.1320     5.1950     2.2350 
  204.3750   -14.7990    77.1570     5.5360     6.1320     5.1960     2.2380 
  204.5000   -14.7540    77.1570     5.5360     6.1320     5.1950     2.2400 
  204.6250   -14.6980    77.1570     5.5360     6.1320     5.1950     2.2400 
  204.7500   -14.6370    77.1570     5.5360     6.1320     5.1950     2.2400 
  204.8750   -14.5800    77.1570     5.5360     6.1320     5.1950     2.2400 
  205.0000   -14.5330    77.1570     5.5360     6.1320     5.1940     2.2400 
