~V
VERS. 2.00: Ver 2.00
~W
STRT.M 40.0000:
STOP.M 205.0000:
STEP.M 0.1250:
NULL. -999.2500:
UWI. F10807:
~C
DEPT.M :
SP.MV :
GR.API :
RI. :
RML.OHMM :
RXO.OHMM :
DEN.GM/CC :
~A
# ...
  168.7500   -23.5200    68.9230   108.8430   115.5490    77.7360     2.1680 
  168.8750   -23.6360    67.7550   104.0050   110.0360   102.4740     2.1580 
  169.0000   -23.6900    67.2570   107.5540   112.4090   152.3630     2.1540 
  169.1250   -23.5150    67.2220   116.1550   119.6090   159.7110     2.1620 
  169.2500   -23.2350    66.4280   125.4250   127.3180   142.9970     2.1770 
  169.3750   -22.9660    66.1170   130.9650   132.4740   148.6040     2.1890 
  169.5000   -22.8490    66.4180   132.9800   134.3130   170.7440     2.1950 
  169.6250   -22.7710    66.5340   131.0930   133.2650   174.4460     2.1980 
  169.7500   -22.7270    65.4410   127.9260   130.9050   148.8110     2.1990 
  169.8750   -22.6520    64.4720   124.7060   128.5930   127.4770     2.2020 
  170.0000   -22.5910    64.3040   122.3950   127.6200   110.1500     2.2050 
  170.1250   -22.4790    64.9030   122.7780   129.6620   118.9140     2.2050 
  170.2500   -22.3300    66.3500   127.1040   135.4170   199.1630     2.1990 
  170.3750   -22.1900    66.6580   135.9420   143.7240   250.0920     2.1920 
  170.5000   -22.0580    66.7400   144.1420   149.9830   248.9000     2.1860 
  170.6250   -21.9610    65.5700   145.2700   149.1780   263.2500     2.1820 
  170.7500   -21.7730    64.7090   138.7550   141.8990   240.3810     2.1760 
  170.8750   -21.5920    63.8650   126.9800   132.1650   189.6780     2.1710 
  171.0000   -21.3560    63.6190   116.4710   125.6250   141.5420     2.1710 
  171.1250   -21.0800    64.8040   112.9480   124.6500   268.6580     2.1740 
  171.2500   -20.7080    65.0640   117.3330   130.8920   432.2140     2.1780 
  171.3750   -20.2560    63.5010   132.1490   145.6180   313.6170     2.1810 
  171.5000   -19.7150    60.6850   152.0590   164.9010   225.6410     2.1980 
  171.6250   -19.1960    58.3200   172.0610   183.9120   342.0950     2.2460 
  171.7500   -18.6870    56.2900   188.9260   197.7310   445.7740     2.3270 
  171.8750   -18.2480    53.6450   194.4760   201.4700   412.2580     2.4170 
  172.0000   -17.9380    53.2130   189.7690   193.5510   382.4480     2.4880 
  172.1250   -17.6750    55.6810   170.1420   173.0120   388.6840     2.5270 
  172.2500   -17.4930    61.0270   139.9060   144.5280   281.4970     2.5400 
  172.3750   -17.3000    64.0470   108.0770   114.9380   170.3570     2.5090 
  172.5000   -17.0350    64.3650    83.4170    90.7520   106.1280     2.4370 
  172.6250   -16.7520    61.8690    68.2890    76.0020    55.9770     2.3680 
  172.7500   -16.5330    61.0710    62.6140    70.9020    45.1520     2.3760 
  172.8750   -16.2440    61.8540    66.5110    76.4850    59.3350     2.4640 
  173.0000   -15.9770    62.0070    79.5240    91.9670   111.1810     2.5730 
  173.1250   -15.7010    59.6470   101.8560   116.5380   209.6850     2.6380 
  173.2500   -15.4620    56.1790   132.7500   144.8350   259.1030     2.6670 
  173.3750   -15.2680    55.2480   159.3580   169.2110   223.8900     2.6690 
  173.5000   -15.0750    56.5240   174.1430   182.0110   201.3570     2.6640 
  173.6250   -14.8730    58.4580   174.3440   182.5240   207.6740     2.6610 
  173.7500   -14.7050    58.5990   163.5510   175.5340   209.0490     2.6630 
  173.8750   -14.5420    56.9820   153.9940   166.4400   199.8680     2.6640 
  174.0000   -14.4850    54.9620   147.5080   158.4550   180.4050     2.6650 
  174.1250   -14.6190    54.0800   138.3160   147.4900   189.5970     2.6700 
  174.2500   -14.6880    54.7570   121.6420   129.2000   252.0590     2.6800 
  174.3750   -14.7250    54.4710    95.8260   103.0200   273.5100     2.6730 
  174.5000   -14.6950    52.7680    67.0050    74.2300   194.1170     2.6340 
  174.6250   -14.6170    51.0340    42.5010    49.0330    96.4450     2.5590 
  174.7500   -14.4370    50.9770    25.7910    30.5930    40.6080     2.4670 
  174.8750   -14.1620    53.4910    16.0980    19.4440    18.0410     2.3850 
  175.0000   -13.8470    56.5990    11.0730    13.2030    10.6350     2.3380 
  175.1250   -13.5740    59.0300     8.8070    10.2090     8.7140     2.3280 
  175.2500   -13.5690    58.5820     7.9160     8.9320     8.8750     2.3340 
  175.3750   -13.9960    56.9370     7.8120     8.7550    10.0060     2.3340 
  175.5000   -14.7380    55.5650     8.0840     9.0790    11.0830     2.3240 
  175.6250   -15.2960    54.4880     8.4330     9.3980    10.9360     2.3110 
  175.7500   -15.5490    54.2310     8.6360     9.5760    10.1390     2.3000 
  175.8750   -15.7150    54.1340     8.7070     9.6050     9.7750     2.2970 
  176.0000   -16.1250    55.4730     8.7270     9.6160     9.6790     2.2970 
  176.1250   -16.6170    56.5660     8.8930     9.7720    10.0650     2.2960 
  176.2500   -17.1790    56.9350     9.1120     9.9760    11.2970     2.2870 
  176.3750   -17.5880    56.3920     9.0200     9.9070    11.9560     2.2800 
  176.5000   -17.8030    55.4060     8.4810     9.3700    10.6070     2.2730 
  176.6250   -17.6520    54.5970     7.5390     8.4210     8.1770     2.2500 
  176.7500   -17.1520    53.9790     6.4740     7.3460     6.3850     2.1900 
  176.8750   -16.6280    53.0110     5.5930     6.4430     5.4880     2.1170 
  177.0000   -16.2980    51.0710     4.9840     5.8520     5.0730     2.0750 
  177.1250   -16.1860    48.0740     4.6780     5.5810     5.2330     2.0770 
  177.2500   -16.0800    45.1100     4.5400     5.5010     5.5530     2.0810 
  177.3750   -15.9140    42.8000     4.5190     5.5210     5.3250     2.0430 
  177.5000   -15.6120    42.3470     4.5210     5.5660     4.8150     1.9940 
  177.6250   -15.3780    43.0740     4.5570     5.6460     4.5590     1.9760 
  177.7500   -15.2430    44.9540     4.6840     5.8170     4.7320     2.0180 
  177.8750   -15.1880    45.8750     4.9030     6.1090     5.2930     2.0910 
  178.0000   -15.0900    46.0270     5.1740     6.4680     6.1460     2.1670 
  178.1250   -15.0050    46.3060     5.3930     6.7760     6.7950     2.2150 
  178.2500   -14.8970    47.5880     5.4840     6.8990     6.6980     2.2380 
  178.3750   -14.7390    49.3970     5.3980     6.7320     6.2170     2.2320 
  178.5000   -14.6320    50.1800     5.1860     6.4660     5.7120     2.2170 
  178.6250   -14.5150    49.1970     4.9360     6.1950     5.3700     2.2010 
  178.7500   -14.4620    47.2030     4.7350     6.0070     5.3000     2.1980 
  178.8750   -14.3980    45.5570     4.6910     6.0190     5.2780     2.2120 
  179.0000   -14.1640    44.3100     4.8030     6.2440     5.4860     2.2380 
  179.1250   -13.5820    44.1650     5.0860     6.6690     6.0210     2.2710 
  179.2500   -12.8950    44.2080     5.4510     7.1900     6.5220     2.3070 
  179.3750   -12.2460    43.9790     5.7890     7.6740     6.8990     2.3360 
  179.5000   -11.8140    42.5300     6.0460     8.0250     7.3840     2.3530 
  179.6250   -11.4420    41.0660     6.1340     8.1490     7.8280     2.3530 
  179.7500   -11.1350    40.5050     6.0590     8.0330     7.8410     2.3460 
  179.8750   -10.9960    40.9120     5.8360     7.7200     7.5570     2.3330 
  180.0000   -10.8940    41.8660     5.5240     7.3020     7.1500     2.3140 
  180.1250   -10.7330    42.4300     5.1940     6.8750     6.4210     2.2860 
  180.2500   -10.5040    42.8670     4.8950     6.5090     5.6840     2.2720 
  180.3750   -10.3450    44.0850     4.6640     6.2320     5.4840     2.2780 
  180.5000   -10.2090    45.6040     4.4880     6.0290     5.4390     2.2990 
  180.6250   -10.1190    47.2130     4.3660     5.8800     5.8210     2.3030 
  180.7500   -10.0500    47.6650     4.2610     5.7350     6.2910     2.2900 
  180.8750   -10.1070    49.2550     4.1430     5.5610     5.5650     2.2770 
  181.0000   -10.1410    51.6360     3.9880     5.3400     4.6480     2.2690 
  181.1250   -10.0950    53.3080     3.8010     5.0870     4.2120     2.2180 
  181.2500    -9.8330    53.4970     3.6190     4.8430     3.8210     2.1090 
  181.3750    -9.3680    51.9260     3.4570     4.6290     3.5990     1.9950 
  181.5000    -8.8970    50.6060     3.3310     4.4620     3.5790     1.9610 
