~V
VERS. 2.00: Ver 2.00
~W
STRT.M 40.0000:
STOP.M 205.0000:
STEP.M 0.1250:
NULL. -999.2500:
UWI. F10807:
~C
DEPT.M :
SP.MV :
GR.API :
RI. :
RML.OHMM :
RXO.OHMM :
DEN.GM/CC :
~A
# ...
  194.5000    -6.1380    78.2800     6.3280     6.7270     6.7430     2.2270 
  194.6250    -6.1380    77.9860     6.4770     6.8810     7.2470     2.2670 
  194.7500    -6.1380    76.6240     6.5700     6.9900     7.7150     2.2980 
  194.8750    -6.1380    76.6010     6.5890     7.0000     6.4200     2.2820 
  195.0000    -6.1380    78.1840     6.4970     6.8930     4.8430     2.2150 
  195.1250    -6.1380    79.9680     6.3260     6.7000     4.2220     2.1090 
  195.2500    -6.1380    81.3760     6.1380     6.5000     3.9030     2.0360 
  195.3750    -6.1380    81.9410     5.9940     6.3700     4.0480     2.0500 
  195.5000    -6.1380    81.6930     5.9260     6.3210     4.4850     2.1320 
  195.6250    -6.1380    80.0550     5.8770     6.3030     4.9350     2.2110 
  195.7500    -6.1380    78.2440     5.8250     6.2800     5.9350     2.2510 
  195.8750    -6.1380    77.1010     5.7700     6.2460     7.7330     2.2720 
  196.0000    -6.1380    76.2640     5.7240     6.2160     9.1780     2.2940 
  196.1250    -6.1380    74.5920     5.7130     6.2110     9.3140     2.3130 
  196.2500    -6.1380    73.5310     5.7140     6.2190     9.6540     2.3260 
  196.3750    -6.1380    73.2070     5.7180     6.2320    10.1680     2.3350 
  196.5000    -6.1380    74.2660     5.7250     6.2390     9.5930     2.3350 
  196.6250    -6.1380    75.3030     5.7240     6.2410     8.6880     2.3220 
  196.7500    -6.1380    76.6120     5.7220     6.2370     8.2780     2.2980 
  196.8750    -6.1380    77.2110     5.7200     6.2350     8.3380     2.2800 
  197.0000    -6.1380    77.3760     5.7200     6.2400     7.8580     2.2620 
  197.1250    -6.1380    77.2660     5.7210     6.2440     6.8040     2.2230 
  197.2500    -6.1380    77.3610     5.7230     6.2490     6.1010     2.1560 
  197.3750    -6.1380    77.4180     5.7220     6.2500     5.5550     2.1010 
  197.5000    -6.1380    76.7110     5.7210     6.2490     4.9640     2.0930 
  197.6250    -6.1380    75.6200     5.7210     6.2540     4.5740     2.1200 
  197.7500    -6.1380    74.8950     5.7210     6.2570     4.7250     2.1540 
  197.8750    -6.1380    74.5730     5.7220     6.2580     5.7430     2.1770 
  198.0000    -6.1380    74.5520     5.7200     6.2650     6.8590     2.1900 
  198.1250    -6.1380    74.5520     5.7200     6.2670     6.6310     2.1730 
  198.2500    -6.1380    74.5520     5.7190     6.2730     5.6540     2.1380 
  198.3750    -6.1380    74.5520     5.7210     6.2720     5.1050     2.1020 
  198.5000    -6.1380    74.5520     5.7230     6.2660     4.9960     2.0840 
  198.6250    -6.1380    74.5520     5.7230     6.2620     5.1290     2.1010 
  198.7500    -6.1380    74.5520     5.7230     6.2590     5.4930     2.1520 
  198.8750    -6.1380    74.5520     5.7230     6.2610     7.0890     2.2130 
  199.0000    -6.1380    74.5520     5.7230     6.2650     8.2800     2.2510 
  199.1250    -6.1380    74.5520     5.7230     6.2660     7.1940     2.2500 
  199.2500    -6.1380    74.5520     5.7220     6.2670     7.7970     2.2500 
  199.3750    -6.1380    74.5520     5.7280     6.2640    11.7840     2.2620 
  199.5000    -6.1380    74.5520     5.7280     6.2650    14.1830     2.2830 
  199.6250    -6.1380    74.5520     5.7310     6.2660    12.8290     2.2950 
  199.7500    -6.1380    74.5520     5.7280     6.2640    11.3540     2.3060 
  199.8750    -6.1380    74.5520     5.7290     6.2590    11.1160     2.3280 
  200.0000    -6.1380    74.5520     5.7310     6.2570    10.5150     2.3430 
  200.1250    -6.1380    74.5520     5.7280     6.2590    10.0870     2.3180 
  200.2500    -6.1380    74.5520     5.7250     6.2620    11.8680     2.2450 
  200.3750    -6.1380    74.5520     5.7230     6.2640    13.8450     2.1790 
  200.5000    -6.1380    74.5520     5.7230     6.2630    12.9450     2.1700 
  200.6250    -6.1380    74.5520     5.7230     6.2630    13.9810     2.1930 
  200.7500    -6.1380    74.5520     5.7230     6.2630    16.3780     2.1630 
  200.8750    -6.1380    74.5520     5.7230     6.2630    12.6080     2.0490 
  201.0000    -6.1380    74.5520     5.7230     6.2630     6.4650     1.9230 
  201.1250    -6.1380    74.5520     5.7230     6.2630     4.3420     1.8490 
  201.2500    -6.1380    74.5520     5.7230     6.2630     4.5580     1.8260 
  201.3750    -6.1380    74.5520     5.7230     6.2630     4.6420     1.8220 
  201.5000    -6.1380    74.5520     5.7230     6.2630     4.5420     1.8260 
  201.6250    -6.1380    74.5520     5.7230     6.2630     4.5160     1.8290 
  201.7500    -6.1380    74.5520     5.7230     6.2630     4.5150     1.8310 
  201.8750    -6.1380    74.5520     5.7230     6.2630     4.5150     1.8290 
  202.0000    -6.1380    74.5520     5.7230     6.2630     4.5140     1.8300 
  202.1250    -6.1380    74.5520     5.7230     6.2630     4.5140     1.8330 
  202.2500    -6.1380    74.5520     5.7230     6.2630     4.5130     1.8370 
  202.3750    -6.1380    74.5520     5.7230     6.2630     4.5130     1.8320 
  202.5000    -6.1380    74.5520     5.7230     6.2630     4.5120     1.8270 
  202.6250    -6.1380    74.5520     5.7230     6.2630     4.5110     1.8240 
  202.7500    -6.1380    74.5520     5.7230     6.2630     4.5100     1.8280 
  202.8750    -6.1380    74.5520     5.7230     6.2630     4.5090     1.8300 
  203.0000    -6.1380    74.5520     5.7230     6.2630     4.5090     1.8280 
  203.1250    -6.1380    74.5520     5.7230     6.2630     4.5080     1.8250 
  203.2500    -6.1380    74.5520     5.7230     6.2630     4.5070     1.8220 
  203.3750    -6.1380    74.5520     5.7230     6.2630     4.5060     1.8180 
  203.5000    -6.1380    74.5520     5.7230     6.2630     4.5050     1.8150 
  203.6250    -6.1380    74.5520     5.7230     6.2630     4.5040     1.8190 
  203.7500    -6.1380    74.5520     5.7230     6.2630     4.5030     1.8240 
  203.8750    -6.1380    74.5520     5.7230     6.2630     4.5020     1.8280 
  204.0000    -6.1380    74.5520     5.7230     6.2630     4.5020     1.8290 
  204.1250    -6.1380    74.5520     5.7230     6.2630     4.5010     1.8260 
  204.2500    -6.1380    74.5520     5.7230     6.2630     4.5000     1.8230 
  204.3750    -6.1380    74.5520     5.7230     6.2630     4.4980     1.8200 
  204.5000    -6.1380    74.5520     5.7230     6.2630     4.4970     1.8210 
  204.6250    -6.1380    74.5520     5.7230     6.2630     4.4960     1.8230 
  204.7500    -6.1380    74.5520     5.7230     6.2630     4.4950     1.8210 
  204.8750    -6.1380    74.5520     5.7230     6.2630     4.4940     1.8160 
  205.0000    -6.1380    74.5520     5.7230     6.2630     4.4920     1.8100 
