~V
VERS. 2.00: Ver 2.00
~W
STRT.M 54.0000:
STOP.M 205.0000:
STEP.M 0.1250:
NULL. -999.2500:
UWI. F10812:
~C
DEPT.M :
SP.MV :
GR.API :
RI. :
RML.OHMM :
RXO.OHMM :
DEN.GM/CC :
~A
# ...
   92.6250   -24.9710    65.1900     5.6780     6.0710     8.1810     2.1160 
   92.7500   -25.2480    65.1050     6.0650     6.4680     8.7820     2.1160 
   92.8750   -25.4410    64.9810     6.3050     6.6820     9.1490     2.1160 
   93.0000   -25.5050    64.4150     6.3200     6.6480     9.3690     2.1150 
   93.1250   -25.4630    63.9750     6.1330     6.4080     9.4990     2.1180 
   93.2500   -25.3830    64.2260     5.9140     6.1380     8.9400     2.1240 
   93.3750   -25.3110    64.6490     5.7490     5.9640     8.2250     2.1300 
   93.5000   -25.2600    65.5430     5.6660     5.8960     8.5090     2.1300 
   93.6250   -25.1820    65.1980     5.6560     5.9230     8.7340     2.1200 
   93.7500   -25.0160    64.0140     5.7000     5.9930     8.2030     2.1060 
   93.8750   -24.7200    62.9990     5.7470     6.0400     7.6840     2.0980 
   94.0000   -24.3060    62.8480     5.7310     6.0190     7.5910     2.0930 
   94.1250   -23.7940    63.7510     5.6600     5.9560     7.9640     2.0950 
   94.2500   -23.2370    64.0670     5.5770     5.8970     8.1980     2.0970 
   94.3750   -22.6690    65.6060     5.4850     5.8380     7.7540     2.1020 
   94.5000   -22.1140    66.6550     5.3580     5.7460     7.4120     2.1020 
   94.6250   -21.6090    66.4380     5.1770     5.5800     7.6380     2.0990 
   94.7500   -21.1940    65.6900     4.9590     5.3480     7.5590     2.1000 
   94.8750   -20.9150    66.0100     4.7710     5.1110     7.0320     2.1040 
   95.0000   -20.7850    67.6720     4.6800     4.9880     6.6830     2.1140 
   95.1250   -20.7940    67.6010     4.8940     5.2070     6.6930     2.1230 
   95.2500   -20.8700    67.0600     5.5460     5.9420     7.3050     2.1440 
   95.3750   -20.9600    65.9570     6.8130     7.3370    11.1780     2.2000 
   95.5000   -21.0530    63.9740     8.5310     9.1780    21.1740     2.3100 
   95.6250   -21.1990    60.2950    10.2800    10.8660    32.5710     2.4430 
   95.7500   -21.4810    56.7350    11.0840    11.6140    37.4220     2.5310 
   95.8750   -21.9720    55.8750    10.7930    11.1010    34.5720     2.5140 
   96.0000   -22.6370    57.0750     9.4780     9.6890    25.5590     2.4070 
   96.1250   -23.4050    59.6600     7.9130     8.1160    14.8090     2.2690 
   96.2500   -24.1660    61.4090     6.8520     7.0170     9.4300     2.1600 
   96.3750   -24.8450    61.7500     6.2420     6.4850     8.5870     2.1130 
   96.5000   -25.4330    61.6300     6.0460     6.3530     8.4080     2.1040 
   96.6250   -25.9490    62.4710     6.0530     6.4360     8.3950     2.1080 
   96.7500   -26.4250    63.4570     6.1220     6.5610     8.3610     2.1060 
   96.8750   -26.8690    64.1790     6.1850     6.6390     8.4110     2.1010 
   97.0000   -27.2840    62.6520     6.2220     6.6540     8.5220     2.0970 
   97.1250   -27.6710    61.2540     6.2400     6.6360     8.2810     2.0970 
   97.2500   -28.0410    61.8140     6.2760     6.6400     8.0470     2.0930 
   97.3750   -28.4040    63.9850     6.3500     6.6940     8.2120     2.0890 
   97.5000   -28.7550    65.9250     6.4640     6.7900     8.4830     2.0870 
   97.6250   -29.0570    65.4590     6.6090     6.9210     8.7080     2.0930 
   97.7500   -29.2850    64.4500     6.7400     7.0470     8.7960     2.1000 
   97.8750   -29.4290    63.8230     6.8260     7.1300     8.6870     2.1060 
   98.0000   -29.5120    62.3790     6.8400     7.1490     8.5740     2.1110 
   98.1250   -29.5690    61.3630     6.8120     7.1160     8.5920     2.1160 
   98.2500   -29.6270    60.3710     6.7590     7.0570     8.6570     2.1180 
   98.3750   -29.6680    61.6860     6.7180     6.9960     8.6140     2.1120 
   98.5000   -29.6600    62.9340     6.6760     6.9610     8.4820     2.1070 
   98.6250   -29.5610    63.5880     6.6490     6.9630     8.5580     2.1070 
   98.7500   -29.3440    63.2830     6.6330     6.9980     8.7020     2.1090 
   98.8750   -28.9620    63.1670     6.5980     6.9830     8.5790     2.1060 
   99.0000   -28.4180    63.5430     6.4210     6.7850     8.4180     2.1000 
   99.1250   -27.7100    63.1830     6.0840     6.4020     8.4470     2.0950 
   99.2500   -26.9190    62.5430     5.7090     5.9860     8.4860     2.1000 
   99.3750   -26.2100    63.6860     5.4520     5.7350     7.5850     2.1130 
   99.5000   -25.7500    66.8770     5.4410     5.7970     6.3300     2.1270 
   99.6250   -25.6990    70.0350     5.8060     6.2690     7.0060     2.1330 
   99.7500   -26.0520    69.2300     6.4640     7.0380     8.9230     2.1330 
   99.8750   -26.7110    65.8110     7.2440     7.8980    10.2080     2.1300 
  100.0000   -27.4460    62.3040     7.9270     8.5970    11.2890     2.1220 
  100.1250   -28.0590    61.5280     8.2850     8.9300    11.7660     2.1090 
  100.2500   -28.4320    62.3560     8.2730     8.8640    10.8230     2.0950 
  100.3750   -28.5010    63.2420     7.9450     8.4590    10.3770     2.0880 
  100.5000   -28.3360    64.2920     7.4230     7.8450    11.0810     2.0890 
  100.6250   -28.0260    65.4800     6.7920     7.1520    10.4260     2.0980 
  100.7500   -27.6710    67.8200     6.2700     6.5980     8.1490     2.1070 
  100.8750   -27.3580    68.1800     6.0060     6.3470     6.7310     2.1130 
  101.0000   -27.1050    66.9970     6.0060     6.4080     7.1150     2.1150 
  101.1250   -26.8610    64.4740     6.2840     6.7660     8.6720     2.1140 
  101.2500   -26.5610    63.5250     6.7140     7.2350     9.7770     2.1110 
  101.3750   -26.1170    63.1550     7.0260     7.5530     9.5100     2.1080 
  101.5000   -25.4970    64.2330     7.0580     7.5480     9.0680     2.1010 
  101.6250   -24.7400    64.8810     6.6980     7.1100     9.0290     2.0950 
  101.7500   -23.9760    66.7480     6.0080     6.3610     8.3330     2.1010 
  101.8750   -23.4090    68.1370     5.2720     5.5590     6.5260     2.1210 
  102.0000   -23.2520    70.7880     4.7200     4.9630     4.9040     2.1450 
  102.1250   -23.7110    74.2120     4.5090     4.7790     4.5630     2.1570 
  102.2500   -24.7280    77.1430     4.7430     5.0750     5.8080     2.1500 
  102.3750   -26.1460    78.1660     5.4100     5.8680     7.7040     2.1260 
  102.5000   -27.6340    75.3090     6.4200     6.9930     8.7300     2.1020 
  102.6250   -28.8660    71.9370     7.5570     8.2210     9.4750     2.0860 
  102.7500   -29.6920    68.1420     8.5670     9.2370    10.9220     2.0800 
  102.8750   -30.0660    67.4980     9.0540     9.6910    12.4290     2.0750 
  103.0000   -30.1080    67.8170     8.9540     9.5570    13.2430     2.0750 
  103.1250   -29.9340    68.1410     8.4590     9.0110    12.8230     2.0810 
  103.2500   -29.6680    66.3150     7.8310     8.3530    11.1280     2.0950 
  103.3750   -29.3700    64.7960     7.3000     7.8130     9.4010     2.1020 
  103.5000   -29.0710    65.4240     6.9210     7.4450     9.1060     2.1010 
  103.6250   -28.7500    67.7290     6.6500     7.2400     9.9240     2.0960 
  103.7500   -28.3860    69.2360     6.5860     7.2360    10.2850     2.0970 
  103.8750   -27.9690    70.2640     6.7590     7.4740     9.5540     2.1050 
  104.0000   -27.5020    70.4190     7.1980     7.9620     8.5520     2.1100 
  104.1250   -26.9860    70.2740     7.8270     8.6840     9.5440     2.1080 
  104.2500   -26.3920    69.7940     8.6500     9.5690    12.6670     2.1000 
  104.3750   -25.6270    69.8530     9.5160    10.3890    14.7640     2.0920 
  104.5000   -24.6190    68.7890    10.0560    10.8540    14.5680     2.0880 
  104.6250   -23.2930    68.2160    10.2090    10.8830    14.2070     2.0900 
  104.7500   -21.6800    67.6720    10.0300    10.6980    14.4640     2.0960 
  104.8750   -19.8220    69.0130     9.9980    10.6440    13.6550     2.1020 
  105.0000   -17.8250    70.1170     9.9490    10.5240    12.6720     2.1120 
  105.1250   -15.7950    70.1800     9.3140     9.8630    18.6180     2.1480 
  105.2500   -13.8650    71.2070     8.1920     8.6120    35.2010     2.2250 
  105.3750   -12.1900    73.7180     6.5750     6.9280    40.0240     2.3110 
