~V
VERS. 2.00: Ver 2.00
~W
STRT.M 62.0000:
STOP.M 256.0000:
STEP.M 0.1250:
NULL. -999.2500:
UWI. F10886:
~C
DEPT.M :
TVD. :
DX. :
DY. :
SP.MV :
GR.API :
RI. :
RML.OHMM :
RXO.OHMM :
DEN.GM/CC :
~A
# ...
  171.5000   171.4910    -0.7690    -1.1780   -16.0500    52.2390     4.2980     5.2880     5.5650     2.4120 
  171.6250   171.6160    -0.7690    -1.1790   -16.0440    51.3010     4.2520     5.2770     5.8670     2.4050 
  171.7500   171.7410    -0.7700    -1.1800   -16.0750    49.8040     4.2300     5.2880     6.0760     2.4010 
  171.8750   171.8660    -0.7710    -1.1810   -16.1440    48.9680     4.2020     5.2740     5.9880     2.4030 
  172.0000   171.9910    -0.7720    -1.1820   -16.2400    47.5940     4.1550     5.2230     5.6770     2.4100 
  172.1250   172.1160    -0.7730    -1.1830   -16.3500    45.6460     4.0970     5.1460     5.4380     2.4180 
  172.2500   172.2410    -0.7740    -1.1840   -16.4470    44.3180     4.0340     5.0570     5.4940     2.4240 
  172.3750   172.3660    -0.7740    -1.1850   -16.4980    45.2610     3.9590     4.9540     5.6950     2.4280 
  172.5000   172.4910    -0.7750    -1.1860   -16.4820    49.3590     3.8750     4.8450     5.7540     2.4340 
  172.6250   172.6160    -0.7760    -1.1870   -16.3820    52.3130     3.7850     4.7400     5.5090     2.4440 
  172.7500   172.7410    -0.7770    -1.1880   -16.2070    54.5690     3.6800     4.6290     4.9620     2.4500 
  172.8750   172.8660    -0.7780    -1.1890   -15.9600    55.1900     3.5130     4.4490     4.5240     2.4520 
  173.0000   172.9910    -0.7780    -1.1900   -15.6580    56.0120     3.2560     4.1520     4.7910     2.4520 
  173.1250   173.1160    -0.7790    -1.1910   -15.3130    55.9550     2.8850     3.6960     5.3270     2.4540 
  173.2500   173.2410    -0.7800    -1.1920   -14.9430    55.0960     2.4430     3.1350     4.8900     2.4500 
  173.3750   173.3660    -0.7810    -1.1930   -14.5640    53.6570     2.0010     2.5620     3.4630     2.4220 
  173.5000   173.4910    -0.7820    -1.1940   -14.1930    51.9710     1.6170     2.0690     2.1480     2.3720 
  173.6250   173.6160    -0.7830    -1.1950   -13.8570    49.8610     1.3460     1.7430     1.6230     2.3210 
  173.7500   173.7410    -0.7830    -1.1960   -13.5830    46.5670     1.1950     1.5910     1.6080     2.2910 
  173.8750   173.8660    -0.7840    -1.1970   -13.3980    44.0210     1.1520     1.5840     1.6650     2.2820 
  174.0000   173.9910    -0.7850    -1.1980   -13.2960    42.3660     1.1660     1.6330     1.6540     2.2740 
  174.1250   174.1160    -0.7860    -1.2000   -13.2600    41.4870     1.1900     1.6690     1.5730     2.2540 
  174.2500   174.2410    -0.7870    -1.2010   -13.2550    39.7910     1.1990     1.6650     1.4820     2.2260 
  174.3750   174.3650    -0.7880    -1.2020   -13.2540    38.5140     1.1920     1.6300     1.4420     2.2050 
  174.5000   174.4900    -0.7890    -1.2030   -13.2490    38.3950     1.1780     1.5890     1.4230     2.2020 
  174.6250   174.6150    -0.7890    -1.2040   -13.2480    40.4220     1.1660     1.5540     1.3690     2.2200 
  174.7500   174.7400    -0.7900    -1.2050   -13.2720    43.4120     1.1600     1.5280     1.3020     2.2510 
  174.8750   174.8650    -0.7910    -1.2060   -13.3540    45.7780     1.1560     1.5080     1.2530     2.2810 
  175.0000   174.9900    -0.7920    -1.2070   -13.4970    47.4570     1.1460     1.4870     1.2060     2.3000 
  175.1250   175.1150    -0.7930    -1.2080   -13.6910    49.6560     1.1230     1.4630     1.1720     2.3040 
  175.2500   175.2400    -0.7940    -1.2090   -13.8970    54.6830     1.0910     1.4400     1.1860     2.3010 
  175.3750   175.3650    -0.7950    -1.2100   -14.0860    60.0670     1.0580     1.4180     1.2610     2.2990 
  175.5000   175.4900    -0.7960    -1.2110   -14.2550    64.5340     1.0310     1.4000     1.3860     2.3030 
  175.6250   175.6150    -0.7970    -1.2120   -14.4150    66.8230     1.0190     1.3970     1.5050     2.3080 
  175.7500   175.7400    -0.7970    -1.2130   -14.5810    70.3610     1.0310     1.4250     1.5300     2.3110 
  175.8750   175.8650    -0.7980    -1.2140   -14.7480    72.8920     1.0700     1.4910     1.5340     2.3100 
  176.0000   175.9900    -0.7990    -1.2150   -14.8980    74.3500     1.1260     1.5750     1.7110     2.3060 
  176.1250   176.1150    -0.8000    -1.2170   -15.0020    73.4740     1.1860     1.6550     1.9700     2.3030 
  176.2500   176.2400    -0.8010    -1.2180   -15.0420    73.0010     1.2460     1.7270     2.0100     2.3010 
  176.3750   176.3650    -0.8020    -1.2190   -15.0080    71.4820     1.3280     1.8280     1.8790     2.3000 
  176.5000   176.4900    -0.8030    -1.2200   -14.9110    69.3890     1.4520     1.9930     1.9220     2.3020 
  176.6250   176.6150    -0.8040    -1.2210   -14.7600    66.8660     1.6310     2.2410     2.4220     2.3110 
  176.7500   176.7400    -0.8050    -1.2220   -14.5800    66.4870     1.8390     2.5380     3.2970     2.3230 
  176.8750   176.8650    -0.8060    -1.2230   -14.3860    66.3300     2.0290     2.7970     3.9310     2.3230 
  177.0000   176.9900    -0.8070    -1.2240   -14.2030    68.2620     2.1530     2.9390     3.8730     2.3060 
  177.1250   177.1150    -0.8080    -1.2250   -14.0520    69.3630     2.2020     2.9540     3.5170     2.2770 
  177.2500   177.2400    -0.8090    -1.2260   -13.9430    71.0660     2.2250     2.9380     3.3590     2.2530 
  177.3750   177.3650    -0.8100    -1.2270   -13.8890    71.4980     2.3070     3.0250     3.4400     2.2410 
  177.5000   177.4900    -0.8110    -1.2280   -13.8960    72.2210     2.4980     3.2930     3.8320     2.2300 
  177.6250   177.6150    -0.8120    -1.2290   -13.9770    70.2680     2.8040     3.7340     4.4530     2.2120 
  177.7500   177.7400    -0.8120    -1.2300   -14.1310    66.0390     3.1630     4.2340     4.8350     2.1880 
  177.8750   177.8650    -0.8130    -1.2310   -14.3510    62.0220     3.4880     4.6520     4.8750     2.1700 
  178.0000   177.9900    -0.8140    -1.2320   -14.6060    59.7190     3.7250     4.9180     4.8770     2.1630 
  178.1250   178.1150    -0.8150    -1.2330   -14.8550    59.8160     3.8570     5.0250     4.9260     2.1640 
  178.2500   178.2400    -0.8160    -1.2350   -15.0620    60.5410     3.9140     5.0370     4.9650     2.1680 
  178.3750   178.3650    -0.8170    -1.2360   -15.1990    61.8590     3.9210     5.0040     4.9860     2.1700 
  178.5000   178.4900    -0.8180    -1.2370   -15.2710    63.0410     3.8890     4.9350     4.9300     2.1690 
  178.6250   178.6150    -0.8190    -1.2380   -15.2910    63.4760     3.8080     4.8120     4.7400     2.1660 
  178.7500   178.7400    -0.8200    -1.2390   -15.2850    65.0280     3.6830     4.6400     4.5020     2.1640 
  178.8750   178.8650    -0.8210    -1.2400   -15.2740    66.1190     3.5160     4.4180     4.2720     2.1640 
  179.0000   178.9900    -0.8220    -1.2410   -15.2570    67.8680     3.3170     4.1550     4.0220     2.1690 
  179.1250   179.1150    -0.8230    -1.2420   -15.2210    68.1230     3.0980     3.8660     3.7530     2.1760 
  179.2500   179.2400    -0.8240    -1.2430   -15.1430    67.8830     2.8860     3.5860     3.5260     2.1840 
  179.3750   179.3650    -0.8250    -1.2440   -15.0000    67.3200     2.7120     3.3600     3.3950     2.1900 
  179.5000   179.4900    -0.8260    -1.2450   -14.7820    67.6050     2.5900     3.2050     3.3150     2.1920 
  179.6250   179.6150    -0.8270    -1.2460   -14.4900    68.3570     2.5250     3.1260     3.2340     2.1920 
  179.7500   179.7400    -0.8280    -1.2470   -14.1520    68.3270     2.4980     3.0940     3.1550     2.1920 
  179.8750   179.8650    -0.8290    -1.2480   -13.8070    66.9190     2.4920     3.0820     3.0920     2.1960 
  180.0000   179.9900    -0.8300    -1.2490   -13.4990    66.8140     2.4870     3.0700     3.0520     2.2020 
  180.1250   180.1150    -0.8310    -1.2510   -13.2570    69.2110     2.4600     3.0310     3.0310     2.2130 
  180.2500   180.2400    -0.8320    -1.2520   -13.0900    73.4430     2.3910     2.9320     3.0260     2.2280 
  180.3750   180.3650    -0.8330    -1.2530   -12.9980    74.8740     2.2680     2.7590     3.0580     2.2430 
  180.5000   180.4900    -0.8340    -1.2540   -12.9620    73.4200     2.1030     2.5280     2.9920     2.2510 
