~V
VERS. 2.00: Ver 2.00
~W
STRT.M 54.0000:
STOP.M 205.0000:
STEP.M 0.1250:
NULL. -999.2500:
UWI. F10812:
~C
DEPT.M :
SP.MV :
GR.API :
RI. :
RML.OHMM :
RXO.OHMM :
DEN.GM/CC :
~A
# ...
   66.8750   -30.7350    66.0780     5.4780     9.7510     9.7800     2.0360 
   67.0000   -30.8050    65.9040     5.5700    10.0070     8.9550     2.0320 
   67.1250   -30.8730    65.0030     5.6590    10.1780     8.7580     2.0240 
   67.2500   -30.9230    64.0890     5.6300    10.1020     9.6290     2.0220 
   67.3750   -30.9250    65.0330     5.4990     9.7580    10.4920     2.0400 
   67.5000   -30.8690    67.9910     5.3250     9.2700    10.2250     2.0680 
   67.6250   -30.7790    71.6660     5.1640     8.8450     8.8850     2.0880 
   67.7500   -30.7120    72.3030     5.1030     8.7050     8.2660     2.0900 
   67.8750   -30.7410    71.3100     5.1580     8.9250     8.9170     2.0810 
   68.0000   -30.9020    69.9450     5.3160     9.3730     9.2080     2.0680 
   68.1250   -31.2010    70.1320     5.5250     9.8600     9.0150     2.0560 
   68.2500   -31.5850    69.5600     5.7200    10.2090     9.3330     2.0490 
   68.3750   -31.9990    69.4530     5.8440    10.3790     9.8620     2.0480 
   68.5000   -32.3890    68.3660     5.9300    10.4770    10.1170     2.0510 
   68.6250   -32.7150    67.3890     6.0310    10.6310    10.4290     2.0510 
   68.7500   -32.9770    65.6390     6.1940    10.9180    10.7360     2.0490 
   68.8750   -33.1770    65.3780     6.3910    11.3050    10.5860     2.0520 
   69.0000   -33.3460    67.2320     6.5810    11.6820    10.3800     2.0600 
   69.1250   -33.5180    70.4540     6.6930    11.9040    10.7820     2.0720 
   69.2500   -33.7150    73.2870     6.7080    11.9180    11.4020     2.0820 
   69.3750   -33.9350    73.7680     6.6380    11.7360    11.7080     2.0850 
   69.5000   -34.1550    71.6940     6.4980    11.4420    11.7970     2.0810 
   69.6250   -34.3260    69.5350     6.3520    11.1420    11.9500     2.0710 
   69.7500   -34.4060    67.3710     6.2400    10.9050    12.1450     2.0610 
   69.8750   -34.3480    66.8480     6.1970    10.7810    12.0960     2.0530 
   70.0000   -34.1310    65.9930     6.2000    10.6910    11.7860     2.0520 
   70.1250   -33.7140    65.8120     6.2120    10.5770    11.0110     2.0570 
   70.2500   -33.0830    65.5570     6.2510    10.4980    10.3680     2.0620 
   70.3750   -32.1890    66.4510     6.3510    10.5430    10.7480     2.0630 
   70.5000   -31.0260    66.8870     6.5570    10.7830    11.0780     2.0680 
   70.6250   -29.5530    67.9600     6.8500    11.2460    10.6050     2.0860 
   70.7500   -27.7820    67.9330     7.1850    11.8050     9.9740     2.1150 
   70.8750   -25.6840    67.9630     7.3660    12.0680     9.6360     2.1290 
   71.0000   -23.2910    67.8440     7.1010    11.6400     9.6340     2.1190 
   71.1250   -20.6450    70.5930     6.3650    10.4070     9.6710     2.1040 
   71.2500   -17.9100    76.6510     5.3270     8.7250     8.5990     2.1170 
   71.3750   -15.3210    86.0200     4.3740     7.1740     6.1220     2.1630 
   71.5000   -13.1150    93.3990     3.6870     6.1070     4.3690     2.2140 
   71.6250   -11.5250    97.0730     3.3300     5.5990     4.0370     2.2430 
   71.7500   -10.5520    99.0020     3.1740     5.4650     4.1190     2.2520 
   71.8750   -10.1600   103.2570     3.1540     5.5200     4.1660     2.2530 
   72.0000   -10.1630   107.7710     3.1640     5.5440     4.1090     2.2610 
   72.1250   -10.4490   108.9150     3.1400     5.4220     4.0610     2.2620 
   72.2500   -10.9210   107.2300     3.1630     5.3150     4.0100     2.2490 
   72.3750   -11.5750   103.7320     3.4350     5.6750     4.0620     2.2150 
   72.5000   -12.4110   100.2850     4.1690     6.8630     4.3310     2.2110 
   72.6250   -13.4660    92.8580     5.5270     9.4400     6.9110     2.2640 
   72.7500   -14.7380    83.9270     8.1360    13.8780    15.8260     2.3660 
   72.8750   -16.2450    73.9150    11.2300    18.8930    29.9950     2.4720 
   73.0000   -17.9550    67.7500    12.9990    21.7010    39.5600     2.5530 
   73.1250   -19.8380    63.1550    12.5000    20.5780    37.6460     2.5890 
   73.2500   -21.8080    60.0820     9.9260    16.2800    26.3980     2.5610 
   73.3750   -23.7780    57.4550     6.9480    11.3440    13.2390     2.4490 
   73.5000   -25.6660    57.5630     5.1740     8.3040     6.9490     2.2890 
   73.6250   -27.3940    60.2210     4.6130     7.4860     6.8580     2.1530 
   73.7500   -28.9410    62.7020     4.6270     7.8880     7.0900     2.0840 
   73.8750   -30.2750    63.5520     5.0800     8.9540     8.2620     2.0690 
   74.0000   -31.4020    62.5100     5.6880    10.0230     9.1220     2.0720 
   74.1250   -32.2980    62.1570     6.2400    10.6130     9.4810     2.0770 
   74.2500   -32.9930    62.5620     6.5810    10.6140     9.5870     2.0840 
   74.3750   -33.5150    63.6000     6.7120    10.1440     9.6040     2.0890 
   74.5000   -33.9330    64.0500     6.6730     9.5310     9.6030     2.0900 
   74.6250   -34.3050    64.4700     6.5780     8.9740     9.4750     2.0860 
   74.7500   -34.6800    65.6310     6.5080     8.5620     9.2530     2.0840 
   74.8750   -35.0640    66.7400     6.4860     8.2880     9.1900     2.0800 
   75.0000   -35.4330    65.9530     6.4990     8.1050     9.2710     2.0790 
   75.1250   -35.7530    63.3790     6.5250     7.9960     9.4480     2.0780 
   75.2500   -35.9990    59.8480     6.5420     7.9220    10.0990     2.0830 
   75.3750   -36.1450    58.0610     6.5010     7.8280    11.0810     2.0840 
   75.5000   -36.1890    58.2070     6.3970     7.6960    11.3040     2.0750 
   75.6250   -36.1230    60.0310     6.2770     7.5430    10.6750     2.0550 
   75.7500   -35.9570    61.6960     6.1570     7.3880    10.0390     2.0430 
   75.8750   -35.7100    61.7270     6.0930     7.2880     9.6870     2.0450 
   76.0000   -35.4350    62.2180     6.1200     7.2900     9.7820     2.0570 
   76.1250   -35.1950    62.9220     6.2090     7.3910    10.9950     2.0650 
   76.2500   -35.0530    63.9290     6.3310     7.5260    12.5460     2.0680 
   76.3750   -35.0660    62.7220     6.4510     7.6440    12.5700     2.0580 
   76.5000   -35.2370    60.7580     6.5340     7.7080    11.7440     2.0420 
   76.6250   -35.5680    57.1930     6.5950     7.7290    10.9660     2.0240 
   76.7500   -36.0010    54.1330     6.6270     7.7290    10.2590     2.0120 
   76.8750   -36.4760    52.6590     6.6640     7.7390    10.3000     2.0080 
   77.0000   -36.9240    53.9870     6.7180     7.7730    10.6540     2.0150 
   77.1250   -37.2740    55.2030     6.7910     7.8310    10.7460     2.0300 
   77.2500   -37.4970    55.7310     6.8650     7.8900    10.9860     2.0450 
   77.3750   -37.5600    54.6270     6.8890     7.8810    11.6100     2.0490 
   77.5000   -37.4700    54.8020     6.8290     7.7620    12.3310     2.0460 
   77.6250   -37.2110    56.0760     6.7010     7.5560    12.7590     2.0450 
   77.7500   -36.7910    58.3300     6.5380     7.3090    12.4180     2.0490 
   77.8750   -36.1900    59.8950     6.3550     7.0610    11.3130     2.0560 
   78.0000   -35.4170    61.4750     6.2000     6.8650    10.7520     2.0580 
   78.1250   -34.4520    63.4110     6.0850     6.7270    10.9960     2.0600 
   78.2500   -33.3090    65.1610     6.0280     6.6420    10.9560     2.0620 
   78.3750   -31.9770    66.1370     6.0310     6.6220    10.5260     2.0640 
   78.5000   -30.4690    66.8410     6.0800     6.6560    10.0360     2.0630 
   78.6250   -28.7710    66.6670     6.1430     6.7200     9.7420     2.0640 
   78.7500   -26.8890    66.5000     6.1470     6.7380     9.7530     2.0710 
   78.8750   -24.7980    66.2050     5.9980     6.5790     9.6870     2.0800 
   79.0000   -22.5240    67.4310     5.6290     6.1650     9.1700     2.0890 
   79.1250   -20.1130    70.0550     4.9910     5.4790     8.3230     2.1040 
   79.2500   -17.6920    74.2100     4.2800     4.7020     7.1620     2.1330 
   79.3750   -15.4410    81.0760     3.6270     3.9990     5.3000     2.1800 
   79.5000   -13.5140    87.1120     3.1520     3.4900     3.6910     2.2260 
   79.6250   -12.0700    90.9250     2.9230     3.2350     3.2200     2.2510 
