~V
VERS. 2.00: Ver 2.00
~W
STRT.M 40.0000:
STOP.M 205.0000:
STEP.M 0.1250:
NULL. -999.2500:
UWI. F10810:
~C
DEPT.M :
SP.MV :
GR.API :
RI. :
RML.OHMM :
RXO.OHMM :
DEN.GM/CC :
~A
# ...
   65.7500   -31.2960    66.3290     5.3080     8.7860    10.4190     2.0930 
   65.8750   -30.6860    64.8780     5.2740     8.7600    10.3450     2.0900 
   66.0000   -29.9010    64.8280     5.2780     8.8010     9.8700     2.0920 
   66.1250   -28.9300    65.6620     5.2620     8.7830     9.6670     2.0950 
   66.2500   -27.8000    66.3400     5.1400     8.6000     9.7220     2.0980 
   66.3750   -26.5200    67.1420     4.9580     8.2970     9.3360     2.1030 
   66.5000   -25.1400    69.0670     4.7800     8.0000     8.2300     2.1110 
   66.6250   -23.7060    73.0110     4.6460     7.7960     7.3600     2.1230 
   66.7500   -22.2850    76.8680     4.5280     7.6500     7.9330     2.1290 
   66.8750   -20.9500    80.4670     4.3830     7.4590     8.9560     2.1320 
   67.0000   -19.7600    82.9570     4.1830     7.1440     8.4220     2.1310 
   67.1250   -18.7890    87.7430     3.9550     6.7230     6.4850     2.1400 
   67.2500   -18.0550    92.8180     3.7760     6.3380     4.9560     2.1600 
   67.3750   -17.5790    95.7320     3.6980     6.1540     5.1180     2.1820 
   67.5000   -17.3010    93.3850     3.7700     6.2600     6.5010     2.1870 
   67.6250   -17.1610    88.3530     3.9940     6.6060     7.7440     2.1690 
   67.7500   -17.0640    85.1650     4.2180     6.9210     7.8410     2.1500 
   67.8750   -16.9350    85.9480     4.2990     6.9100     6.7280     2.1420 
   68.0000   -16.7360    89.8020     4.2330     6.6630     5.5970     2.1520 
   68.1250   -16.4520    94.9080     4.0620     6.3640     5.0710     2.1700 
   68.2500   -16.1100   101.1740     3.8730     6.0780     4.7210     2.1960 
   68.3750   -15.7390   105.6900     3.7120     5.8730     4.6070     2.2150 
   68.5000   -15.3720   108.9660     3.5840     5.7300     4.5370     2.2230 
   68.6250   -15.0390   110.4250     3.4470     5.6020     4.1770     2.2240 
   68.7500   -14.7600   114.4910     3.3270     5.4960     4.0300     2.2250 
   68.8750   -14.5600   119.1140     3.2350     5.4010     4.1470     2.2320 
   69.0000   -14.4540   122.0640     3.1260     5.2540     4.1770     2.2420 
   69.1250   -14.4710   121.0410     3.0300     5.1690     4.1360     2.2530 
   69.2500   -14.6240   116.6650     3.0350     5.1500     4.1360     2.2610 
   69.3750   -14.9490   111.7470     3.3600     5.4650     4.2360     2.2650 
   69.5000   -15.4630   106.6150     3.9420     6.4350     4.9760     2.2820 
   69.6250   -16.2150   100.4890     5.0800     8.4530     9.8480     2.3320 
   69.7500   -17.2100    92.0370     6.8040    11.5580    17.6530     2.4130 
   69.8750   -18.4690    82.5250     8.9950    14.9940    19.5530     2.4870 
   70.0000   -19.9360    74.9720    10.1380    17.0730    15.9130     2.5130 
   70.1250   -21.5380    70.4630    10.2160    16.9460    17.0390     2.4750 
   70.2500   -23.1460    67.8570     9.1750    15.0000    20.2190     2.3900 
   70.3750   -24.6240    65.7910     7.6220    12.3590    16.9920     2.2810 
   70.5000   -25.8810    64.0390     6.4480    10.3350    13.2350     2.1760 
   70.6250   -26.8430    61.9190     5.6940     9.1490    12.7560     2.1090 
   70.7500   -27.5440    60.3670     5.2330     8.6020    12.2980     2.0810 
   70.8750   -28.0300    60.9980     5.1760     8.6770    11.3660     2.0820 
   71.0000   -28.4030    64.5920     5.3190     9.0850    10.9270     2.0900 
   71.1250   -28.7350    67.2920     5.5790     9.6280    11.3870     2.0980 
   71.2500   -29.0820    68.0480     5.8860    10.1860    12.0800     2.1020 
   71.3750   -29.4610    66.5840     6.1460    10.6220    12.7550     2.0970 
   71.5000   -29.8640    66.0530     6.2980    10.8310    13.1290     2.0910 
   71.6250   -30.2740    65.6050     6.3180    10.7820    12.9460     2.0870 
   71.7500   -30.6800    65.0140     6.2000    10.5260    12.2890     2.0880 
   71.8750   -31.0840    63.1370     5.9620    10.1220    11.2830     2.0880 
   72.0000   -31.5050    61.9990     5.6780     9.6620    10.4710     2.0890 
   72.1250   -31.9730    62.8840     5.3860     9.2110     9.8360     2.0920 
   72.2500   -32.5120    66.6070     5.1810     8.8980     9.2180     2.0960 
   72.3750   -33.1340    68.6880     5.1260     8.8600     9.4350     2.0980 
   72.5000   -33.8100    67.6510     5.2170     9.0910    10.1160     2.1000 
   72.6250   -34.4800    61.7580     5.4000     9.5000    10.5180     2.1090 
   72.7500   -35.0610    57.5630     5.6370     9.9600    10.8140     2.1250 
   72.8750   -35.4460    56.2750     5.8360    10.2210    11.2360     2.1350 
   73.0000   -35.5840    58.2380     5.9290    10.1190    11.7550     2.1270 
   73.1250   -35.4340    59.0970     5.9140     9.6750    11.5320     2.1010 
   73.2500   -35.0550    59.8850     5.8080     9.0410    10.7900     2.0750 
   73.3750   -34.5240    59.7070     5.6600     8.4190    10.7420     2.0590 
   73.5000   -33.9660    60.0830     5.5210     7.9350    10.9520     2.0550 
   73.6250   -33.5070    59.7030     5.4050     7.5700    10.4490     2.0560 
   73.7500   -33.2290    58.9130     5.3040     7.2800     9.9350     2.0640 
   73.8750   -33.1960    58.7730     5.2620     7.0950    10.0700     2.0740 
   74.0000   -33.3770    59.0970     5.2940     7.0280    10.6420     2.0810 
   74.1250   -33.7140    60.4210     5.4020     7.0840    11.4190     2.0810 
   74.2500   -34.0840    61.2690     5.5720     7.2130    12.0130     2.0760 
   74.3750   -34.3420    61.6920     5.7620     7.3580    12.4990     2.0660 
   74.5000   -34.3630    61.1240     5.9060     7.4420    12.7850     2.0580 
   74.6250   -34.0180    60.8460     5.9440     7.3780    12.7800     2.0520 
   74.7500   -33.2720    61.8050     5.8520     7.1620    13.0170     2.0480 
   74.8750   -32.0850    62.2310     5.6540     6.8360    13.2460     2.0450 
   75.0000   -30.5290    62.7960     5.4250     6.4990    12.6150     2.0460 
   75.1250   -28.6520    61.5740     5.4060     6.3400    11.7240     2.0530 
   75.2500   -26.5730    62.1460     5.5520     6.5420    11.6090     2.0620 
   75.3750   -24.3820    63.0780     6.0560     7.1630    11.4530     2.0880 
   75.5000   -22.1850    65.7430     6.6410     7.8760    12.0050     2.1510 
   75.6250   -20.0780    68.5630     6.9250     8.2080    20.3010     2.2660 
   75.7500   -18.1340    73.1770     6.6840     7.8580    27.9410     2.3840 
   75.8750   -16.4390    78.0930     5.8490     6.8700    19.5720     2.4310 
   76.0000   -15.0220    83.4400     4.8300     5.5790     8.1700     2.3840 
   76.1250   -13.9310    87.2830     3.9660     4.5200     4.9220     2.3010 
   76.2500   -13.1350    89.0890     3.4330     3.9350     4.4410     2.2520 
   76.3750   -12.6200    89.6960     3.3480     3.8750     4.3990     2.2480 
   76.5000   -12.3090    91.6840     3.4860     4.0760     4.6180     2.2590 
   76.6250   -12.1480    95.3440     3.6730     4.3230     4.9530     2.2670 
   76.7500   -12.0650    97.8740     3.8100     4.4810     4.9660     2.2670 
   76.8750   -12.0170    99.1440     3.8510     4.4890     4.7640     2.2570 
   77.0000   -11.9770    99.7940     3.7910     4.3780     4.8010     2.2400 
   77.1250   -11.9360   100.9000     3.7050     4.2390     5.0500     2.2260 
   77.2500   -11.8970   100.8420     3.7190     4.2350     4.9880     2.2190 
   77.3750   -11.8620    99.3420     4.0170     4.5750     4.9070     2.2210 
   77.5000   -11.8340    95.5480     4.6990     5.3500     5.8260     2.2410 
   77.6250   -11.8190    90.9590     5.6690     6.5010     8.4650     2.2960 
   77.7500   -11.8260    87.3790     6.6810     7.6660    12.4580     2.3710 
   77.8750   -11.8690    85.6380     7.2450     8.2830    14.2970     2.4290 
   78.0000   -11.9520    85.6390     7.0440     7.9670    11.5590     2.4360 
   78.1250   -12.0720    86.6150     6.2480     7.0220     7.7170     2.3840 
   78.2500   -12.2080    89.6440     5.2770     5.9060     5.8860     2.3080 
   78.3750   -12.3320    93.2050     4.5410     5.1200     5.3870     2.2360 
   78.5000   -12.4200    96.3860     4.2410     4.7960     5.2400     2.1950 
