~V
VERS. 2.00: Ver 2.00
~W
STRT.M 40.0000:
STOP.M 213.0000:
STEP.M 0.1250:
NULL. -999.2500:
UWI. F10805:
~C
DEPT.M :
SP.MV :
GR.API :
RI. :
RML.OHMM :
RXO.OHMM :
DEN.GM/CC :
~A
# ...
  155.8750   -22.9230    62.3880   105.0050   111.1120   349.2470     2.1380 
  156.0000   -22.9610    62.6240    98.6300   105.5430   302.8510     2.1490 
  156.1250   -23.0280    63.3090    88.1350    95.8200   176.6180     2.1700 
  156.2500   -23.1160    64.4570    77.3110    84.9260    97.4830     2.1850 
  156.3750   -23.1690    65.2700    68.8000    75.7880    77.1580     2.1880 
  156.5000   -23.2200    67.0040    63.4380    69.5290    71.6530     2.1840 
  156.6250   -23.2140    68.6260    60.8280    66.1570    65.9800     2.1840 
  156.7500   -23.2080    69.3960    60.1520    64.6200    63.1050     2.1860 
  156.8750   -23.1750    68.3430    60.1750    64.0920    69.2360     2.1890 
  157.0000   -23.1090    69.0460    60.3920    63.9880    70.9920     2.1890 
  157.1250   -22.9540    70.1860    60.9450    64.3190    61.1340     2.1910 
  157.2500   -22.8360    70.4910    62.0700    65.1690    51.7650     2.1940 
  157.3750   -22.7590    67.9810    63.6460    66.5360    52.6830     2.1950 
  157.5000   -22.7470    66.5190    65.4900    68.0960    60.3960     2.1910 
  157.6250   -22.8410    66.6310    66.9220    69.3690    63.0410     2.1840 
  157.7500   -22.9760    68.8850    67.5090    69.9840    57.3860     2.1810 
  157.8750   -23.1590    69.2200    67.0420    69.8150    51.0780     2.1870 
  158.0000   -23.2870    69.3220    65.9230    69.2680    48.9960     2.1970 
  158.1250   -23.4470    69.0970    65.0410    68.9410    57.5910     2.2060 
  158.2500   -23.5840    69.9970    64.7630    69.2900    72.5870     2.2170 
  158.3750   -23.7940    69.1800    65.6720    70.4960    73.8990     2.2280 
  158.5000   -23.9830    68.5370    67.5670    72.2780    64.0490     2.2320 
  158.6250   -24.2130    66.9730    71.5720    75.7250    62.3840     2.2250 
  158.7500   -24.4670    66.9930    77.5540    81.9730    68.5900     2.2070 
  158.8750   -24.7870    67.2820    85.3330    90.1460    75.7050     2.1850 
  159.0000   -25.1470    68.0690    94.2010    99.2100    84.0640     2.1640 
  159.1250   -25.4650    67.4670   103.2550   108.5100    91.9240     2.1490 
  159.2500   -25.7830    64.8480   112.4880   117.4630    98.5450     2.1400 
  159.3750   -26.0660    62.7540   120.5470   125.3790   106.7100     2.1330 
  159.5000   -26.2060    62.4890   127.4690   131.6480   117.2720     2.1240 
  159.6250   -26.1830    64.7950   131.3820   135.4470   127.6130     2.1190 
  159.7500   -26.1950    66.5660   132.6350   136.4690   134.8870     2.1230 
  159.8750   -26.1990    66.5600   131.2010   133.7500   135.0530     2.1310 
  160.0000   -26.2580    66.1120   123.4870   127.8010   127.4260     2.1340 
  160.1250   -26.2620    66.2560   112.1300   118.3220   114.9960     2.1300 
  160.2500   -26.2430    66.8700   101.2210   108.8240    94.0250     2.1310 
  160.3750   -26.1920    66.4250    95.4770   103.9410    76.7690     2.1390 
  160.5000   -26.1670    65.5920    95.9950   105.9420    91.9100     2.1480 
  160.6250   -26.1770    63.0860   104.9050   117.9000   127.6990     2.1520 
  160.7500   -26.1800    58.8910   125.5550   140.1410   136.5010     2.1530 
  160.8750   -26.2350    54.4200   156.1330   170.5910   115.5620     2.1540 
  161.0000   -26.3280    52.3200   190.1120   201.6300   112.3640     2.1490 
  161.1250   -26.4170    53.2620   218.2470   224.3760   152.2940     2.1380 
  161.2500   -26.4620    55.8050   228.5060   236.1310   196.7570     2.1260 
  161.3750   -26.4780    57.2980   222.5690   233.1930   200.3430     2.1250 
  161.5000   -26.3930    57.6220   207.9220   219.9570   138.0080     2.1320 
  161.6250   -26.2230    57.9230   188.7200   204.2950   111.4400     2.1470 
  161.7500   -25.9750    59.1810   176.5690   192.9400   136.6090     2.1570 
  161.8750   -25.7230    60.5490   172.8340   188.6880   157.0900     2.1580 
  162.0000   -25.4000    60.8910   174.0770   189.5730   160.2950     2.1470 
  162.1250   -25.0900    60.9530   178.4740   193.2470   156.7320     2.1320 
  162.2500   -24.8130    60.9350   183.0180   197.1960   143.9930     2.1210 
  162.3750   -24.5340    61.0210   186.1250   200.2180   131.2730     2.1200 
  162.5000   -24.2110    61.5340   188.1160   202.6610   127.4180     2.1250 
  162.6250   -23.8700    62.9750   190.6990   205.4200   132.4260     2.1240 
  162.7500   -23.6130    63.8120   193.6880   208.8210   145.8670     2.1190 
  162.8750   -23.3070    62.9320   197.1470   212.1340   144.9240     2.1150 
  163.0000   -23.0730    61.3380   198.7270   213.6040   135.8230     2.1170 
  163.1250   -22.8770    60.9060   195.8060   211.0580   149.4360     2.1250 
  163.2500   -22.6990    60.8770   187.8430   204.3580   163.0830     2.1280 
  163.3750   -22.4470    60.6310   176.2620   195.2850   153.9410     2.1330 
  163.5000   -22.1720    59.5950   166.2400   187.3350   134.9690     2.1390 
  163.6250   -21.8190    58.6000   161.0480   183.5630   123.5820     2.1470 
  163.7500   -21.4920    57.6870   160.1640   185.6610   136.9570     2.1450 
  163.8750   -21.2360    57.0620   167.5840   195.8920   184.6440     2.1330 
  164.0000   -21.0030    57.1950   183.9670   212.8800   200.7670     2.1220 
  164.1250   -20.7430    57.5860   203.2820   232.7430   165.6140     2.1200 
  164.2500   -20.4760    58.8480   222.1780   249.6870   170.6280     2.1250 
  164.3750   -20.2870    59.2950   233.3320   257.4960   189.0420     2.1280 
  164.5000   -20.1020    60.4350   232.3550   254.1730   177.3980     2.1340 
  164.6250   -19.9170    61.9830   221.8750   239.6640   171.9490     2.1440 
  164.7500   -19.7040    65.0800   198.5690   215.5910   161.7730     2.1550 
  164.8750   -19.4000    66.3290   164.6160   181.2130   131.8130     2.1650 
  165.0000   -18.9260    65.4540   123.3410   139.7010    96.3700     2.1710 
  165.1250   -18.5050    63.5810    85.1040    98.5070    74.3230     2.1800 
  165.2500   -18.1890    64.3310    55.4610    65.7480    53.2790     2.1950 
  165.3750   -18.0390    68.2670    37.5290    45.7350    27.8300     2.2290 
  165.5000   -18.0020    73.3840    31.6400    35.8840    20.6890     2.2630 
  165.6250   -18.0130    76.1120    29.6360    32.5190    26.1940     2.2840 
  165.7500   -18.0850    74.8970    30.2970    32.5430    30.6110     2.2800 
  165.8750   -18.1180    72.4290    32.5730    34.5860    32.8580     2.2660 
  166.0000   -18.1520    71.9760    35.5850    37.4410    31.1960     2.2490 
  166.1250   -18.1610    73.1640    38.5500    40.8400    30.3700     2.2360 
  166.2500   -18.1400    73.0780    41.7400    45.3600    35.4760     2.2270 
  166.3750   -18.0910    71.2740    47.4240    52.2330    45.7000     2.2210 
  166.5000   -18.0880    69.2670    56.2860    61.3450    61.3800     2.2110 
  166.6250   -17.9930    68.7510    66.8190    71.4060    83.9060     2.1930 
  166.7500   -17.8940    67.9820    76.5930    80.7030    98.0730     2.1760 
  166.8750   -17.7930    67.9950    83.9100    88.3790    88.1140     2.1670 
  167.0000   -17.6550    66.9240    88.6650    94.3090    76.1730     2.1660 
  167.1250   -17.4870    65.0600    90.0600    98.4690    94.8840     2.1680 
  167.2500   -17.3620    61.9000    90.8790   102.1430   133.1990     2.1720 
  167.3750   -17.3380    59.6180    93.4130   105.8460   152.7940     2.1770 
  167.5000   -17.3410    59.1250    96.1220   107.7140   139.8460     2.1760 
  167.6250   -17.3470    60.7890    93.4480   104.7550   110.7720     2.1600 
  167.7500   -17.3160    61.8040    86.4250    96.6930    97.1610     2.1350 
  167.8750   -17.1910    62.8960    74.6430    85.6900    86.3970     2.1250 
  168.0000   -16.8640    63.6590    65.0750    75.9130    59.2810     2.1330 
  168.1250   -16.4970    65.5070    60.3760    69.9490    49.4260     2.1520 
  168.2500   -16.1840    66.1690    58.4090    67.6050    63.0850     2.1640 
  168.3750   -15.9820    65.4020    59.6110    68.5450    73.3480     2.1710 
  168.5000   -15.8470    64.5170    63.2040    71.4750    71.8810     2.1730 
  168.6250   -15.7350    64.6690    67.3380    74.7540    70.3740     2.1750 
