~V
VERS. 2.00: Ver 2.00
~W
STRT.M 40.0000:
STOP.M 205.0000:
STEP.M 0.1250:
NULL. -999.2500:
UWI. F10807:
~C
DEPT.M :
SP.MV :
GR.API :
RI. :
RML.OHMM :
RXO.OHMM :
DEN.GM/CC :
~A
# ...
   78.6250   -20.2790    67.0070     7.5990     8.0090     8.3210     2.1560 
   78.7500   -21.8470    65.2370     6.3090     6.7510     8.0330     2.0820 
   78.8750   -22.9400    63.9940     5.8760     6.2130     8.1320     2.0560 
   79.0000   -23.8410    63.0780     5.8300     6.1480     8.3150     2.0520 
   79.1250   -24.5150    63.7890     5.9610     6.2870     8.3980     2.0520 
   79.2500   -24.9930    63.8790     6.1170     6.4200     8.3380     2.0510 
   79.3750   -25.3630    65.1410     6.2530     6.5110     8.3030     2.0510 
   79.5000   -25.6040    65.6490     6.3750     6.6190     8.4960     2.0560 
   79.6250   -25.8120    65.7920     6.4980     6.7490     8.8630     2.0670 
   79.7500   -25.9320    65.6430     6.6250     6.8780     9.1530     2.0760 
   79.8750   -26.0410    65.3230     6.7240     6.9810     9.1730     2.0800 
   80.0000   -26.0580    65.9390     6.7820     7.0310     8.9230     2.0830 
   80.1250   -25.9320    66.0490     6.7390     6.9940     8.7430     2.0830 
   80.2500   -25.7560    66.3860     6.5880     6.8810     8.8140     2.0800 
   80.3750   -25.6120    66.2230     6.3990     6.7270     8.6670     2.0720 
   80.5000   -25.5860    65.7700     6.2200     6.5850     8.1000     2.0660 
   80.6250   -25.6930    64.6630     6.0910     6.4920     7.6460     2.0620 
   80.7500   -26.0340    63.0650     6.0280     6.4590     7.7390     2.0620 
   80.8750   -26.4590    61.1680     6.0250     6.4750     7.9180     2.0590 
   81.0000   -26.7930    59.6590     6.0490     6.5220     7.7260     2.0580 
   81.1250   -26.8800    59.1430     6.0870     6.5760     7.8740     2.0610 
   81.2500   -26.8610    60.3470     6.1100     6.6050     8.2580     2.0650 
   81.3750   -26.7830    62.2250     6.1130     6.6200     8.0940     2.0720 
   81.5000   -26.7280    63.7590     6.1050     6.6180     8.1720     2.0740 
   81.6250   -26.6610    64.9620     6.0730     6.5780     8.7940     2.0700 
   81.7500   -26.5690    64.9690     5.9860     6.4830     8.8590     2.0600 
   81.8750   -26.3790    63.8660     5.8740     6.3470     8.1110     2.0510 
   82.0000   -26.0360    62.4060     5.7650     6.2220     7.3940     2.0490 
   82.1250   -25.5720    62.0790     5.6900     6.1280     7.4990     2.0560 
   82.2500   -24.9890    62.6460     5.6480     6.0780     8.2440     2.0680 
   82.3750   -24.3820    62.7510     5.6270     6.0430     8.6560     2.0840 
   82.5000   -23.6930    63.0100     5.5860     5.9800     8.3580     2.0900 
   82.6250   -22.8710    64.1220     5.5070     5.8750     8.1270     2.0850 
   82.7500   -21.9400    66.4390     5.4240     5.7530     8.3270     2.0730 
   82.8750   -21.0110    66.7090     5.3720     5.6730     8.2890     2.0690 
   83.0000   -20.0240    66.8500     5.3480     5.6300     8.0280     2.0650 
   83.1250   -18.8970    67.5280     5.2900     5.5520     8.0120     2.0630 
   83.2500   -17.4030    69.4260     5.0810     5.3260     7.8740     2.0670 
   83.3750   -15.3040    71.8030     4.6490     4.8760     7.1680     2.0850 
   83.5000   -12.8320    75.5940     4.1160     4.3260     6.1850     2.1250 
   83.6250   -10.0970    81.7960     3.6540     3.8380     5.3130     2.1750 
   83.7500    -7.6030    88.6060     3.3210     3.5040     5.0080     2.2150 
   83.8750    -5.6700    90.9290     3.1500     3.3460     6.5780     2.2180 
   84.0000    -4.3610    91.5250     3.0700     3.2870     7.8650     2.2030 
   84.1250    -3.4730    91.0360     3.0430     3.2590     5.9210     2.1990 
   84.2500    -2.5030    93.9110     3.0050     3.2040     4.0750     2.2200 
   84.3750    -1.6840    96.3540     2.9590     3.1280     4.1340     2.2380 
   84.5000    -1.3870    98.5610     2.9250     3.0690     4.4050     2.2380 
   84.6250    -1.5140    98.8250     2.9210     3.0920     4.4970     2.2240 
   84.7500    -1.6520    99.3640     3.0010     3.1780     4.3210     2.2130 
   84.8750    -1.7020    99.3700     3.0880     3.2330     4.1650     2.2090 
   85.0000    -1.7600    98.7250     3.1420     3.2560     4.2180     2.2060 
   85.1250    -2.0300    96.8010     3.2120     3.2940     4.4270     2.1990 
   85.2500    -2.5190    95.0170     3.3040     3.3640     4.8050     2.1920 
   85.3750    -3.2040    93.6810     3.4090     3.4600     5.3720     2.1880 
   85.5000    -3.9540    93.5620     3.4850     3.5390     5.5240     2.1910 
   85.6250    -4.6130    95.6290     3.4900     3.5590     5.0680     2.2010 
   85.7500    -5.0730    98.8260     3.4470     3.5370     4.7450     2.2130 
   85.8750    -5.2200   101.1230     3.3650     3.4910     4.4930     2.2290 
   86.0000    -5.1940   101.5120     3.2900     3.4510     4.4640     2.2480 
   86.1250    -5.1110   100.8130     3.2240     3.4290     4.8580     2.2650 
   86.2500    -5.1810   101.5560     3.1740     3.3980     5.1130     2.2690 
   86.3750    -5.3660   102.6290     3.1070     3.3420     4.9940     2.2570 
   86.5000    -5.7300   103.8220     3.1040     3.3600     4.7460     2.2460 
   86.6250    -6.3060   103.6590     3.4030     3.7010     4.7000     2.2550 
   86.7500    -7.0490   102.0550     4.1470     4.6520     7.0300     2.3030 
   86.8750    -7.9970    96.8570     5.9250     6.9830    18.4000     2.3940 
   87.0000    -9.1610    87.7540     9.5300    11.0980    35.0750     2.5080 
   87.1250   -10.6770    78.1120    14.1630    15.6510    50.7270     2.5870 
   87.2500   -12.3620    69.8970    16.7700    18.1260    57.8600     2.5910 
   87.3750   -14.1560    65.7270    16.4840    17.2530    41.5250     2.4850 
   87.5000   -15.8890    64.3020    13.3760    13.7600    17.8600     2.3220 
   87.6250   -17.4430    65.2680     9.5710     9.9110     8.2980     2.1730 
   87.7500   -18.6590    66.8470     7.4580     7.5780     6.8510     2.0910 
   87.8750   -19.6270    68.7590     6.5080     6.6380     6.6180     2.0700 
   88.0000   -20.3130    69.5740     6.2940     6.4740     6.6380     2.0720 
   88.1250   -20.7630    68.3440     6.4940     6.7060     6.9260     2.0720 
   88.2500   -21.0250    66.9210     6.7620     6.9910     7.2340     2.0700 
   88.3750   -21.1710    66.4990     6.9680     7.2010     7.6550     2.0670 
   88.5000   -21.2490    66.8410     7.0810     7.3240     7.8840     2.0670 
   88.6250   -21.3010    66.4250     7.1110     7.3730     7.4780     2.0680 
   88.7500   -21.3440    66.2620     7.0720     7.3410     7.1820     2.0730 
   88.8750   -21.3180    67.2930     6.9400     7.1920     7.3330     2.0780 
   89.0000   -21.2560    69.3140     6.6990     6.9190     7.5570     2.0820 
   89.1250   -21.0440    72.1150     6.3860     6.5660     7.7610     2.0840 
   89.2500   -20.8250    75.4620     6.0460     6.2130     7.6920     2.0920 
   89.3750   -20.6470    81.5000     5.7710     5.9420     7.2530     2.1070 
   89.5000   -20.7060    89.2690     5.5850     5.7840     7.0510     2.1270 
   89.6250   -21.1720    96.9350     5.4750     5.7150     7.3640     2.1350 
   89.7500   -21.7710    99.8650     5.4200     5.6580     7.6870     2.1290 
   89.8750   -22.2980    96.6120     5.3800     5.5810     7.6590     2.1110 
   90.0000   -22.7840    89.3850     5.3280     5.5250     7.4210     2.0930 
   90.1250   -23.3510    81.9790     5.2460     5.4490     7.2640     2.0820 
   90.2500   -23.8010    76.0740     5.1740     5.3760     7.2500     2.0790 
   90.3750   -24.0200    72.0480     5.1480     5.3510     7.2950     2.0790 
   90.5000   -23.8860    70.9090     5.1740     5.3780     7.3920     2.0790 
   90.6250   -23.2030    73.1850     5.2650     5.4560     7.6840     2.0830 
   90.7500   -21.9360    77.3730     5.3650     5.5480     8.0850     2.0950 
   90.8750   -20.2540    80.3880     5.4530     5.6380     8.4030     2.1090 
   91.0000   -18.5890    82.6640     5.5500     5.7320     8.4120     2.1180 
   91.1250   -17.5840    83.0180     5.6400     5.8240     8.1450     2.1210 
   91.2500   -17.4160    82.4220     5.7040     5.8960    13.1900     2.1270 
   91.3750   -17.8350    80.2330     5.7320     5.9220    21.5840     2.1290 
