~V
VERS. 2.00: Ver 2.00
~W
STRT.M 40.0000:
STOP.M 216.0000:
STEP.M 0.1250:
NULL. -999.2500:
UWI. F10813:
~C
DEPT.M :
SP.MV :
GR.API :
RI. :
RML.OHMM :
RXO.OHMM :
DEN.GM/CC :
~A
# ...
   52.8750   120.0710    42.2770     0.1080     0.1340     0.0160     2.3250 
   53.0000   119.4830    41.4990     0.1150     0.1330     0.0160     2.3390 
   53.1250   118.7450    40.5260     0.1170     0.1320     0.0160     2.3430 
   53.2500   117.8260    39.2810     0.1260     0.1330     0.0150     2.3380 
   53.3750   116.7980    38.8160     0.1340     0.1340     0.0140     2.3210 
   53.5000   115.6000    37.7840     0.1300     0.1360     0.0160     2.3070 
   53.6250   113.9410    37.2550     0.1280     0.1400     0.0190     2.3020 
   53.7500   111.7730    37.6940     0.1160     0.1440     0.0220     2.3110 
   53.8750   109.0460    38.4610     0.1010     0.1380     0.0240     2.3220 
   54.0000   105.5380    38.1660     0.0760     0.1160     0.0250     2.3290 
   54.1250   100.8190    37.1770     0.0490     0.0810     0.0260     2.3280 
   54.2500    94.5770    36.9290     0.0300     0.0470     0.0310     2.3120 
   54.3750    86.5110    38.8380     0.0280     0.0330     0.0340     2.3080 
   54.5000    76.2370    42.5900     0.0630     0.0620     0.1450     2.2850 
   54.6250    62.9250    48.7450     0.1810     0.1950     1.4800     2.1810 
   54.7500    47.1820    57.0510     0.5010     0.8600     3.7140     1.9560 
   54.8750    32.4100    65.8700     1.5890     3.4890     4.4820     1.7270 
   55.0000    22.6570    72.1190     2.8540     6.3190     4.0270     1.6320 
   55.1250    17.2100    74.5540     3.6460     7.3540     3.7970     1.7010 
   55.2500    13.4220    74.9500     3.9770     6.8600     3.8100     1.8200 
   55.3750    10.2590    74.6720     3.5290     4.4590     4.5580     1.8880 
   55.5000     7.4350    75.0790     3.3570     3.0750     5.4540     1.9020 
   55.6250     4.7140    75.3170     3.5840     3.0910     4.9790     1.8840 
   55.7500     1.9430    75.3040     4.0010     3.4600     4.1880     1.8470 
   55.8750    -1.0340    73.3730     4.5400     4.0000     5.2530     1.7710 
   56.0000    -4.0850    70.9450     5.2160     4.6530     7.5580     1.6900 
   56.1250    -6.9750    68.8650     5.9920     5.3840     8.4510     1.6750 
   56.2500    -9.3430    67.9650     6.7260     6.1000     8.2080     1.7590 
   56.3750   -11.0230    68.8610     7.2920     6.6840     8.3980     1.8910 
   56.5000   -12.1800    70.4190     7.5750     7.0510     8.5120     2.0020 
   56.6250   -12.9390    72.1820     7.5900     7.1930     7.9440     2.0550 
   56.7500   -13.3460    71.5970     7.4240     7.1720     7.3660     2.0700 
   56.8750   -13.3300    69.7750     7.0590     6.9670     7.5320     2.0690 
   57.0000   -13.0490    68.4950     6.5070     6.6020     7.9770     2.0760 
   57.1250   -12.4490    71.3420     5.8920     6.1410     7.6440     2.1010 
   57.2500   -11.7460    77.5080     5.3590     5.7340     6.2260     2.1400 
   57.3750   -11.2730    85.0360     5.0530     5.5610     4.8420     2.1740 
   57.5000   -11.4600    90.1560     5.0050     5.6690     4.6510     2.1860 
   57.6250   -12.4400    90.1250     5.2090     6.0590     5.4500     2.1720 
   57.7500   -13.7780    85.9350     5.6180     6.5710     6.3520     2.1490 
   57.8750   -14.8870    79.8810     5.9280     6.9100     6.8750     2.1330 
   58.0000   -15.4730    76.4100     6.0120     6.9660     7.1610     2.1330 
   58.1250   -15.5060    75.0400     5.8830     6.7970     7.0520     2.1480 
   58.2500   -15.2380    76.5700     5.7110     6.6610     6.1560     2.1690 
   58.3750   -15.1000    78.0130     5.7740     6.8620     5.2230     2.1960 
   58.5000   -15.3920    80.2480     6.0940     7.3850     5.4130     2.2300 
   58.6250   -16.1090    79.7670     6.5120     7.9910     6.3600     2.2490 
   58.7500   -16.6970    77.8420     6.7590     8.3270     6.6990     2.2230 
   58.8750   -16.8740    75.6830     6.5950     8.1480     6.6150     2.1620 
   59.0000   -16.7840    76.8280     6.1640     7.6090     6.5220     2.1220 
   59.1250   -16.6270    81.7460     5.6290     6.9960     5.7900     2.1230 
   59.2500   -16.8000    86.5960     5.2860     6.6550     5.3160     2.1340 
   59.3750   -17.6150    87.5070     5.2790     6.7560     6.0420     2.1310 
   59.5000   -18.9350    83.5180     5.4710     7.0970     6.8940     2.1170 
   59.6250   -20.2060    78.1050     5.6810     7.4190     7.2450     2.1010 
   59.7500   -21.1950    73.6900     5.7790     7.5330     7.4810     2.0880 
   59.8750   -21.8410    72.8050     5.6750     7.3850     7.6270     2.0850 
   60.0000   -22.1980    73.7770     5.5430     7.2750     7.5850     2.0900 
   60.1250   -22.3180    73.8360     5.7590     7.6400     7.7140     2.1060 
   60.2500   -22.5020    71.0430     6.3510     8.5250     8.4030     2.1450 
   60.3750   -22.9660    67.6130     7.0930     9.6670    12.7630     2.2230 
   60.5000   -23.5420    65.1410     7.7140    10.6110    33.5440     2.3120 
   60.6250   -24.1020    63.6250     7.8500    10.8670    49.6180     2.3390 
   60.7500   -24.6090    62.9850     7.5010    10.4200    31.5330     2.2840 
   60.8750   -25.0780    64.0060     6.8260     9.5510    11.0270     2.1920 
   61.0000   -25.3500    64.7720     6.1100     8.7110     7.6540     2.1410 
   61.1250   -25.5090    66.1650     5.6170     8.2590     7.4840     2.1350 
   61.2500   -25.6340    65.6240     5.4510     8.2070     7.2500     2.1370 
   61.3750   -25.5810    64.8450     5.5090     8.3250     7.0040     2.1200 
   61.5000   -25.4970    62.3860     5.5450     8.3610     6.9470     2.0980 
   61.6250   -25.7420    60.9680     5.5400     8.2970     7.0230     2.0800 
   61.7500   -25.7300    62.2620     5.5250     8.2090     7.1160     2.0690 
   61.8750   -25.8970    64.1510     5.5320     8.1300     7.1020     2.0630 
   62.0000   -26.1050    66.4640     5.5450     8.0500     7.0100     2.0650 
   62.1250   -26.0430    66.4150     5.5370     7.9690     6.9720     2.0690 
   62.2500   -25.8290    65.4400     5.5320     7.9580     6.9180     2.0720 
   62.3750   -25.4490    63.6250     5.5700     8.1140     6.8110     2.0740 
   62.5000   -25.0010    64.5980     5.6440     8.3950     6.9780     2.0740 
   62.6250   -24.4900    66.3130     5.7230     8.7000     7.2920     2.0720 
   62.7500   -23.9380    67.8060     5.7620     8.9030     7.3470     2.0680 
   62.8750   -23.2430    66.6360     5.6890     8.8640     7.1340     2.0650 
   63.0000   -22.4350    66.8700     5.4910     8.5490     6.8530     2.0670 
   63.1250   -21.4530    68.7320     5.1310     7.9740     6.7890     2.0800 
   63.2500   -20.3150    73.5720     4.7500     7.3370     6.5930     2.1040 
   63.3750   -19.3360    78.0020     4.4480     6.8340     6.0280     2.1270 
   63.5000   -18.6960    80.9820     4.3220     6.6510     5.6290     2.1390 
   63.6250   -18.6940    82.2100     4.4690     6.9460     5.6650     2.1350 
   63.7500   -19.1290    81.2810     4.9040     7.7360     6.1820     2.1310 
   63.8750   -19.8220    78.9710     5.6640     9.0060     7.0610     2.1480 
   64.0000   -20.5080    75.7080     6.4770    10.3340     7.8940     2.1910 
   64.1250   -21.0290    74.7860     7.0780    11.2070     8.6960     2.2260 
   64.2500   -21.4730    75.7420     7.2280    11.3120     9.1000     2.2210 
   64.3750   -22.0860    75.9430     6.8620    10.6470     8.8430     2.1760 
   64.5000   -22.8660    73.7450     6.2900     9.7020     8.7870     2.1280 
   64.6250   -23.6750    70.7620     5.7300     8.8930     9.0000     2.1010 
   64.7500   -24.4450    69.2260     5.3570     8.4240     8.7940     2.0870 
   64.8750   -24.9920    69.1810     5.2120     8.2880     8.2300     2.0770 
   65.0000   -25.4440    68.3930     5.1990     8.3330     7.8660     2.0680 
   65.1250   -25.8200    67.1020     5.2530     8.4680     7.8410     2.0650 
   65.2500   -26.1280    65.9780     5.3460     8.6270     7.9520     2.0700 
   65.3750   -26.2950    65.8640     5.4520     8.7600     8.1500     2.0840 
   65.5000   -26.4150    66.3450     5.5520     8.8280     8.2750     2.0920 
   65.6250   -26.5550    67.2310     5.6060     8.7920     8.1930     2.0890 
