~V
VERS. 2.00: Ver 2.00
~W
STRT.M 40.0000:
STOP.M 205.0000:
STEP.M 0.1250:
NULL. -999.2500:
UWI. F10810:
~C
DEPT.M :
SP.MV :
GR.API :
RI. :
RML.OHMM :
RXO.OHMM :
DEN.GM/CC :
~A
# ...
  168.7500   -12.7870    77.8450     5.2420     7.3880     6.1820     2.2500 
  168.8750   -13.0130    79.7860     5.0960     7.2200     6.1100     2.2540 
  169.0000   -13.2420    81.2910     4.9700     7.0610     4.9740     2.2480 
  169.1250   -13.4510    81.6800     4.8840     6.9440     4.8850     2.2450 
  169.2500   -13.6240    81.7500     4.8380     6.8860     5.4110     2.2470 
  169.3750   -13.7540    81.2810     4.8250     6.9010     5.6180     2.2510 
  169.5000   -13.8450    81.3870     4.8810     6.9830     5.7540     2.2440 
  169.6250   -13.9000    82.4140     4.9300     7.0300     5.7570     2.2360 
  169.7500   -13.9220    83.9440     4.8970     6.9590     6.1990     2.2340 
  169.8750   -13.8950    85.4270     4.8140     6.8430     6.5250     2.2400 
  170.0000   -13.8100    85.9640     4.7900     6.8330     5.7680     2.2440 
  170.1250   -13.6490    86.0060     4.8810     6.9730     5.2490     2.2440 
  170.2500   -13.4180    84.6990     5.0050     7.1710     5.6550     2.2470 
  170.3750   -13.1220    81.9750     5.0910     7.2940     5.8420     2.2630 
  170.5000   -12.7890    76.9390     5.0310     7.2140     5.1910     2.2870 
  170.6250   -12.4440    71.2750     4.8110     6.9040     4.5060     2.3060 
  170.7500   -12.1110    67.3750     4.5010     6.4630     4.2940     2.3120 
  170.8750   -11.8120    66.4030     4.1740     6.0200     4.1900     2.2970 
  171.0000   -11.5550    68.0180     3.9490     5.7280     4.0810     2.2720 
  171.1250   -11.3470    71.3300     3.8910     5.6840     4.0390     2.2450 
  171.2500   -11.1840    75.7150     3.9920     5.8700     4.1900     2.2270 
  171.3750   -11.0650    79.5640     4.2260     6.2160     4.8420     2.2220 
  171.5000   -10.9780    81.0370     4.5040     6.6330     5.6300     2.2260 
  171.6250   -10.9170    80.6840     4.8610     7.0970     5.8790     2.2370 
  171.7500   -10.8720    80.2440     5.1730     7.4810     6.0510     2.2520 
  171.8750   -10.8340    80.3180     5.3770     7.7220     6.6210     2.2700 
  172.0000   -10.7960    81.7320     5.5190     7.8610     6.8490     2.2810 
  172.1250   -10.7540    82.6840     5.6090     7.9410     6.2220     2.2850 
  172.2500   -10.7110    83.7730     5.7320     8.0580     6.0520     2.2880 
  172.3750   -10.6750    83.1500     5.8960     8.2580     7.0670     2.3000 
  172.5000   -10.6560    82.8060     6.0800     8.4830     8.7710     2.3130 
  172.6250   -10.6650    82.2430     6.1250     8.5450     9.7600     2.3170 
  172.7500   -10.7070    81.3890     6.0060     8.2140     8.3560     2.3120 
  172.8750   -10.7820    79.4910     5.7630     7.8370     6.4590     2.3010 
  173.0000   -10.8840    77.1080     5.4290     7.3820     5.7590     2.2900 
  173.1250   -11.0050    76.2830     5.2750     7.1390     5.4440     2.2810 
  173.2500   -11.1270    76.8310     5.3130     7.1830     5.9830     2.2830 
  173.3750   -11.2300    78.9810     5.5650     7.5250     7.9230     2.2840 
  173.5000   -11.2900    82.0230     5.9810     8.0400     9.4080     2.2700 
  173.6250   -11.2860    84.7800     6.3560     8.6520     9.1130     2.2510 
  173.7500   -11.2150    86.1010     6.5500     8.8100     8.4370     2.2510 
  173.8750   -11.0790    84.5870     6.4760     8.5980     8.0470     2.2680 
  174.0000   -10.9040    81.2460     6.2220     8.1520     8.0330     2.2800 
  174.1250   -10.7140    78.2470     5.8660     7.6270     9.0270     2.2790 
  174.2500   -10.5380    76.1690     5.5480     7.1710     9.3570     2.2740 
  174.3750   -10.4010    74.2060     5.2750     6.8290     7.8840     2.2700 
  174.5000   -10.3170    72.0940     5.1170     6.6070     6.5230     2.2600 
  174.6250   -10.3000    70.1340     5.0570     6.5020     5.7720     2.2500 
  174.7500   -10.3420    68.6070     5.0960     6.5290     5.4640     2.2470 
  174.8750   -10.4300    68.3630     5.2390     6.7110     5.8660     2.2540 
  175.0000   -10.5360    68.9480     5.4630     6.9880     6.0320     2.2650 
  175.1250   -10.6340    71.0820     5.6250     7.1870     5.8310     2.2780 
  175.2500   -10.7070    74.5130     5.6220     7.1650     5.5330     2.2930 
  175.3750   -10.7490    79.5720     5.4610     6.9210     4.9800     2.3060 
  175.5000   -10.7740    84.4590     5.2630     6.6420     4.9060     2.3100 
  175.6250   -10.8000    87.9100     5.2460     6.5790     6.4920     2.3010 
  175.7500   -10.8450    89.8470     5.4470     6.8170     8.4470     2.2900 
  175.8750   -10.9200    90.6100     5.8540     7.3370     8.5220     2.2940 
  176.0000   -11.0200    90.8690     6.3780     7.9740     7.7110     2.3050 
  176.1250   -11.1330    90.8950     6.8400     8.5090     7.3480     2.3150 
  176.2500   -11.2400    91.2930     7.1550     8.8110     7.8500     2.3170 
  176.3750   -11.3220    92.2730     7.2290     8.8310     9.0010     2.3220 
  176.5000   -11.3650    92.7810     7.1630     8.6970     8.7280     2.3240 
  176.6250   -11.3610    92.2270     7.0390     8.5110     7.7460     2.3200 
  176.7500   -11.3120    91.6760     6.8880     8.2990     8.1660     2.3140 
  176.8750   -11.2210    91.0290     6.7190     8.0660     9.0270     2.3120 
  177.0000   -11.1000    90.3810     6.5220     7.8100     9.2180     2.3120 
  177.1250   -10.9500    89.5240     6.3350     7.5580     8.7960     2.3060 
  177.2500   -10.7730    88.5340     6.1570     7.3420     8.2350     2.3000 
  177.3750   -10.5610    88.0050     6.0290     7.1750     7.7720     2.2950 
  177.5000   -10.3120    87.5610     5.9060     7.0340     7.5730     2.2930 
  177.6250   -10.0260    86.9850     5.8400     6.9480     7.7380     2.2970 
  177.7500    -9.7220    86.2730     5.8170     6.9110     7.7590     2.3090 
  177.8750    -9.4280    85.9790     5.7930     6.8680     7.1290     2.3280 
  178.0000    -9.1770    85.8100     5.7080     6.7610     6.4800     2.3390 
  178.1250    -9.0020    85.1450     5.5350     6.5550     6.2350     2.3430 
  178.2500    -8.9120    83.1510     5.3050     6.2750     5.9070     2.3340 
  178.3750    -8.9130    79.8850     5.0580     6.0000     5.7000     2.3140 
  178.5000    -8.9810    77.3700     4.9230     5.8410     5.9140     2.2790 
  178.6250    -9.0970    76.6570     4.9530     5.8960     6.4840     2.2470 
  178.7500    -9.2340    78.6640     5.1680     6.1540     7.0100     2.2340 
  178.8750    -9.3750    81.1990     5.4960     6.5310     7.4950     2.2470 
  179.0000    -9.5080    83.3730     5.8110     6.8780     8.3630     2.2660 
  179.1250    -9.6290    83.5670     5.9870     7.0630     8.8600     2.2820 
  179.2500    -9.7360    83.2920     6.0330     7.0920     8.4040     2.2940 
  179.3750    -9.8210    82.5580     6.0100     7.0350     7.8630     2.3000 
  179.5000    -9.8810    83.3760     5.9970     7.0100     7.9820     2.3050 
  179.6250    -9.9100    84.9900     6.1050     7.1410     7.8100     2.3180 
  179.7500    -9.9100    87.0630     6.3650     7.4470     6.9510     2.3390 
  179.8750    -9.8860    88.3350     6.6780     7.8140     7.6360     2.3590 
  180.0000    -9.8450    87.9180     6.8770     8.0540     8.9300     2.3700 
  180.1250    -9.7870    86.1720     6.8170     8.0030     8.4080     2.3810 
  180.2500    -9.7110    83.4660     6.5080     7.6650     7.6840     2.3810 
  180.3750    -9.6110    81.0520     6.0910     7.1880     7.2950     2.3610 
  180.5000    -9.4880    78.9480     5.7580     6.7880     6.6500     2.3250 
  180.6250    -9.3510    77.2820     5.6110     6.6250     7.3640     2.3040 
  180.7500    -9.2160    76.2580     5.6760     6.7340     9.0860     2.3090 
  180.8750    -9.1000    75.2210     5.9010     7.0340     9.4010     2.3320 
  181.0000    -9.0110    74.3620     6.1420     7.3170     8.6010     2.3460 
  181.1250    -8.9510    72.7650     6.2470     7.6490     7.6540     2.3410 
  181.2500    -8.9120    72.0930     6.2120     7.5700     6.7530     2.3220 
  181.3750    -8.8860    72.5540     6.0870     7.4010     6.6570     2.3040 
  181.5000    -8.8640    73.6400     5.9950     7.2710     7.1470     2.2980 
