~V
VERS. 2.00: Ver 2.00
~W
STRT.M 65.0000:
STOP.M 239.0000:
STEP.M 0.1250:
NULL. -999.2500:
UWI. F10876:
~C
DEPT.M :
TVD. :
DX. :
DY. :
SP.MV :
GR.API :
RI. :
RML.OHMM :
RXO.OHMM :
DEN.GM/CC :
~A
# ...
  119.7500   119.7430    -0.8410    -0.1410   -10.0280    67.2750    10.7700    11.0610     8.4050     2.1040 
  119.8750   119.8680    -0.8430    -0.1410    -9.0970    67.2210    11.6650    11.9040     9.1130     2.0980 
  120.0000   119.9930    -0.8460    -0.1410    -7.9580    66.9290    12.5690    12.8140    10.6350     2.0930 
  120.1250   120.1180    -0.8480    -0.1420    -6.7130    66.1910    13.3590    13.6390    12.0060     2.0860 
  120.2500   120.2430    -0.8510    -0.1420    -5.5270    65.6090    13.9550    14.2390    12.3590     2.0750 
  120.3750   120.3680    -0.8530    -0.1420    -4.4990    64.7680    14.4210    14.7030    12.6740     2.0640 
  120.5000   120.4930    -0.8550    -0.1430    -3.6440    62.9050    15.1870    15.4800    14.0700     2.0580 
  120.6250   120.6180    -0.8580    -0.1430    -2.9150    59.4260    16.6810    17.0170    15.3320     2.0580 
  120.7500   120.7430    -0.8600    -0.1430    -2.2900    55.8480    18.8970    19.2840    16.8350     2.0580 
  120.8750   120.8680    -0.8630    -0.1440    -1.7690    54.8220    21.4400    21.8620    19.7800     2.0580 
  121.0000   120.9930    -0.8650    -0.1440    -1.3270    55.5170    23.6640    24.0860    21.7740     2.0570 
  121.1250   121.1180    -0.8670    -0.1440    -0.8340    54.6840    25.1930    25.5400    21.9510     2.0610 
  121.2500   121.2430    -0.8700    -0.1440    -0.1830    52.2070    26.0040    26.2400    22.1990     2.0700 
  121.3750   121.3680    -0.8720    -0.1450     0.5620    51.3860    26.3140    26.4410    23.8340     2.0840 
  121.5000   121.4930    -0.8750    -0.1450     1.3160    51.4470    26.4080    26.4210    26.2730     2.0980 
  121.6250   121.6180    -0.8770    -0.1450     2.0500    52.3250    26.6050    26.4910    27.5940     2.1090 
  121.7500   121.7430    -0.8790    -0.1450     2.7610    55.9740    27.0490    26.7630    27.3640     2.1110 
  121.8750   121.8680    -0.8820    -0.1460     3.4260    58.9320    27.6420    27.1900    26.8830     2.1040 
  122.0000   121.9930    -0.8840    -0.1460     3.9840    57.1830    28.2490    27.7130    26.1330     2.0940 
  122.1250   122.1180    -0.8860    -0.1460     4.4140    52.3500    28.8160    28.2710    25.8340     2.0830 
  122.2500   122.2430    -0.8880    -0.1460     4.7650    51.8970    29.3950    28.8780    27.4020     2.0750 
  122.3750   122.3680    -0.8910    -0.1460     5.1280    55.2190    30.0240    29.5310    29.1150     2.0700 
  122.5000   122.4930    -0.8930    -0.1470     5.5370    55.5030    30.7650    30.3090    29.2260     2.0680 
  122.6250   122.6180    -0.8950    -0.1470     5.9380    51.8300    31.6620    31.3060    28.6620     2.0720 
  122.7500   122.7430    -0.8980    -0.1470     6.2420    48.3180    32.4900    32.3120    28.0230     2.0860 
  122.8750   122.8680    -0.9000    -0.1470     6.3840    49.9130    32.9780    33.0340    27.1220     2.1140 
  123.0000   122.9930    -0.9020    -0.1470     6.3140    53.5990    33.1430    33.4690    26.3290     2.1650 
  123.1250   123.1180    -0.9040    -0.1480     6.0350    55.8370    33.5390    34.1530    26.0500     2.2420 
  123.2500   123.2430    -0.9060    -0.1480     5.5030    57.0670    35.0120    35.9570    27.7570     2.3400 
  123.3750   123.3680    -0.9090    -0.1480     4.7360    57.8610    38.1860    39.5250    41.1180     2.4380 
  123.5000   123.4930    -0.9110    -0.1480     3.7940    59.2380    43.7400    45.8850    79.0150     2.5110 
  123.6250   123.6180    -0.9130    -0.1480     2.8250    60.7020    51.9340    55.4330   122.3780     2.5500 
  123.7500   123.7430    -0.9150    -0.1480     2.0120    59.5830    61.0880    65.8780   135.4930     2.5590 
  123.8750   123.8680    -0.9180    -0.1490     1.4690    57.1900    65.4550    70.7150   120.9720     2.5470 
  124.0000   123.9930    -0.9200    -0.1490     1.2270    58.4080    61.9670    66.9480   118.8510     2.5080 
  124.1250   124.1180    -0.9220    -0.1490     1.1770    62.0320    52.6300    56.8030   142.3480     2.4400 
  124.2500   124.2420    -0.9240    -0.1490     1.2560    60.9440    41.5270    45.1330   139.5720     2.3500 
  124.3750   124.3670    -0.9260    -0.1500     1.4220    56.4740    33.5680    36.8790    89.0360     2.2620 
  124.5000   124.4920    -0.9290    -0.1500     1.6540    55.8390    28.2650    31.0920    42.2510     2.1980 
  124.6250   124.6170    -0.9310    -0.1500     1.9170    58.1630    23.4910    25.7610    27.6810     2.1640 
  124.7500   124.7420    -0.9330    -0.1500     2.1730    56.9740    19.3610    21.1640    25.5050     2.1540 
  124.8750   124.8670    -0.9350    -0.1500     2.3840    54.1270    16.3000    17.7800    20.3770     2.1500 
  125.0000   124.9920    -0.9370    -0.1510     2.5980    53.6500    14.7740    16.1280    15.4480     2.1390 
  125.1250   125.1170    -0.9400    -0.1510     2.9840    56.5540    14.7540    16.1950    16.0060     2.1240 
  125.2500   125.2420    -0.9420    -0.1510     3.7050    59.5580    16.1150    17.8810    20.6780     2.1110 
  125.3750   125.3670    -0.9440    -0.1510     4.6450    59.3980    18.3590    20.5410    23.7970     2.1000 
  125.5000   125.4920    -0.9460    -0.1510     5.5080    56.3160    20.5710    23.0390    23.7300     2.0860 
  125.6250   125.6170    -0.9480    -0.1520     6.0410    53.6970    21.8470    24.3720    22.2860     2.0670 
  125.7500   125.7420    -0.9510    -0.1520     6.1820    54.0680    21.8300    24.2220    20.7810     2.0520 
  125.8750   125.8670    -0.9530    -0.1520     6.1300    54.5190    21.1090    23.3860    19.9340     2.0500 
  126.0000   125.9920    -0.9550    -0.1520     6.0780    52.4560    20.4520    22.7500    19.8040     2.0600 
  126.1250   126.1170    -0.9570    -0.1520     6.1180    51.6590    20.1710    22.6210    19.9310     2.0730 
  126.2500   126.2420    -0.9590    -0.1520     6.2570    53.8730    20.3060    22.9740    20.4390     2.0760 
  126.3750   126.3670    -0.9620    -0.1530     6.4650    56.0300    20.7690    23.6320    21.6580     2.0640 
  126.5000   126.4920    -0.9640    -0.1530     6.7140    53.1890    21.2700    24.2310    22.9940     2.0440 
  126.6250   126.6170    -0.9660    -0.1530     6.9500    48.9730    21.3900    24.3220    22.7860     2.0340 
  126.7500   126.7420    -0.9680    -0.1530     7.0200    46.7260    20.8730    23.6670    19.2320     2.0430 
  126.8750   126.8670    -0.9710    -0.1530     6.7580    46.0530    19.9140    22.5160    13.6040     2.0650 
  127.0000   126.9920    -0.9730    -0.1530     6.0950    46.6180    18.8410    21.2530    10.0870     2.0840 
  127.1250   127.1170    -0.9750    -0.1540     5.2410    47.9050    17.9590    20.2310    10.6420     2.0960 
  127.2500   127.2420    -0.9780    -0.1540     4.4280    49.6410    17.4450    19.6720    13.2300     2.1020 
  127.3750   127.3670    -0.9800    -0.1540     3.7400    52.1770    17.2340    19.4860    14.3010     2.1080 
  127.5000   127.4920    -0.9820    -0.1540     3.1280    53.6470    17.0840    19.2860    14.6680     2.1150 
  127.6250   127.6170    -0.9840    -0.1540     2.5270    54.9900    16.5960    18.5550    14.7060     2.1280 
  127.7500   127.7420    -0.9870    -0.1540     1.9980    56.1720    15.1990    16.8140    14.2870     2.1520 
  127.8750   127.8670    -0.9890    -0.1550     1.6370    57.8470    13.1200    14.3810    12.9300     2.1850 
  128.0000   127.9920    -0.9910    -0.1550     1.4890    61.6060    11.0700    12.1270    10.6150     2.2070 
  128.1250   128.1170    -0.9940    -0.1550     1.5260    66.0100     9.7060    10.7400     8.8030     2.2030 
  128.2500   128.2420    -0.9960    -0.1550     1.8500    67.6860     9.6330    10.7870     9.0920     2.1710 
  128.3750   128.3670    -0.9980    -0.1550     2.5870    64.3830    10.8480    12.4160    10.9310     2.1320 
  128.5000   128.4920    -1.0010    -0.1560     3.8200    57.9860    13.7020    16.0550    13.3510     2.1050 
  128.6250   128.6170    -1.0030    -0.1560     5.3060    52.4390    17.8740    20.8000    15.8450     2.0960 
  128.7500   128.7420    -1.0050    -0.1560     6.6540    48.6930    22.0550    24.2380    18.0680     2.1000 
