~V
VERS. 2.00: Ver 2.00
~W
STRT.M 62.0000:
STOP.M 256.0000:
STEP.M 0.1250:
NULL. -999.2500:
UWI. F10886:
~C
DEPT.M :
TVD. :
DX. :
DY. :
SP.MV :
GR.API :
RI. :
RML.OHMM :
RXO.OHMM :
DEN.GM/CC :
~A
# ...
  162.3750   162.3660    -0.7120    -1.1090   -18.3930    54.1370     6.8160     7.5140     8.1400     2.4200 
  162.5000   162.4910    -0.7130    -1.1100   -18.4350    53.5880     7.1220     7.8930     8.5110     2.4350 
  162.6250   162.6160    -0.7130    -1.1110   -18.4850    55.6830     7.5400     8.4080     8.9800     2.4460 
  162.7500   162.7410    -0.7140    -1.1120   -18.5270    56.2710     7.9690     8.9220     9.3980     2.4500 
  162.8750   162.8660    -0.7150    -1.1130   -18.5340    55.6680     8.2520     9.2390    10.2180     2.4440 
  163.0000   162.9910    -0.7160    -1.1140   -18.4820    54.8320     8.3150     9.2770    11.1090     2.4310 
  163.1250   163.1160    -0.7160    -1.1150   -18.3530    56.2340     8.1550     9.0420    10.8410     2.4140 
  163.2500   163.2410    -0.7170    -1.1160   -18.1550    58.0540     7.8950     8.6980     9.7420     2.3990 
  163.3750   163.3660    -0.7180    -1.1170   -17.9010    58.2360     7.6840     8.4450     8.7650     2.3920 
  163.5000   163.4910    -0.7190    -1.1180   -17.6160    56.9140     7.6300     8.4080     8.0900     2.3960 
  163.6250   163.6160    -0.7190    -1.1190   -17.3150    55.4220     7.8060     8.6620     7.9190     2.4090 
  163.7500   163.7410    -0.7200    -1.1200   -17.0200    55.6720     8.1410     9.0940     8.4110     2.4250 
  163.8750   163.8660    -0.7210    -1.1200   -16.7520    57.5720     8.4710     9.4730     9.1880     2.4370 
  164.0000   163.9910    -0.7220    -1.1210   -16.5270    59.9370     8.6250     9.6070     9.7650     2.4400 
  164.1250   164.1160    -0.7220    -1.1220   -16.3570    59.8980     8.5470     9.4530     9.7630     2.4360 
  164.2500   164.2410    -0.7230    -1.1230   -16.2400    57.8400     8.3420     9.1670     9.3450     2.4310 
  164.3750   164.3660    -0.7240    -1.1240   -16.1700    55.0890     8.1200     8.8950     8.9480     2.4310 
  164.5000   164.4910    -0.7250    -1.1250   -16.1310    54.4350     7.9460     8.7050     8.6770     2.4370 
  164.6250   164.6160    -0.7250    -1.1260   -16.1080    54.4680     7.8350     8.5980     8.4450     2.4440 
  164.7500   164.7410    -0.7260    -1.1270   -16.0900    54.6110     7.7610     8.5320     8.2630     2.4500 
  164.8750   164.8660    -0.7270    -1.1280   -16.0710    53.6850     7.6970     8.4690     8.1470     2.4530 
  165.0000   164.9910    -0.7280    -1.1290   -16.0450    52.1070     7.6200     8.3860     8.0860     2.4540 
  165.1250   165.1160    -0.7280    -1.1290   -16.0120    51.1020     7.5320     8.2930     8.1280     2.4540 
  165.2500   165.2410    -0.7290    -1.1300   -15.9730    51.2070     7.4550     8.2110     8.1370     2.4530 
  165.3750   165.3660    -0.7300    -1.1310   -15.9430    52.1910     7.4030     8.1510     7.9780     2.4530 
  165.5000   165.4910    -0.7310    -1.1320   -15.9410    52.1880     7.3780     8.1120     7.7710     2.4510 
  165.6250   165.6160    -0.7310    -1.1330   -15.9950    50.2830     7.3720     8.0930     7.5830     2.4450 
  165.7500   165.7410    -0.7320    -1.1340   -16.1090    47.6580     7.3800     8.0900     7.4820     2.4370 
  165.8750   165.8660    -0.7330    -1.1350   -16.2720    46.6950     7.4060     8.1170     7.6770     2.4270 
  166.0000   165.9910    -0.7340    -1.1360   -16.4530    47.1050     7.4570     8.1840     8.2430     2.4180 
  166.1250   166.1160    -0.7350    -1.1370   -16.6210    47.9540     7.5280     8.2780     8.9380     2.4140 
  166.2500   166.2410    -0.7350    -1.1380   -16.7650    47.1520     7.5880     8.3530     9.5520     2.4180 
  166.3750   166.3660    -0.7360    -1.1380   -16.8830    46.9320     7.5980     8.3520    10.2030     2.4280 
  166.5000   166.4910    -0.7370    -1.1390   -16.9800    48.0870     7.5400     8.2520    10.4800     2.4370 
  166.6250   166.6160    -0.7380    -1.1400   -17.0560    50.6940     7.4180     8.0710     9.8180     2.4430 
  166.7500   166.7410    -0.7380    -1.1410   -17.1090    50.7990     7.2770     7.8800     8.8380     2.4460 
  166.8750   166.8660    -0.7390    -1.1420   -17.1320    49.4660     7.1660     7.7480     8.0110     2.4500 
  167.0000   166.9910    -0.7400    -1.1430   -17.1280    47.4070     7.0930     7.6820     7.5140     2.4570 
  167.1250   167.1160    -0.7410    -1.1440   -17.0960    47.5590     7.0370     7.6510     7.5060     2.4620 
  167.2500   167.2410    -0.7420    -1.1450   -17.0450    47.9880     6.9650     7.6070     7.7570     2.4580 
  167.3750   167.3660    -0.7420    -1.1460   -16.9780    48.9990     6.8460     7.5050     7.8900     2.4470 
  167.5000   167.4910    -0.7430    -1.1470   -16.9020    50.0420     6.6690     7.3280     7.6460     2.4370 
  167.6250   167.6160    -0.7440    -1.1470   -16.8190    50.8300     6.4340     7.0830     7.2540     2.4310 
  167.7500   167.7410    -0.7450    -1.1480   -16.7310    52.8960     6.1820     6.8250     7.0770     2.4290 
  167.8750   167.8660    -0.7460    -1.1490   -16.6400    53.6750     5.9580     6.6050     6.9010     2.4280 
  168.0000   167.9910    -0.7460    -1.1500   -16.5530    54.7690     5.7890     6.4520     6.6280     2.4260 
  168.1250   168.1160    -0.7470    -1.1510   -16.4840    53.5170     5.6990     6.3910     6.7740     2.4240 
  168.2500   168.2410    -0.7480    -1.1520   -16.4420    51.9930     5.6970     6.4280     7.1910     2.4230 
  168.3750   168.3660    -0.7490    -1.1530   -16.4430    49.3780     5.8220     6.6140     7.2270     2.4240 
  168.5000   168.4910    -0.7500    -1.1540   -16.4970    48.7420     6.0830     6.9620     7.1270     2.4260 
  168.6250   168.6160    -0.7500    -1.1550   -16.6160    50.4190     6.4500     7.4320     7.5430     2.4280 
  168.7500   168.7410    -0.7510    -1.1560   -16.7910    54.0810     6.8330     7.9170     8.4990     2.4290 
  168.8750   168.8660    -0.7520    -1.1570   -16.9970    56.2030     7.1210     8.2710     9.6080     2.4280 
  169.0000   168.9910    -0.7530    -1.1580   -17.1900    55.7370     7.2360     8.3970    10.2340     2.4240 
  169.1250   169.1160    -0.7540    -1.1590   -17.3330    54.5780     7.1590     8.2890     9.9500     2.4210 
  169.2500   169.2410    -0.7540    -1.1600   -17.4090    53.4820     6.9790     8.0700     9.2020     2.4210 
  169.3750   169.3660    -0.7550    -1.1610   -17.4180    54.0740     6.7950     7.8760     8.6010     2.4250 
  169.5000   169.4910    -0.7560    -1.1620   -17.3860    53.0070     6.6800     7.7940     8.5860     2.4310 
  169.6250   169.6160    -0.7570    -1.1630   -17.3360    51.3280     6.6390     7.8140     9.1530     2.4350 
  169.7500   169.7410    -0.7580    -1.1630   -17.2870    48.9460     6.6060     7.8340     9.5080     2.4340 
  169.8750   169.8660    -0.7580    -1.1640   -17.2460    49.2850     6.5040     7.7450     9.1080     2.4280 
  170.0000   169.9910    -0.7590    -1.1650   -17.2070    51.1860     6.3190     7.5320     8.3300     2.4220 
  170.1250   170.1160    -0.7600    -1.1660   -17.1620    53.8660     6.0790     7.2440     7.6880     2.4210 
  170.2500   170.2410    -0.7610    -1.1670   -17.1030    54.9310     5.8540     6.9900     7.3540     2.4240 
  170.3750   170.3660    -0.7620    -1.1680   -17.0210    54.8830     5.7210     6.8640     7.2740     2.4250 
  170.5000   170.4910    -0.7620    -1.1690   -16.9150    54.0750     5.6790     6.8560     7.4060     2.4220 
  170.6250   170.6160    -0.7630    -1.1700   -16.7870    54.2800     5.6800     6.8920     7.7420     2.4190 
  170.7500   170.7410    -0.7640    -1.1710   -16.6470    54.6480     5.6530     6.8790     8.0350     2.4190 
  170.8750   170.8660    -0.7650    -1.1720   -16.5100    54.3570     5.5300     6.7340     8.0020     2.4230 
  171.0000   170.9910    -0.7650    -1.1730   -16.3830    53.2290     5.2940     6.4420     7.5490     2.4290 
  171.1250   171.1160    -0.7660    -1.1740   -16.2700    52.4510     4.9750     6.0510     6.7190     2.4310 
  171.2500   171.2410    -0.7670    -1.1760   -16.1710    52.1140     4.6610     5.6720     5.9020     2.4280 
  171.3750   171.3660    -0.7680    -1.1770   -16.0960    52.5550     4.4260     5.4080     5.5060     2.4210 
