~V
VERS. 2.00: Ver 2.00
~W
STRT.M 63.0000:
STOP.M 269.0000:
STEP.M 0.1250:
NULL. -999.2500:
UWI. F10891:
~C
DEPT.M :
TVD. :
DX. :
DY. :
SP.MV :
GR.API :
RI. :
RML.OHMM :
RXO.OHMM :
DEN.GM/CC :
~A
# ...
  126.8750   126.8720    -0.3580    -0.5580    -7.5360    88.7610     1.5310     1.8560     1.7010     2.2840 
  127.0000   126.9960    -0.3590    -0.5590    -7.1630    89.8270     1.4530     1.7740     1.6900     2.2860 
  127.1250   127.1210    -0.3600    -0.5600    -6.8600    90.3800     1.3870     1.7070     1.6450     2.2790 
  127.2500   127.2460    -0.3610    -0.5610    -6.6750    91.7210     1.3260     1.6400     1.5340     2.2700 
  127.3750   127.3710    -0.3620    -0.5620    -6.5990    94.9990     1.2670     1.5730     1.4270     2.2670 
  127.5000   127.4960    -0.3630    -0.5630    -6.6220    97.7770     1.2200     1.5180     1.3660     2.2710 
  127.6250   127.6210    -0.3640    -0.5640    -6.7290    98.8550     1.1920     1.4870     1.3310     2.2810 
  127.7500   127.7460    -0.3650    -0.5650    -6.9010    98.5730     1.1910     1.4950     1.3080     2.2890 
  127.8750   127.8710    -0.3650    -0.5660    -7.0930    97.6000     1.2180     1.5420     1.3070     2.2910 
  128.0000   127.9960    -0.3660    -0.5670    -7.2530    96.6900     1.2680     1.6190     1.3790     2.2870 
  128.1250   128.1210    -0.3670    -0.5680    -7.3490    95.6980     1.3250     1.7020     1.5680     2.2800 
  128.2500   128.2460    -0.3680    -0.5690    -7.3720    93.8800     1.3700     1.7610     1.7940     2.2710 
  128.3750   128.3710    -0.3690    -0.5700    -7.3400    91.7400     1.3920     1.7780     1.9090     2.2650 
  128.5000   128.4960    -0.3700    -0.5710    -7.2720    90.0980     1.3830     1.7440     1.8600     2.2650 
  128.6250   128.6210    -0.3710    -0.5720    -7.1950    91.3840     1.3600     1.6870     1.7190     2.2700 
  128.7500   128.7460    -0.3710    -0.5730    -7.1340    93.5820     1.3520     1.6560     1.6050     2.2720 
  128.8750   128.8710    -0.3720    -0.5740    -7.1080    94.1560     1.3940     1.7040     1.6270     2.2710 
  129.0000   128.9960    -0.3730    -0.5750    -7.1250    90.1400     1.5140     1.8700     1.7860     2.2750 
  129.1250   129.1210    -0.3740    -0.5760    -7.1660    86.3530     1.6930     2.1170     2.1140     2.2930 
  129.2500   129.2460    -0.3750    -0.5770    -7.2020    84.0870     1.8700     2.3540     2.8650     2.3260 
  129.3750   129.3710    -0.3760    -0.5780    -7.2110    84.5420     1.9720     2.4740     3.8070     2.3550 
  129.5000   129.4960    -0.3770    -0.5790    -7.2020    85.5170     1.9500     2.4130     3.9620     2.3580 
  129.6250   129.6210    -0.3770    -0.5800    -7.2170    87.3830     1.8300     2.2190     3.0760     2.3350 
  129.7500   129.7460    -0.3780    -0.5810    -7.3110    89.2480     1.6670     1.9800     2.1130     2.3010 
  129.8750   129.8710    -0.3790    -0.5820    -7.4910    89.3470     1.5250     1.7870     1.8120     2.2690 
  130.0000   129.9960    -0.3800    -0.5830    -7.7210    90.2280     1.4520     1.7040     1.9450     2.2480 
  130.1250   130.1210    -0.3810    -0.5840    -7.9320    92.5590     1.4660     1.7440     1.9860     2.2380 
  130.2500   130.2460    -0.3820    -0.5850    -8.0800    95.1280     1.5730     1.9110     1.8890     2.2390 
  130.3750   130.3710    -0.3830    -0.5860    -8.1680    95.6220     1.7350     2.1450     2.1760     2.2380 
  130.5000   130.4960    -0.3840    -0.5870    -8.2200    91.4350     1.8920     2.3570     3.1710     2.2300 
  130.6250   130.6210    -0.3840    -0.5880    -8.2630    87.2980     1.9770     2.4540     4.1150     2.2220 
  130.7500   130.7460    -0.3850    -0.5890    -8.3040    84.0350     1.9470     2.3810     3.9150     2.2310 
  130.8750   130.8710    -0.3860    -0.5900    -8.3450    84.7470     1.8340     2.1950     2.7990     2.2590 
  131.0000   130.9960    -0.3870    -0.5910    -8.4060    86.9210     1.7020     2.0010     1.8970     2.2890 
  131.1250   131.1210    -0.3880    -0.5920    -8.5210    90.5590     1.6240     1.8970     1.6880     2.3020 
  131.2500   131.2460    -0.3890    -0.5930    -8.7430    91.9780     1.6370     1.9240     2.0110     2.2880 
  131.3750   131.3710    -0.3900    -0.5940    -9.0840    91.3920     1.7130     2.0290     2.6230     2.2600 
  131.5000   131.4960    -0.3900    -0.5950    -9.5470    87.9890     1.8210     2.1560     3.0790     2.2370 
  131.6250   131.6210    -0.3910    -0.5960   -10.0980    85.1320     1.9490     2.2840     3.0080     2.2290 
  131.7500   131.7460    -0.3920    -0.5980   -10.7300    85.3140     2.1270     2.4580     2.7020     2.2310 
  131.8750   131.8710    -0.3930    -0.5990   -11.4610    85.5070     2.4070     2.7580     2.9310     2.2230 
  132.0000   131.9960    -0.3940    -0.6000   -12.3490    83.7940     2.8720     3.2930     4.2260     2.1940 
  132.1250   132.1210    -0.3950    -0.6010   -13.4360    78.0540     3.5330     4.0720     6.1060     2.1520 
  132.2500   132.2460    -0.3960    -0.6020   -14.6700    72.5620     4.3200     4.9830     7.5390     2.1150 
  132.3750   132.3710    -0.3970    -0.6030   -15.9370    68.6530     5.0410     5.7800     8.1070     2.0940 
  132.5000   132.4960    -0.3970    -0.6040   -17.1530    68.0220     5.4920     6.2240     8.2220     2.0860 
  132.6250   132.6210    -0.3980    -0.6050   -18.2980    68.4140     5.6360     6.2990     8.2550     2.0870 
  132.7500   132.7460    -0.3990    -0.6060   -19.4460    69.2260     5.5520     6.1380     8.0610     2.0950 
  132.8750   132.8710    -0.4000    -0.6070   -20.6120    68.9950     5.4230     5.9720     7.3310     2.1060 
  133.0000   132.9960    -0.4010    -0.6080   -21.7730    68.2590     5.3950     5.9690     6.3580     2.1160 
  133.1250   133.1210    -0.4020    -0.6090   -22.9550    68.3010     5.5410     6.1930     6.1230     2.1220 
  133.2500   133.2460    -0.4030    -0.6100   -24.1850    67.4840     5.9020     6.6820     6.9240     2.1210 
  133.3750   133.3710    -0.4030    -0.6110   -25.4340    65.8130     6.4430     7.3810     7.7610     2.1140 
  133.5000   133.4960    -0.4040    -0.6120   -26.6740    63.0390     7.1100     8.1950     7.8950     2.1060 
  133.6250   133.6210    -0.4050    -0.6140   -27.8110    60.5010     7.7930     8.9770     7.6420     2.1010 
  133.7500   133.7460    -0.4060    -0.6150   -28.8530    57.6130     8.4130     9.6310     7.4850     2.1020 
  133.8750   133.8710    -0.4070    -0.6160   -29.7950    54.5150     8.9900    10.2220     7.5100     2.1040 
  134.0000   133.9960    -0.4080    -0.6170   -30.6850    52.2430     9.6900    10.9850     7.6570     2.1110 
  134.1250   134.1210    -0.4080    -0.6180   -31.4630    51.1230    10.7270    12.1790     8.7370     2.1380 
  134.2500   134.2460    -0.4090    -0.6190   -32.0670    52.0900    12.2300    13.9340    13.6540     2.2110 
  134.3750   134.3710    -0.4100    -0.6200   -32.4360    54.3640    13.9380    15.8980    24.6680     2.3250 
  134.5000   134.4960    -0.4110    -0.6210   -32.5470    54.9260    15.2630    17.3470    37.8940     2.4350 
  134.6250   134.6210    -0.4120    -0.6220   -32.5010    54.6700    15.6390    17.6370    41.9840     2.4830 
  134.7500   134.7460    -0.4130    -0.6230   -32.4040    54.3370    14.7600    16.4740    32.0160     2.4320 
  134.8750   134.8710    -0.4130    -0.6240   -32.3630    56.5590    13.0640    14.4340    18.6330     2.3200 
  135.0000   134.9960    -0.4140    -0.6250   -32.4300    57.5940    11.2180    12.3250    11.7190     2.2030 
  135.1250   135.1210    -0.4150    -0.6270   -32.5800    58.0330     9.8160    10.7910    10.4820     2.1250 
  135.2500   135.2460    -0.4160    -0.6280   -32.7680    58.1950     9.1170    10.0720    10.8560     2.0950 
  135.3750   135.3710    -0.4170    -0.6290   -32.9590    60.6520     8.9590     9.9410    10.6940     2.0900 
  135.5000   135.4960    -0.4180    -0.6300   -33.1610    62.7350     9.1570    10.1700    10.3550     2.0960 
  135.6250   135.6210    -0.4190    -0.6310   -33.3950    63.8210     9.5040    10.5270    10.8040     2.1040 
  135.7500   135.7460    -0.4190    -0.6320   -33.6580    62.9220     9.8660    10.8650    11.7850     2.1110 
  135.8750   135.8710    -0.4200    -0.6330   -33.9210    61.5720    10.1330    11.0760    12.2190     2.1180 
