~V
VERS. 2.00: Ver 2.00
~W
STRT.M 60.0000:
STOP.M 249.0000:
STEP.M 0.1250:
NULL. -999.2500:
UWI. F10851:
~C
DEPT.M :
TVD. :
DX. :
DY. :
SP.MV :
GR.API :
RI. :
RML.OHMM :
RXO.OHMM :
DEN.GM/CC :
~A
# ...
  105.6250   105.6240     0.2580    -0.2230    -2.6210    63.1870    15.0540    16.1630    21.3450     2.1190 
  105.7500   105.7490     0.2580    -0.2230    -2.8060    67.9830    12.1380    12.8680    16.2520     2.1320 
  105.8750   105.8740     0.2590    -0.2240    -3.3210    74.7990     9.1610     9.6000    10.3950     2.1580 
  106.0000   105.9990     0.2600    -0.2250    -4.0470    82.3010     6.9030     7.1770     7.1990     2.1930 
  106.1250   106.1240     0.2610    -0.2250    -4.8520    87.6210     5.4740     5.6960     5.8360     2.2310 
  106.2500   106.2490     0.2620    -0.2260    -5.5890    89.4310     4.6430     4.8390     5.2980     2.2650 
  106.3750   106.3740     0.2620    -0.2270    -6.1520    88.4370     4.2660     4.4220     5.5820     2.2890 
  106.5000   106.4990     0.2630    -0.2280    -6.5040    86.7190     4.0900     4.1700     5.8790     2.2980 
  106.6250   106.6240     0.2640    -0.2280    -6.5870    84.6130     4.0950     4.0630     5.7450     2.2950 
  106.7500   106.7490     0.2650    -0.2290    -6.3980    82.7800     4.3350     4.2210     5.3770     2.2830 
  106.8750   106.8740     0.2660    -0.2300    -5.8980    80.3840     4.9810     4.8540     7.0690     2.2650 
  107.0000   106.9990     0.2660    -0.2300    -5.0940    76.4150     6.1650     6.1170    11.0930     2.2430 
  107.1250   107.1240     0.2670    -0.2310    -3.9900    70.3700     8.1660     8.3280    15.2660     2.2160 
  107.2500   107.2490     0.2680    -0.2310    -2.6980    63.9890    10.8980    11.2800    18.9560     2.1870 
  107.3750   107.3740     0.2690    -0.2320    -1.3560    59.4820    13.6110    14.1080    20.4150     2.1610 
  107.5000   107.4990     0.2700    -0.2330    -0.1310    58.5510    15.5500    15.9590    19.5410     2.1410 
  107.6250   107.6240     0.2700    -0.2330     0.8180    60.7140    16.2110    16.3840    18.4820     2.1300 
  107.7500   107.7490     0.2710    -0.2340     1.4570    63.2740    16.0610    15.9750    17.8820     2.1250 
  107.8750   107.8740     0.2720    -0.2340     1.7880    64.6490    15.6730    15.3950    18.1120     2.1260 
  108.0000   107.9990     0.2730    -0.2350     1.9100    64.5800    15.5040    15.0640    18.9340     2.1300 
  108.1250   108.1240     0.2740    -0.2360     1.9170    62.9430    15.6640    15.2430    18.9790     2.1330 
  108.2500   108.2490     0.2740    -0.2360     1.8930    61.2230    16.1790    16.5390    17.9610     2.1340 
  108.3750   108.3740     0.2750    -0.2370     1.8340    61.6060    16.5820    18.0190    17.1460     2.1340 
  108.5000   108.4990     0.2760    -0.2370     1.6980    63.6380    15.8460    18.0840    17.9970     2.1360 
  108.6250   108.6240     0.2770    -0.2380     1.4130    64.4350    13.9750    16.4960    21.2160     2.1490 
  108.7500   108.7490     0.2780    -0.2390     0.9270    63.2720    11.3710    13.3460    26.6560     2.1780 
  108.8750   108.8740     0.2780    -0.2390     0.1800    63.3410     9.1020    10.5500    25.3550     2.2200 
  109.0000   108.9990     0.2790    -0.2400    -0.7840    68.1300     7.7100     8.8450    14.4080     2.2600 
  109.1250   109.1240     0.2800    -0.2400    -1.9140    75.2980     7.0410     8.0480     7.8620     2.2810 
  109.2500   109.2490     0.2810    -0.2410    -3.1210    79.2670     6.8460     7.8300     7.8800     2.2790 
  109.3750   109.3740     0.2820    -0.2410    -4.3190    78.3450     6.9880     8.0520     8.0600     2.2600 
  109.5000   109.4990     0.2830    -0.2420    -5.4500    75.1560     7.1630     8.2820     8.0050     2.2390 
  109.6250   109.6230     0.2830    -0.2420    -6.4900    73.1710     7.1210     8.2090     7.7850     2.2280 
  109.7500   109.7480     0.2840    -0.2430    -7.4460    74.1080     6.8050     7.7920     7.6070     2.2320 
  109.8750   109.8730     0.2850    -0.2430    -8.3140    78.8980     6.2570     7.0840     7.2010     2.2470 
  110.0000   109.9980     0.2860    -0.2440    -9.0950    83.5860     5.7260     6.4230     6.4110     2.2660 
  110.1250   110.1230     0.2870    -0.2440    -9.7570    85.6080     5.3300     5.9400     5.6740     2.2810 
  110.2500   110.2480     0.2880    -0.2450   -10.2820    85.9180     5.1140     5.7010     5.7940     2.2920 
  110.3750   110.3730     0.2890    -0.2450   -10.6560    85.5450     5.1220     5.7270     6.9160     2.2980 
  110.5000   110.4980     0.2900    -0.2460   -10.9060    86.2530     5.3500     6.0190     7.6000     2.3040 
  110.6250   110.6230     0.2910    -0.2460   -11.0720    88.5860     5.7990     6.5440     7.7270     2.3130 
  110.7500   110.7480     0.2920    -0.2470   -11.2200    89.0540     6.2840     7.1170     8.6570     2.3250 
  110.8750   110.8730     0.2930    -0.2470   -11.3780    84.9540     6.7000     7.6160     9.6100     2.3330 
  111.0000   110.9980     0.2940    -0.2480   -11.5380    78.8090     6.8600     7.7930     9.0750     2.3270 
  111.1250   111.1230     0.2950    -0.2480   -11.6800    76.2270     6.8330     7.7600     8.0430     2.3060 
  111.2500   111.2480     0.2960    -0.2490   -11.7700    77.0620     6.7780     7.6920     7.5280     2.2780 
  111.3750   111.3730     0.2970    -0.2490   -11.7650    78.4680     6.7080     7.6320     7.3130     2.2540 
  111.5000   111.4980     0.2980    -0.2500   -11.6800    79.2700     6.6020     7.5390     7.9920     2.2410 
  111.6250   111.6230     0.2990    -0.2500   -11.5640    79.8430     6.4460     7.4050     8.6700     2.2350 
  111.7500   111.7480     0.3000    -0.2500   -11.4660    80.2020     6.2040     7.1460     7.7090     2.2330 
  111.8750   111.8730     0.3010    -0.2510   -11.4320    80.1900     5.8670     6.7300     6.3970     2.2370 
  112.0000   111.9980     0.3020    -0.2510   -11.4950    80.7730     5.5370     6.3140     6.0270     2.2470 
  112.1250   112.1230     0.3030    -0.2510   -11.6670    82.2670     5.4570     6.2130     6.1650     2.2660 
  112.2500   112.2480     0.3040    -0.2520   -11.9050    82.0450     5.6120     6.4330     6.6020     2.2920 
  112.3750   112.3730     0.3050    -0.2520   -12.1720    79.6140     5.9560     6.9010    14.4400     2.3230 
  112.5000   112.4980     0.3060    -0.2520   -12.4470    77.7120     6.2980     7.3530    22.3140     2.3500 
  112.6250   112.6230     0.3070    -0.2530   -12.7220    77.9860     6.4720     7.5620    15.0680     2.3620 
  112.7500   112.7480     0.3090    -0.2530   -13.0020    78.4400     6.4480     7.4720     6.6380     2.3510 
  112.8750   112.8730     0.3100    -0.2530   -13.2960    77.6720     6.2380     7.1740     5.9190     2.3220 
  113.0000   112.9980     0.3110    -0.2540   -13.5790    76.9280     6.0250     6.9110     6.2640     2.2880 
  113.1250   113.1230     0.3120    -0.2540   -13.7910    77.7400     5.8500     6.7340     6.4100     2.2630 
  113.2500   113.2480     0.3130    -0.2540   -13.8500    79.7130     5.8460     6.7760     6.2430     2.2510 
  113.3750   113.3730     0.3140    -0.2540   -13.6480    80.4970     5.8380     6.7590     6.0850     2.2490 
  113.5000   113.4980     0.3160    -0.2550   -13.1750    79.8350     5.7010     6.5610     5.9440     2.2530 
  113.6250   113.6230     0.3170    -0.2550   -12.4570    80.4330     5.5220     6.3060     5.7460     2.2590 
  113.7500   113.7480     0.3180    -0.2550   -11.6200    83.6200     5.4000     6.1280     5.7250     2.2660 
  113.8750   113.8730     0.3190    -0.2550   -10.8130    86.4600     5.4300     6.1370     6.1140     2.2690 
  114.0000   113.9980     0.3200    -0.2550   -10.1710    86.1420     5.5390     6.2170     6.5210     2.2640 
  114.1250   114.1230     0.3210    -0.2560    -9.7600    83.9010     5.7550     6.4240     6.7300     2.2470 
  114.2500   114.2480     0.3230    -0.2560    -9.5340    83.0190     6.1060     6.7840     6.8290     2.2150 
  114.3750   114.3730     0.3240    -0.2560    -9.4390    83.4180     6.5430     7.2720     6.8500     2.1690 
  114.5000   114.4980     0.3250    -0.2560    -9.3730    82.5650     7.0140     7.8130     6.7090     2.1110 
  114.6250   114.6230     0.3260    -0.2560    -9.2500    78.7600     7.3520     8.1950     6.3110     2.0460 
