~V
VERS. 2.00: Ver 2.00
~W
STRT.M 63.0000:
STOP.M 269.0000:
STEP.M 0.1250:
NULL. -999.2500:
UWI. F10891:
~C
DEPT.M :
TVD. :
DX. :
DY. :
SP.MV :
GR.API :
RI. :
RML.OHMM :
RXO.OHMM :
DEN.GM/CC :
~A
# ...
   90.3750    90.3740    -0.1230    -0.2360   -10.8550   100.5140     2.9470     3.1730     3.3970     2.2560 
   90.5000    90.4990    -0.1240    -0.2370   -10.8310    98.7130     2.9930     3.2210     3.5070     2.2580 
   90.6250    90.6240    -0.1240    -0.2390   -10.8420    95.5130     3.1740     3.4240     3.8860     2.2450 
   90.7500    90.7490    -0.1250    -0.2400   -10.8940    92.6630     3.4680     3.7450     4.3990     2.2200 
   90.8750    90.8740    -0.1260    -0.2410   -10.9690    90.2090     3.8150     4.1110     4.9350     2.1950 
   91.0000    90.9990    -0.1260    -0.2420   -11.0470    86.3840     4.1640     4.4670     5.2680     2.1810 
   91.1250    91.1240    -0.1270    -0.2430   -11.1090    81.1070     4.4850     4.7820     5.3350     2.1820 
   91.2500    91.2490    -0.1280    -0.2440   -11.1530    78.2360     4.7670     5.0540     5.3720     2.1970 
   91.3750    91.3740    -0.1280    -0.2450   -11.1920    77.6750     5.0120     5.2960     5.5350     2.2150 
   91.5000    91.4990    -0.1290    -0.2470   -11.2530    78.2020     5.1910     5.4880     5.6970     2.2170 
   91.6250    91.6240    -0.1300    -0.2480   -11.3550    77.0870     5.2690     5.5860     5.8790     2.1960 
   91.7500    91.7490    -0.1300    -0.2490   -11.5140    75.1020     5.1970     5.5270     6.2410     2.1650 
   91.8750    91.8740    -0.1310    -0.2500   -11.7270    72.5700     4.9940     5.3180     6.5520     2.1450 
   92.0000    91.9990    -0.1310    -0.2510   -11.9840    72.5160     4.7400     5.0440     6.3790     2.1490 
   92.1250    92.1240    -0.1320    -0.2530   -12.2570    75.3700     4.5970     4.9020     5.9040     2.1690 
   92.2500    92.2490    -0.1330    -0.2540   -12.5210    79.5610     4.8080     5.1960     5.6930     2.1960 
   92.3750    92.3740    -0.1330    -0.2550   -12.7760    81.3160     5.6230     6.2290     7.3000     2.2400 
   92.5000    92.4990    -0.1340    -0.2560   -13.0490    76.7160     7.4790     8.5090    15.0780     2.3170 
   92.6250    92.6240    -0.1350    -0.2570   -13.3820    69.8530    10.5180    12.1600    28.7400     2.4230 
   92.7500    92.7490    -0.1350    -0.2580   -13.8160    62.8690    14.3520    16.6050    40.2960     2.5250 
   92.8750    92.8740    -0.1360    -0.2600   -14.3580    60.3480    17.6570    20.2040    44.1150     2.5870 
   93.0000    92.9990    -0.1370    -0.2610   -15.0080    61.1450    18.9650    21.2790    40.2540     2.5760 
   93.1250    93.1240    -0.1380    -0.2620   -15.7440    62.9550    18.0180    19.7200    31.1440     2.4980 
   93.2500    93.2490    -0.1380    -0.2630   -16.5540    63.3650    15.5060    16.5330    20.7850     2.3760 
   93.3750    93.3740    -0.1390    -0.2640   -17.4100    62.7410    12.8900    13.4770    13.9760     2.2550 
   93.5000    93.4990    -0.1400    -0.2660   -18.2760    62.0140    11.0830    11.5310    11.4250     2.1710 
   93.6250    93.6240    -0.1400    -0.2670   -19.0960    63.3240    10.1150    10.5820    10.6600     2.1280 
   93.7500    93.7490    -0.1410    -0.2680   -19.8040    64.5890     9.7590    10.2980    10.3600     2.1140 
   93.8750    93.8730    -0.1420    -0.2690   -20.3730    66.1240     9.6870    10.2820    10.2190     2.1110 
   94.0000    93.9980    -0.1420    -0.2700   -20.7880    65.5470     9.7170    10.3330    10.1880     2.1110 
   94.1250    94.1230    -0.1430    -0.2720   -21.0900    65.2840     9.7470    10.3570    10.1040     2.1110 
   94.2500    94.2480    -0.1440    -0.2730   -21.3090    64.0530     9.7460    10.3390     9.9270     2.1090 
   94.3750    94.3730    -0.1440    -0.2740   -21.4830    62.2710     9.7180    10.2890     9.7190     2.1040 
   94.5000    94.4980    -0.1450    -0.2750   -21.6270    60.3440     9.6630    10.2170     9.4540     2.0980 
   94.6250    94.6230    -0.1460    -0.2760   -21.7440    59.7240     9.5830    10.1310     9.2480     2.0930 
   94.7500    94.7480    -0.1460    -0.2780   -21.8290    59.7560     9.4800    10.0350     9.2790     2.0900 
   94.8750    94.8730    -0.1470    -0.2790   -21.8790    59.6860     9.3600     9.9390     9.3930     2.0900 
   95.0000    94.9980    -0.1480    -0.2800   -21.8900    60.4800     9.2330     9.8490     9.3840     2.0930 
   95.1250    95.1230    -0.1490    -0.2810   -21.8790    60.6780     9.1160     9.7750     9.2380     2.0980 
   95.2500    95.2480    -0.1490    -0.2820   -21.8620    60.6020     9.0340     9.7390     8.9280     2.1000 
   95.3750    95.3730    -0.1500    -0.2840   -21.8570    60.7260     9.0060     9.7590     8.5000     2.0980 
   95.5000    95.4980    -0.1510    -0.2850   -21.8760    62.0330     9.0530     9.8540     8.2600     2.0950 
   95.6250    95.6230    -0.1510    -0.2860   -21.9100    63.1650     9.1660    10.0130     8.5550     2.0930 
   95.7500    95.7480    -0.1520    -0.2870   -21.9480    63.2140     9.3250    10.2150     9.3140     2.0960 
   95.8750    95.8730    -0.1530    -0.2890   -21.9730    62.4640     9.4940    10.4190     9.9160     2.1020 
   96.0000    95.9980    -0.1540    -0.2900   -21.9630    61.2070     9.6280    10.5700    10.0690     2.1100 
   96.1250    96.1230    -0.1540    -0.2910   -21.9000    59.9730     9.6650    10.5980    10.1790     2.1150 
   96.2500    96.2480    -0.1550    -0.2920   -21.7470    59.7840     9.5310    10.4220    10.4610     2.1170 
   96.3750    96.3730    -0.1560    -0.2930   -21.4880    59.5670     9.2320    10.0650    10.7050     2.1200 
   96.5000    96.4980    -0.1560    -0.2950   -21.1040    59.1740     8.8370     9.6090    10.6750     2.1260 
   96.6250    96.6230    -0.1570    -0.2960   -20.6090    60.0400     8.4620     9.1910    10.2560     2.1340 
   96.7500    96.7480    -0.1580    -0.2970   -20.0170    61.5860     8.2150     8.9290     9.7410     2.1400 
   96.8750    96.8730    -0.1590    -0.2980   -19.3680    61.9090     8.1180     8.8430     9.6190     2.1410 
   97.0000    96.9980    -0.1590    -0.2990   -18.7130    60.7890     8.1510     8.9010     9.7430     2.1370 
   97.1250    97.1230    -0.1600    -0.3010   -18.1060    59.3380     8.2360     9.0100     9.5930     2.1290 
   97.2500    97.2480    -0.1610    -0.3020   -17.5900    58.7550     8.2940     9.0730     9.1160     2.1200 
   97.3750    97.3730    -0.1610    -0.3030   -17.1510    59.0930     8.2580     9.0200     8.6910     2.1100 
   97.5000    97.4980    -0.1620    -0.3040   -16.7630    59.3770     8.0950     8.8280     8.5380     2.1040 
   97.6250    97.6230    -0.1630    -0.3050   -16.3890    59.2000     7.8260     8.5280     8.5320     2.1020 
   97.7500    97.7480    -0.1640    -0.3070   -16.0040    58.4920     7.4740     8.1540     8.4870     2.1080 
   97.8750    97.8730    -0.1640    -0.3080   -15.6050    59.8850     7.0970     7.7630     8.3540     2.1180 
   98.0000    97.9980    -0.1650    -0.3090   -15.1900    63.0410     6.7670     7.4350     8.1140     2.1260 
   98.1250    98.1230    -0.1660    -0.3100   -14.7700    66.4930     6.5600     7.2530     7.6830     2.1290 
   98.2500    98.2480    -0.1670    -0.3110   -14.3730    70.9860     6.5450     7.2960     7.0810     2.1260 
   98.3750    98.3730    -0.1670    -0.3130   -14.0310    74.0200     6.7140     7.5520     6.6870     2.1220 
   98.5000    98.4980    -0.1680    -0.3140   -13.7860    74.4580     7.0370     7.9730     7.0100     2.1150 
   98.6250    98.6230    -0.1690    -0.3150   -13.6400    70.1750     7.4120     8.4380     7.9260     2.1080 
   98.7500    98.7480    -0.1690    -0.3160   -13.5810    65.4980     7.7170     8.7970     8.8130     2.1040 
   98.8750    98.8730    -0.1700    -0.3170   -13.5580    63.5900     7.8570     8.9430     9.2090     2.1050 
   99.0000    98.9980    -0.1710    -0.3190   -13.5220    63.9800     7.7860     8.8280     9.0650     2.1090 
   99.1250    99.1230    -0.1720    -0.3200   -13.4350    65.3450     7.5570     8.5270     8.5830     2.1130 
   99.2500    99.2480    -0.1720    -0.3210   -13.2660    66.6360     7.2270     8.1220     7.9370     2.1180 
   99.3750    99.3730    -0.1730    -0.3220   -13.0130    67.3370     6.8550     7.6800     7.5400     2.1210 
