~V
VERS. 2.00: Ver 2.00
~W
STRT.M 63.0000:
STOP.M 269.0000:
STEP.M 0.1250:
NULL. -999.2500:
UWI. F10891:
~C
DEPT.M :
TVD. :
DX. :
DY. :
SP.MV :
GR.API :
RI. :
RML.OHMM :
RXO.OHMM :
DEN.GM/CC :
~A
# ...
   99.5000    99.4980    -0.1740    -0.3230   -12.6690    67.3960     6.4460     7.1980     7.6400     2.1190 
   99.6250    99.6230    -0.1750    -0.3240   -12.2460    67.8120     5.9920     6.6510     7.5640     2.1180 
   99.7500    99.7480    -0.1750    -0.3260   -11.7460    69.4150     5.4950     6.0460     6.7240     2.1220 
   99.8750    99.8730    -0.1760    -0.3270   -11.1900    70.5680     4.9940     5.4390     5.7200     2.1330 
  100.0000    99.9980    -0.1770    -0.3280   -10.6050    70.0240     4.5430     4.9060     5.1450     2.1470 
  100.1250   100.1230    -0.1770    -0.3290   -10.0360    70.6530     4.1880     4.5030     4.7670     2.1640 
  100.2500   100.2480    -0.1780    -0.3300    -9.5330    72.9550     3.9530     4.2510     4.4210     2.1820 
  100.3750   100.3730    -0.1790    -0.3320    -9.1170    76.8410     3.8060     4.1050     4.2970     2.1920 
  100.5000   100.4980    -0.1800    -0.3330    -8.7940    79.4860     3.7110     4.0120     4.4850     2.1890 
  100.6250   100.6230    -0.1800    -0.3340    -8.5450    81.1540     3.6140     3.9040     4.6900     2.1840 
  100.7500   100.7480    -0.1810    -0.3350    -8.3650    82.8590     3.4680     3.7230     4.4940     2.1890 
  100.8750   100.8730    -0.1820    -0.3360    -8.2370    83.7800     3.2630     3.4640     4.0620     2.2060 
  101.0000   100.9980    -0.1830    -0.3370    -8.1550    84.6710     3.0300     3.1780     3.7200     2.2290 
  101.1250   101.1230    -0.1830    -0.3390    -8.1050    84.3970     2.8410     2.9560     3.3700     2.2500 
  101.2500   101.2480    -0.1840    -0.3400    -8.0900    85.4030     2.7770     2.8950     3.0590     2.2600 
  101.3750   101.3730    -0.1850    -0.3410    -8.1150    86.1320     2.8740     3.0340     3.1410     2.2550 
  101.5000   101.4980    -0.1860    -0.3420    -8.2040    85.3650     3.1610     3.4010     3.9980     2.2310 
  101.6250   101.6230    -0.1860    -0.3430    -8.3710    81.7290     3.5800     3.9150     5.2910     2.1970 
  101.7500   101.7480    -0.1870    -0.3440    -8.6260    74.9890     4.0060     4.4130     6.1930     2.1650 
  101.8750   101.8730    -0.1880    -0.3450    -8.9380    69.8660     4.2790     4.7050     6.4210     2.1480 
  102.0000   101.9980    -0.1890    -0.3470    -9.2580    68.8100     4.2880     4.6750     5.9840     2.1500 
  102.1250   102.1230    -0.1890    -0.3480    -9.5390    72.6230     4.1010     4.4260     5.1290     2.1680 
  102.2500   102.2480    -0.1900    -0.3490    -9.7560    77.3230     3.8710     4.1590     4.3890     2.1950 
  102.3750   102.3730    -0.1910    -0.3500    -9.9320    80.2150     3.7620     4.0630     4.3150     2.2160 
  102.5000   102.4980    -0.1920    -0.3510   -10.1290    79.7430     3.8830     4.2600     5.0730     2.2160 
  102.6250   102.6230    -0.1930    -0.3520   -10.4250    77.8080     4.2420     4.7390     6.0740     2.1960 
  102.7500   102.7480    -0.1930    -0.3530   -10.8940    75.5890     4.8140     5.4530     6.7010     2.1680 
  102.8750   102.8730    -0.1940    -0.3550   -11.5400    73.4060     5.4980     6.2690     7.0200     2.1460 
  103.0000   102.9980    -0.1950    -0.3560   -12.3440    70.4960     6.2010     7.0700     7.4880     2.1310 
  103.1250   103.1230    -0.1960    -0.3570   -13.2280    66.8580     6.8600     7.7870     8.2120     2.1210 
  103.2500   103.2480    -0.1960    -0.3580   -14.1310    64.8990     7.4370     8.3810     8.9740     2.1110 
  103.3750   103.3730    -0.1970    -0.3590   -14.9860    65.1470     7.9030     8.8300     9.7210     2.1030 
  103.5000   103.4980    -0.1980    -0.3600   -15.7130    66.6990     8.1880     9.0660    10.2670     2.0940 
  103.6250   103.6230    -0.1990    -0.3610   -16.2500    67.5810     8.2490     9.0530    10.3960     2.0890 
  103.7500   103.7480    -0.1990    -0.3620   -16.5230    66.0600     8.0360     8.7490    10.3040     2.0910 
  103.8750   103.8730    -0.2000    -0.3640   -16.5350    65.0470     7.5700     8.1770    10.1130     2.0960 
  104.0000   103.9980    -0.2010    -0.3650   -16.2740    64.3790     6.8720     7.3670     9.6360     2.1010 
  104.1250   104.1230    -0.2020    -0.3660   -15.7880    66.9810     6.0650     6.4540     8.8870     2.1100 
  104.2500   104.2480    -0.2030    -0.3670   -15.1040    69.8890     5.3010     5.6130     7.7500     2.1310 
  104.3750   104.3730    -0.2030    -0.3680   -14.2960    72.3290     4.7020     4.9690     6.3590     2.1620 
  104.5000   104.4980    -0.2040    -0.3690   -13.4520    72.9680     4.3290     4.5820     5.5140     2.1860 
  104.6250   104.6230    -0.2050    -0.3700   -12.6710    72.4430     4.1300     4.3780     5.5910     2.1950 
  104.7500   104.7480    -0.2060    -0.3720   -12.0530    72.4540     4.0460     4.2790     5.9180     2.1930 
  104.8750   104.8730    -0.2070    -0.3730   -11.6350    72.3320     4.0190     4.2250     5.8490     2.1930 
  105.0000   104.9980    -0.2070    -0.3740   -11.4250    73.7390     4.0580     4.2410     5.6010     2.2000 
  105.1250   105.1230    -0.2080    -0.3750   -11.3700    73.9530     4.1990     4.3830     5.4460     2.2060 
  105.2500   105.2480    -0.2090    -0.3760   -11.4380    74.7790     4.4960     4.7190     5.4900     2.2070 
  105.3750   105.3730    -0.2100    -0.3770   -11.6050    74.4910     4.9250     5.2140     6.0930     2.1970 
  105.5000   105.4980    -0.2100    -0.3780   -11.8890    74.5070     5.3950     5.7480     7.3630     2.1760 
  105.6250   105.6230    -0.2110    -0.3790   -12.2900    71.9270     5.7440     6.1200     8.4230     2.1520 
  105.7500   105.7480    -0.2120    -0.3810   -12.8060    70.4830     5.8000     6.1350     8.4810     2.1370 
  105.8750   105.8730    -0.2130    -0.3820   -13.3800    68.9220     5.5560     5.8070     8.0200     2.1340 
  106.0000   105.9980    -0.2140    -0.3830   -13.9500    71.1740     5.1280     5.2950     7.2710     2.1440 
  106.1250   106.1230    -0.2140    -0.3840   -14.4720    73.0690     4.7510     4.8770     6.3330     2.1660 
  106.2500   106.2480    -0.2150    -0.3850   -14.9460    74.3740     4.6530     4.8050     5.6080     2.1940 
  106.3750   106.3730    -0.2160    -0.3860   -15.4320    71.8510     4.9420     5.1910     5.7200     2.2090 
  106.5000   106.4980    -0.2170    -0.3870   -16.0190    68.2280     5.6830     6.0910     6.5590     2.2010 
  106.6250   106.6230    -0.2180    -0.3890   -16.7520    64.2650     6.7280     7.3100     7.2400     2.1800 
  106.7500   106.7480    -0.2190    -0.3900   -17.6180    62.8920     7.8240     8.5260     7.8030     2.1640 
  106.8750   106.8730    -0.2190    -0.3910   -18.5100    61.7040     8.6780     9.4120     8.4780     2.1590 
  107.0000   106.9980    -0.2200    -0.3920   -19.3060    61.9300     9.0910     9.7720     9.0690     2.1590 
  107.1250   107.1230    -0.2210    -0.3930   -19.9310    61.8530     9.1340     9.7370     9.4160     2.1540 
  107.2500   107.2480    -0.2220    -0.3940   -20.3400    63.6940     8.9520     9.5000     9.3860     2.1420 
  107.3750   107.3730    -0.2230    -0.3950   -20.5310    65.8280     8.6910     9.2230     9.1130     2.1270 
  107.5000   107.4980    -0.2240    -0.3970   -20.4670    66.8100     8.3830     8.9290     8.7330     2.1150 
  107.6250   107.6230    -0.2240    -0.3980   -20.1560    66.3810     7.9990     8.5610     8.2550     2.1090 
  107.7500   107.7480    -0.2250    -0.3990   -19.5950    64.5690     7.4640     8.0120     7.6180     2.1110 
  107.8750   107.8730    -0.2260    -0.4000   -18.8510    64.5160     6.7530     7.2410     6.9930     2.1190 
  108.0000   107.9980    -0.2270    -0.4010   -17.9680    67.2110     5.8970     6.2900     6.3310     2.1330 
  108.1250   108.1230    -0.2280    -0.4020   -17.0060    72.1100     5.0280     5.3200     5.5460     2.1550 
  108.2500   108.2480    -0.2290    -0.4030   -16.0060    78.1350     4.3070     4.5290     4.9380     2.1850 
  108.3750   108.3730    -0.2300    -0.4040   -15.0140    82.8690     3.8520     4.0530     4.6140     2.2160 
  108.5000   108.4980    -0.2310    -0.4060   -14.1040    84.2770     3.7490     3.9850     4.5040     2.2340 
