~V
VERS. 2.00: Ver 2.00
~W
STRT.M 63.0000:
STOP.M 236.0000:
STEP.M 0.1250:
NULL. -999.2500:
UWI. F10859:
~C
DEPT.M :
TVD. :
DX. :
DY. :
SP.MV :
GR.API :
RI. :
RML.OHMM :
RXO.OHMM :
DEN.GM/CC :
~A
   63.0000    63.0000     0.0000     0.0000    86.6230    41.9160     0.1530     0.1740     0.4370     2.4260 
   63.1250    63.1250    -0.0020     0.0000    86.0140    40.3230     0.1600     0.1730     0.3980     2.4370 
   63.2500    63.2500    -0.0040     0.0010    85.4580    39.3270     0.1620     0.1670     0.3500     2.4290 
   63.3750    63.3750    -0.0060     0.0010    84.9930    38.3280     0.1620     0.1620     0.3200     2.3980 
   63.5000    63.5000    -0.0080     0.0020    84.7540    38.2700     0.1590     0.1590     0.2970     2.3400 
   63.6250    63.6250    -0.0100     0.0020    84.7980    39.2770     0.1560     0.1590     0.2700     2.2730 
   63.7500    63.7500    -0.0120     0.0030    85.0780    41.5800     0.1510     0.1600     0.2300     2.2200 
   63.8750    63.8750    -0.0130     0.0030    85.4360    44.3410     0.1450     0.1610     0.1910     2.1930 
   64.0000    64.0000    -0.0150     0.0040    85.8160    46.3470     0.1410     0.1640     0.1720     2.1830 
   64.1250    64.1250    -0.0170     0.0040    86.3340    47.0140     0.1380     0.1710     0.1640     2.1790 
   64.2500    64.2500    -0.0190     0.0050    87.2410    46.6150     0.1330     0.1800     0.1590     2.1820 
   64.3750    64.3750    -0.0210     0.0050    88.6220    45.5180     0.1230     0.1820     0.1500     2.1910 
   64.5000    64.5000    -0.0230     0.0060    90.3410    44.4950     0.1040     0.1660     0.1270     2.1990 
   64.6250    64.6250    -0.0250     0.0060    91.9210    44.0320     0.0800     0.1330     0.0910     2.2030 
   64.7500    64.7500    -0.0270     0.0070    92.6510    45.4060     0.0590     0.0940     0.0620     2.2050 
   64.8750    64.8750    -0.0290     0.0080    91.9310    47.6680     0.0540     0.0660     0.0660     2.2210 
   65.0000    65.0000    -0.0300     0.0080    88.9420    50.2130     0.0990     0.0840     0.2040     2.2640 
   65.1250    65.1250    -0.0320     0.0090    81.3140    54.0810     0.3080     0.2310     0.6120     2.3290 
   65.2500    65.2500    -0.0340     0.0100    67.9490    61.2700     1.1680     0.8870     3.5140     2.4000 
   65.3750    65.3750    -0.0360     0.0100    50.3920    70.1820     3.5780     2.8880    14.3700     2.4660 
   65.5000    65.5000    -0.0380     0.0110    32.1360    76.1420     8.7470     7.5840    35.3320     2.5230 
   65.6250    65.6250    -0.0400     0.0120    19.1970    78.3270    16.1700    14.6610    54.9640     2.5600 
   65.7500    65.7500    -0.0410     0.0120    11.7410    74.7140    23.3910    21.5810    61.8880     2.5410 
   65.8750    65.8750    -0.0430     0.0130     8.5860    70.7560    27.3510    25.1560    57.5180     2.4550 
   66.0000    66.0000    -0.0450     0.0140     6.4440    66.5110    26.5230    23.8450    44.5830     2.3230 
   66.1250    66.1250    -0.0470     0.0140     4.2970    66.6920    22.7260    19.6380    28.8800     2.2000 
   66.2500    66.2500    -0.0490     0.0150     2.0440    68.8620    18.6920    15.5490    18.5470     2.1270 
   66.3750    66.3750    -0.0510     0.0160    -0.2550    71.5880    16.2700    13.3740    15.2240     2.1010 
   66.5000    66.5000    -0.0520     0.0170    -2.4810    71.2010    15.6850    13.0980    15.8980     2.1010 
   66.6250    66.6250    -0.0540     0.0170    -4.5880    69.3820    16.1810    13.8150    17.3150     2.1050 
   66.7500    66.7500    -0.0560     0.0180    -6.5080    68.5420    17.2120    14.9390    18.1760     2.1070 
   66.8750    66.8750    -0.0580     0.0190    -8.2640    69.6440    18.2240    15.9490    19.1500     2.1040 
   67.0000    67.0000    -0.0600     0.0190    -9.8810    69.0310    18.8030    16.5080    20.6600     2.0980 
   67.1250    67.1240    -0.0620     0.0200   -11.4200    66.9430    18.8450    16.6110    21.2050     2.0930 
   67.2500    67.2490    -0.0630     0.0210   -12.9300    63.8220    18.4480    16.4170    19.6280     2.0950 
   67.3750    67.3740    -0.0650     0.0220   -14.3780    62.3130    17.8830    16.1730    17.4340     2.1010 
   67.5000    67.4990    -0.0670     0.0220   -15.7200    61.5410    17.3580    16.0420    16.3820     2.1060 
   67.6250    67.6240    -0.0690     0.0230   -16.8660    60.3400    16.9920    16.0800    16.4220     2.1040 
   67.7500    67.7490    -0.0710     0.0240   -17.7840    60.3020    16.8210    16.2650    16.6880     2.0950 
   67.8750    67.8740    -0.0730     0.0250   -18.5210    60.5690    16.7330    16.4410    16.7460     2.0840 
   68.0000    67.9990    -0.0740     0.0250   -19.1530    62.2030    16.5620    16.4110    16.7330     2.0770 
   68.1250    68.1240    -0.0760     0.0260   -19.7620    63.2160    16.2220    16.1410    16.5780     2.0760 
   68.2500    68.2490    -0.0780     0.0270   -20.3300    66.0220    15.7880    15.7900    16.0080     2.0850 
   68.3750    68.3740    -0.0800     0.0270   -20.8120    68.4260    15.4780    15.6410    15.0380     2.0970 
   68.5000    68.4990    -0.0820     0.0280   -21.1370    70.7140    15.4500    15.8560    14.2670     2.1110 
   68.6250    68.6240    -0.0830     0.0290   -21.3310    68.8620    15.5350    16.1810    14.5200     2.1340 
   68.7500    68.7490    -0.0850     0.0300   -21.4190    66.2590    15.2820    16.0780    16.4080     2.1780 
   68.8750    68.8740    -0.0870     0.0300   -21.4790    65.4480    14.3470    15.1780    19.7280     2.2350 
   69.0000    68.9990    -0.0890     0.0310   -21.4870    69.9610    12.6690    13.4400    21.1510     2.2770 
   69.1250    69.1240    -0.0910     0.0320   -21.4170    76.3190    10.6710    11.3530    17.1260     2.2930 
   69.2500    69.2490    -0.0920     0.0320   -21.1940    83.6140     8.8600     9.4870    10.5930     2.2960 
   69.3750    69.3740    -0.0940     0.0330   -20.8580    88.7770     7.5500     8.1880     7.0190     2.3090 
   69.5000    69.4990    -0.0960     0.0340   -20.5170    91.0420     6.8430     7.5520     6.5340     2.3200 
   69.6250    69.6240    -0.0980     0.0350   -20.2700    90.1260     6.5700     7.3690     6.5450     2.3080 
   69.7500    69.7490    -0.1000     0.0350   -20.1760    89.5700     6.5690     7.4250     6.1240     2.2690 
   69.8750    69.8740    -0.1020     0.0360   -20.1990    90.6470     6.6470     7.5200     5.6690     2.2260 
   70.0000    69.9990    -0.1030     0.0370   -20.2920    91.9980     6.7120     7.5820     5.7240     2.1990 
   70.1250    70.1240    -0.1050     0.0380   -20.3870    93.5020     6.7440     7.6210     6.0470     2.1900 
   70.2500    70.2490    -0.1070     0.0380   -20.3880    93.4710     6.7420     7.6460     6.1820     2.1950 
   70.3750    70.3740    -0.1090     0.0390   -20.2100    92.8160     6.6990     7.6430     6.1370     2.2050 
   70.5000    70.4990    -0.1100     0.0400   -19.7790    90.6480     6.5900     7.5690     6.0840     2.2120 
   70.6250    70.6240    -0.1120     0.0410   -19.1130    90.3200     6.4180     7.4220     6.0970     2.2140 
   70.7500    70.7490    -0.1140     0.0410   -18.2410    91.2250     6.2130     7.2500     6.0930     2.2170 
   70.8750    70.8740    -0.1160     0.0420   -17.2490    92.4770     6.0360     7.1320     5.8520     2.2230 
   71.0000    70.9990    -0.1180     0.0430   -16.2200    93.1950     5.9440     7.1440     5.5620     2.2300 
   71.1250    71.1240    -0.1190     0.0430   -15.2530    92.2310     5.9380     7.2820     5.7290     2.2300 
   71.2500    71.2490    -0.1210     0.0440   -14.4240    90.9110     5.9690     7.4660     6.3950     2.2280 
   71.3750    71.3740    -0.1230     0.0450   -13.7390    89.3480     5.9490     7.5630     7.1590     2.2340 
   71.5000    71.4990    -0.1250     0.0460   -13.1820    88.4050     5.8030     7.4520     7.3940     2.2520 
   71.6250    71.6240    -0.1260     0.0460   -12.7010    88.0080     5.5320     7.1340     6.6000     2.2720 
   71.7500    71.7490    -0.1280     0.0470   -12.2760    87.9130     5.2000     6.7070     5.3760     2.2850 
   71.8750    71.8740    -0.1300     0.0480   -11.9010    89.7090     4.9090     6.3410     4.7810     2.2940 
   72.0000    71.9990    -0.1320     0.0490   -11.5940    91.1850     4.7430     6.1620     4.8090     2.3040 
