~V
VERS. 2.00: Ver 2.00
~W
STRT.M 63.0000:
STOP.M 236.0000:
STEP.M 0.1250:
NULL. -999.2500:
UWI. F10859:
~C
DEPT.M :
TVD. :
DX. :
DY. :
SP.MV :
GR.API :
RI. :
RML.OHMM :
RXO.OHMM :
DEN.GM/CC :
~A
# ...
  181.6250   181.6130    -1.5900     0.4620   -21.5180    59.7630    11.3900    12.1470    16.3390     2.2650 
  181.7500   181.7380    -1.5920     0.4620   -21.3920    58.6660    12.1970    13.0810    19.7250     2.3420 
  181.8750   181.8630    -1.5940     0.4630   -21.3270    55.3830    13.2730    14.4290    27.7830     2.4640 
  182.0000   181.9880    -1.5960     0.4630   -21.3470    52.3070    14.3420    15.8100    35.9080     2.5970 
  182.1250   182.1130    -1.5970     0.4630   -21.4510    52.6630    14.7040    16.2970    40.3180     2.6890 
  182.2500   182.2380    -1.5990     0.4630   -21.6460    58.7890    13.5590    14.9240    50.4150     2.7030 
  182.3750   182.3630    -1.6010     0.4640   -21.9150    66.0800    10.9840    11.8720    62.4060     2.6520 
  182.5000   182.4880    -1.6030     0.4640   -22.2350    67.3840     7.6800     8.0730    52.0660     2.5530 
  182.6250   182.6130    -1.6050     0.4640   -22.5650    63.6570     4.7480     4.8310    24.5900     2.4370 
  182.7500   182.7380    -1.6070     0.4640   -22.8500    59.5350     2.8460     2.8350     6.3260     2.3300 
  182.8750   182.8630    -1.6090     0.4650   -23.0490    57.6780     1.8180     1.8180     1.6170     2.2540 
  183.0000   182.9880    -1.6110     0.4650   -23.1100    56.8590     1.3990     1.4490     1.4430     2.2190 
  183.1250   183.1130    -1.6120     0.4650   -23.0260    58.2320     1.3140     1.4230     1.5520     2.2140 
  183.2500   183.2380    -1.6140     0.4650   -22.7890    61.8000     1.4560     1.6160     1.8080     2.2310 
  183.3750   183.3630    -1.6160     0.4660   -22.4340    67.1760     1.7370     1.9310     2.2340     2.2610 
  183.5000   183.4880    -1.6180     0.4660   -22.0000    71.8360     2.1140     2.3150     2.6960     2.2930 
  183.6250   183.6130    -1.6200     0.4660   -21.5480    76.1000     2.5130     2.6940     2.9680     2.3180 
  183.7500   183.7380    -1.6220     0.4660   -21.1390    78.3970     2.8570     2.9920     3.0350     2.3330 
  183.8750   183.8630    -1.6240     0.4670   -20.8130    80.1230     3.0910     3.1680     3.0680     2.3430 
  184.0000   183.9880    -1.6260     0.4670   -20.5940    82.7520     3.1970     3.2210     3.1500     2.3510 
  184.1250   184.1130    -1.6280     0.4670   -20.4630    86.7610     3.2220     3.2140     3.3010     2.3530 
  184.2500   184.2380    -1.6300     0.4680   -20.3940    88.6720     3.2070     3.2040     3.4400     2.3500 
  184.3750   184.3630    -1.6320     0.4680   -20.3550    88.8060     3.1780     3.2130     3.4560     2.3460 
  184.5000   184.4880    -1.6340     0.4680   -20.3200    88.6090     3.1400     3.2400     3.3990     2.3490 
  184.6250   184.6130    -1.6360     0.4680   -20.2840    91.3830     3.0920     3.2690     3.3600     2.3560 
  184.7500   184.7380    -1.6370     0.4680   -20.2620    94.5510     3.0330     3.2880     3.3170     2.3630 
  184.8750   184.8630    -1.6390     0.4690   -20.2800    97.5530     2.9680     3.2860     3.2540     2.3630 
  185.0000   184.9880    -1.6410     0.4690   -20.3660    99.5700     2.9030     3.2620     3.1980     2.3570 
  185.1250   185.1130    -1.6430     0.4690   -20.5260   102.6720     2.8540     3.2330     3.1660     2.3500 
  185.2500   185.2380    -1.6450     0.4690   -20.7610   105.1080     2.8690     3.2600     3.1790     2.3450 
  185.3750   185.3630    -1.6470     0.4700   -21.0620   104.9500     3.0140     3.4330     3.3240     2.3480 
  185.5000   185.4880    -1.6490     0.4700   -21.4450   101.1920     3.3990     3.8940     4.8680     2.3650 
  185.6250   185.6130    -1.6510     0.4700   -21.9180    94.4270     4.0940     4.7340     9.4810     2.3920 
  185.7500   185.7380    -1.6530     0.4700   -22.5170    88.2520     5.1630     6.0250    14.9910     2.4170 
  185.8750   185.8630    -1.6550     0.4700   -23.2430    85.1320     6.4930     7.6040    16.8990     2.4210 
  186.0000   185.9880    -1.6570     0.4710   -24.1010    83.8180     7.8390     9.1460    15.6360     2.4010 
  186.1250   186.1130    -1.6590     0.4710   -25.0540    81.8370     8.8990    10.2870    15.0300     2.3740 
  186.2500   186.2380    -1.6610     0.4710   -26.0540    77.1800     9.4360    10.7690    15.5050     2.3480 
  186.3750   186.3630    -1.6630     0.4710   -27.0520    73.2220     9.4870    10.6840    15.2500     2.3260 
  186.5000   186.4880    -1.6650     0.4710   -28.0260    69.7210     9.2000    10.2510    13.7620     2.3080 
  186.6250   186.6130    -1.6670     0.4720   -28.9930    67.2630     8.8300     9.7810    12.1540     2.2930 
  186.7500   186.7370    -1.6690     0.4720   -29.9960    66.1690     8.5610     9.4860    11.5550     2.2800 
  186.8750   186.8620    -1.6710     0.4720   -31.0650    65.5680     8.4880     9.4510    12.6790     2.2680 
  187.0000   186.9870    -1.6730     0.4720   -32.2120    65.6600     8.6580     9.6990    15.7100     2.2590 
  187.1250   187.1120    -1.6750     0.4720   -33.3990    64.2810     9.0030    10.1230    18.3780     2.2520 
  187.2500   187.2370    -1.6770     0.4730   -34.5550    63.4690     9.4170    10.5860    18.5390     2.2450 
  187.3750   187.3620    -1.6790     0.4730   -35.6010    62.0830     9.7860    10.9660    17.5390     2.2370 
  187.5000   187.4870    -1.6810     0.4730   -36.4530    62.2630    10.0370    11.1970    16.9640     2.2290 
  187.6250   187.6120    -1.6830     0.4730   -37.0910    61.3020    10.1680    11.2980    16.7910     2.2220 
  187.7500   187.7370    -1.6850     0.4730   -37.4890    61.8040    10.1970    11.2960    16.8920     2.2180 
  187.8750   187.8620    -1.6870     0.4730   -37.6920    60.9210    10.1450    11.2080    16.8990     2.2160 
  188.0000   187.9870    -1.6890     0.4740   -37.7350    60.4240     9.9760    11.0050    16.2890     2.2180 
  188.1250   188.1120    -1.6910     0.4740   -37.6920    58.9180     9.6620    10.7170    15.4050     2.2230 
  188.2500   188.2370    -1.6930     0.4740   -37.6180    60.1120     9.2060    10.3980    14.4350     2.2280 
  188.3750   188.3620    -1.6950     0.4740   -37.5440    62.0500     8.7040    10.0320    12.9450     2.2310 
  188.5000   188.4870    -1.6970     0.4740   -37.4570    64.9540     8.2790     9.6350    11.3920     2.2330 
  188.6250   188.6120    -1.6980     0.4740   -37.3380    66.5880     8.0240     9.3560    11.0330     2.2350 
  188.7500   188.7370    -1.7000     0.4750   -37.1910    67.7040     8.0060     9.3290    11.9220     2.2350 
  188.8750   188.8620    -1.7020     0.4750   -37.0590    67.4050     8.1980     9.5300    12.7270     2.2360 
  189.0000   188.9870    -1.7040     0.4750   -37.0050    65.8040     8.5530     9.8940    12.8830     2.2380 
  189.1250   189.1120    -1.7060     0.4750   -37.0440    65.3890     8.9710    10.3010    12.8850     2.2400 
  189.2500   189.2370    -1.7080     0.4750   -37.1610    65.3120     9.3720    10.6660    13.4110     2.2400 
  189.3750   189.3620    -1.7100     0.4760   -37.3150    65.5210     9.7250    10.9710    14.4710     2.2360 
  189.5000   189.4870    -1.7120     0.4760   -37.4880    64.0350    10.0400    11.2450    15.0360     2.2290 
  189.6250   189.6120    -1.7140     0.4760   -37.6790    62.5970    10.3440    11.5260    14.9150     2.2190 
  189.7500   189.7370    -1.7160     0.4760   -37.8920    62.0350    10.6460    11.8270    15.2230     2.2110 
  189.8750   189.8620    -1.7180     0.4760   -38.1090    60.4630    10.9460    12.1430    16.1810     2.2050 
  190.0000   189.9870    -1.7200     0.4770   -38.3070    58.8030    11.2480    12.4690    17.1060     2.2030 
  190.1250   190.1120    -1.7220     0.4770   -38.4680    57.3170    11.5520    12.7920    17.4670     2.2030 
  190.2500   190.2370    -1.7240     0.4770   -38.5840    56.9560    11.8530    13.1040    17.1760     2.2010 
  190.3750   190.3620    -1.7260     0.4770   -38.6670    56.0330    12.1660    13.4240    17.1240     2.1970 
  190.5000   190.4870    -1.7280     0.4780   -38.7300    53.1990    12.5320    13.8010    18.0870     2.1940 
  190.6250   190.6120    -1.7290     0.4780   -38.7910    50.5840    12.9620    14.2430    19.5170     2.1910 
