~V
VERS. 2.00: Ver 2.00
~W
STRT.M 63.0000:
STOP.M 247.0000:
STEP.M 0.1250:
NULL. -999.2500:
UWI. F10865:
~C
DEPT.M :
TVD. :
DX. :
DY. :
SP.MV :
GR.API :
RI. :
RML.OHMM :
RXO.OHMM :
DEN.GM/CC :
~A
   63.0000    63.0000     0.0000     0.0000    11.0470    49.3040     0.0960     0.0820     6.9930     2.0970 
   63.1250    63.1250    -0.0020     0.0000    14.7240    51.6640     0.1050     0.0880     5.0380     2.0950 
   63.2500    63.2500    -0.0030    -0.0010    18.0320    53.3410     0.1090     0.0920     2.5270     2.0900 
   63.3750    63.3750    -0.0050    -0.0010    20.8320    54.4020     0.1050     0.0920     1.0540     2.0780 
   63.5000    63.5000    -0.0060    -0.0020    22.8930    55.1750     0.0920     0.0900     0.5870     2.0610 
   63.6250    63.6250    -0.0080    -0.0020    24.0880    54.5710     0.0820     0.0850     0.5310     2.0440 
   63.7500    63.7500    -0.0090    -0.0020    24.1420    54.0080     0.0800     0.0790     0.5540     2.0300 
   63.8750    63.8750    -0.0110    -0.0030    22.9630    53.2260     0.0820     0.0770     0.5420     2.0250 
   64.0000    64.0000    -0.0130    -0.0030    20.2870    51.1400     0.0860     0.0750     0.4810     2.0280 
   64.1250    64.1250    -0.0140    -0.0030    16.1290    48.7640     0.0820     0.0700     0.4120     2.0380 
   64.2500    64.2500    -0.0160    -0.0030    10.3340    48.7730     0.0670     0.0630     0.3610     2.0490 
   64.3750    64.3750    -0.0170    -0.0040     3.0760    50.2260     0.0540     0.0530     0.3460     2.0620 
   64.5000    64.5000    -0.0190    -0.0040    -5.6260    50.8440     0.0430     0.0460     0.3990     2.0820 
   64.6250    64.6250    -0.0210    -0.0040   -15.4460    50.3310     0.0410     0.0460     0.5190     2.1230 
   64.7500    64.7500    -0.0220    -0.0050   -26.1430    48.1930     0.0600     0.0600     0.6220     2.1830 
   64.8750    64.8750    -0.0240    -0.0050   -37.2510    44.9790     0.1340     0.1250     0.8050     2.2330 
   65.0000    65.0000    -0.0260    -0.0050   -48.2890    45.4100     0.3300     0.2970     1.4960     2.2410 
   65.1250    65.1250    -0.0270    -0.0060   -58.7660    51.7530     0.8160     0.7990     2.8970     2.2000 
   65.2500    65.2500    -0.0290    -0.0060   -68.1760    60.2040     1.9410     2.0390     4.3550     2.1450 
   65.3750    65.3750    -0.0300    -0.0060   -76.3250    67.2140     3.8140     4.4180     5.2320     2.1190 
   65.5000    65.5000    -0.0320    -0.0070   -83.0100    72.6690     5.3630     6.1000     5.5060     2.1280 
   65.6250    65.6250    -0.0340    -0.0070   -88.4150    77.6260     6.2110     6.8070     5.3030     2.1580 
   65.7500    65.7500    -0.0350    -0.0070   -92.6190    81.3470     6.0890     7.0060     4.8920     2.1850 
   65.8750    65.8750    -0.0370    -0.0070   -95.9270    83.7810     5.4960     5.9430     4.5650     2.1980 
   66.0000    66.0000    -0.0390    -0.0080   -98.4880    86.9650     5.2340     5.4140     4.4460     2.2000 
   66.1250    66.1250    -0.0400    -0.0080  -100.5400    91.2830     5.2940     5.4530     4.4790     2.1920 
   66.2500    66.2500    -0.0420    -0.0080  -102.2030    93.1540     5.5660     5.7970     4.6840     2.1810 
   66.3750    66.3750    -0.0430    -0.0080  -103.6160    89.1200     5.9720     6.2850     5.2900     2.1660 
   66.5000    66.5000    -0.0450    -0.0090  -104.8350    85.8930     6.4040     6.7780     6.1690     2.1490 
   66.6250    66.6250    -0.0470    -0.0090  -105.9120    87.5480     6.6800     7.0600     6.6600     2.1340 
   66.7500    66.7500    -0.0480    -0.0090  -106.8450    89.9380     6.7340     7.0820     6.4210     2.1270 
   66.8750    66.8750    -0.0500    -0.0090  -107.6440    88.6480     6.6720     7.0100     5.8080     2.1420 
   67.0000    67.0000    -0.0520    -0.0100  -108.2980    83.4390     6.7740     7.1670     5.3330     2.1870 
   67.1250    67.1250    -0.0530    -0.0100  -108.8300    80.1510     7.4960     7.9080     5.9030     2.2590 
   67.2500    67.2500    -0.0550    -0.0100  -109.2520    79.5550     8.8170     9.3360     8.5990     2.3320 
   67.3750    67.3750    -0.0560    -0.0100  -109.6050    79.2520    10.5060    11.4020    12.7710     2.3690 
   67.5000    67.5000    -0.0580    -0.0100  -109.9170    76.4890    12.0280    13.3470    15.2450     2.3490 
   67.6250    67.6250    -0.0600    -0.0110  -110.2090    74.8550    12.2220    13.8310    13.9540     2.2840 
   67.7500    67.7500    -0.0610    -0.0110  -110.4740    75.5710    11.1880    12.6240    10.6780     2.2160 
   67.8750    67.8750    -0.0630    -0.0110  -110.6790    75.6630     9.2990    10.2540     7.5830     2.1760 
   68.0000    68.0000    -0.0650    -0.0110  -110.7660    76.3820     7.4200     7.9050     5.4250     2.1660 
   68.1250    68.1250    -0.0660    -0.0120  -110.7030    82.7880     6.3850     6.6870     4.5810     2.1660 
   68.2500    68.2500    -0.0680    -0.0120  -110.4630    91.6610     6.0980     6.3810     5.0360     2.1610 
   68.3750    68.3750    -0.0700    -0.0120  -110.0780    94.7970     6.4210     6.7520     6.1910     2.1480 
   68.5000    68.5000    -0.0710    -0.0120  -109.5740    90.7650     7.0200     7.4270     6.8700     2.1330 
   68.6250    68.6250    -0.0730    -0.0130  -108.9960    84.0150     7.6140     8.0770     6.8490     2.1220 
   68.7500    68.7500    -0.0750    -0.0130  -108.3660    79.7850     7.9360     8.4270     7.0930     2.1160 
   68.8750    68.8740    -0.0760    -0.0130  -107.7040    81.3000     7.9420     8.4430     7.6830     2.1120 
   69.0000    68.9990    -0.0780    -0.0130  -107.0210    85.4230     7.8950     8.4380     8.0210     2.1080 
   69.1250    69.1240    -0.0800    -0.0130  -106.3350    86.2000     8.1250     8.7410     8.5650     2.1010 
   69.2500    69.2490    -0.0810    -0.0140  -105.6730    81.7110     8.8480     9.4900     9.6250     2.0890 
   69.3750    69.3740    -0.0830    -0.0140  -105.0650    76.8690    10.0230    10.7880    10.7320     2.0740 
   69.5000    69.4990    -0.0850    -0.0140  -104.5490    75.0510    11.5180    12.4880    11.8820     2.0620 
   69.6250    69.6240    -0.0870    -0.0140  -104.1430    74.9840    13.1740    14.4570    12.9050     2.0540 
   69.7500    69.7490    -0.0880    -0.0150  -103.8690    73.2170    14.5910    16.2150    12.8790     2.0490 
   69.8750    69.8740    -0.0900    -0.0150  -103.7140    68.7180    15.6260    17.4860    11.6570     2.0430 
   70.0000    69.9990    -0.0920    -0.0150  -103.6810    64.8980    16.1970    18.2710    11.5450     2.0310 
   70.1250    70.1240    -0.0940    -0.0160  -103.7540    64.3960    16.3170    18.6140    14.7670     2.0150 
   70.2500    70.2490    -0.0950    -0.0160  -103.9340    66.5780    16.2130    18.7540    17.4570     1.9980 
   70.3750    70.3740    -0.0970    -0.0160  -104.2050    68.5750    15.8990    18.5430    16.8040     1.9860 
   70.5000    70.4990    -0.0990    -0.0160  -104.5610    67.8490    15.3580    16.9600    15.8520     1.9850 
   70.6250    70.6240    -0.1010    -0.0170  -104.9840    65.3740    14.6430    15.7450    15.2130     1.9950 
   70.7500    70.7490    -0.1020    -0.0170  -105.4710    63.8870    13.9890    15.1250    14.5960     2.0130 
   70.8750    70.8740    -0.1040    -0.0170  -106.0210    65.0020    13.5740    14.8150    13.9890     2.0300 
   71.0000    70.9990    -0.1060    -0.0180  -106.6560    67.5420    13.4140    14.8160    12.9100     2.0390 
   71.1250    71.1240    -0.1080    -0.0180  -107.3890    69.3540    13.4990    15.0550    12.3620     2.0430 
   71.2500    71.2490    -0.1100    -0.0180  -108.2420    68.3300    13.8900    15.6250    13.4230     2.0550 
   71.3750    71.3740    -0.1110    -0.0190  -109.2020    64.5100    14.5800    16.4760    15.3030     2.0870 
   71.5000    71.4990    -0.1130    -0.0190  -110.2430    60.4940    15.2320    17.1250    16.0960     2.1440 
   71.6250    71.6240    -0.1150    -0.0190  -111.3040    58.5840    15.1400    16.8950    14.9870     2.2170 
   71.7500    71.7490    -0.1170    -0.0200  -112.3180    59.0120    13.9660    15.5600    13.6090     2.2820 
   71.8750    71.8740    -0.1190    -0.0200  -113.2320    62.6600    12.0630    13.5240    11.8920     2.3120 
   72.0000    71.9990    -0.1200    -0.0200  -113.9990    69.9990    10.0200    11.3790     9.7470     2.3080 
