~V
VERS. 2.00: Ver 2.00
~W
STRT.M 54.0000:
STOP.M 205.0000:
STEP.M 0.1250:
NULL. -999.2500:
UWI. F10812:
~C
DEPT.M :
SP.MV :
GR.API :
RI. :
RML.OHMM :
RXO.OHMM :
DEN.GM/CC :
~A
   54.0000   108.6220    46.6330     0.1050     0.1190     0.0150     2.1630 
   54.1250   106.5540    47.8980     0.0800     0.1110     0.0140     2.0950 
   54.2500   103.3740    48.2370     0.0560     0.0910     0.0140     2.0400 
   54.3750    98.6670    47.6350     0.0370     0.0610     0.0140     2.0140 
   54.5000    92.2620    45.5390     0.0220     0.0350     0.0150     2.0180 
   54.6250    83.6950    42.7130     0.0260     0.0310     0.0150     2.0670 
   54.7500    72.9700    40.9030     0.0690     0.0770     0.0750     2.1710 
   54.8750    60.2280    42.7310     0.2580     0.2800     1.1110     2.2510 
   55.0000    46.4340    49.1100     0.7820     0.9810     3.2380     2.2200 
   55.1250    32.9290    59.4060     2.0650     2.8760     5.1980     2.0670 
   55.2500    21.1390    69.7160     3.8250     5.1210     6.9860     1.9520 
   55.3750    12.0860    77.8730     5.2780     6.6790     8.5270     1.9690 
   55.5000     5.6430    82.6130     6.2720     7.1690     9.0900     2.0590 
   55.6250     1.5930    84.2590     6.1760     6.3130     9.0350     2.1180 
   55.7500    -0.9140    84.2680     5.9170     5.4520     8.5470     2.1250 
   55.8750    -2.3640    85.5600     5.5390     4.9300     7.1240     2.1130 
   56.0000    -3.1910    90.1110     5.1430     4.5580     5.5890     2.1120 
   56.1250    -3.6680    96.1840     4.7710     4.2720     5.0650     2.1310 
   56.2500    -4.1060    99.7540     4.4850     4.0920     5.0140     2.1570 
   56.3750    -4.7450   100.5730     4.5150     4.1490     4.9110     2.1710 
   56.5000    -5.6940    99.3060     4.8360     4.4570     4.9570     2.1720 
   56.6250    -6.9700    97.8410     5.2730     4.9340     5.6330     2.1630 
   56.7500    -8.4410    95.0930     5.7390     5.5000     7.3590     2.1560 
   56.8750    -9.9740    91.9960     6.2570     6.1440     8.5680     2.1530 
   57.0000   -11.4520    87.8720     6.6680     6.6600     8.0010     2.1530 
   57.1250   -12.8220    84.7880     6.8740     6.9690    12.0270     2.1430 
   57.2500   -14.1260    82.7170     6.8930     7.0890    19.6610     2.1240 
   57.3750   -15.4310    81.8690     6.7710     7.1050    18.6150     2.1050 
   57.5000   -16.7880    81.2100     6.6900     7.1570    11.3050     2.0960 
   57.6250   -18.2230    81.0290     6.6650     7.2190     7.3690     2.0990 
   57.7500   -19.6890    81.1040     6.6480     7.3530     7.6880     2.1040 
   57.8750   -21.0620    80.1050     6.8040     7.7670     9.1010     2.1030 
   58.0000   -22.2040    77.0460     7.1260     8.3340     9.5600     2.0980 
   58.1250   -22.9760    73.0950     7.3420     8.7540     9.7130     2.0920 
   58.2500   -23.3780    70.9350     7.2620     8.7760     9.9910     2.0860 
   58.3750   -23.4850    70.5660     6.8640     8.3950     9.9230     2.0850 
   58.5000   -23.5240    70.9880     6.4580     7.9610     8.9070     2.0920 
   58.6250   -23.7290    71.3870     6.2230     7.7220     7.4940     2.1090 
   58.7500   -24.2400    73.0580     6.1900     7.7850     7.5090     2.1200 
   58.8750   -25.0950    74.8870     6.4020     8.1920     8.8620     2.1100 
   59.0000   -26.1350    75.0940     6.8190     8.8500     9.7730     2.0860 
   59.1250   -27.1460    73.1210     7.3700     9.6310    10.0200     2.0630 
   59.2500   -27.9500    69.3530     7.8640    10.3250    10.2110     2.0530 
   59.3750   -28.4420    64.7390     8.2000    10.8220    10.1730     2.0550 
   59.5000   -28.6670    59.2360     8.3290    11.0720     9.7740     2.0650 
   59.6250   -28.7040    57.0150     8.2810    11.0220     9.3670     2.0760 
   59.7500   -28.6650    58.4170     8.0460    10.6840     9.4790     2.0830 
   59.8750   -28.6240    62.6020     7.6180    10.1410    10.1890     2.0800 
   60.0000   -28.6240    66.0580     7.1710     9.5890    10.5200     2.0740 
   60.1250   -28.6990    67.1850     6.7150     9.0950     9.8520     2.0710 
   60.2500   -28.8680    68.8450     6.3240     8.7210     9.2140     2.0730 
   60.3750   -29.1620    70.4370     6.0360     8.5170     9.1270     2.0790 
   60.5000   -29.5740    72.0350     5.8480     8.5230     8.5640     2.0910 
   60.6250   -30.0860    71.3020     5.8520     8.7820     8.0030     2.1040 
   60.7500   -30.6340    69.6360     5.9870     9.2240     8.8990     2.1110 
   60.8750   -31.1350    69.0890     6.2150     9.7770    10.2050     2.0990 
   61.0000   -31.5170    69.7190     6.4560    10.3230    10.3130     2.0770 
   61.1250   -31.7310    71.6290     6.6480    10.7840     9.8710     2.0610 
   61.2500   -31.7990    73.2440     6.7420    11.0400     9.9840     2.0630 
   61.3750   -31.7590    75.3950     6.6630    10.9950    10.6030     2.0800 
   61.5000   -31.6860    76.0410     6.4820    10.7540    10.9740     2.0980 
   61.6250   -31.6510    74.3840     6.2620    10.4260    10.5690     2.1010 
   61.7500   -31.6980    71.1380     6.0540    10.1280     9.7590     2.0940 
   61.8750   -31.8490    68.4340     5.9210     9.9550     9.5160     2.0820 
   62.0000   -32.0790    66.9920     5.8980     9.9520    10.1390     2.0680 
   62.1250   -32.3370    64.9740     5.9890    10.0930    10.9550     2.0510 
   62.2500   -32.5470    62.0140     6.1240    10.2740    11.3710     2.0390 
   62.3750   -32.6220    59.7570     6.2410    10.4020    11.5030     2.0340 
   62.5000   -32.5200    59.3900     6.2930    10.4270    11.6400     2.0310 
   62.6250   -32.1940    60.9140     6.3070    10.3870    11.4600     2.0230 
   62.7500   -31.6600    62.7210     6.3330    10.3570    11.0250     2.0180 
   62.8750   -30.9220    64.3470     6.3860    10.3990    10.8560     2.0220 
   63.0000   -30.0260    65.1360     6.4880    10.5740    10.5290     2.0380 
   63.1250   -28.9900    64.2860     6.6200    10.8850    10.1140     2.0560 
   63.2500   -27.8560    62.5270     6.7420    11.1950    10.4990     2.0700 
   63.3750   -26.6470    62.6070     6.6770    11.1660    11.1280     2.0760 
   63.5000   -25.4110    66.3000     6.2790    10.5890    11.2980     2.0790 
   63.6250   -24.2280    73.4600     5.6300     9.5030    10.8500     2.0880 
   63.7500   -23.2130    80.8400     4.8500     8.1850     8.9860     2.1130 
   63.8750   -22.5640    86.6220     4.1730     7.0270     6.4380     2.1550 
   64.0000   -22.4360    89.5990     3.7610     6.3230     5.1570     2.2020 
   64.1250   -23.0040    91.0500     3.6610     6.2450     5.0250     2.2270 
   64.2500   -24.2180    90.3120     3.9470     6.8270     5.2870     2.2140 
   64.3750   -25.9610    87.2570     4.5140     7.9050     6.3490     2.1660 
   64.5000   -27.9100    81.7970     5.2040     9.1200     8.1400     2.1090 
   64.6250   -29.7300    76.0750     5.8080    10.0740     9.6430     2.0670 
   64.7500   -31.1760    71.6320     6.1280    10.5220    10.0900     2.0460 
   64.8750   -32.0880    68.4490     6.1850    10.4490     9.7990     2.0370 
   65.0000   -32.5230    66.6550     5.9890     9.9960     9.6950     2.0340 
   65.1250   -32.5500    65.4420     5.6760     9.3590     9.7270     2.0330 
   65.2500   -32.3290    64.9600     5.3910     8.8230     9.2280     2.0350 
   65.3750   -31.9580    64.5990     5.3850     8.8550     8.8950     2.0370 
   65.5000   -31.5240    64.6280     5.8510     9.8540     9.1300     2.0470 
   65.6250   -31.0790    63.6120     6.9170    11.9270    12.1790     2.0850 
   65.7500   -30.6710    61.0700     8.1140    14.3120    32.8840     2.1720 
   65.8750   -30.3530    59.1070     9.0380    16.0210    69.7680     2.2970 
   66.0000   -30.1490    59.5840     9.1660    16.1000    76.4380     2.3810 
   66.1250   -30.0880    62.6150     8.2910    14.4140    42.4440     2.3510 
   66.2500   -30.1430    65.5250     7.1530    12.1190    15.7530     2.2300 
   66.3750   -30.2760    67.1480     6.0090    10.1550    10.3630     2.1120 
   66.5000   -30.4280    66.9910     5.4690     9.2570     9.9980     2.0500 
   66.6250   -30.5600    66.3580     5.3450     9.2250    10.0200     2.0360 
   66.7500   -30.6590    66.0020     5.3870     9.4690    10.1340     2.0340 
