~V
VERS. 2.00: Ver 2.00
~W
STRT.M 63.0000:
STOP.M 247.0000:
STEP.M 0.1250:
NULL. -999.2500:
UWI. F10865:
~C
DEPT.M :
TVD. :
DX. :
DY. :
SP.MV :
GR.API :
RI. :
RML.OHMM :
RXO.OHMM :
DEN.GM/CC :
~A
# ...
  181.6250   181.6130    -1.5800    -0.2210  -111.4450    64.8850    14.6600    16.2430    13.9360     2.3430 
  181.7500   181.7380    -1.5810    -0.2220  -111.5480    63.9370    14.8180    16.4590    13.2340     2.3410 
  181.8750   181.8630    -1.5830    -0.2220  -111.6600    64.7180    15.1330    16.8520    13.0770     2.3370 
  182.0000   181.9880    -1.5840    -0.2230  -111.7830    66.5290    15.4080    17.2010    14.1090     2.3370 
  182.1250   182.1130    -1.5850    -0.2240  -111.9140    69.0680    15.4610    17.2900    15.4980     2.3440 
  182.2500   182.2380    -1.5860    -0.2250  -112.0470    71.8580    15.2450    17.0750    16.0020     2.3540 
  182.3750   182.3630    -1.5880    -0.2250  -112.1770    72.5530    14.8200    16.6020    15.8130     2.3580 
  182.5000   182.4880    -1.5890    -0.2260  -112.2980    70.2060    14.2390    15.9330    15.4690     2.3520 
  182.6250   182.6130    -1.5900    -0.2270  -112.4070    69.1730    13.5900    15.2070    14.4290     2.3390 
  182.7500   182.7380    -1.5920    -0.2270  -112.4980    71.0460    13.0300    14.6090    12.6680     2.3290 
  182.8750   182.8630    -1.5930    -0.2280  -112.5680    76.2420    12.6440    14.2260    11.3450     2.3280 
  183.0000   182.9880    -1.5940    -0.2290  -112.6090    79.9730    12.2630    13.8320    11.4410     2.3340 
  183.1250   183.1130    -1.5950    -0.2290  -112.6220    78.8290    11.7790    13.3100    12.3780     2.3400 
  183.2500   183.2380    -1.5970    -0.2300  -112.6080    73.3750    11.2600    12.7340    12.4040     2.3420 
  183.3750   183.3630    -1.5980    -0.2310  -112.5810    68.3370    10.8560    12.2890    11.3540     2.3390 
  183.5000   183.4880    -1.5990    -0.2310  -112.5560    68.2180    10.6360    12.0470    11.4580     2.3330 
  183.6250   183.6130    -1.6000    -0.2320  -112.5490    69.5140    10.5610    11.9720    12.6600     2.3310 
  183.7500   183.7380    -1.6020    -0.2330  -112.5710    67.9980    10.6350    12.0660    11.5850     2.3340 
  183.8750   183.8630    -1.6030    -0.2330  -112.6140    66.8220    10.8390    12.2790     9.7020     2.3390 
  184.0000   183.9880    -1.6040    -0.2340  -112.6680    68.4970    11.0400    12.4380    10.3980     2.3410 
  184.1250   184.1130    -1.6050    -0.2350  -112.7120    69.4330    11.0900    12.4030    11.8390     2.3400 
  184.2500   184.2380    -1.6070    -0.2360  -112.7310    66.7210    11.0370    12.2630    11.6270     2.3390 
  184.3750   184.3630    -1.6080    -0.2360  -112.7240    63.5640    10.9770    12.1310    10.9850     2.3420 
  184.5000   184.4880    -1.6090    -0.2370  -112.6930    66.3820    10.8800    11.9620    10.9670     2.3470 
  184.6250   184.6130    -1.6100    -0.2380  -112.6490    73.6090    10.6820    11.6630    11.1050     2.3590 
  184.7500   184.7380    -1.6120    -0.2380  -112.6050    78.6720    10.3630    11.2480    11.0790     2.3750 
  184.8750   184.8630    -1.6130    -0.2390  -112.5720    77.3000     9.9140    10.7330    11.0770     2.3960 
  185.0000   184.9880    -1.6140    -0.2400  -112.5580    70.9210     9.4350    10.1560    11.5530     2.4140 
  185.1250   185.1130    -1.6150    -0.2400  -112.5610    67.3960     8.9430     9.5410    10.9460     2.4210 
  185.2500   185.2380    -1.6160    -0.2410  -112.5760    68.0570     8.4320     8.8630     8.7740     2.4160 
  185.3750   185.3630    -1.6180    -0.2420  -112.5920    68.6440     7.9820     8.2580     7.2930     2.4030 
  185.5000   185.4880    -1.6190    -0.2430  -112.6000    65.9510     7.6060     7.8040     7.3190     2.3910 
  185.6250   185.6130    -1.6200    -0.2430  -112.5980    64.1990     7.3510     7.5100     7.8200     2.3870 
  185.7500   185.7380    -1.6210    -0.2440  -112.5890    65.4760     7.2340     7.3810     8.0730     2.3920 
  185.8750   185.8630    -1.6220    -0.2450  -112.5810    67.9050     7.2540     7.4070     8.4740     2.4050 
  186.0000   185.9880    -1.6240    -0.2450  -112.5820    69.1920     7.3870     7.5800     9.2420     2.4180 
  186.1250   186.1130    -1.6250    -0.2460  -112.5940    69.4080     7.6750     7.9090     9.4490     2.4240 
  186.2500   186.2380    -1.6260    -0.2470  -112.6180    65.6220     8.1460     8.4270     8.8040     2.4160 
  186.3750   186.3630    -1.6270    -0.2470  -112.6500    60.6720     8.7610     9.0760     8.5330     2.4020 
  186.5000   186.4880    -1.6280    -0.2480  -112.6870    62.3750     9.3520     9.6790     9.0110     2.3940 
  186.6250   186.6130    -1.6300    -0.2490  -112.7290    69.1900     9.8380    10.1830     9.1980     2.4010 
  186.7500   186.7380    -1.6310    -0.2490  -112.7800    71.9580    10.3620    10.7050     9.5240     2.4120 
  186.8750   186.8630    -1.6320    -0.2500  -112.8430    67.2110    11.0910    11.5000    13.2050     2.4060 
  187.0000   186.9880    -1.6330    -0.2510  -112.9200    63.0010    12.3470    12.9180    20.2740     2.3740 
  187.1250   187.1130    -1.6340    -0.2510  -113.0030    63.8470    14.6280    15.5540    24.6550     2.3190 
  187.2500   187.2380    -1.6350    -0.2520  -113.0850    65.0290    18.3910    19.8530    24.6700     2.2590 
  187.3750   187.3630    -1.6360    -0.2530  -113.1580    63.4350    23.9590    26.0020    25.2840     2.2080 
  187.5000   187.4880    -1.6370    -0.2530  -113.2100    59.9250    30.1070    32.7000    28.9590     2.1710 
  187.6250   187.6130    -1.6380    -0.2540  -113.2370    58.5400    36.2080    39.3220    33.2570     2.1490 
  187.7500   187.7380    -1.6400    -0.2550  -113.2340    60.0030    41.3310    44.9170    39.0060     2.1410 
  187.8750   187.8630    -1.6410    -0.2550  -113.2040    61.8290    45.2980    49.2880    51.0470     2.1430 
  188.0000   187.9880    -1.6420    -0.2560  -113.1490    59.5470    48.7240    53.1520    62.1600     2.1500 
  188.1250   188.1130    -1.6430    -0.2570  -113.0810    53.4630    51.2780    56.1510    56.8880     2.1540 
  188.2500   188.2380    -1.6440    -0.2580  -113.0080    50.7150    52.8210    58.0880    52.8300     2.1510 
  188.3750   188.3630    -1.6450    -0.2580  -112.9380    53.0090    53.6000    59.2820    58.5140     2.1410 
  188.5000   188.4880    -1.6460    -0.2590  -112.8780    56.2080    54.8500    60.7820    60.4090     2.1320 
  188.6250   188.6130    -1.6470    -0.2600  -112.8300    56.6400    56.4240    62.3230    59.5750     2.1320 
  188.7500   188.7380    -1.6480    -0.2600  -112.7930    55.9190    57.2130    62.9340    55.7870     2.1420 
  188.8750   188.8630    -1.6490    -0.2610  -112.7630    55.5480    56.4870    62.0590    51.9820     2.1600 
  189.0000   188.9880    -1.6500    -0.2620  -112.7340    55.9420    54.0930    59.3820    49.8030     2.1740 
  189.1250   189.1130    -1.6510    -0.2630  -112.7030    57.6520    50.7210    55.7030    47.6320     2.1780 
  189.2500   189.2380    -1.6520    -0.2630  -112.6690    59.2040    47.3470    51.8540    44.4780     2.1720 
  189.3750   189.3630    -1.6540    -0.2640  -112.6330    59.9520    43.8170    47.7740    40.5590     2.1610 
  189.5000   189.4880    -1.6550    -0.2650  -112.5960    59.9380    40.2690    43.8400    38.7040     2.1530 
  189.6250   189.6130    -1.6560    -0.2650  -112.5600    61.2490    36.9220    40.2440    35.7030     2.1490 
  189.7500   189.7380    -1.6570    -0.2660  -112.5310    63.7410    33.7610    36.9110    33.1200     2.1450 
  189.8750   189.8630    -1.6580    -0.2670  -112.5100    64.2750    31.1270    34.2120    33.6340     2.1360 
  190.0000   189.9880    -1.6590    -0.2680  -112.4980    61.1440    29.5710    32.7640    33.5370     2.1250 
  190.1250   190.1130    -1.6600    -0.2680  -112.4900    55.6240    29.6340    33.1070    31.5050     2.1200 
  190.2500   190.2380    -1.6610    -0.2690  -112.4780    52.0900    31.2390    35.1930    30.9230     2.1220 
  190.3750   190.3630    -1.6620    -0.2700  -112.4520    52.2820    34.4670    39.1370    34.0950     2.1300 
  190.5000   190.4880    -1.6630    -0.2710  -112.4030    55.1750    39.3000    44.6380    41.7720     2.1380 
  190.6250   190.6130    -1.6640    -0.2720  -112.3290    57.6430    44.9730    51.2410    54.2100     2.1420 
