~V
VERS. 2.00: Ver 2.00
~W
STRT.M 63.0000:
STOP.M 247.0000:
STEP.M 0.1250:
NULL. -999.2500:
UWI. F10865:
~C
DEPT.M :
TVD. :
DX. :
DY. :
SP.MV :
GR.API :
RI. :
RML.OHMM :
RXO.OHMM :
DEN.GM/CC :
~A
# ...
  145.1250   145.1170    -1.1450    -0.0100  -107.4080    70.2240    21.9280    24.1400    17.1630     2.0700 
  145.2500   145.2420    -1.1470    -0.0110  -107.6300    65.2890    28.4420    31.5960    21.3150     2.0650 
  145.3750   145.3670    -1.1490    -0.0110  -107.8880    61.8510    34.3910    38.2470    28.7650     2.0680 
  145.5000   145.4920    -1.1510    -0.0120  -108.1740    59.1400    38.3660    42.6210    36.1100     2.0920 
  145.6250   145.6170    -1.1530    -0.0120  -108.4730    56.1610    40.4210    44.9680    38.7190     2.1550 
  145.7500   145.7420    -1.1550    -0.0130  -108.7730    54.8610    41.0920    45.9160    39.4380     2.2530 
  145.8750   145.8670    -1.1580    -0.0140  -109.0650    57.1370    40.4460    45.3850    37.3830     2.3520 
  146.0000   145.9920    -1.1600    -0.0140  -109.3420    60.6820    38.4920    43.2930    33.9940     2.4060 
  146.1250   146.1170    -1.1620    -0.0150  -109.6030    61.6270    35.5590    40.0050    31.5190     2.3900 
  146.2500   146.2420    -1.1640    -0.0150  -109.8510    58.5210    32.1820    36.1890    28.3130     2.3320 
  146.3750   146.3670    -1.1660    -0.0160  -110.0930    56.8940    29.1780    31.4290    29.0760     2.2830 
  146.5000   146.4920    -1.1680    -0.0170  -110.3320    58.8620    27.1080    27.9190    33.3020     2.2820 
  146.6250   146.6170    -1.1700    -0.0170  -110.5680    61.1350    26.3520    27.4390    31.5810     2.3360 
  146.7500   146.7420    -1.1720    -0.0180  -110.7920    60.6590    26.9640    28.4180    26.0160     2.4170 
  146.8750   146.8670    -1.1740    -0.0190  -111.0010    58.5170    28.7950    30.7310    25.5270     2.4930 
  147.0000   146.9910    -1.1760    -0.0190  -111.1860    57.4800    31.2400    33.6960    28.7170     2.5440 
  147.1250   147.1160    -1.1780    -0.0200  -111.3480    56.9640    33.2330    35.9750    32.6250     2.5590 
  147.2500   147.2410    -1.1800    -0.0210  -111.4850    54.5140    34.3780    37.1240    37.1920     2.5510 
  147.3750   147.3660    -1.1820    -0.0210  -111.5990    50.6690    34.6770    37.0740    41.1160     2.5370 
  147.5000   147.4910    -1.1840    -0.0220  -111.6890    47.4290    34.4270    36.2750    46.9180     2.5330 
  147.6250   147.6160    -1.1860    -0.0230  -111.7600    47.3880    34.4940    35.9190    51.5680     2.5430 
  147.7500   147.7410    -1.1880    -0.0240  -111.8100    50.6350    35.4190    36.6610    45.6810     2.5630 
  147.8750   147.8660    -1.1900    -0.0240  -111.8370    55.5450    37.2690    39.7400    34.0620     2.5870 
  148.0000   147.9910    -1.1910    -0.0250  -111.8300    58.5250    39.7190    43.7100    28.1130     2.6120 
  148.1250   148.1160    -1.1930    -0.0260  -111.7840    57.1710    41.9530    46.3390    29.7940     2.6400 
  148.2500   148.2410    -1.1950    -0.0260  -111.6910    55.1260    42.0480    46.3610    35.1730     2.6670 
  148.3750   148.3660    -1.1970    -0.0270  -111.5580    54.5550    38.4480    41.7850    35.9400     2.6820 
  148.5000   148.4910    -1.1990    -0.0280  -111.3970    55.6450    31.2900    33.5680    28.4330     2.6710 
  148.6250   148.6160    -1.2010    -0.0290  -111.2330    57.1340    22.0870    23.2480    18.7810     2.6200 
  148.7500   148.7410    -1.2030    -0.0290  -111.0920    60.4770    14.1260    14.6440    11.9300     2.5340 
  148.8750   148.8660    -1.2050    -0.0300  -110.9980    66.0960     8.6770     9.0820     7.9530     2.4390 
  149.0000   148.9910    -1.2070    -0.0310  -110.9640    73.7730     6.3140     6.5640     6.1600     2.3710 
  149.1250   149.1160    -1.2090    -0.0310  -110.9810    80.3010     6.1010     6.2990     5.9110     2.3550 
  149.2500   149.2410    -1.2100    -0.0320  -111.0360    82.4400     7.1240     7.2890     7.0390     2.3800 
  149.3750   149.3660    -1.2120    -0.0330  -111.1040    79.0970     9.4420     9.7710    10.3350     2.4160 
  149.5000   149.4910    -1.2140    -0.0340  -111.1750    72.6780    12.8330    13.4120    14.3740     2.4360 
  149.6250   149.6160    -1.2160    -0.0340  -111.2480    64.4140    16.7820    17.6920    16.1790     2.4360 
  149.7500   149.7410    -1.2180    -0.0350  -111.3310    59.0520    19.9920    21.0060    15.1620     2.4350 
  149.8750   149.8660    -1.2190    -0.0360  -111.4310    57.1610    21.5690    22.4690    13.6170     2.4490 
  150.0000   149.9910    -1.2210    -0.0370  -111.5520    55.2910    21.6080    22.3640    14.3270     2.4770 
  150.1250   150.1160    -1.2230    -0.0370  -111.6890    51.1240    20.7170    21.5240    18.3120     2.5110 
  150.2500   150.2410    -1.2250    -0.0380  -111.8250    49.6140    20.2000    21.3030    23.2520     2.5450 
  150.3750   150.3660    -1.2260    -0.0390  -111.9400    53.4870    20.3410    21.8740    25.0240     2.5740 
  150.5000   150.4910    -1.2280    -0.0400  -112.0150    54.9570    20.7550    22.7410    23.3400     2.5960 
  150.6250   150.6160    -1.2300    -0.0400  -112.0400    49.7380    21.1650    23.5950    22.4560     2.6020 
  150.7500   150.7410    -1.2320    -0.0410  -112.0160    42.2780    21.5530    24.4250    23.3260     2.5900 
  150.8750   150.8660    -1.2330    -0.0420  -111.9590    40.5370    22.0890    24.5990    22.8130     2.5650 
  151.0000   150.9910    -1.2350    -0.0420  -111.8830    44.8880    22.6420    24.6420    21.9060     2.5410 
  151.1250   151.1160    -1.2370    -0.0430  -111.8080    49.7980    22.9580    25.0410    23.7910     2.5270 
  151.2500   151.2410    -1.2390    -0.0440  -111.7460    49.7650    23.1010    25.2520    25.8960     2.5190 
  151.3750   151.3660    -1.2400    -0.0450  -111.7000    46.1000    23.3300    25.5930    24.5640     2.5110 
  151.5000   151.4910    -1.2420    -0.0450  -111.6700    45.9680    23.6560    25.9850    22.3740     2.5060 
  151.6250   151.6160    -1.2440    -0.0460  -111.6480    50.2370    23.9200    26.1930    22.4040     2.5070 
  151.7500   151.7410    -1.2450    -0.0470  -111.6330    52.2940    23.8770    26.0200    23.4340     2.5140 
  151.8750   151.8660    -1.2470    -0.0480  -111.6240    49.9080    23.7020    25.7580    22.7800     2.5220 
  152.0000   151.9910    -1.2490    -0.0490  -111.6240    47.8800    23.8860    25.9680    21.1920     2.5330 
  152.1250   152.1160    -1.2510    -0.0490  -111.6380    49.5790    24.4710    26.7180    24.7120     2.5550 
  152.2500   152.2410    -1.2520    -0.0500  -111.6680    51.7710    25.2840    27.7780    36.1030     2.5850 
  152.3750   152.3660    -1.2540    -0.0510  -111.7110    52.2500    26.1120    28.8340    45.3550     2.6100 
  152.5000   152.4910    -1.2560    -0.0520  -111.7630    52.5480    26.6370    29.4540    41.9270     2.6130 
  152.6250   152.6160    -1.2570    -0.0520  -111.8200    52.4610    26.4100    29.0540    32.0300     2.5910 
  152.7500   152.7410    -1.2590    -0.0530  -111.8780    52.9760    25.4350    27.7510    26.8460     2.5580 
  152.8750   152.8660    -1.2610    -0.0540  -111.9310    54.7920    24.2930    26.3130    26.1420     2.5290 
  153.0000   152.9910    -1.2620    -0.0550  -111.9730    58.5440    23.5870    25.4630    26.0400     2.5080 
  153.1250   153.1160    -1.2640    -0.0550  -111.9990    61.6080    23.8070    25.7350    27.8050     2.4890 
  153.2500   153.2410    -1.2660    -0.0560  -112.0020    59.8930    24.6620    26.7230    31.2210     2.4680 
  153.3750   153.3660    -1.2670    -0.0570  -111.9850    54.7020    25.7950    27.9900    31.5730     2.4470 
  153.5000   153.4910    -1.2690    -0.0580  -111.9490    52.9570    26.9710    29.2710    29.1350     2.4340 
  153.6250   153.6160    -1.2710    -0.0580  -111.9010    56.8600    28.1990    30.6010    27.5790     2.4330 
  153.7500   153.7410    -1.2720    -0.0590  -111.8490    59.3810    29.4150    31.8970    26.9280     2.4420 
  153.8750   153.8660    -1.2740    -0.0600  -111.8040    56.3980    30.3780    32.8980    27.9180     2.4490 
  154.0000   153.9910    -1.2750    -0.0610  -111.7770    52.7310    31.0770    33.5470    30.3990     2.4470 
  154.1250   154.1160    -1.2770    -0.0610  -111.7720    51.3370    31.3070    33.5790    31.0620     2.4340 
