~V
VERS. 2.00: Ver 2.00
~W
STRT.M 54.0000:
STOP.M 205.0000:
STEP.M 0.1250:
NULL. -999.2500:
UWI. F10812:
~C
DEPT.M :
SP.MV :
GR.API :
RI. :
RML.OHMM :
RXO.OHMM :
DEN.GM/CC :
~A
# ...
  157.0000   -20.1080    60.0980   189.3150   240.5740   104.1670     2.1090 
  157.1250   -20.0540    58.8580   183.4660   230.4140   118.0990     2.1540 
  157.2500   -19.9940    58.4540   168.7930   207.9170   129.8250     2.2580 
  157.3750   -19.9160    57.4770   143.4010   172.9490   131.7270     2.3740 
  157.5000   -19.8370    56.6730   110.1800   132.0360   112.7980     2.4240 
  157.6250   -19.7530    57.5670    81.1530    96.1400    84.9140     2.3780 
  157.7500   -19.6510    61.0330    57.4050    68.3750    69.8740     2.3040 
  157.8750   -19.5160    65.8060    43.2510    50.5730    59.9170     2.2720 
  158.0000   -19.3480    69.9470    34.0630    39.2800    49.6540     2.2850 
  158.1250   -19.1570    73.7280    26.9270    31.3250    44.1980     2.3040 
  158.2500   -18.9530    76.4560    21.9080    25.7270    32.9640     2.3020 
  158.3750   -18.7140    78.7600    19.0670    22.2250    19.9470     2.2890 
  158.5000   -18.4250    80.3100    17.0740    19.8280    15.1520     2.2780 
  158.6250   -18.0790    80.6530    15.7350    18.1030    14.5410     2.2760 
  158.7500   -17.7080    79.7620    14.4640    16.5630    15.3030     2.2820 
  158.8750   -17.3760    78.7370    13.3170    15.1160    15.6370     2.2960 
  159.0000   -17.1200    78.9620    12.4110    13.9760    13.1920     2.3110 
  159.1250   -16.9390    82.0110    12.1680    13.6130    10.2100     2.3150 
  159.2500   -16.7900    84.5420    12.6380    14.1250     9.9230     2.3070 
  159.3750   -16.6060    84.0010    13.6910    15.3650    14.6180     2.2920 
  159.5000   -16.3550    80.6230    14.9960    16.8510    20.6050     2.2830 
  159.6250   -16.0410    77.5590    15.9350    17.7570    19.9000     2.2840 
  159.7500   -15.6900    77.9140    15.8030    17.5440    15.4030     2.2840 
  159.8750   -15.3510    79.9210    14.8240    16.3510    13.1190     2.2780 
  160.0000   -15.0710    81.9200    13.4480    14.8040    12.1830     2.2710 
  160.1250   -14.8720    81.6210    12.4080    13.6410    10.8020     2.2770 
  160.2500   -14.7700    80.8760    12.0460    13.1900     9.5290     2.2890 
  160.3750   -14.7780    80.8570    12.2640    13.4260     9.4460     2.2910 
  160.5000   -14.8540    82.0410    12.8240    14.1190    10.1410     2.2860 
  160.6250   -14.9730    83.1260    13.6360    15.1530    11.1070     2.2790 
  160.7500   -15.0860    84.2370    14.6000    16.3190    11.9490     2.2790 
  160.8750   -15.1680    84.9200    15.4130    17.3880    12.2920     2.2770 
  161.0000   -15.2260    85.0120    16.1470    18.3440    12.3490     2.2720 
  161.1250   -15.2720    83.9580    16.7080    19.1270    12.2690     2.2640 
  161.2500   -15.3420    82.8160    17.0760    19.7220    12.2780     2.2560 
  161.3750   -15.4680    80.5220    17.2180    20.0460    12.3960     2.2480 
  161.5000   -15.6510    78.8520    17.0670    20.0950    12.5050     2.2360 
  161.6250   -15.9260    78.0240    17.0370    20.3600    13.2280     2.2270 
  161.7500   -16.2750    77.5540    17.9560    21.6140    14.0240     2.2200 
  161.8750   -16.6640    75.9110    20.1360    24.7680    13.8680     2.2170 
  162.0000   -17.0710    73.7900    24.3410    30.9520    15.0400     2.2090 
  162.1250   -17.4680    71.7740    32.9960    43.6700    21.1090     2.1960 
  162.2500   -17.8470    68.8660    50.5580    66.8930    27.3010     2.1770 
  162.3750   -18.2040    65.2480    77.0820    98.9320    26.4350     2.1590 
  162.5000   -18.5240    62.2730   104.1810   130.7330    22.9780     2.1430 
  162.6250   -18.7740    60.7150   125.3380   154.6210    23.5680     2.1310 
  162.7500   -18.9300    59.7410   137.2120   167.9210    27.8590     2.1240 
  162.8750   -19.0020    58.0300   143.6770   174.8680    31.4680     2.1280 
  163.0000   -19.0200    57.9320   150.5400   182.2090    29.9050     2.1330 
  163.1250   -19.0040    59.4260   160.8410   193.6690    23.7830     2.1310 
  163.2500   -18.9770    61.4570   175.9860   209.4030    18.1350     2.1310 
  163.3750   -18.9350    61.2760   191.2000   220.3640    16.0070     2.1380 
  163.5000   -18.8730    60.0320   190.1620   211.6590    16.1700     2.1520 
  163.6250   -18.7910    58.7630   162.1470   178.9620    17.2730     2.1580 
  163.7500   -18.6980    57.5660   119.6510   131.3320    18.4300     2.1620 
  163.8750   -18.5990    58.8390    76.9900    84.7760    17.7280     2.1640 
  164.0000   -18.5020    62.3060    51.0190    55.7780    15.9570     2.1650 
  164.1250   -18.4360    67.9590    40.6390    43.3680    15.3070     2.1670 
  164.2500   -18.4420    71.3020    36.3760    38.9780    15.5510     2.1760 
  164.3750   -18.5640    73.5190    37.2630    40.2320    16.7320     2.1870 
  164.5000   -18.8130    73.0160    42.7020    46.3520    19.9010     2.1880 
  164.6250   -19.2050    71.6280    53.3110    57.4750    25.3100     2.1730 
  164.7500   -19.6890    68.9080    67.1540    71.1170    31.3550     2.1550 
  164.8750   -20.2280    67.6840    79.7290    83.5640    38.2230     2.1520 
  165.0000   -20.7800    66.9990    88.6590    92.5730    44.1660     2.1660 
  165.1250   -21.2910    66.0480    93.4860    97.2240    43.9470     2.1780 
  165.2500   -21.7330    65.6170    94.6160    98.9550    40.1560     2.1630 
  165.3750   -22.0760    67.1400    95.3190   100.0630    39.4660     2.1260 
  165.5000   -22.3080    69.8020    96.2990   101.7030    42.4700     2.0980 
  165.6250   -22.4430    70.1820    97.9210   104.0200    49.0280     2.1020 
  165.7500   -22.5460    68.5230    99.5620   106.4270    60.0420     2.1210 
  165.8750   -22.6770    66.4990   100.6450   108.2220    70.3110     2.1310 
  166.0000   -22.8490    66.4890   100.7810   109.0910    73.2990     2.1320 
  166.1250   -23.0220    68.2300   100.4050   109.0990    72.0900     2.1440 
  166.2500   -23.1310    70.1470    99.5420   108.1300    71.4240     2.1740 
  166.3750   -23.1070    70.5560    97.3390   105.2810    63.0210     2.2030 
  166.5000   -22.9540    69.4950    93.1330   100.3960    47.7070     2.2080 
  166.6250   -22.7110    67.4450    88.1540    94.6030    39.8390     2.1920 
  166.7500   -22.4220    65.8370    83.5750    89.5360    37.7920     2.1730 
  166.8750   -22.0870    65.8300    80.9030    86.6540    34.6370     2.1660 
  167.0000   -21.7020    68.8810    80.7440    86.2700    33.1720     2.1670 
  167.1250   -21.2770    71.8620    82.3720    87.7450    34.2070     2.1760 
  167.2500   -20.8400    72.0250    84.6000    89.5080    34.4900     2.1830 
  167.3750   -20.4620    70.3650    85.3960    89.5730    32.9800     2.1800 
  167.5000   -20.2010    68.6760    83.0060    86.7970    31.9580     2.1690 
  167.6250   -20.0810    69.1960    78.3540    81.6320    32.9260     2.1640 
  167.7500   -20.0700    69.6110    72.6680    75.7930    33.5890     2.1700 
  167.8750   -20.1320    70.4140    68.1190    71.4060    32.8680     2.1800 
  168.0000   -20.1970    69.5920    66.4810    69.7710    33.7140     2.1800 
  168.1250   -20.2070    68.7130    67.1800    70.9400    38.0810     2.1690 
  168.2500   -20.1180    66.7450    70.4620    74.5200    44.4090     2.1580 
  168.3750   -19.8870    67.1890    75.6880    79.9020    50.6720     2.1510 
  168.5000   -19.5260    67.8980    81.2740    85.5110    57.1860     2.1470 
  168.6250   -19.0540    68.1110    85.8510    90.0480    63.2020     2.1440 
  168.7500   -18.5490    66.6710    88.4860    92.8760    65.4960     2.1400 
  168.8750   -18.0830    65.4060    89.6480    94.1060    65.5020     2.1360 
  169.0000   -17.6990    66.4880    89.7730    94.2360    65.0690     2.1330 
  169.1250   -17.4320    67.5340    88.8860    93.4120    62.0000     2.1360 
  169.2500   -17.2640    68.1500    87.3680    92.0370    56.8690     2.1410 
  169.3750   -17.1790    66.5650    85.5980    90.4560    54.2730     2.1480 
  169.5000   -17.1410    65.1950    83.7750    88.7610    56.1050     2.1610 
  169.6250   -17.1190    63.8130    81.4090    86.5250    61.1410     2.2010 
  169.7500   -17.0980    62.9070    78.3030    83.6770    69.3190     2.2770 
