~V
VERS. 2.00: Ver 2.00
~W
STRT.M 63.0000:
STOP.M 236.0000:
STEP.M 0.1250:
NULL. -999.2500:
UWI. F10859:
~C
DEPT.M :
TVD. :
DX. :
DY. :
SP.MV :
GR.API :
RI. :
RML.OHMM :
RXO.OHMM :
DEN.GM/CC :
~A
# ...
  209.0000   208.9850    -2.0220     0.5430   -11.3950    40.5650     1.5790     2.4570     2.5000     2.3020 
  209.1250   209.1100    -2.0240     0.5430   -11.4910    37.7030     1.5900     2.4770     2.4240     2.3090 
  209.2500   209.2350    -2.0260     0.5440   -11.6000    34.6620     1.5860     2.4780     2.3820     2.3100 
  209.3750   209.3600    -2.0280     0.5440   -11.6940    31.5830     1.5820     2.4800     2.3500     2.3090 
  209.5000   209.4840    -2.0300     0.5450   -11.7580    30.0380     1.5880     2.4960     2.2890     2.3120 
  209.6250   209.6090    -2.0320     0.5450   -11.8100    29.2570     1.6060     2.5240     2.2410     2.3200 
  209.7500   209.7340    -2.0340     0.5460   -11.8770    29.2280     1.6310     2.5560     2.3020     2.3300 
  209.8750   209.8590    -2.0360     0.5460   -11.9640    29.3360     1.6530     2.5830     2.4430     2.3340 
  210.0000   209.9840    -2.0380     0.5470   -12.0540    28.8150     1.6640     2.6000     2.5290     2.3310 
  210.1250   210.1090    -2.0400     0.5470   -12.1190    27.1680     1.6610     2.6030     2.5170     2.3290 
  210.2500   210.2340    -2.0420     0.5480   -12.1400    25.4010     1.6450     2.5890     2.4740     2.3300 
  210.3750   210.3590    -2.0440     0.5480   -12.1240    24.9920     1.6230     2.5600     2.4460     2.3300 
  210.5000   210.4840    -2.0460     0.5490   -12.0760    26.5700     1.5990     2.5220     2.4120     2.3220 
  210.6250   210.6090    -2.0480     0.5490   -12.0070    28.5840     1.5780     2.4820     2.3650     2.3090 
  210.7500   210.7340    -2.0500     0.5500   -11.9250    29.1660     1.5620     2.4460     2.3160     2.2960 
  210.8750   210.8590    -2.0520     0.5510   -11.8400    28.7150     1.5530     2.4200     2.2660     2.2860 
  211.0000   210.9840    -2.0540     0.5510   -11.7610    27.4060     1.5510     2.4100     2.2290     2.2810 
  211.1250   211.1090    -2.0560     0.5520   -11.6890    27.5480     1.5580     2.4140     2.2150     2.2830 
  211.2500   211.2340    -2.0580     0.5520   -11.6110    28.0230     1.5700     2.4260     2.2140     2.2920 
  211.3750   211.3590    -2.0600     0.5530   -11.5030    28.8380     1.5800     2.4340     2.2070     2.3030 
  211.5000   211.4840    -2.0620     0.5530   -11.3480    28.5840     1.5820     2.4300     2.1890     2.3090 
  211.6250   211.6090    -2.0630     0.5540   -11.1680    28.3400     1.5740     2.4120     2.1690     2.3090 
  211.7500   211.7340    -2.0650     0.5540   -10.9970    28.2150     1.5550     2.3810     2.1620     2.3030 
  211.8750   211.8590    -2.0670     0.5550   -10.8570    27.7950     1.5290     2.3420     2.1670     2.2930 
  212.0000   211.9840    -2.0690     0.5550   -10.7430    27.8210     1.5040     2.3020     2.1640     2.2820 
  212.1250   212.1090    -2.0710     0.5560   -10.6350    27.6750     1.4840     2.2660     2.1360     2.2740 
  212.2500   212.2340    -2.0730     0.5560   -10.5390    28.1680     1.4740     2.2410     2.1010     2.2710 
  212.3750   212.3590    -2.0750     0.5570   -10.4880    29.1120     1.4800     2.2370     2.0940     2.2740 
  212.5000   212.4840    -2.0770     0.5570   -10.5080    30.1600     1.5120     2.2730     2.1320     2.2780 
  212.6250   212.6090    -2.0790     0.5580   -10.5800    30.9990     1.5720     2.3600     2.2360     2.2780 
  212.7500   212.7340    -2.0810     0.5580   -10.6730    32.0190     1.6580     2.4920     2.4350     2.2720 
  212.8750   212.8590    -2.0830     0.5590   -10.7510    33.9770     1.7460     2.6270     2.6430     2.2600 
  213.0000   212.9840    -2.0840     0.5590   -10.8030    35.5110     1.8050     2.7090     2.7690     2.2510 
  213.1250   213.1090    -2.0860     0.5600   -10.8290    35.5920     1.8140     2.7020     2.8470     2.2530 
  213.2500   213.2340    -2.0880     0.5600   -10.8340    34.2110     1.7660     2.5990     2.8380     2.2650 
  213.3750   213.3590    -2.0900     0.5610   -10.8280    32.4380     1.6840     2.4460     2.6330     2.2770 
  213.5000   213.4840    -2.0920     0.5610   -10.8110    31.2710     1.6020     2.3020     2.3130     2.2790 
  213.6250   213.6090    -2.0940     0.5620   -10.7770    30.0350     1.5550     2.2210     2.1120     2.2740 
  213.7500   213.7340    -2.0960     0.5620   -10.7250    28.9530     1.5630     2.2310     2.1270     2.2750 
  213.8750   213.8590    -2.0980     0.5630   -10.6870    27.6370     1.6130     2.3070     2.2950     2.2890 
  214.0000   213.9840    -2.1000     0.5640   -10.6960    26.7180     1.6800     2.4060     2.4660     2.3120 
  214.1250   214.1090    -2.1010     0.5640   -10.7680    25.6880     1.7350     2.4780     2.4510     2.3340 
  214.2500   214.2340    -2.1030     0.5650   -10.8910    24.9230     1.7600     2.4980     2.2830     2.3390 
  214.3750   214.3590    -2.1050     0.5650   -11.0190    25.0750     1.7650     2.4850     2.2110     2.3270 
  214.5000   214.4840    -2.1070     0.5660   -11.1070    26.2260     1.7670     2.4720     2.4160     2.3090 
  214.6250   214.6090    -2.1090     0.5660   -11.1320    26.8430     1.7800     2.4790     2.8170     2.2990 
  214.7500   214.7340    -2.1110     0.5670   -11.0960    26.4220     1.7990     2.4960     3.0990     2.2970 
  214.8750   214.8590    -2.1120     0.5670   -11.0550    26.1720     1.8050     2.4900     2.9870     2.2950 
  215.0000   214.9840    -2.1140     0.5680   -11.0500    26.5660     1.7790     2.4330     2.5750     2.2880 
  215.1250   215.1090    -2.1160     0.5680   -11.0800    27.6250     1.7260     2.3350     2.2430     2.2790 
  215.2500   215.2340    -2.1180     0.5690   -11.1010    27.9640     1.6650     2.2350     2.1510     2.2730 
  215.3750   215.3590    -2.1200     0.5690   -11.0790    28.4820     1.6230     2.1700     2.1650     2.2700 
  215.5000   215.4840    -2.1210     0.5700   -11.0150    28.7330     1.6130     2.1580     2.1790     2.2700 
  215.6250   215.6090    -2.1230     0.5700   -10.9310    29.1280     1.6310     2.1830     2.1880     2.2720 
  215.7500   215.7340    -2.1250     0.5710   -10.8360    29.1310     1.6630     2.2230     2.2200     2.2730 
  215.8750   215.8590    -2.1270     0.5710   -10.7310    28.8410     1.6940     2.2600     2.2770     2.2710 
  216.0000   215.9840    -2.1290     0.5720   -10.6320    29.2740     1.7180     2.2830     2.3280     2.2660 
  216.1250   216.1090    -2.1300     0.5730   -10.5690    29.5550     1.7350     2.2920     2.3380     2.2610 
  216.2500   216.2340    -2.1320     0.5730   -10.5960    29.6400     1.7540     2.2970     2.3090     2.2550 
  216.3750   216.3590    -2.1340     0.5740   -10.7230    29.1580     1.7880     2.3210     2.2950     2.2490 
  216.5000   216.4840    -2.1360     0.5740   -10.9420    29.2540     1.8530     2.3880     2.3860     2.2450 
  216.6250   216.6090    -2.1370     0.5750   -11.1950    30.6940     1.9480     2.4990     2.6070     2.2450 
  216.7500   216.7340    -2.1390     0.5750   -11.4160    32.4290     2.0600     2.6340     2.8570     2.2520 
  216.8750   216.8590    -2.1410     0.5760   -11.5670    32.8680     2.1650     2.7560     2.9860     2.2600 
  217.0000   216.9840    -2.1430     0.5760   -11.6220    32.0640     2.2410     2.8310     2.9610     2.2650 
  217.1250   217.1090    -2.1440     0.5770   -11.6160    31.1250     2.2810     2.8590     2.9070     2.2640 
  217.2500   217.2340    -2.1460     0.5770   -11.5820    31.4300     2.2950     2.8580     2.8990     2.2620 
  217.3750   217.3590    -2.1480     0.5780   -11.5590    32.1150     2.3080     2.8670     2.9250     2.2620 
  217.5000   217.4840    -2.1500     0.5780   -11.5620    33.1920     2.3400     2.9120     3.0260     2.2690 
  217.6250   217.6090    -2.1510     0.5790   -11.5800    33.6380     2.3920     2.9900     3.2970     2.2820 
  217.7500   217.7340    -2.1530     0.5790   -11.5980    34.4170     2.4450     3.0740     3.6980     2.2970 
  217.8750   217.8580    -2.1550     0.5800   -11.6010    35.6630     2.4760     3.1250     3.9040     2.3110 
  218.0000   217.9830    -2.1560     0.5800   -11.5900    37.0650     2.4640     3.1110     3.7010     2.3200 
