~V
VERS. 2.00: Ver 2.00
~W
STRT.M 60.0000:
STOP.M 249.0000:
STEP.M 0.1250:
NULL. -999.2500:
UWI. F10851:
~C
DEPT.M :
TVD. :
DX. :
DY. :
SP.MV :
GR.API :
RI. :
RML.OHMM :
RXO.OHMM :
DEN.GM/CC :
~A
# ...
  242.5000   242.4920    -0.5360    -0.3140    -0.0210    26.8410     2.8820     4.7710     2.2180     2.2120 
  242.6250   242.6170    -0.5380    -0.3140    -0.0340    26.8410     2.8790     4.7320     2.2180     2.2100 
  242.7500   242.7420    -0.5390    -0.3130    -0.0460    26.8410     2.8790     4.6990     2.2170     2.2100 
  242.8750   242.8670    -0.5410    -0.3130    -0.0580    26.8410     2.8790     4.6700     2.2170     2.2120 
  243.0000   242.9920    -0.5420    -0.3120    -0.0700    26.8410     2.8790     4.6470     2.2170     2.2130 
  243.1250   243.1170    -0.5440    -0.3120    -0.0830    26.8410     2.8790     4.6300     2.2170     2.2140 
  243.2500   243.2420    -0.5450    -0.3110    -0.0950    26.8410     2.8780     4.6230     2.2170     2.2140 
  243.3750   243.3670    -0.5460    -0.3110    -0.1070    26.8410     2.8780     4.6150     2.2170     2.2120 
  243.5000   243.4920    -0.5480    -0.3100    -0.1190    26.8410     2.8780     4.6140     2.2170     2.2090 
  243.6250   243.6170    -0.5490    -0.3100    -0.1310    26.8410     2.8780     4.6140     2.2170     2.2040 
  243.7500   243.7420    -0.5510    -0.3090    -0.1440    26.8410     2.8780     4.6140     2.2170     2.1990 
  243.8750   243.8670    -0.5520    -0.3090    -0.1560    26.8410     2.8780     4.6140     2.2170     2.1940 
  244.0000   243.9920    -0.5540    -0.3080    -0.1680    26.8410     2.8780     4.6140     2.2170     2.1910 
  244.1250   244.1170    -0.5550    -0.3080    -0.1800    26.8410     2.8780     4.6140     2.2170     2.1900 
  244.2500   244.2420    -0.5570    -0.3070    -0.1920    26.8410     2.8780     4.6140     2.2170     2.1890 
  244.3750   244.3670    -0.5580    -0.3070    -0.2050    26.8410     2.8780     4.6140     2.2170     2.1890 
  244.5000   244.4920    -0.5590    -0.3060    -0.2170    26.8410     2.8780     4.6140     2.2170     2.1890 
  244.6250   244.6170    -0.5610    -0.3060    -0.2290    26.8410     2.8780     4.6140     2.2170     2.1890 
  244.7500   244.7420    -0.5620    -0.3050    -0.2410    26.8410     2.8780     4.6140     2.2170     2.1890 
  244.8750   244.8670    -0.5640    -0.3050    -0.2540    26.8410     2.8780     4.6140     2.2170     2.1890 
  245.0000   244.9920    -0.5650    -0.3040    -0.2660    26.8410     2.8780     4.6140     2.2170     2.1890 
  245.1250   245.1170    -0.5670    -0.3040    -0.2780    26.8410     2.8780     4.6140     2.2170     2.1890 
  245.2500   245.2420    -0.5680    -0.3030    -0.2900    26.8410     2.8780     4.6140     2.2170     2.1890 
  245.3750   245.3670    -0.5700    -0.3030    -0.3020    26.8410     2.8780     4.6140     2.2170     2.1890 
  245.5000   245.4920    -0.5710    -0.3020    -0.3150    26.8410     2.8780     4.6140     2.2170     2.1890 
  245.6250   245.6170    -0.5720    -0.3020    -0.3270    26.8410     2.8780     4.6140     2.2160     2.1890 
  245.7500   245.7420    -0.5740    -0.3010    -0.3390    26.8410     2.8780     4.6140     2.2160     2.1890 
  245.8750   245.8670    -0.5750    -0.3010    -0.3510    26.8410     2.8780     4.6140     2.2150     2.1890 
  246.0000   245.9920    -0.5770    -0.3010    -0.3640    26.8410     2.8780     4.6140     2.2150     2.1890 
  246.1250   246.1170    -0.5780    -0.3000    -0.3760    26.8410     2.8780     4.6140     2.2160     2.1890 
  246.2500   246.2420    -0.5800    -0.3000    -0.3880    26.8410     2.8780     4.6140     2.2160     2.1890 
  246.3750   246.3670    -0.5810    -0.2990    -0.4000    26.8410     2.8780     4.6140     2.2160     2.1890 
  246.5000   246.4920    -0.5830    -0.2990    -0.4120    26.8410     2.8780     4.6140     2.2160     2.1890 
  246.6250   246.6170    -0.5840    -0.2980    -0.4250    26.8410     2.8780     4.6140     2.2170     2.1890 
  246.7500   246.7420    -0.5850    -0.2980    -0.4370    26.8410     2.8780     4.6140     2.2170     2.1890 
  246.8750   246.8670    -0.5870    -0.2970    -0.4490    26.8410     2.8780     4.6140     2.2170     2.1890 
  247.0000   246.9920    -0.5880    -0.2970    -0.4610    26.8410     2.8780     4.6140     2.2170     2.1890 
  247.1250   247.1170    -0.5900    -0.2960    -0.4730    26.8410     2.8780     4.6140     2.2170     2.1890 
  247.2500   247.2420    -0.5910    -0.2960    -0.4860    26.8410     2.8780     4.6140     2.2160     2.1890 
  247.3750   247.3670    -0.5930    -0.2950    -0.4980    26.8410     2.8780     4.6140     2.2160     2.1890 
  247.5000   247.4920    -0.5940    -0.2950    -0.5100    26.8410     2.8780     4.6140     2.2170     2.1890 
  247.6250   247.6170    -0.5960    -0.2940    -0.5220    26.8410     2.8780     4.6140     2.2160     2.1890 
  247.7500   247.7420    -0.5970    -0.2940    -0.5350    26.8410     2.8780     4.6140     2.2160     2.1890 
  247.8750   247.8670    -0.5990    -0.2930    -0.5470    26.8410     2.8780     4.6140     2.2170     2.1890 
  248.0000   247.9920    -0.6000    -0.2930    -0.5590    26.8410     2.8780     4.6140     2.2160     2.1890 
  248.1250   248.1170    -0.6010    -0.2920    -0.5710    26.8410     2.8780     4.6140     2.2160     2.1890 
  248.2500   248.2420    -0.6030    -0.2920    -0.5830    26.8410     2.8780     4.6140     2.2160     2.1890 
  248.3750   248.3670    -0.6040    -0.2910    -0.5960    26.8410     2.8780     4.6140     2.2160     2.1890 
  248.5000   248.4920    -0.6060    -0.2910    -0.6080    26.8410     2.8780     4.6140     2.2160     2.1890 
  248.6250   248.6170    -0.6070    -0.2900    -0.6200    26.8410     2.8780     4.6140     2.2150     2.1890 
  248.7500   248.7420    -0.6090    -0.2900    -0.6320    26.8410     2.8780     4.6140     2.2140     2.1890 
  248.8750   248.8670    -0.6100    -0.2890    -0.6450    26.8410     2.8780     4.6140     2.2140     2.1890 
  249.0000   248.9920    -0.6120    -0.2890    -0.6560    26.8410     2.8780     4.6140     2.2130     2.1890 
