~V
VERS. 2.00: Ver 2.00
~W
STRT.M 54.0000:
STOP.M 205.0000:
STEP.M 0.1250:
NULL. -999.2500:
UWI. F10812:
~C
DEPT.M :
SP.MV :
GR.API :
RI. :
RML.OHMM :
RXO.OHMM :
DEN.GM/CC :
~A
# ...
   79.7500   -11.1100    92.3070     2.8320     3.1630     3.1330     2.2550 
   79.8750   -10.6200    94.5760     2.9350     3.3130     3.0920     2.2460 
   80.0000   -10.4640    96.0250     3.3040     3.7290     3.3170     2.2430 
   80.1250   -10.5640    95.4840     3.8960     4.3690     3.9030     2.2550 
   80.2500   -10.8250    93.2210     4.5280     5.0570     6.8840     2.2890 
   80.3750   -11.2280    90.9610     5.0570     5.5790    12.0490     2.3370 
   80.5000   -11.7580    90.8420     5.2580     5.7240    12.3800     2.3600 
   80.6250   -12.4220    90.8080     5.0620     5.4650     7.7820     2.3290 
   80.7500   -13.1980    89.1920     4.7360     5.0580     5.4450     2.2590 
   80.8750   -14.0660    86.4240     4.4690     4.7680     5.2390     2.2000 
   81.0000   -14.9940    85.1460     4.4610     4.7780     4.9680     2.1780 
   81.1250   -15.9650    86.5830     4.7490     5.1060     5.1100     2.1880 
   81.2500   -16.9370    86.1920     5.1670     5.5700     5.7880     2.1990 
   81.3750   -17.8540    84.7400     5.5350     5.9960     6.7620     2.1860 
   81.5000   -18.6550    81.8040     5.7940     6.2880     7.3450     2.1490 
   81.6250   -19.2610    80.7710     5.8820     6.3710     7.3360     2.1160 
   81.7500   -19.6590    80.5790     5.7970     6.2740     7.1370     2.1020 
   81.8750   -19.8620    80.4970     5.6250     6.0870     7.0660     2.1050 
   82.0000   -19.9460    78.8520     5.4500     5.9070     7.0610     2.1070 
   82.1250   -19.9810    75.9020     5.3440     5.8070     7.0810     2.1050 
   82.2500   -20.0270    75.4840     5.3260     5.8120     7.2900     2.1010 
   82.3750   -20.1070    77.4220     5.4490     5.9660     7.4620     2.0970 
   82.5000   -20.2110    78.9020     5.7000     6.2790     7.5460     2.0900 
   82.6250   -20.3270    78.7560     6.1130     6.7750     7.6300     2.0880 
   82.7500   -20.4470    76.4890     6.6820     7.4350     7.7710     2.1100 
   82.8750   -20.5990    75.3610     7.3400     8.1620     8.2660     2.1850 
   83.0000   -20.8280    74.6650     7.9120     8.7260     9.1600     2.3040 
   83.1250   -21.1950    75.8640     8.1190     8.8720     9.6300     2.4180 
   83.2500   -21.7240    75.3850     7.9310     8.5690     8.9780     2.4510 
   83.3750   -22.4100    74.7260     7.4090     7.9410     8.1790     2.3710 
   83.5000   -23.1710    73.2160     6.8510     7.3070     7.9390     2.2340 
   83.6250   -23.8960    73.0810     6.4540     6.8890     7.9320     2.1250 
   83.7500   -24.4700    72.7650     6.2820     6.7280     7.9680     2.0760 
   83.8750   -24.7760    71.2880     6.2750     6.7330     8.0180     2.0690 
   84.0000   -24.7770    70.4310     6.2640     6.7170     8.2000     2.0720 
   84.1250   -24.4580    70.4180     6.0810     6.4920     8.5090     2.0770 
   84.2500   -23.9190    73.9260     5.6720     6.0380     8.6140     2.0890 
   84.3750   -23.3100    78.0570     5.1890     5.5100     7.6940     2.1110 
   84.5000   -22.8270    82.1670     4.8060     5.1130     6.0920     2.1370 
   84.6250   -22.6530    83.7900     4.7140     5.0240     5.3860     2.1550 
   84.7500   -22.8350    83.2580     4.8680     5.2140     6.4160     2.1550 
   84.8750   -23.3430    78.5590     5.1470     5.5480     8.8930     2.1390 
   85.0000   -24.0410    73.8390     5.4440     5.8770    10.3220     2.1170 
   85.1250   -24.8610    71.6580     5.6720     6.1000     9.0280     2.0990 
   85.2500   -25.7770    71.2210     5.8200     6.2310     7.0740     2.0850 
   85.3750   -26.8440    69.3930     5.9720     6.3930     6.8080     2.0740 
   85.5000   -28.0730    66.2550     6.2460     6.7120     8.1220     2.0660 
   85.6250   -29.4040    63.6000     6.7010     7.1970     9.2990     2.0660 
   85.7500   -30.7050    62.0520     7.1670     7.6850     9.6740     2.0690 
   85.8750   -31.8320    60.0660     7.4960     7.9950     9.8120     2.0690 
   86.0000   -32.7250    57.9930     7.5930     8.0730     9.9670     2.0610 
   86.1250   -33.3710    56.5190     7.5180     7.9950    10.1880     2.0500 
   86.2500   -33.8470    56.4080     7.4370     7.9140    10.3410     2.0450 
   86.3750   -34.2150    57.9850     7.4040     7.9070    10.1220     2.0480 
   86.5000   -34.5340    60.3390     7.4580     7.9900     9.8430     2.0560 
   86.6250   -34.8130    62.4420     7.6120     8.1490     9.9320     2.0600 
   86.7500   -35.0550    63.8700     7.7800     8.3300    10.1610     2.0600 
   86.8750   -35.2490    63.7940     7.9120     8.4640    10.3430     2.0560 
   87.0000   -35.3890    62.9790     7.9520     8.5090    10.6530     2.0570 
   87.1250   -35.4750    61.0180     7.8890     8.4500    10.7920     2.0580 
   87.2500   -35.5100    59.6530     7.7810     8.3340    10.4950     2.0570 
   87.3750   -35.4890    59.0050     7.6610     8.2070    10.2440     2.0510 
   87.5000   -35.4220    58.0370     7.5790     8.1070    10.3030     2.0470 
   87.6250   -35.3090    57.9410     7.5450     8.0440    10.4160     2.0470 
   87.7500   -35.1550    58.4910     7.5280     7.9960    10.3910     2.0500 
   87.8750   -34.9670    60.2550     7.5020     7.9510    10.3430     2.0510 
   88.0000   -34.7540    60.9220     7.4670     7.9070    10.3630     2.0540 
   88.1250   -34.5250    60.3650     7.4240     7.8610    10.3810     2.0610 
   88.2500   -34.2900    60.0000     7.3790     7.8080    10.4030     2.0710 
   88.3750   -34.0610    59.5240     7.3240     7.7550    10.4480     2.0780 
   88.5000   -33.8370    58.3510     7.2390     7.6780    10.4710     2.0790 
   88.6250   -33.6100    57.6080     7.1120     7.5570    10.4290     2.0740 
   88.7500   -33.3770    57.3680     6.9520     7.3930    10.2270     2.0720 
   88.8750   -33.1380    59.5210     6.7760     7.1910     9.7640     2.0800 
   89.0000   -32.8980    62.3880     6.6100     6.9910     9.2970     2.0930 
   89.1250   -32.6730    66.0530     6.4810     6.8330     9.1630     2.1050 
   89.2500   -32.4750    68.4600     6.4080     6.7430     9.2510     2.1100 
   89.3750   -32.3090    68.8050     6.3900     6.7370     9.3260     2.1070 
   89.5000   -32.1660    67.5860     6.4160     6.8010     9.3950     2.1040 
   89.6250   -32.0370    64.1970     6.4810     6.9150     9.4950     2.1010 
   89.7500   -31.9040    62.0090     6.5790     7.0510     9.5780     2.0980 
   89.8750   -31.7600    61.1610     6.6880     7.1890     9.6100     2.0890 
   90.0000   -31.6340    62.6170     6.8020     7.3050     9.6310     2.0800 
   90.1250   -31.5550    63.8640     6.8880     7.3790     9.7460     2.0740 
   90.2500   -31.5420    63.9440     6.9360     7.4020     9.9120     2.0760 
   90.3750   -31.5920    61.7030     6.9210     7.3570    10.0790     2.0840 
   90.5000   -31.6530    58.5210     6.8280     7.2450    10.2660     2.0920 
   90.6250   -31.6600    56.5040     6.6740     7.0670    10.2950     2.0940 
   90.7500   -31.5780    57.7170     6.4900     6.8630    10.0050     2.0930 
   90.8750   -31.3950    60.5950     6.3410     6.6930     9.6450     2.0890 
   91.0000   -31.1320    63.0080     6.2560     6.5980     9.5860     2.0840 
   91.1250   -30.7890    63.5140     6.2560     6.6060     9.6980     2.0830 
   91.2500   -30.3780    62.1570     6.3370     6.6980     9.7130     2.0840 
   91.3750   -29.8830    60.6680     6.4440     6.8290     9.7260     2.0890 
   91.5000   -29.2940    58.9970     6.5310     6.9380     9.7610     2.0930 
   91.6250   -28.5970    59.1300     6.5340     6.9570     9.7170     2.0960 
   91.7500   -27.8140    59.9680     6.4240     6.8380     9.6440     2.0990 
   91.8750   -26.9630    62.3900     6.1580     6.5370     9.5020     2.1020 
   92.0000   -26.1160    63.8370     5.7880     6.1250     9.1150     2.1090 
   92.1250   -25.3890    65.3540     5.4310     5.7310     8.2640     2.1200 
   92.2500   -24.8790    66.1600     5.1810     5.4840     7.1900     2.1310 
   92.3750   -24.6690    66.4510     5.1600     5.4810     6.8210     2.1300 
   92.5000   -24.7270    65.6960     5.3240     5.6890     7.3890     2.1220 
