~V
VERS. 2.00: Ver 2.00
~W
STRT.M 62.0000:
STOP.M 256.0000:
STEP.M 0.1250:
NULL. -999.2500:
UWI. F10886:
~C
DEPT.M :
TVD. :
DX. :
DY. :
SP.MV :
GR.API :
RI. :
RML.OHMM :
RXO.OHMM :
DEN.GM/CC :
~A
# ...
  107.6250   107.6200    -0.2900    -0.5790   -11.2360    74.9630     8.1360     9.6110    11.3000     2.4700 
  107.7500   107.7450    -0.2910    -0.5810   -11.4490    70.9480     8.4240     9.7660    12.2460     2.5480 
  107.8750   107.8700    -0.2920    -0.5830   -11.6650    69.1000     7.9540     8.9560    11.0920     2.5560 
  108.0000   107.9950    -0.2930    -0.5840   -11.8670    68.6660     7.0010     7.6180     8.6220     2.4910 
  108.1250   108.1200    -0.2940    -0.5860   -12.0310    70.9370     5.9710     6.3190     6.5320     2.3800 
  108.2500   108.2450    -0.2950    -0.5880   -12.1470    74.0670     5.1430     5.3680     5.2570     2.2770 
  108.3750   108.3700    -0.2970    -0.5890   -12.2110    79.1890     4.5870     4.8020     4.5730     2.2210 
  108.5000   108.4950    -0.2980    -0.5910   -12.2360    84.4770     4.2300     4.4720     4.1440     2.2120 
  108.6250   108.6200    -0.2990    -0.5920   -12.2290    89.1090     3.9750     4.2330     3.8630     2.2320 
  108.7500   108.7450    -0.3000    -0.5940   -12.1950    91.2490     3.7360     3.9910     3.6650     2.2560 
  108.8750   108.8700    -0.3010    -0.5960   -12.1370    91.9440     3.5130     3.7640     3.5060     2.2700 
  109.0000   108.9950    -0.3020    -0.5970   -12.0780    91.1780     3.3400     3.5980     3.3660     2.2750 
  109.1250   109.1200    -0.3030    -0.5990   -12.0510    91.3720     3.2440     3.5050     3.2590     2.2800 
  109.2500   109.2450    -0.3040    -0.6010   -12.0820    93.4710     3.1980     3.4470     3.2590     2.2870 
  109.3750   109.3700    -0.3050    -0.6020   -12.1830    97.2590     3.2110     3.4410     3.3780     2.2900 
  109.5000   109.4950    -0.3070    -0.6040   -12.3390    98.7260     3.3570     3.5830     3.5150     2.2860 
  109.6250   109.6200    -0.3080    -0.6050   -12.5340    96.9140     3.7670     4.0450     3.7110     2.2850 
  109.7500   109.7450    -0.3090    -0.6070   -12.7640    91.8940     4.5120     4.9240     5.0190     2.3060 
  109.8750   109.8700    -0.3100    -0.6090   -13.0600    85.1020     5.6160     6.2680     9.2460     2.3510 
  110.0000   109.9950    -0.3110    -0.6100   -13.4540    77.4750     6.9650     7.9040    14.1930     2.3840 
  110.1250   110.1200    -0.3120    -0.6120   -13.9840    70.3600     8.2240     9.3550    15.6850     2.3620 
  110.2500   110.2450    -0.3130    -0.6130   -14.6400    67.0400     8.9880    10.1360    13.9030     2.2860 
  110.3750   110.3700    -0.3140    -0.6150   -15.3930    65.9890     9.1100    10.1300    11.3030     2.1970 
  110.5000   110.4950    -0.3160    -0.6170   -16.1660    65.1170     8.8060     9.6640     9.7980     2.1320 
  110.6250   110.6200    -0.3170    -0.6180   -16.8730    62.8810     8.4260     9.2050     9.1670     2.1030 
  110.7500   110.7450    -0.3180    -0.6200   -17.4510    61.1490     8.1990     8.9810     8.7300     2.0930 
  110.8750   110.8700    -0.3190    -0.6210   -17.8500    62.0660     8.0630     8.8770     8.4180     2.0900 
  111.0000   110.9950    -0.3200    -0.6230   -18.0950    64.1000     7.9100     8.7450     8.3540     2.0910 
  111.1250   111.1200    -0.3210    -0.6240   -18.2090    66.7310     7.7390     8.5760     8.4290     2.0950 
  111.2500   111.2450    -0.3220    -0.6260   -18.2470    68.0040     7.6250     8.4410     8.2120     2.1030 
  111.3750   111.3700    -0.3230    -0.6280   -18.2560    67.5230     7.6430     8.4230     7.9740     2.1100 
  111.5000   111.4950    -0.3240    -0.6290   -18.2840    66.0790     7.8290     8.5700     7.9890     2.1120 
  111.6250   111.6200    -0.3260    -0.6310   -18.3830    64.7590     8.1960     8.8940     8.2680     2.1050 
  111.7500   111.7450    -0.3270    -0.6320   -18.5630    63.6290     8.6720     9.3080     8.7810     2.0930 
  111.8750   111.8700    -0.3280    -0.6340   -18.7870    61.5350     9.1840     9.7400     9.4380     2.0840 
  112.0000   111.9950    -0.3290    -0.6350   -18.9680    58.4350     9.7630    10.2680     9.8740     2.0840 
  112.1250   112.1200    -0.3300    -0.6370   -18.9880    54.9810    10.5420    11.0580     9.8860     2.1000 
  112.2500   112.2450    -0.3310    -0.6390   -18.7870    54.8110    11.3240    11.8510    10.3060     2.1400 
  112.3750   112.3700    -0.3320    -0.6400   -18.3170    56.7760    11.5450    11.9960    12.3220     2.2090 
  112.5000   112.4950    -0.3330    -0.6420   -17.6230    60.0670    10.8420    11.1170    16.0150     2.2910 
  112.6250   112.6200    -0.3340    -0.6430   -16.7430    62.6180     9.1650     9.2160    17.3590     2.3510 
  112.7500   112.7450    -0.3350    -0.6450   -15.7630    67.9610     7.1020     7.0000    13.1190     2.3700 
  112.8750   112.8700    -0.3360    -0.6460   -14.7800    77.7330     5.2980     5.1740     7.1060     2.3550 
  113.0000   112.9950    -0.3380    -0.6480   -13.8990    89.8630     4.0140     3.9510     3.8720     2.3350 
  113.1250   113.1200    -0.3390    -0.6490   -13.2350    98.8560     3.2680     3.3050     3.1430     2.3230 
  113.2500   113.2450    -0.3400    -0.6510   -12.8290   102.1180     2.9110     3.0370     3.0810     2.3180 
  113.3750   113.3700    -0.3410    -0.6530   -12.7070   100.2710     2.8110     2.9820     3.1090     2.3150 
  113.5000   113.4950    -0.3420    -0.6540   -12.8140    96.4920     2.8430     3.0250     3.1190     2.3150 
  113.6250   113.6200    -0.3430    -0.6560   -13.1200    93.5070     3.0500     3.2360     3.1630     2.3190 
  113.7500   113.7450    -0.3440    -0.6570   -13.5790    90.5070     3.5150     3.7350     3.4440     2.3240 
  113.8750   113.8700    -0.3450    -0.6590   -14.1970    88.5190     4.3860     4.7030     4.4340     2.3270 
  114.0000   113.9950    -0.3460    -0.6600   -14.9750    83.3410     5.7380     6.2170     6.3030     2.3220 
  114.1250   114.1200    -0.3470    -0.6620   -15.9510    74.6260     7.5740     8.2360     8.6630     2.2990 
  114.2500   114.2450    -0.3480    -0.6630   -17.1100    63.8660     9.4870    10.2690    11.4040     2.2540 
  114.3750   114.3700    -0.3490    -0.6650   -18.4190    58.7010    10.9270    11.7170    14.2480     2.2000 
  114.5000   114.4950    -0.3500    -0.6660   -19.7650    58.0710    11.6480    12.3810    15.2520     2.1550 
  114.6250   114.6200    -0.3510    -0.6680   -21.0090    59.5550    11.6750    12.3630    14.2590     2.1270 
  114.7500   114.7450    -0.3520    -0.6690   -22.0380    58.4030    11.3830    12.0960    13.0690     2.1090 
  114.8750   114.8700    -0.3530    -0.6710   -22.7650    57.2220    11.0230    11.8140    12.2930     2.0960 
  115.0000   114.9940    -0.3540    -0.6720   -23.2090    57.1140    10.6800    11.5550    11.7730     2.0870 
  115.1250   115.1190    -0.3550    -0.6740   -23.3780    58.8770    10.4310    11.3810    11.1740     2.0880 
  115.2500   115.2440    -0.3560    -0.6750   -23.3290    59.2930    10.3790    11.4030    10.7020     2.0960 
  115.3750   115.3690    -0.3570    -0.6760   -23.0770    58.3070    10.6950    11.8500    11.0370     2.1060 
  115.5000   115.4940    -0.3590    -0.6780   -22.6590    56.4800    11.5190    12.9180    12.0200     2.1090 
  115.6250   115.6190    -0.3600    -0.6790   -22.0770    55.2280    12.8070    14.5340    13.1600     2.1190 
  115.7500   115.7440    -0.3610    -0.6810   -21.3430    53.9810    13.9550    15.9290    14.4250     2.1650 
  115.8750   115.8690    -0.3620    -0.6820   -20.4350    53.3270    14.1240    16.0790    18.7940     2.2640 
  116.0000   115.9940    -0.3630    -0.6840   -19.3590    53.8650    12.9980    14.6520    26.4210     2.3790 
  116.1250   116.1190    -0.3640    -0.6850   -18.1290    58.3240    10.7640    11.9400    28.0580     2.4430 
  116.2500   116.2440    -0.3650    -0.6860   -16.8320    64.7430     8.3060     9.0500    19.6510     2.4340 
  116.3750   116.3690    -0.3660    -0.6880   -15.5960    72.0850     6.3520     6.8380     9.7530     2.3740 
  116.5000   116.4940    -0.3670    -0.6890   -14.5450    78.0080     5.1150     5.5150     5.4240     2.3130 
  116.6250   116.6190    -0.3680    -0.6910   -13.7910    81.6530     4.6310     5.0870     4.8470     2.2730 
