~V
VERS. 2.00: Ver 2.00
~W
STRT.M 63.0000:
STOP.M 236.0000:
STEP.M 0.1250:
NULL. -999.2500:
UWI. F10859:
~C
DEPT.M :
TVD. :
DX. :
DY. :
SP.MV :
GR.API :
RI. :
RML.OHMM :
RXO.OHMM :
DEN.GM/CC :
~A
# ...
  126.8750   126.8680    -0.8810     0.3610   -26.2870    94.3390     5.8300     7.3970     7.5770     2.2590 
  127.0000   126.9930    -0.8830     0.3610   -26.2870    92.8820     6.1790     7.8080     7.5700     2.2390 
  127.1250   127.1180    -0.8840     0.3610   -26.2870    91.0430     6.4510     8.1290     7.6100     2.2190 
  127.2500   127.2430    -0.8860     0.3620   -26.2870    88.5480     6.4530     8.0990     7.5350     2.2130 
  127.3750   127.3680    -0.8880     0.3620   -26.2880    88.9030     6.1190     7.6210     7.4240     2.2310 
  127.5000   127.4930    -0.8900     0.3620   -26.3030    89.8380     5.4930     6.7640     6.6300     2.2680 
  127.6250   127.6180    -0.8920     0.3620   -26.3470    92.5740     4.7770     5.8140     5.2380     2.3070 
  127.7500   127.7430    -0.8940     0.3630   -26.4390    94.6880     4.1640     5.0450     4.2440     2.3370 
  127.8750   127.8680    -0.8960     0.3630   -26.5740    95.2660     3.7530     4.5760     3.9410     2.3550 
  128.0000   127.9930    -0.8970     0.3630   -26.7150    95.3820     3.5740     4.4280     3.9850     2.3630 
  128.1250   128.1180    -0.8990     0.3630   -26.8340    95.8240     3.5610     4.4830     4.0640     2.3630 
  128.2500   128.2430    -0.9010     0.3640   -26.8960    96.2910     3.6420     4.6250     4.0930     2.3570 
  128.3750   128.3680    -0.9030     0.3640   -26.9180    94.9790     3.7500     4.7660     4.0580     2.3520 
  128.5000   128.4930    -0.9050     0.3640   -26.9220    94.5250     3.8720     4.8950     4.0050     2.3470 
  128.6250   128.6180    -0.9070     0.3640   -26.9350    95.5990     4.0230     5.0470     4.0320     2.3360 
  128.7500   128.7430    -0.9090     0.3650   -26.9650    97.6150     4.2280     5.2550     4.2610     2.3180 
  128.8750   128.8680    -0.9110     0.3650   -27.0050    96.7490     4.4840     5.5230     4.6850     2.2970 
  129.0000   128.9930    -0.9120     0.3650   -27.0470    94.3520     4.7820     5.8400     5.2480     2.2790 
  129.1250   129.1180    -0.9140     0.3650   -27.0790    91.6770     5.0960     6.1690     5.8740     2.2650 
  129.2500   129.2430    -0.9160     0.3660   -27.0960    89.9770     5.4030     6.4800     6.3440     2.2550 
  129.3750   129.3680    -0.9180     0.3660   -27.0920    89.2360     5.6850     6.7500     6.5000     2.2460 
  129.5000   129.4930    -0.9200     0.3660   -27.0650    88.3260     5.9250     6.9680     6.5140     2.2390 
  129.6250   129.6180    -0.9220     0.3660   -27.0070    90.5570     6.1090     7.1320     6.5630     2.2320 
  129.7500   129.7420    -0.9230     0.3660   -26.9030    91.6060     6.2150     7.2340     6.5880     2.2290 
  129.8750   129.8670    -0.9250     0.3670   -26.7460    92.0250     6.2370     7.2670     6.5610     2.2270 
  130.0000   129.9920    -0.9270     0.3670   -26.5390    89.2970     6.1700     7.2210     6.4360     2.2290 
  130.1250   130.1170    -0.9290     0.3670   -26.3110    88.9070     6.0320     7.1000     6.1660     2.2360 
  130.2500   130.2420    -0.9310     0.3670   -26.1060    90.8090     5.8370     6.9090     5.8320     2.2490 
  130.3750   130.3670    -0.9330     0.3680   -25.9590    94.6510     5.6090     6.6740     5.5810     2.2670 
  130.5000   130.4920    -0.9350     0.3680   -25.9040    94.4260     5.3650     6.4090     5.4530     2.2830 
  130.6250   130.6170    -0.9360     0.3680   -25.9560    92.0440     5.1330     6.1440     5.3390     2.2900 
  130.7500   130.7420    -0.9380     0.3680   -26.1260    88.4590     4.9840     5.9680     5.1730     2.2870 
  130.8750   130.8670    -0.9400     0.3680   -26.4160    87.0100     5.0570     6.0640     5.0550     2.2820 
  131.0000   130.9920    -0.9420     0.3690   -26.8290    86.5200     5.6630     6.8350     5.1900     2.2910 
  131.1250   131.1170    -0.9440     0.3690   -27.3250    85.1120     7.1320     8.6950     6.4740     2.3240 
  131.2500   131.2420    -0.9460     0.3690   -27.9050    82.4520     9.9370    12.1990    11.4450     2.3720 
  131.3750   131.3670    -0.9470     0.3690   -28.4890    77.1040    14.1550    17.3860    20.3090     2.3970 
  131.5000   131.4920    -0.9490     0.3700   -29.1060    71.0420    19.5260    23.8350    28.0620     2.3640 
  131.6250   131.6170    -0.9510     0.3700   -29.7090    65.5000    25.0360    30.2580    29.8390     2.2880 
  131.7500   131.7420    -0.9530     0.3700   -30.3420    63.0380    29.6800    35.4590    27.9450     2.2080 
  131.8750   131.8670    -0.9550     0.3700   -30.9980    63.2700    33.1700    39.2350    28.2600     2.1530 
  132.0000   131.9920    -0.9560     0.3710   -31.6590    62.0220    35.8520    42.1830    31.9910     2.1270 
  132.1250   132.1170    -0.9580     0.3710   -32.3010    60.5030    38.5810    45.4370    37.7620     2.1190 
  132.2500   132.2420    -0.9600     0.3710   -32.8230    57.7430    41.8540    49.5900    46.3500     2.1180 
  132.3750   132.3670    -0.9620     0.3710   -33.2340    57.1990    45.3560    54.1120    56.6380     2.1190 
  132.5000   132.4920    -0.9640     0.3720   -33.5330    56.7870    48.2390    57.8060    66.4540     2.1180 
  132.6250   132.6170    -0.9650     0.3720   -33.7770    56.4150    49.7490    59.6340    73.2380     2.1170 
  132.7500   132.7420    -0.9670     0.3720   -33.9830    58.1870    49.4420    59.0360    71.2840     2.1130 
  132.8750   132.8670    -0.9690     0.3720   -34.1520    60.1030    47.8670    56.7900    61.0430     2.1080 
  133.0000   132.9920    -0.9710     0.3730   -34.2750    61.8460    45.9070    54.0800    49.8070     2.1010 
  133.1250   133.1170    -0.9730     0.3730   -34.3640    59.9050    44.4600    52.0360    42.9160     2.0950 
  133.2500   133.2420    -0.9740     0.3730   -34.4310    58.0670    44.0520    51.2690    40.6270     2.0940 
  133.3750   133.3670    -0.9760     0.3730   -34.4950    56.2770    44.6090    51.6330    40.8150     2.0950 
  133.5000   133.4920    -0.9780     0.3740   -34.5640    56.4530    45.7590    52.6250    42.0720     2.0970 
  133.6250   133.6170    -0.9800     0.3740   -34.6340    56.1650    46.7350    53.3200    43.1460     2.1020 
  133.7500   133.7420    -0.9810     0.3740   -34.7060    57.1310    46.7140    52.7730    42.6030     2.1090 
  133.8750   133.8670    -0.9830     0.3740   -34.7840    57.5910    45.3690    50.6750    40.1710     2.1170 
  134.0000   133.9920    -0.9850     0.3750   -34.8790    57.7060    42.8050    47.2540    36.6250     2.1220 
  134.1250   134.1170    -0.9870     0.3750   -34.9890    57.0220    39.7970    43.4830    33.0520     2.1220 
  134.2500   134.2420    -0.9890     0.3750   -35.1050    56.9410    37.1250    40.2890    30.7320     2.1180 
  134.3750   134.3670    -0.9900     0.3750   -35.2190    58.1170    35.1960    38.0670    30.1110     2.1150 
  134.5000   134.4920    -0.9920     0.3760   -35.3300    58.7380    34.0900    36.8100    30.7930     2.1190 
  134.6250   134.6170    -0.9940     0.3760   -35.4400    59.9770    33.5260    36.1060    32.2090     2.1260 
  134.7500   134.7420    -0.9960     0.3760   -35.5530    62.1720    33.2790    35.6530    33.0130     2.1280 
  134.8750   134.8670    -0.9970     0.3760   -35.6640    65.4980    33.1910    35.2980    31.9970     2.1230 
  135.0000   134.9920    -0.9990     0.3770   -35.7720    67.4980    33.3340    35.1610    30.3680     2.1150 
  135.1250   135.1170    -1.0010     0.3770   -35.8650    67.7460    33.8850    35.4760    30.0210     2.1110 
  135.2500   135.2420    -1.0030     0.3770   -35.9290    66.5390    35.1410    36.5870    31.4530     2.1110 
  135.3750   135.3670    -1.0040     0.3770   -35.9550    63.8670    37.2170    38.6180    33.9100     2.1090 
  135.5000   135.4920    -1.0060     0.3780   -35.9310    60.7030    40.1110    41.5560    36.1250     2.1060 
  135.6250   135.6170    -1.0080     0.3780   -35.8650    57.0300    43.2990    44.7640    37.7500     2.1040 
  135.7500   135.7420    -1.0100     0.3780   -35.7570    55.7530    45.6730    46.9400    39.9370     2.1040 
  135.8750   135.8670    -1.0110     0.3780   -35.6140    56.8110    46.0490    46.8620    43.1010     2.1080 
