~V
VERS. 2.00: Ver 2.00
~W
STRT.M 60.0000:
STOP.M 249.0000:
STEP.M 0.1250:
NULL. -999.2500:
UWI. F10851:
~C
DEPT.M :
TVD. :
DX. :
DY. :
SP.MV :
GR.API :
RI. :
RML.OHMM :
RXO.OHMM :
DEN.GM/CC :
~A
# ...
  123.8750   123.8730     0.4040    -0.2790   -11.4500    67.6950    15.0300    17.9260    45.9150     2.1740 
  124.0000   123.9980     0.4050    -0.2800   -11.5080    69.4640    13.4880    16.1940    44.2190     2.1700 
  124.1250   124.1230     0.4060    -0.2810   -11.5140    71.0410    12.0090    14.4470    24.9520     2.1730 
  124.2500   124.2480     0.4060    -0.2820   -11.3870    71.5360    10.7550    12.9340    12.6460     2.1850 
  124.3750   124.3730     0.4070    -0.2830   -11.2460    70.6570     9.8200    11.8050    11.2540     2.2040 
  124.5000   124.4980     0.4070    -0.2830   -11.0290    68.1190     9.2470    11.1710    12.1980     2.2220 
  124.6250   124.6230     0.4080    -0.2840   -10.7270    64.6130     9.2440    11.2430    13.4140     2.2350 
  124.7500   124.7480     0.4080    -0.2850   -10.3790    62.3650     9.3870    11.4640    12.3420     2.2400 
  124.8750   124.8730     0.4090    -0.2860   -10.0410    63.0440     9.4350    11.4740    10.8290     2.2360 
  125.0000   124.9980     0.4090    -0.2870    -9.7140    64.1720     9.5040    11.4620    10.3750     2.2260 
  125.1250   125.1230     0.4100    -0.2880    -9.3430    63.9730     9.8010    11.7380     9.7460     2.2130 
  125.2500   125.2480     0.4100    -0.2890    -8.9720    63.0840    10.3060    12.2680     9.1030     2.2010 
  125.3750   125.3730     0.4100    -0.2900    -8.6470    62.8980    10.9400    13.0380     8.7730     2.1920 
  125.5000   125.4980     0.4110    -0.2910    -8.3530    61.9220    11.5610    13.8210     8.4130     2.1840 
  125.6250   125.6230     0.4110    -0.2920    -8.1200    60.6700    11.9390    14.2910     9.8350     2.1780 
  125.7500   125.7480     0.4110    -0.2930    -7.9330    61.2570    11.8960    14.2390    12.2460     2.1730 
  125.8750   125.8730     0.4110    -0.2940    -7.8530    63.9680    11.5810    13.8580    12.0690     2.1720 
  126.0000   125.9980     0.4120    -0.2950    -7.8070    66.1500    11.0670    13.2550    10.4820     2.1740 
  126.1250   126.1230     0.4120    -0.2960    -7.6990    65.1150    10.6720    12.8270     9.5960     2.1790 
  126.2500   126.2480     0.4120    -0.2970    -7.5080    62.0220    10.4120    12.5670     9.4780     2.1860 
  126.3750   126.3730     0.4120    -0.2980    -7.3090    59.6570    10.1770    12.3200     9.5360     2.1930 
  126.5000   126.4980     0.4120    -0.2990    -7.0520    60.2480    10.0310    12.1670     9.8040     2.2020 
  126.6250   126.6230     0.4120    -0.3010    -6.7590    62.8370     9.9680    12.1410    10.9820     2.2100 
  126.7500   126.7480     0.4120    -0.3020    -6.5280    64.4930     9.9780    12.1590    11.4460     2.2160 
  126.8750   126.8730     0.4120    -0.3030    -6.4220    63.8000     9.9300    12.0900    10.2920     2.2220 
  127.0000   126.9980     0.4120    -0.3040    -6.4240    62.6050     9.8140    11.8950    10.1240     2.2270 
  127.1250   127.1230     0.4120    -0.3050    -6.5080    63.4980     9.5750    11.5330    10.7270     2.2330 
  127.2500   127.2480     0.4120    -0.3060    -6.6130    65.9980     9.3830    11.2540     9.9800     2.2370 
  127.3750   127.3730     0.4120    -0.3070    -6.6720    68.8700     9.5490    11.4690     9.1250     2.2390 
  127.5000   127.4980     0.4120    -0.3080    -6.6560    70.1670     9.9910    12.0560    10.0360     2.2390 
  127.6250   127.6230     0.4120    -0.3090    -6.5730    68.9380    10.6580    12.9780    13.7940     2.2380 
  127.7500   127.7480     0.4120    -0.3100    -6.4380    65.5640    11.5570    14.2120    16.8930     2.2350 
  127.8750   127.8730     0.4120    -0.3110    -6.2650    61.4740    12.6400    15.6020    15.9010     2.2290 
  128.0000   127.9980     0.4120    -0.3120    -6.0850    58.8810    13.6710    16.8340    14.8090     2.2180 
  128.1250   128.1230     0.4110    -0.3130    -5.9150    58.3020    14.6340    17.9820    16.2840     2.2030 
  128.2500   128.2480     0.4110    -0.3140    -5.7530    58.2330    15.8270    19.4750    18.0990     2.1860 
  128.3750   128.3730     0.4110    -0.3150    -5.6090    57.5260    17.2560    21.3060    19.4580     2.1710 
  128.5000   128.4980     0.4100    -0.3160    -5.4960    56.4820    18.6920    23.1920    21.9350     2.1600 
  128.6250   128.6230     0.4100    -0.3170    -5.4310    56.2780    19.5530    24.2980    22.9170     2.1530 
  128.7500   128.7480     0.4100    -0.3180    -5.4270    56.9980    19.4370    24.1850    20.1960     2.1500 
  128.8750   128.8730     0.4090    -0.3200    -5.4970    58.4420    18.6730    23.2420    17.8720     2.1510 
  129.0000   128.9980     0.4090    -0.3210    -5.6230    59.2960    17.7570    22.0760    17.6560     2.1510 
  129.1250   129.1230     0.4090    -0.3220    -5.7680    59.2160    17.0250    21.1380    18.0680     2.1490 
  129.2500   129.2480     0.4080    -0.3230    -5.8820    59.6280    16.7370    20.7760    18.9460     2.1440 
  129.3750   129.3730     0.4080    -0.3240    -5.9100    61.0970    17.1270    21.3030    20.4900     2.1400 
  129.5000   129.4980     0.4070    -0.3240    -5.8380    60.6340    18.0260    22.4380    22.0930     2.1380 
  129.6250   129.6230     0.4070    -0.3250    -5.6810    58.6590    18.8930    23.5200    23.4870     2.1400 
  129.7500   129.7480     0.4060    -0.3260    -5.5060    57.8950    19.4160    24.1560    24.4850     2.1460 
  129.8750   129.8730     0.4050    -0.3270    -5.3950    58.9150    19.2340    23.9180    23.5420     2.1530 
  130.0000   129.9980     0.4050    -0.3280    -5.4020    59.6730    18.5590    23.0100    21.1630     2.1580 
  130.1250   130.1230     0.4040    -0.3290    -5.5350    60.1560    17.7410    21.9080    19.0890     2.1590 
  130.2500   130.2480     0.4030    -0.3300    -5.7410    61.7110    17.1620    21.1330    17.3520     2.1560 
  130.3750   130.3730     0.4030    -0.3310    -5.9510    63.0260    17.1000    21.0510    17.3590     2.1500 
  130.5000   130.4980     0.4020    -0.3320    -6.0860    62.4010    17.5010    21.6140    19.9860     2.1440 
  130.6250   130.6230     0.4010    -0.3330    -6.0910    60.1150    18.1140    22.3870    22.7320     2.1400 
  130.7500   130.7480     0.4010    -0.3330    -5.9920    58.8750    18.5940    22.9240    22.9870     2.1380 
  130.8750   130.8730     0.4000    -0.3340    -5.8370    60.0280    19.0110    23.3700    20.7850     2.1360 
  131.0000   130.9980     0.3990    -0.3350    -5.6840    61.0030    19.7490    24.3230    19.1520     2.1340 
  131.1250   131.1230     0.3980    -0.3360    -5.5870    60.3990    20.7330    25.7460    22.8640     2.1330 
  131.2500   131.2480     0.3970    -0.3360    -5.5740    59.5570    21.1610    26.5480    32.0750     2.1350 
  131.3750   131.3730     0.3960    -0.3370    -5.6470    59.8920    20.5290    25.9900    38.7990     2.1400 
  131.5000   131.4980     0.3950    -0.3380    -5.7800    61.5440    18.8270    23.8450    32.8290     2.1500 
  131.6250   131.6230     0.3950    -0.3380    -5.9570    64.4290    16.3050    20.5090    18.4550     2.1650 
  131.7500   131.7480     0.3940    -0.3390    -6.1590    67.9200    14.1860    17.6330    11.3050     2.1800 
  131.8750   131.8730     0.3930    -0.3390    -6.3850    69.8750    12.7910    15.7850    11.1240     2.1870 
  132.0000   131.9980     0.3920    -0.3400    -6.6340    69.5800    12.4460    15.4500    11.5450     2.1830 
  132.1250   132.1230     0.3910    -0.3400    -6.8970    67.2250    13.1700    16.5410    12.7840     2.1670 
  132.2500   132.2480     0.3900    -0.3410    -7.1430    64.6620    14.2440    18.0570    13.9250     2.1490 
  132.3750   132.3730     0.3890    -0.3410    -7.3240    62.6530    14.9190    18.9730    15.0270     2.1370 
  132.5000   132.4980     0.3880    -0.3410    -7.3870    61.7290    14.9560    18.9660    15.2530     2.1330 
  132.6250   132.6230     0.3870    -0.3420    -7.2700    60.0620    14.2610    17.9140    13.3620     2.1360 
  132.7500   132.7480     0.3860    -0.3420    -6.9850    58.6660    13.1730    16.2990    11.4750     2.1410 
  132.8750   132.8730     0.3840    -0.3420    -6.5720    58.6960    12.1920    14.8320    10.9860     2.1490 
