~V
VERS. 2.00: Ver 2.00
~W
STRT.M 40.0000:
STOP.M 213.0000:
STEP.M 0.1250:
NULL. -999.2500:
UWI. F10805:
~C
DEPT.M :
SP.MV :
GR.API :
RI. :
RML.OHMM :
RXO.OHMM :
DEN.GM/CC :
~A
# ...
   52.8750   102.2050    36.2470     0.1350     0.1450     0.1200     2.3080 
   53.0000   101.7120    38.0470     0.1360     0.1440     0.1100     2.2950 
   53.1250   101.3910    38.5080     0.1370     0.1420     0.1110     2.2750 
   53.2500   100.7710    37.3020     0.1380     0.1410     0.1150     2.2590 
   53.3750    99.7860    36.2670     0.1390     0.1410     0.1170     2.2620 
   53.5000    99.0260    35.9780     0.1390     0.1400     0.1130     2.2750 
   53.6250    98.8330    36.1330     0.1380     0.1400     0.1070     2.2880 
   53.7500    99.1250    35.3650     0.1340     0.1410     0.1120     2.3000 
   53.8750    99.6850    34.3730     0.1230     0.1350     0.1640     2.3220 
   54.0000    99.9370    34.2120     0.1010     0.1170     0.3460     2.3650 
   54.1250    98.7340    35.1470     0.0700     0.0850     0.5360     2.4110 
   54.2500    95.1910    35.4740     0.0410     0.0500     0.4980     2.4410 
   54.3750    88.5710    35.5660     0.0220     0.0280     0.3500     2.4340 
   54.5000    78.3430    35.4650     0.0240     0.0300     0.2870     2.4310 
   54.6250    63.9530    37.1500     0.0730     0.0820     1.2170     2.3840 
   54.7500    46.7550    40.3860     0.2360     0.2250     2.9040     2.2360 
   54.8750    29.8170    45.4130     0.6790     0.6050     3.5710     1.9430 
   55.0000    16.7850    50.7310     1.5220     1.2420     3.2730     1.6790 
   55.1250     8.9030    55.0830     2.3320     1.8950     3.0820     1.5890 
   55.2500     3.5720    58.4600     3.0310     2.4220     4.2380     1.6850 
   55.3750    -0.6560    61.2470     3.4790     2.7220     6.1970     1.8500 
   55.5000    -4.2940    64.1400     3.7730     2.8640     6.6890     1.9910 
   55.6250    -7.4180    66.4530     4.0810     3.0140     5.9230     2.0630 
   55.7500    -9.9930    68.2480     4.2860     3.1400     5.3390     2.0850 
   55.8750   -11.9740    69.0240     4.3650     3.2320     5.2430     2.0780 
   56.0000   -13.2300    70.8860     4.5150     3.3720     5.3630     2.0730 
   56.1250   -13.7770    72.5390     4.8320     3.5810     5.5250     2.0840 
   56.2500   -13.7710    74.2640     5.1430     3.8180     6.8470     2.1220 
   56.3750   -13.2920    74.5760     5.2850     3.9590    11.4070     2.1840 
   56.5000   -12.6000    76.1820     5.0960     3.8930    13.5580     2.2360 
   56.6250   -11.8800    80.1110     4.6070     3.6060     8.7160     2.2490 
   56.7500   -11.4860    87.2350     3.9910     3.1860     4.6160     2.2340 
   56.8750   -11.5280    93.5950     3.4350     2.7970     3.9190     2.2190 
   57.0000   -11.9130    97.9060     3.0170     2.5390     3.7770     2.2130 
   57.1250   -12.3760    99.0530     2.8270     2.4280     3.8860     2.2040 
   57.2500   -12.8570    99.2770     2.7660     2.4190     3.7260     2.1960 
   57.3750   -13.3330    97.9580     2.7700     2.4470     3.6230     2.1940 
   57.5000   -13.9750    97.5020     2.8190     2.5550     3.6790     2.1960 
   57.6250   -14.8100    96.5890     3.1200     2.9200     3.8100     2.1950 
   57.7500   -15.8220    94.2350     3.7300     3.5810     4.2350     2.2100 
   57.8750   -16.9620    88.4530     4.5450     4.4240    14.6230     2.2710 
   58.0000   -18.0380    81.4970     5.3810     5.2300    35.7900     2.3530 
   58.1250   -19.1310    76.7460     5.9750     5.7380    37.1830     2.3800 
   58.2500   -20.1020    74.3180     6.0900     5.7790    16.4380     2.3110 
   58.3750   -20.8780    73.3390     5.6570     5.3760     5.2130     2.1880 
   58.5000   -21.3320    72.3980     4.9990     4.7860     5.1200     2.0960 
   58.6250   -21.6460    71.9430     4.3550     4.2740     5.1070     2.0620 
   58.7500   -21.7990    73.6860     4.0410     4.0490     4.8650     2.0560 
   58.8750   -21.7550    76.0060     4.0200     4.0680     4.7350     2.0510 
   59.0000   -21.5900    77.4870     4.0370     4.1510     4.9020     2.0480 
   59.1250   -21.4930    75.6580     4.0540     4.2140     5.0600     2.0430 
   59.2500   -21.4910    73.9710     4.0380     4.2270     5.0510     2.0370 
   59.3750   -21.3430    73.3710     3.9710     4.1720     5.0220     2.0360 
   59.5000   -21.0150    74.3820     3.8640     4.0980     4.9460     2.0390 
   59.6250   -20.4190    75.7900     3.8710     4.1350     4.7560     2.0580 
   59.7500   -19.8740    77.5060     4.0110     4.2990     4.8670     2.0830 
   59.8750   -19.4310    79.2400     4.2340     4.5560     9.5390     2.1220 
   60.0000   -19.0830    79.4710     4.4740     4.8040    16.4440     2.1490 
   60.1250   -18.8060    77.3720     4.6110     4.9290    14.7580     2.1490 
   60.2500   -18.5830    74.9960     4.5350     4.8440     8.0670     2.1170 
   60.3750   -18.1980    74.7330     4.2570     4.5500     5.3550     2.0840 
   60.5000   -17.4060    77.8800     3.8860     4.2000     4.9560     2.0720 
   60.6250   -16.3060    82.6770     3.5580     3.9510     4.3430     2.0840 
   60.7500   -15.2170    87.2620     3.4380     3.9070     3.9590     2.0990 
   60.8750   -14.5710    88.9420     3.4160     3.9990     4.2270     2.1040 
   61.0000   -14.3790    88.4630     3.3610     4.0340     4.5810     2.1020 
   61.1250   -14.3170    89.1330     3.1760     3.8760     4.6260     2.1000 
   61.2500   -13.9570    93.5870     2.8730     3.5260     4.2450     2.0990 
   61.3750   -13.2730   100.6040     2.4880     3.0600     3.2780     2.0880 
   61.5000   -12.5080   106.4830     2.1740     2.6840     2.4230     2.0740 
   61.6250   -12.1070   107.5390     2.0700     2.5890     2.2900     2.0650 
   61.7500   -12.4630   104.2830     2.1990     2.8140     3.0340     2.0610 
   61.8750   -13.5610    96.7310     2.6050     3.3670     4.3850     2.0570 
   62.0000   -14.9430    88.1910     3.1710     4.0570     5.2080     2.0520 
   62.1250   -16.2960    81.8460     3.6720     4.6240     5.3510     2.0550 
   62.2500   -17.5800    78.7840     3.9780     4.9910     5.2820     2.0610 
   62.3750   -18.8380    77.6720     4.0750     5.0720     5.0530     2.0560 
   62.5000   -20.0410    75.4510     4.1050     5.0420     5.0070     2.0390 
   62.6250   -20.8390    71.2710     4.1850     5.0990     5.2090     2.0220 
   62.7500   -21.1750    68.4510     4.3000     5.2340     5.3580     2.0130 
   62.8750   -21.2530    68.1740     4.3950     5.3510     5.3930     2.0070 
   63.0000   -21.2350    69.7070     4.4220     5.3730     5.4240     2.0100 
   63.1250   -21.1650    70.6940     4.3630     5.2870     5.4700     2.0190 
   63.2500   -21.2100    69.8880     4.2540     5.1440     5.5710     2.0280 
   63.3750   -21.5080    68.8590     4.1220     5.0160     5.6670     2.0310 
   63.5000   -21.9480    68.0410     4.0590     4.9750     5.6530     2.0320 
   63.6250   -22.5770    67.7710     4.0750     5.0160     5.5870     2.0350 
   63.7500   -23.2090    67.8310     4.1190     5.0790     5.5680     2.0350 
   63.8750   -23.8010    69.3720     4.1650     5.1390     5.5630     2.0310 
   64.0000   -24.1970    71.1850     4.2070     5.1860     5.3960     2.0310 
   64.1250   -24.3770    72.7270     4.2320     5.2100     5.3460     2.0360 
   64.2500   -24.4340    73.2560     4.2330     5.2000     5.4880     2.0400 
   64.3750   -24.4060    73.0160     4.2090     5.1560     5.5620     2.0380 
   64.5000   -24.3100    71.5460     4.1550     5.0920     5.6300     2.0330 
   64.6250   -24.1160    70.4040     4.1040     5.0340     5.5700     2.0290 
   64.7500   -23.9060    70.0200     4.0690     5.0230     5.3690     2.0260 
   64.8750   -23.4910    70.0620     4.0590     5.0640     5.1920     2.0220 
   65.0000   -23.0090    69.7750     4.0740     5.1080     5.1670     2.0160 
   65.1250   -22.4830    69.9350     4.1320     5.1360     5.3710     2.0120 
   65.2500   -21.9810    69.8920     4.2110     5.1410     5.4770     2.0180 
   65.3750   -21.3650    70.5070     4.2890     5.1260     5.3100     2.0350 
   65.5000   -20.6910    71.5750     4.3130     5.1020     5.0880     2.0520 
   65.6250   -19.9430    73.9760     4.2140     4.9620     4.9250     2.0590 
