~V
VERS. 2.00: Ver 2.00
~W
STRT.M 63.0000:
STOP.M 247.0000:
STEP.M 0.1250:
NULL. -999.2500:
UWI. F10865:
~C
DEPT.M :
TVD. :
DX. :
DY. :
SP.MV :
GR.API :
RI. :
RML.OHMM :
RXO.OHMM :
DEN.GM/CC :
~A
# ...
  199.8750   199.8620    -1.7390    -0.3390  -117.0140    58.5980    20.7340    21.1910    20.1080     2.1740 
  200.0000   199.9870    -1.7400    -0.3400  -117.1420    59.6510    20.6630    21.0640    18.9630     2.1730 
  200.1250   200.1120    -1.7410    -0.3410  -117.2860    64.8650    20.7830    21.1480    20.1500     2.1670 
  200.2500   200.2370    -1.7420    -0.3430  -117.4350    69.7760    21.1490    21.5220    22.2190     2.1590 
  200.3750   200.3620    -1.7430    -0.3440  -117.5820    71.2090    21.6880    22.1070    22.8640     2.1540 
  200.5000   200.4870    -1.7440    -0.3450  -117.7340    68.2130    22.0630    22.5290    22.1950     2.1540 
  200.6250   200.6120    -1.7450    -0.3460  -117.8990    65.8000    21.8670    22.3460    21.6010     2.1590 
  200.7500   200.7370    -1.7460    -0.3470  -118.0890    65.0910    21.0370    21.4980    21.5530     2.1650 
  200.8750   200.8620    -1.7470    -0.3490  -118.3100    65.5070    19.9240    20.3730    20.7090     2.1680 
  201.0000   200.9870    -1.7470    -0.3500  -118.5630    66.7390    18.9970    19.4640    19.4210     2.1670 
  201.1250   201.1120    -1.7480    -0.3510  -118.8350    66.4940    18.6620    19.1950    18.9350     2.1640 
  201.2500   201.2370    -1.7490    -0.3520  -119.1080    63.0980    18.9590    19.6080    19.1450     2.1600 
  201.3750   201.3620    -1.7500    -0.3540  -119.3640    58.1730    19.7820    20.5670    19.6080     2.1570 
  201.5000   201.4870    -1.7510    -0.3550  -119.5820    56.4710    20.7940    21.6920    19.8350     2.1540 
  201.6250   201.6120    -1.7520    -0.3560  -119.7630    57.3750    21.6160    22.5660    19.6750     2.1480 
  201.7500   201.7370    -1.7530    -0.3570  -119.9100    56.8450    21.9700    22.9020    19.4030     2.1400 
  201.8750   201.8620    -1.7540    -0.3590  -120.0400    55.8190    21.6140    22.4840    19.0090     2.1330 
  202.0000   201.9870    -1.7550    -0.3600  -120.1670    57.4490    20.7780    21.6000    18.2760     2.1340 
  202.1250   202.1120    -1.7560    -0.3610  -120.3040    61.6560    19.7450    20.5390    17.2830     2.1450 
  202.2500   202.2370    -1.7570    -0.3620  -120.4580    65.4500    18.7350    19.5110    16.3920     2.1600 
  202.3750   202.3620    -1.7570    -0.3640  -120.6300    66.8340    17.9550    18.7270    16.0550     2.1710 
  202.5000   202.4870    -1.7580    -0.3650  -120.8160    66.2680    17.4970    18.2820    16.5780     2.1710 
  202.6250   202.6120    -1.7590    -0.3660  -121.0060    65.2760    17.3940    18.2220    17.9680     2.1660 
  202.7500   202.7370    -1.7600    -0.3680  -121.1900    64.6520    17.6430    18.5380    19.5400     2.1600 
  202.8750   202.8620    -1.7610    -0.3690  -121.3630    63.4040    18.1780    19.1450    20.4050     2.1570 
  203.0000   202.9870    -1.7620    -0.3700  -121.5190    60.2700    18.7930    19.8200    20.3300     2.1550 
  203.1250   203.1120    -1.7630    -0.3710  -121.6610    57.9010    19.4000    20.5000    19.3670     2.1530 
  203.2500   203.2370    -1.7630    -0.3730  -121.7870    57.7260    19.9480    21.1370    18.4890     2.1480 
  203.3750   203.3620    -1.7640    -0.3740  -121.9030    57.4550    20.3530    21.6210    18.8630     2.1420 
  203.5000   203.4870    -1.7650    -0.3750  -122.0130    55.3370    20.5390    21.8590    19.9470     2.1350 
  203.6250   203.6120    -1.7660    -0.3770  -122.1180    51.8420    20.4700    21.8070    21.2400     2.1280 
  203.7500   203.7370    -1.7670    -0.3780  -122.2180    49.6440    20.2190    21.5590    21.8020     2.1210 
  203.8750   203.8620    -1.7680    -0.3790  -122.3120    50.1860    19.9570    21.3250    21.7680     2.1130 
  204.0000   203.9870    -1.7680    -0.3810  -122.3950    53.1040    19.8480    21.2850    22.8440     2.1050 
  204.1250   204.1120    -1.7690    -0.3820  -122.4690    56.3480    20.0050    21.5470    24.3140     2.0990 
  204.2500   204.2370    -1.7700    -0.3830  -122.5340    57.3590    20.3820    22.0340    23.7060     2.0980 
  204.3750   204.3620    -1.7710    -0.3850  -122.5900    56.8650    20.8710    22.6110    21.4200     2.1060 
  204.5000   204.4870    -1.7720    -0.3860  -122.6380    57.7800    21.3190    23.1020    19.9660     2.1190 
  204.6250   204.6120    -1.7720    -0.3870  -122.6810    59.9010    21.6110    23.3870    19.5860     2.1330 
  204.7500   204.7370    -1.7730    -0.3890  -122.7200    59.6280    21.7330    23.4660    19.2430     2.1450 
  204.8750   204.8620    -1.7740    -0.3900  -122.7600    56.2280    21.7260    23.3970    19.1920     2.1560 
  205.0000   204.9870    -1.7750    -0.3920  -122.7980    54.6710    21.6500    23.2750    19.5820     2.1670 
  205.1250   205.1120    -1.7750    -0.3930  -122.8310    55.5680    21.5430    23.1600    20.4170     2.1800 
  205.2500   205.2370    -1.7760    -0.3940  -122.8500    57.2780    21.4640    23.1100    21.5760     2.1920 
  205.3750   205.3620    -1.7770    -0.3960  -122.8520    60.7980    21.3740    23.0510    21.6420     2.1990 
  205.5000   205.4870    -1.7780    -0.3970  -122.8330    63.8670    21.1180    22.7890    20.7060     2.1990 
  205.6250   205.6120    -1.7780    -0.3990  -122.8000    63.0820    20.6270    22.2460    20.4100     2.1940 
  205.7500   205.7370    -1.7790    -0.4000  -122.7590    58.9070    19.9740    21.5030    20.8280     2.1880 
  205.8750   205.8620    -1.7800    -0.4020  -122.7170    56.5700    19.2640    20.6700    20.6800     2.1850 
  206.0000   205.9870    -1.7810    -0.4030  -122.6810    57.7280    18.7150    20.0010    19.8110     2.1860 
  206.1250   206.1120    -1.7810    -0.4040  -122.6490    58.1460    18.4910    19.6830    19.1950     2.1870 
  206.2500   206.2370    -1.7820    -0.4060  -122.6130    55.1850    18.7680    19.9200    19.4120     2.1860 
  206.3750   206.3620    -1.7830    -0.4070  -122.5610    52.6130    19.7820    20.9760    20.4410     2.1820 
  206.5000   206.4870    -1.7840    -0.4090  -122.4790    55.3710    21.4700    22.7690    21.4040     2.1760 
  206.6250   206.6120    -1.7840    -0.4100  -122.3650    59.3180    23.5850    25.0030    21.6970     2.1670 
  206.7500   206.7370    -1.7850    -0.4120  -122.2220    58.4020    25.5480    27.0280    22.3700     2.1570 
  206.8750   206.8620    -1.7860    -0.4130  -122.0630    55.9730    26.4690    27.8520    22.8350     2.1490 
  207.0000   206.9870    -1.7860    -0.4150  -121.9040    57.8770    25.7840    26.8950    21.7960     2.1490 
  207.1250   207.1120    -1.7870    -0.4160  -121.7570    61.7230    23.5120    24.2690    19.6650     2.1600 
  207.2500   207.2370    -1.7880    -0.4180  -121.6350    61.6530    20.4330    20.9000    17.6130     2.1780 
  207.3750   207.3620    -1.7880    -0.4190  -121.5380    60.4600    17.6550    17.9920    16.1280     2.1970 
  207.5000   207.4870    -1.7890    -0.4210  -121.4630    62.5940    15.8260    16.1840    15.0210     2.2100 
  207.6250   207.6120    -1.7900    -0.4220  -121.3920    64.7380    15.0650    15.5390    14.8540     2.2150 
  207.7500   207.7370    -1.7900    -0.4230  -121.3050    61.1970    15.2540    15.8950    17.0770     2.2150 
  207.8750   207.8620    -1.7910    -0.4250  -121.1900    54.2140    16.4260    17.2820    20.4850     2.2130 
  208.0000   207.9870    -1.7920    -0.4260  -121.0360    51.2630    18.2480    19.3180    21.2630     2.2100 
  208.1250   208.1120    -1.7920    -0.4280  -120.8490    55.1990    20.2680    21.5130    20.6260     2.2090 
  208.2500   208.2370    -1.7930    -0.4290  -120.6350    61.3310    22.1570    23.5300    23.0540     2.2150 
  208.3750   208.3620    -1.7940    -0.4310  -120.4020    63.2880    23.6630    25.1260    25.9740     2.2340 
  208.5000   208.4870    -1.7940    -0.4320  -120.1490    60.6710    24.9050    26.4690    25.0590     2.2560 
  208.6250   208.6120    -1.7950    -0.4340  -119.8750    57.7350    25.8110    27.4960    25.1330     2.2660 
  208.7500   208.7370    -1.7950    -0.4350  -119.5660    56.6950    26.2770    28.1030    27.7210     2.2540 
  208.8750   208.8620    -1.7960    -0.4360  -119.2180    54.2680    26.2120    28.1570    26.2690     2.2240 
