~V
VERS. 2.00: Ver 2.00
~W
STRT.M 63.0000:
STOP.M 269.0000:
STEP.M 0.1250:
NULL. -999.2500:
UWI. F10891:
~C
DEPT.M :
TVD. :
DX. :
DY. :
SP.MV :
GR.API :
RI. :
RML.OHMM :
RXO.OHMM :
DEN.GM/CC :
~A
# ...
  181.6250   181.6170    -0.7040    -1.1400   -25.0540    50.1220    14.7760    16.7150    15.4230     2.4300 
  181.7500   181.7420    -0.7050    -1.1420   -25.1390    48.3260    14.5360    16.4740    15.1780     2.4190 
  181.8750   181.8670    -0.7050    -1.1430   -25.2360    46.3850    14.4050    16.3740    14.9470     2.4130 
  182.0000   181.9920    -0.7060    -1.1440   -25.3400    48.1980    14.3670    16.3900    14.8170     2.4170 
  182.1250   182.1170    -0.7060    -1.1460   -25.4470    50.5380    14.3420    16.4130    14.7370     2.4240 
  182.2500   182.2420    -0.7070    -1.1470   -25.5450    51.7050    14.2510    16.3370    14.5390     2.4290 
  182.3750   182.3670    -0.7080    -1.1490   -25.6280    50.2240    14.0630    16.1270    14.3040     2.4300 
  182.5000   182.4920    -0.7080    -1.1500   -25.6900    49.0890    13.7830    15.8030    14.3000     2.4270 
  182.6250   182.6170    -0.7090    -1.1510   -25.7310    48.7010    13.4440    15.4260    14.5500     2.4250 
  182.7500   182.7420    -0.7090    -1.1530   -25.7560    48.4440    13.0630    15.0140    14.7140     2.4250 
  182.8750   182.8670    -0.7100    -1.1540   -25.7700    48.3610    12.6370    14.5540    14.4910     2.4230 
  183.0000   182.9920    -0.7110    -1.1550   -25.7750    47.6110    12.1680    14.0400    13.8930     2.4140 
  183.1250   183.1170    -0.7110    -1.1570   -25.7690    47.7960    11.7060    13.5400    13.2050     2.4010 
  183.2500   183.2420    -0.7120    -1.1580   -25.7450    47.3140    11.3470    13.1820    12.6210     2.3920 
  183.3750   183.3670    -0.7120    -1.1600   -25.7010    48.0860    11.1470    13.0300    12.1980     2.3940 
  183.5000   183.4920    -0.7130    -1.1610   -25.6390    47.3720    11.0950    13.0550    12.0400     2.4010 
  183.6250   183.6170    -0.7140    -1.1620   -25.5680    48.3350    11.0830    13.1080    12.0740     2.4090 
  183.7500   183.7420    -0.7140    -1.1640   -25.4990    47.9520    11.0010    13.0420    12.0920     2.4150 
  183.8750   183.8670    -0.7150    -1.1650   -25.4350    48.3750    10.8060    12.8050    11.9590     2.4210 
  184.0000   183.9920    -0.7150    -1.1670   -25.3790    48.5730    10.5130    12.4380    11.6630     2.4280 
  184.1250   184.1170    -0.7160    -1.1680   -25.3330    49.3300    10.1950    12.0620    11.1940     2.4340 
  184.2500   184.2420    -0.7170    -1.1690   -25.3050    48.3250     9.9120    11.7780    10.6180     2.4400 
  184.3750   184.3670    -0.7170    -1.1710   -25.2990    45.9730     9.6790    11.6000    10.3440     2.4480 
  184.5000   184.4920    -0.7180    -1.1720   -25.3120    43.0020     9.4730    11.4750    10.5260     2.4580 
  184.6250   184.6170    -0.7180    -1.1740   -25.3100    41.7050     9.2440    11.3020    10.5070     2.4660 
  184.7500   184.7420    -0.7190    -1.1750   -25.2510    41.6740     8.9520    11.0010     9.8470     2.4640 
  184.8750   184.8670    -0.7190    -1.1770   -25.1040    42.0510     8.6040    10.5760     9.0480     2.4540 
  185.0000   184.9920    -0.7200    -1.1780   -24.8550    42.9590     8.2340    10.0780     8.5920     2.4450 
  185.1250   185.1170    -0.7210    -1.1790   -24.5490    44.6980     7.9030     9.6090     8.5040     2.4380 
  185.2500   185.2420    -0.7210    -1.1810   -24.1850    46.3420     7.6780     9.2770     8.6050     2.4330 
  185.3750   185.3670    -0.7220    -1.1820   -23.8050    46.3030     7.5840     9.1330     8.5220     2.4280 
  185.5000   185.4920    -0.7220    -1.1840   -23.3580    44.1880     7.6360     9.2090     8.1610     2.4280 
  185.6250   185.6170    -0.7230    -1.1850   -22.8110    42.4460     7.7890     9.4500     7.9570     2.4370 
  185.7500   185.7420    -0.7230    -1.1860   -22.1310    42.4180     7.9730     9.7450     8.2080     2.4550 
  185.8750   185.8670    -0.7240    -1.1880   -21.3280    43.2510     8.0540     9.8820     8.5600     2.4750 
  186.0000   185.9920    -0.7250    -1.1890   -20.4570    43.4830     7.8300     9.5730     8.5060     2.4840 
  186.1250   186.1170    -0.7250    -1.1910   -19.5690    43.4880     7.2040     8.7130     7.9540     2.4650 
  186.2500   186.2420    -0.7260    -1.1920   -18.7340    43.0790     6.2070     7.3870     6.8930     2.3830 
  186.3750   186.3670    -0.7260    -1.1940   -17.9830    42.5510     5.0920     5.9510     5.2630     2.2260 
  186.5000   186.4920    -0.7270    -1.1950   -17.3640    41.2110     4.1370     4.7690     3.5450     2.0180 
  186.6250   186.6170    -0.7270    -1.1960   -16.8350    40.5020     3.4950     4.0100     2.5410     1.8420 
  186.7500   186.7420    -0.7280    -1.1980   -16.3740    40.7290     3.2000     3.6900     2.5960     1.7900 
  186.8750   186.8670    -0.7280    -1.1990   -15.9300    41.1120     3.1400     3.6540     3.3060     1.8690 
  187.0000   186.9920    -0.7290    -1.2010   -15.5330    41.3990     3.2150     3.7640     3.9450     2.0140 
  187.1250   187.1170    -0.7300    -1.2020   -15.1980    42.3000     3.3150     3.8770     4.0920     2.1390 
  187.2500   187.2420    -0.7300    -1.2040   -14.9490    43.2950     3.3770     3.9250     4.0540     2.2070 
  187.3750   187.3670    -0.7310    -1.2050   -14.7670    43.7720     3.4010     3.9210     4.0510     2.2340 
  187.5000   187.4920    -0.7310    -1.2070   -14.6570    45.4600     3.4240     3.9220     3.9350     2.2390 
  187.6250   187.6170    -0.7320    -1.2080   -14.6020    48.5090     3.4920     3.9840     3.6680     2.2350 
  187.7500   187.7420    -0.7320    -1.2090   -14.5850    53.8870     3.6540     4.1660     3.6010     2.2310 
  187.8750   187.8670    -0.7330    -1.2110   -14.5840    60.7820     3.9390     4.5080     3.8370     2.2370 
  188.0000   187.9920    -0.7330    -1.2120   -14.5840    68.6390     4.3670     5.0360     4.4200     2.2520 
  188.1250   188.1170    -0.7340    -1.2140   -14.5840    74.0050     4.8730     5.6670     5.7030     2.2690 
  188.2500   188.2420    -0.7340    -1.2150   -14.5860    74.6350     5.3400     6.2470     7.2570     2.2840 
  188.3750   188.3670    -0.7350    -1.2170   -14.6270    72.3220     5.6390     6.6120     7.9440     2.2930 
  188.5000   188.4920    -0.7360    -1.2180   -14.7490    70.5430     5.6730     6.6410     7.6100     2.2930 
  188.6250   188.6170    -0.7360    -1.2200   -14.9710    70.7780     5.4680     6.3780     7.1080     2.2860 
  188.7500   188.7420    -0.7370    -1.2210   -15.2850    73.1010     5.0910     5.9190     6.6480     2.2790 
  188.8750   188.8670    -0.7370    -1.2220   -15.5950    75.9440     4.6700     5.4220     5.9220     2.2790 
  189.0000   188.9920    -0.7380    -1.2240   -15.8450    77.4540     4.3200     5.0270     4.9820     2.2790 
  189.1250   189.1170    -0.7380    -1.2250   -15.9990    77.3300     4.1280     4.8310     4.2900     2.2710 
  189.2500   189.2420    -0.7390    -1.2270   -16.0600    74.8840     4.1780     4.9370     4.0780     2.2590 
  189.3750   189.3670    -0.7390    -1.2280   -16.0580    72.1760     4.4770     5.3480     4.2500     2.2510 
  189.5000   189.4920    -0.7400    -1.2300   -16.0150    69.9160     5.0110     6.0280     5.1460     2.2520 
  189.6250   189.6170    -0.7400    -1.2310   -15.9650    69.1160     5.6760     6.8330     7.1880     2.2590 
  189.7500   189.7420    -0.7410    -1.2330   -15.9290    69.2780     6.3660     7.6200     9.0840     2.2610 
  189.8750   189.8670    -0.7410    -1.2340   -15.9130    68.5390     6.9870     8.2860     9.0790     2.2570 
  190.0000   189.9920    -0.7420    -1.2350   -15.9120    67.0490     7.4770     8.7840     8.3010     2.2570 
  190.1250   190.1170    -0.7430    -1.2370   -15.9120    64.9310     7.8390     9.1410     8.8830     2.2740 
  190.2500   190.2420    -0.7430    -1.2380   -15.8930    64.0950     8.0960     9.4090    10.3500     2.3120 
  190.3750   190.3670    -0.7440    -1.2400   -15.8440    63.6150     8.3260     9.6780    10.9900     2.3550 
  190.5000   190.4920    -0.7440    -1.2410   -15.7620    62.9110     8.6010    10.0260    11.2180     2.3800 
  190.6250   190.6170    -0.7450    -1.2430   -15.6620    62.8830     8.9450    10.4600    12.6970     2.3750 
