~V
VERS. 2.00: Ver 2.00
~W
STRT.M 63.0000:
STOP.M 247.0000:
STEP.M 0.1250:
NULL. -999.2500:
UWI. F10865:
~C
DEPT.M :
TVD. :
DX. :
DY. :
SP.MV :
GR.API :
RI. :
RML.OHMM :
RXO.OHMM :
DEN.GM/CC :
~A
# ...
  190.7500   190.7380    -1.6650    -0.2720  -112.2300    56.9580    50.0520    57.2910    59.7470     2.1440 
  190.8750   190.8630    -1.6660    -0.2730  -112.1160    53.2540    52.6570    60.6580    54.2310     2.1470 
  191.0000   190.9880    -1.6670    -0.2740  -111.9950    49.9880    51.6730    60.0790    51.8480     2.1520 
  191.1250   191.1130    -1.6680    -0.2750  -111.8760    50.2820    47.1950    55.0570    50.3210     2.1580 
  191.2500   191.2380    -1.6690    -0.2750  -111.7570    52.8080    40.4080    47.2020    40.2580     2.1610 
  191.3750   191.3630    -1.6700    -0.2760  -111.6300    54.3590    33.1900    38.7710    29.5630     2.1640 
  191.5000   191.4880    -1.6710    -0.2770  -111.4760    53.1510    27.1520    31.7500    25.9970     2.1730 
  191.6250   191.6130    -1.6720    -0.2780  -111.2830    53.0870    23.2850    27.3280    23.2510     2.1950 
  191.7500   191.7380    -1.6730    -0.2790  -111.0390    55.5610    21.4770    25.2910    20.5650     2.2300 
  191.8750   191.8630    -1.6740    -0.2800  -110.7490    58.3590    21.5500    25.3840    21.6930     2.2690 
  192.0000   191.9880    -1.6750    -0.2800  -110.4200    58.8270    22.8200    26.8080    24.6570     2.3040 
  192.1250   192.1130    -1.6760    -0.2810  -110.0710    56.8360    24.8110    29.0300    26.3450     2.3330 
  192.2500   192.2380    -1.6770    -0.2820  -109.7170    54.1640    26.8690    31.3480    26.4250     2.3570 
  192.3750   192.3630    -1.6780    -0.2830  -109.3720    54.8730    28.3250    33.1450    27.6670     2.3790 
  192.5000   192.4880    -1.6790    -0.2840  -109.0460    58.1140    29.0300    34.0840    30.9230     2.4040 
  192.6250   192.6130    -1.6800    -0.2840  -108.7410    58.7240    28.2280    33.2260    34.0890     2.4400 
  192.7500   192.7380    -1.6810    -0.2850  -108.4670    54.4460    24.3340    29.0300    31.3460     2.4900 
  192.8750   192.8630    -1.6820    -0.2860  -108.2370    50.0690    18.1600    21.7070    21.2930     2.5300 
  193.0000   192.9880    -1.6830    -0.2870  -108.0830    50.6210    11.3730    13.7030    12.4160     2.5260 
  193.1250   193.1130    -1.6840    -0.2880  -108.0260    54.1110     5.9250     7.1000     6.8360     2.4600 
  193.2500   193.2380    -1.6850    -0.2880  -108.0980    54.8420     3.3170     3.7560     3.7340     2.3590 
  193.3750   193.3630    -1.6860    -0.2890  -108.2910    51.1890     2.2360     2.5180     2.5680     2.2670 
  193.5000   193.4880    -1.6870    -0.2900  -108.5990    46.0340     1.7400     1.9060     2.2430     2.2090 
  193.6250   193.6130    -1.6880    -0.2910  -108.9860    43.6910     1.5690     1.7260     2.1900     2.1900 
  193.7500   193.7380    -1.6890    -0.2920  -109.4260    44.4590     1.5700     1.7550     2.1260     2.1890 
  193.8750   193.8630    -1.6900    -0.2930  -109.8930    46.0610     1.6370     1.8150     2.1550     2.1940 
  194.0000   193.9880    -1.6910    -0.2930  -110.3780    47.3080     1.7150     1.8700     2.2570     2.2000 
  194.1250   194.1130    -1.6930    -0.2940  -110.8770    49.9990     1.8100     1.9980     2.2300     2.2160 
  194.2500   194.2380    -1.6940    -0.2950  -111.3960    55.7830     1.9500     2.1270     2.1500     2.2440 
  194.3750   194.3630    -1.6950    -0.2960  -111.9280    64.9160     2.1650     2.3280     2.3850     2.2800 
  194.5000   194.4880    -1.6960    -0.2970  -112.4630    75.3150     2.4600     2.6220     2.9820     2.3070 
  194.6250   194.6130    -1.6970    -0.2980  -112.9810    79.2590     2.8410     3.0140     3.6040     2.3150 
  194.7500   194.7380    -1.6980    -0.2990  -113.4620    74.9920     3.2430     3.4360     4.0230     2.3140 
  194.8750   194.8630    -1.6990    -0.3000  -113.8940    69.2520     3.5560     3.7760     4.3020     2.3170 
  195.0000   194.9880    -1.7000    -0.3000  -114.2630    71.4760     3.7330     3.9830     4.5140     2.3310 
  195.1250   195.1130    -1.7010    -0.3010  -114.5760    80.4640     3.7510     4.0310     4.6280     2.3500 
  195.2500   195.2380    -1.7020    -0.3020  -114.8380    89.0000     3.6870     3.9930     4.6550     2.3640 
  195.3750   195.3630    -1.7030    -0.3030  -115.0670    94.6030     3.6040     3.9190     4.6050     2.3640 
  195.5000   195.4880    -1.7040    -0.3040  -115.2820    98.2040     3.5120     3.8240     4.4880     2.3510 
  195.6250   195.6130    -1.7050    -0.3050  -115.5040   101.5380     3.4290     3.7360     4.3490     2.3320 
  195.7500   195.7380    -1.7060    -0.3060  -115.7540   103.0250     3.4290     3.7360     4.2600     2.3210 
  195.8750   195.8630    -1.7070    -0.3070  -116.0430   101.5630     3.6220     3.9570     4.3880     2.3300 
  196.0000   195.9880    -1.7080    -0.3080  -116.3830    96.8110     4.0770     4.5560     5.5200     2.3570 
  196.1250   196.1130    -1.7090    -0.3080  -116.7730    91.4290     5.0940     5.6650     8.8520     2.3870 
  196.2500   196.2380    -1.7100    -0.3090  -117.2080    85.9730     6.7770     7.4010    12.9320     2.4030 
  196.3750   196.3630    -1.7110    -0.3100  -117.6680    78.9310     8.9040     9.6900    15.0370     2.3980 
  196.5000   196.4880    -1.7120    -0.3110  -118.1290    72.0370    11.1270    11.9800    15.8190     2.3770 
  196.6250   196.6130    -1.7130    -0.3120  -118.5640    66.4220    12.9340    13.9480    16.7570     2.3450 
  196.7500   196.7380    -1.7140    -0.3130  -118.9410    63.9490    14.2300    15.2690    16.7980     2.3060 
  196.8750   196.8630    -1.7150    -0.3140  -119.2480    63.7330    14.9710    15.8820    15.6710     2.2630 
  197.0000   196.9880    -1.7160    -0.3150  -119.4670    64.7350    15.4530    16.2910    15.1580     2.2240 
  197.1250   197.1130    -1.7170    -0.3160  -119.6100    65.4980    15.9390    16.7840    15.5390     2.1940 
  197.2500   197.2380    -1.7180    -0.3170  -119.6820    63.6130    16.6070    17.5340    15.9150     2.1760 
  197.3750   197.3630    -1.7190    -0.3180  -119.7020    60.1340    17.4660    18.4850    16.9890     2.1690 
  197.5000   197.4880    -1.7200    -0.3180  -119.6790    57.5140    18.1990    19.2530    19.5130     2.1690 
  197.6250   197.6130    -1.7210    -0.3190  -119.6190    57.6800    18.5930    19.6300    21.0770     2.1720 
  197.7500   197.7380    -1.7220    -0.3200  -119.5160    59.5030    18.7510    19.7440    20.5640     2.1760 
  197.8750   197.8630    -1.7230    -0.3210  -119.3680    60.9540    18.8200    19.7570    19.4540     2.1770 
  198.0000   197.9880    -1.7240    -0.3220  -119.1680    62.5630    19.0070    19.9150    18.9590     2.1770 
  198.1250   198.1130    -1.7250    -0.3230  -118.9230    63.4950    19.5970    20.5590    19.0740     2.1800 
  198.2500   198.2380    -1.7260    -0.3240  -118.6390    62.7760    20.6760    21.7720    19.3120     2.1870 
  198.3750   198.3630    -1.7270    -0.3260  -118.3380    61.9670    22.1700    23.4410    19.8660     2.1930 
  198.5000   198.4870    -1.7280    -0.3270  -118.0390    62.4060    23.7070    25.1110    20.9190     2.1980 
  198.6250   198.6120    -1.7290    -0.3280  -117.7610    61.5420    24.7650    26.1790    22.1290     2.2020 
  198.7500   198.7370    -1.7300    -0.3290  -117.5180    58.2650    25.0760    26.3830    23.0640     2.2090 
  198.8750   198.8620    -1.7310    -0.3300  -117.3120    58.2130    24.4640    25.5760    23.4590     2.2160 
  199.0000   198.9870    -1.7320    -0.3310  -117.1460    63.2120    23.3660    24.2630    23.0640     2.2180 
  199.1250   199.1120    -1.7330    -0.3320  -117.0140    67.8930    22.1970    22.9320    21.8440     2.2080 
  199.2500   199.2370    -1.7340    -0.3330  -116.9190    68.9470    21.4050    22.0570    20.7960     2.1900 
  199.3750   199.3620    -1.7350    -0.3340  -116.8580    70.1900    21.1160    21.7360    21.1310     2.1740 
  199.5000   199.4870    -1.7360    -0.3350  -116.8380    71.8780    21.0220    21.6160    22.3950     2.1660 
  199.6250   199.6120    -1.7370    -0.3370  -116.8550    68.9360    20.9730    21.5340    22.9960     2.1670 
  199.7500   199.7370    -1.7380    -0.3380  -116.9160    62.6670    20.8690    21.3840    22.0750     2.1710 
