~V
VERS. 2.00: Ver 2.00
~W
STRT.M 1.0000:
STOP.M 205.0000:
STEP.M 0.1250:
NULL. -999.2500:
UWI. F10806:
~C
DEPT.M :
SP.MV :
GR.API :
RI. :
RML.OHMM :
RXO.OHMM :
DEN.GM/CC :
~A
# ...
   26.7500    50.8960    41.6490     0.8090     2.6680     0.8610     2.3400 
   26.8750    49.5870    39.4380     0.8270     2.3260     0.8610     2.3400 
   27.0000    49.3380    38.1420     1.1840     2.0030     0.8610     2.3400 
   27.1250    50.2410    37.6960     1.1370     2.0590     0.8630     2.3400 
   27.2500    50.9010    37.4310     1.2880     1.9370     0.8650     2.3400 
   27.3750    51.0330    37.0750     1.2390     1.7430     0.8650     2.3400 
   27.5000    51.1080    37.3560     0.9570     1.4840     0.8630     2.3400 
   27.6250    52.0670    38.5870     1.5000     1.0730     0.8610     2.3400 
   27.7500    52.7250    39.9930     1.3630     1.0940     0.8600     2.3400 
   27.8750    52.1230    39.8480     1.7480     1.6220     0.8590     2.3400 
   28.0000    51.2870    39.2730     1.8730     2.2910     0.8580     2.3400 
   28.1250    50.6370    38.6190     1.7810     2.5390     0.8600     2.3400 
   28.2500    50.3300    40.5110     1.9780     2.6630     0.8610     2.3400 
   28.3750    50.4160    41.1520     1.6410     2.0610     0.8620     2.3400 
   28.5000    50.5390    40.5040     2.2360     1.6260     0.8620     2.3400 
   28.6250    50.4810    38.9970     2.3110     1.6800     0.8620     2.3400 
   28.7500    50.2330    39.3810     2.3420     2.5060     0.8620     2.3400 
   28.8750    49.8990    40.4980     2.0520     3.9500     0.8600     2.3400 
   29.0000    49.5770    41.0820     1.5460     4.6570     0.8590     2.3400 
   29.1250    49.3080    40.7640     1.5160     4.6180     0.8600     2.3400 
   29.2500    49.1090    40.2280     1.2610     3.6560     0.8600     2.3400 
   29.3750    48.9810    39.6360     1.1710     2.6120     0.8450     2.3400 
   29.5000    48.9230    39.3220     1.1870     2.4050     0.7970     2.3400 
   29.6250    48.8830    39.4390     1.2470     2.4260     0.7390     2.3400 
   29.7500    48.7590    40.1930     1.3430     2.1480     0.6950     2.3400 
   29.8750    48.5040    40.6390     1.1850     1.9110     0.6710     2.3400 
   30.0000    48.1210    40.6590     1.0460     1.4870     0.6720     2.3400 
   30.1250    47.6670    41.3690     1.0070     1.2290     0.6810     2.3400 
   30.2500    47.2110    43.0330     1.1240     1.4570     0.7140     2.3400 
   30.3750    46.8350    44.8580     1.1990     2.6630     0.8190     2.3400 
   30.5000    46.5650    45.3510     1.3560     3.4460     0.9360     2.3400 
   30.6250    46.3670    44.8970     1.1980     3.5570     1.0020     2.3400 
   30.7500    46.2310    44.7450     1.1200     3.0400     1.0180     2.3400 
   30.8750    46.1230    45.2210     1.1290     1.7000     0.9250     2.3400 
   31.0000    46.0150    45.6160     1.2720     1.4450     0.7560     2.3400 
   31.1250    45.8870    46.0410     1.1940     1.8310     0.6340     2.3400 
   31.2500    45.7040    46.5370     1.3630     2.1590     0.6050     2.3400 
   31.3750    45.4700    46.8410     1.1370     2.4350     0.6230     2.3400 
   31.5000    45.2760    46.5280     1.0720     2.4240     0.5840     2.3400 
   31.6250    45.1860    45.6990     1.0010     2.2140     0.5030     2.3400 
   31.7500    45.2160    44.5410     1.0430     2.0120     0.4670     2.3400 
   31.8750    45.3340    43.2140     1.0630     1.8830     0.4900     2.3400 
   32.0000    45.5430    41.9240     1.3920     1.6210     0.5230     2.3400 
   32.1250    45.8620    40.9590     1.4210     1.4340     0.5140     2.3400 
   32.2500    46.3370    41.3670     1.2550     1.4610     0.5050     2.3400 
   32.3750    46.9890    41.9960     1.0580     1.7750     0.4980     2.3400 
   32.5000    47.7920    42.3060     0.6850     1.9930     0.4560     2.3400 
   32.6250    48.6310    41.5410     0.5820     1.9710     0.4210     2.3400 
   32.7500    49.3680    41.8750     0.8410     1.7020     0.4330     2.3400 
   32.8750    49.8790    42.0890     0.9630     1.6810     0.4460     2.3400 
   33.0000    50.0140    41.6320     1.5350     2.2420     0.4220     2.3400 
   33.1250    49.8350    40.3020     2.0980     2.3480     0.4230     2.3400 
   33.2500    49.5580    39.6510     2.0560     2.1910     0.4610     2.3400 
   33.3750    49.4030    40.0320     1.9950     1.4820     0.4690     2.3400 
   33.5000    49.4440    40.0060     1.2320     0.9400     0.4210     2.3400 
   33.6250    49.5980    38.6240     0.9770     0.7900     0.3550     2.3400 
   33.7500    49.7590    36.3110     1.0330     0.6700     0.3570     2.3400 
   33.8750    49.7690    34.9760     1.0880     0.6260     0.4540     2.3400 
   34.0000    49.4640    35.3350     1.2100     0.7510     0.5010     2.3400 
   34.1250    48.9330    36.0600     1.1640     1.1830     0.4670     2.3400 
   34.2500    48.4220    35.5950     1.0290     1.7240     0.4630     2.3400 
   34.3750    48.0200    34.7800     1.1590     1.9740     0.4430     2.3400 
   34.5000    47.6000    34.2330     1.0850     2.0910     0.4200     2.3400 
   34.6250    46.9850    34.1730     0.9460     2.0190     0.4150     2.3400 
   34.7500    46.0230    34.7400     1.3980     1.7280     0.4200     2.3400 
   34.8750    44.7150    34.9750     1.8070     1.8510     0.5250     2.3400 
   35.0000    43.1560    34.8010     1.7150     1.7970     0.6090     2.3400 
   35.1250    41.6070    33.2770     1.7190     1.7690     0.5460     2.3400 
   35.2500    40.3150    32.9860     1.1550     2.0950     0.5470     2.3400 
   35.3750    39.3360    33.7230     1.3160     2.0320     0.6130     2.3400 
   35.5000    38.6280    36.7640     1.3850     2.0410     0.6780     2.3400 
   35.6250    38.1170    40.7560     1.3770     1.8100     0.8010     2.3400 
   35.7500    37.7250    44.2570     1.4030     1.5970     0.8350     2.3400 
   35.8750    37.3670    46.3350     1.0350     1.3440     0.7490     2.3400 
   36.0000    37.0770    45.4990     1.1580     1.0820     0.6120     2.3400 
   36.1250    36.8720    44.7380     1.0490     0.9260     0.5080     2.3400 
   36.2500    36.7440    45.0730     1.0590     0.7750     0.5050     2.3400 
   36.3750    36.6680    46.0530     1.6630     0.7270     0.5430     2.3400 
   36.5000    36.6310    45.4990     2.1130     0.8980     0.5550     2.3400 
   36.6250    36.6170    44.7350     2.4750     1.0620     0.5700     2.3400 
   36.7500    36.6450    44.0790     2.4360     1.1050     0.5730     2.3400 
   36.8750    36.7280    43.6810     1.9290     1.0770     0.5150     2.3400 
   37.0000    36.8990    42.3890     1.4570     0.8390     0.5570     2.3400 
   37.1250    37.1360    41.8550     0.9330     0.5490     0.8540     2.3400 
   37.2500    37.3790    40.9430     0.4420     0.4050     1.2250     2.3400 
   37.3750    37.5460    40.1250     0.1200     0.2900     1.3480     2.3400 
   37.5000    37.5480    39.2750     0.1080     0.2480     1.1460     2.3400 
   37.6250    37.3940    39.1880     0.1080     0.2420     0.8090     2.3400 
   37.7500    37.1210    38.7640     0.1080     0.2410     0.5030     2.3400 
   37.8750    36.8120    39.3600     0.1080     0.2420     0.3210     2.3400 
   38.0000    36.5300    40.5950     0.1170     0.2390     0.2190     2.3400 
   38.1250    36.3190    42.2420     0.1170     0.2250     0.1240     2.3400 
   38.2500    36.1920    41.9320     0.1170     0.2060     0.0850     2.3400 
   38.3750    36.1330    40.8090     0.1140     0.1940     0.0790     2.3400 
   38.5000    36.1570    38.0960     0.1100     0.1920     0.1140     2.3400 
   38.6250    36.2880    35.7160     0.1090     0.1930     0.2230     2.3400 
   38.7500    36.5660    35.0520     0.1090     0.1960     0.3190     2.3400 
   38.8750    36.9720    36.5710     0.1090     0.1990     0.3310     2.3400 
   39.0000    37.4430    37.6980     0.1080     0.2020     0.2720     2.3400 
   39.1250    37.8800    38.1300     0.1090     0.2050     0.1750     2.3400 
   39.2500    38.2370    38.0650     0.1090     0.2070     0.0880     2.3400 
   39.3750    38.5710    38.5270     0.1090     0.2090     0.0490     2.3400 
   39.5000    38.9920    37.8940     0.1100     0.2100     0.0400     2.3400 
