~V
VERS. 2.00: Ver 2.00
~W
STRT.M 63.0000:
STOP.M 247.0000:
STEP.M 0.1250:
NULL. -999.2500:
UWI. F10865:
~C
DEPT.M :
TVD. :
DX. :
DY. :
SP.MV :
GR.API :
RI. :
RML.OHMM :
RXO.OHMM :
DEN.GM/CC :
~A
# ...
  136.0000   135.9930    -0.9920     0.0000  -100.4510    58.3640    17.3900    18.4040    18.6410     2.1390 
  136.1250   136.1180    -0.9940     0.0010  -100.9220    60.1810    16.9410    17.7890    18.7640     2.1320 
  136.2500   136.2430    -0.9960     0.0010  -101.4550    63.1360    16.6510    17.3970    17.8520     2.1310 
  136.3750   136.3680    -0.9980     0.0010  -102.0370    64.9690    16.8030    17.5260    16.7850     2.1260 
  136.5000   136.4930    -1.0000     0.0010  -102.6580    65.2600    17.4290    18.1320    15.5820     2.1120 
  136.6250   136.6180    -1.0030     0.0010  -103.2990    65.5150    18.2940    19.8560    14.6220     2.0930 
  136.7500   136.7430    -1.0050     0.0010  -103.9510    64.5080    19.0630    21.4220    14.8170     2.0750 
  136.8750   136.8680    -1.0070     0.0010  -104.6100    61.1600    19.4840    21.5530    16.4220     2.0630 
  137.0000   136.9930    -1.0090     0.0020  -105.2810    58.3100    19.3030    21.0070    18.0100     2.0610 
  137.1250   137.1180    -1.0110     0.0020  -105.9630    59.6830    18.5590    19.9250    18.3020     2.0760 
  137.2500   137.2430    -1.0130     0.0020  -106.6430    64.3960    17.5240    18.6090    17.8170     2.1050 
  137.3750   137.3680    -1.0150     0.0020  -107.2990    69.4200    16.6760    17.6100    16.6650     2.1420 
  137.5000   137.4930    -1.0170     0.0020  -107.8950    74.0970    16.3910    17.3160    14.8590     2.1720 
  137.6250   137.6180    -1.0190     0.0020  -108.4120    74.9880    16.6420    17.6400    14.3430     2.1860 
  137.7500   137.7430    -1.0210     0.0030  -108.8260    70.9430    17.2510    18.3440    15.7120     2.1840 
  137.8750   137.8680    -1.0230     0.0030  -109.1430    67.5170    17.8570    18.9250    16.4910     2.1780 
  138.0000   137.9930    -1.0260     0.0030  -109.3560    71.8870    18.1730    19.0480    15.2990     2.1810 
  138.1250   138.1180    -1.0280     0.0030  -109.4830    80.8180    17.8490    18.4170    14.0820     2.1950 
  138.2500   138.2430    -1.0300     0.0030  -109.5300    85.8490    16.9880    17.2870    14.7300     2.2130 
  138.3750   138.3680    -1.0320     0.0030  -109.5190    85.6130    16.3970    16.5710    16.6350     2.2240 
  138.5000   138.4930    -1.0340     0.0030  -109.4640    84.1800    16.8410    17.0500    18.7710     2.2200 
  138.6250   138.6180    -1.0360     0.0030  -109.3850    82.2610    19.0640    19.5230    21.1490     2.2030 
  138.7500   138.7430    -1.0380     0.0030  -109.2950    76.4800    23.5590    24.5450    24.1700     2.1820 
  138.8750   138.8680    -1.0400     0.0030  -109.2030    69.3410    29.8840    31.4870    28.8830     2.1650 
  139.0000   138.9930    -1.0430     0.0030  -109.1010    66.1950    33.9320    35.8690    32.3200     2.1570 
  139.1250   139.1180    -1.0450     0.0030  -108.9690    66.8140    33.3850    35.2950    28.9000     2.1640 
  139.2500   139.2430    -1.0470     0.0030  -108.7680    66.0250    28.7720    29.8910    24.5080     2.1810 
  139.3750   139.3680    -1.0490     0.0030  -108.4720    63.7560    21.8320    22.2340    20.7950     2.2040 
  139.5000   139.4930    -1.0510     0.0030  -108.0470    66.1250    16.6140    16.6300    14.2780     2.2240 
  139.6250   139.6180    -1.0530     0.0030  -107.4950    72.6040    14.0460    14.0440    10.4590     2.2360 
  139.7500   139.7430    -1.0550     0.0030  -106.8250    77.8860    13.2600    13.7160    11.1080     2.2370 
  139.8750   139.8680    -1.0570     0.0030  -106.0800    78.7300    14.8250    15.7350    15.9900     2.2210 
  140.0000   139.9920    -1.0600     0.0030  -105.3100    76.1400    18.5220    19.9580    26.1850     2.1900 
  140.1250   140.1170    -1.0620     0.0030  -104.5660    71.6370    24.2260    26.2060    36.5050     2.1530 
  140.2500   140.2420    -1.0640     0.0030  -103.8900    67.0460    30.5630    32.9150    40.8020     2.1210 
  140.3750   140.3670    -1.0660     0.0030  -103.2850    64.0370    35.7840    38.1720    38.8880     2.1040 
  140.5000   140.4920    -1.0680     0.0030  -102.7400    61.8920    39.0370    41.3040    34.4470     2.1000 
  140.6250   140.6170    -1.0700     0.0030  -102.2200    60.1340    40.2740    42.4310    36.4730     2.1020 
  140.7500   140.7420    -1.0730     0.0030  -101.6950    57.8710    40.4700    42.6680    43.7110     2.1010 
  140.8750   140.8670    -1.0750     0.0020  -101.1550    56.8620    40.2510    42.6730    44.4830     2.0920 
  141.0000   140.9920    -1.0770     0.0020  -100.6160    59.2850    39.1800    41.7420    40.2050     2.0820 
  141.1250   141.1170    -1.0790     0.0020  -100.1160    62.0820    36.9250    39.4700    38.8180     2.0820 
  141.2500   141.2420    -1.0810     0.0020   -99.7050    60.0670    34.1900    36.6550    36.5840     2.0930 
  141.3750   141.3670    -1.0830     0.0020   -99.4130    54.5800    31.6460    34.1220    30.1830     2.1140 
  141.5000   141.4920    -1.0850     0.0010   -99.2620    52.3800    30.2910    32.9950    24.7320     2.1350 
  141.6250   141.6170    -1.0880     0.0010   -99.2290    55.5000    30.6160    33.7480    25.1670     2.1500 
  141.7500   141.7420    -1.0900     0.0010   -99.3020    60.3000    32.5040    36.2060    30.9380     2.1570 
  141.8750   141.8670    -1.0920     0.0010   -99.4510    63.7230    35.4860    39.8010    36.4390     2.1650 
  142.0000   141.9920    -1.0940     0.0000   -99.6710    64.4180    39.6610    44.6090    44.5740     2.1910 
  142.1250   142.1170    -1.0960     0.0000   -99.9490    62.4290    45.0130    50.7530    56.9860     2.2510 
  142.2500   142.2420    -1.0980     0.0000  -100.2850    58.5160    50.1280    56.5390    66.9720     2.3390 
  142.3750   142.3670    -1.1000    -0.0010  -100.6700    54.4660    54.0980    61.2750    78.3240     2.4230 
  142.5000   142.4920    -1.1020    -0.0010  -101.1000    53.0820    56.4290    64.3870    80.8970     2.4680 
  142.6250   142.6170    -1.1040    -0.0010  -101.5700    53.7600    56.7810    64.9990    63.4840     2.4610 
  142.7500   142.7420    -1.1070    -0.0020  -102.0790    54.5430    55.3410    63.3140    45.5040     2.4180 
  142.8750   142.8670    -1.1090    -0.0020  -102.6180    54.4860    50.8820    57.7030    39.6870     2.3560 
  143.0000   142.9920    -1.1110    -0.0020  -103.1740    55.8360    43.4430    48.4690    36.3570     2.2880 
  143.1250   143.1170    -1.1130    -0.0030  -103.7250    58.1640    34.2700    37.5780    28.7670     2.2220 
  143.2500   143.2420    -1.1150    -0.0030  -104.2410    59.9940    25.7770    27.6430    19.8530     2.1690 
  143.3750   143.3670    -1.1170    -0.0040  -104.7010    63.1290    19.6260    20.5340    13.6130     2.1380 
  143.5000   143.4920    -1.1190    -0.0040  -105.0850    66.1070    15.5710    16.0770    10.8820     2.1260 
  143.6250   143.6170    -1.1210    -0.0050  -105.3980    67.1150    13.6800    13.9580    10.6430     2.1300 
  143.7500   143.7420    -1.1230    -0.0050  -105.6490    67.6170    13.0240    13.3110    10.9130     2.1410 
  143.8750   143.8670    -1.1250    -0.0050  -105.8600    71.3260    13.4480    13.7920    11.4770     2.1520 
  144.0000   143.9920    -1.1270    -0.0060  -106.0480    75.5160    14.4850    14.8380    12.7420     2.1540 
  144.1250   144.1170    -1.1290    -0.0060  -106.2250    74.6880    15.4230    15.6950    13.6220     2.1450 
  144.2500   144.2420    -1.1310    -0.0070  -106.3950    68.8010    15.6390    15.6330    13.3860     2.1320 
  144.3750   144.3670    -1.1330    -0.0070  -106.5550    62.9830    14.8880    14.6980    12.3780     2.1260 
  144.5000   144.4920    -1.1350    -0.0080  -106.6990    61.4930    13.5960    13.3680    10.7130     2.1240 
  144.6250   144.6170    -1.1370    -0.0080  -106.8300    65.2170    12.4550    12.3820     8.8550     2.1210 
  144.7500   144.7420    -1.1390    -0.0090  -106.9530    70.9300    12.1260    12.3870     8.2720     2.1100 
  144.8750   144.8670    -1.1410    -0.0090  -107.0800    75.1070    13.3800    14.0010    10.1030     2.0940 
  145.0000   144.9920    -1.1430    -0.0100  -107.2280    74.5190    16.5870    17.8440    13.5750     2.0800 
