~V
VERS. 2.00: Ver 2.00
~W
STRT.M 60.0000:
STOP.M 249.0000:
STEP.M 0.1250:
NULL. -999.2500:
UWI. F10851:
~C
DEPT.M :
TVD. :
DX. :
DY. :
SP.MV :
GR.API :
RI. :
RML.OHMM :
RXO.OHMM :
DEN.GM/CC :
~A
   60.0000    60.0000     0.0000     0.0000    83.6450    44.9820     0.1000     0.2660    60.1930     2.3400 
   60.1250    60.1250     0.0000    -0.0010    83.4460    46.9520     0.1010     0.2740    60.1950     2.3280 
   60.2500    60.2500     0.0010    -0.0020    83.1420    49.2340     0.0960     0.2980    60.1960     2.3230 
   60.3750    60.3750     0.0010    -0.0030    82.4480    50.9880     0.0950     0.3110    60.1960     2.3270 
   60.5000    60.5000     0.0010    -0.0030    81.1190    50.9190     0.0940     0.3260    60.1960     2.3330 
   60.6250    60.6250     0.0020    -0.0040    78.9570    49.9390     0.0940     0.3150    60.1940     2.3350 
   60.7500    60.7500     0.0020    -0.0050    76.1730    49.1530     0.1110     0.3160    60.1930     2.3340 
   60.8750    60.8750     0.0030    -0.0060    73.1740    47.6780     0.1310     0.3170    60.1920     2.3350 
   61.0000    61.0000     0.0030    -0.0070    70.4700    45.5870     0.1440     0.3000    60.1890     2.3470 
   61.1250    61.1250     0.0040    -0.0080    68.5030    44.8830     0.1360     0.2980    60.1890     2.3710 
   61.2500    61.2500     0.0040    -0.0090    67.3980    45.1590     0.1390     0.2940    60.1890     2.4030 
   61.3750    61.3750     0.0050    -0.0100    67.1620    44.3100     0.1310     0.3060    60.1890     2.4360 
   61.5000    61.5000     0.0050    -0.0110    67.4440    42.9170     0.1350     0.3070    60.1900     2.4610 
   61.6250    61.6250     0.0060    -0.0110    67.8080    42.6420     0.1250     0.3020    60.1930     2.4730 
   61.7500    61.7500     0.0060    -0.0120    67.8250    42.7460     0.1270     0.2930    60.1920     2.4720 
   61.8750    61.8750     0.0070    -0.0130    67.1450    42.3650     0.1370     0.2700    60.1910     2.4620 
   62.0000    62.0000     0.0070    -0.0140    65.6390    42.7270     0.1500     0.2580    60.1900     2.4510 
   62.1250    62.1250     0.0080    -0.0150    63.1840    43.5140     0.1650     0.2580    60.1900     2.4500 
   62.2500    62.2500     0.0080    -0.0160    59.9550    43.4150     0.1470     0.2540    60.1910     2.4600 
   62.3750    62.3750     0.0090    -0.0170    56.1230    42.5040     0.1460     0.2520    58.9980     2.4720 
   62.5000    62.5000     0.0090    -0.0180    51.9810    42.2410     0.1450     0.2450    45.8760     2.4690 
   62.6250    62.6250     0.0100    -0.0180    47.7840    41.4540     0.1500     0.2440    19.6190     2.4410 
   62.7500    62.7500     0.0100    -0.0190    43.8070    39.7970     0.1590     0.2420     2.8890     2.3980 
   62.8750    62.8750     0.0110    -0.0200    40.3480    39.1640     0.1530     0.2380     0.4710     2.3590 
   63.0000    63.0000     0.0120    -0.0210    37.5750    40.8700     0.1620     0.2340     0.4470     2.3400 
   63.1250    63.1250     0.0120    -0.0220    35.6500    43.0350     0.1610     0.2280     0.4330     2.3420 
   63.2500    63.2500     0.0130    -0.0220    34.4930    43.5890     0.1710     0.2270     0.4220     2.3560 
   63.3750    63.3750     0.0140    -0.0230    34.0620    42.3890     0.1650     0.2250     0.4160     2.3730 
   63.5000    63.5000     0.0140    -0.0240    34.1370    41.4370     0.1730     0.2220     0.4120     2.3860 
   63.6250    63.6250     0.0150    -0.0250    34.5670    41.8860     0.1730     0.2180     0.4080     2.3940 
   63.7500    63.7500     0.0150    -0.0250    35.2130    42.7740     0.1560     0.2220     0.4060     2.3970 
   63.8750    63.8750     0.0160    -0.0260    36.0340    43.1550     0.1580     0.2220     0.4070     2.3940 
   64.0000    64.0000     0.0170    -0.0260    36.9590    42.9430     0.1300     0.2120     0.4090     2.3910 
   64.1250    64.1250     0.0170    -0.0270    37.9380    42.0470     0.1070     0.1730     0.4120     2.3910 
   64.2500    64.2500     0.0180    -0.0280    38.9040    41.1910     0.0730     0.1160     0.4150     2.3950 
   64.3750    64.3750     0.0190    -0.0280    39.7160    41.7340     0.0470     0.0650     0.4140     2.4040 
   64.5000    64.5000     0.0190    -0.0290    40.1900    43.7460     0.0420     0.0420     0.4090     2.4150 
   64.6250    64.6250     0.0200    -0.0290    40.0720    46.7870     0.1050     0.0830     0.7480     2.4240 
   64.7500    64.7500     0.0210    -0.0300    39.1990    52.0060     0.2790     0.2270     2.1820     2.4180 
   64.8750    64.8750     0.0210    -0.0310    37.3150    60.6160     0.6950     0.6010     4.4900     2.3850 
   65.0000    65.0000     0.0220    -0.0310    34.4430    69.9210     1.6400     1.7220     5.8620     2.3300 
   65.1250    65.1250     0.0230    -0.0320    30.6800    76.8180     2.7220     3.0290     5.7930     2.2690 
   65.2500    65.2500     0.0230    -0.0320    26.4570    81.1920     3.6790     4.0790     5.6200     2.2270 
   65.3750    65.3750     0.0240    -0.0330    22.2110    84.3200     4.2940     4.5510     5.7870     2.2120 
   65.5000    65.5000     0.0250    -0.0330    18.3380    86.3400     4.5300     4.2900     5.9080     2.2150 
   65.6250    65.6250     0.0250    -0.0330    15.1400    86.2860     5.0970     4.3500     5.8310     2.2260 
   65.7500    65.7500     0.0260    -0.0340    12.6160    83.8360     5.9980     4.8820     6.3980     2.2430 
   65.8750    65.8750     0.0260    -0.0340    10.6720    80.2340     6.9380     5.6850    11.1520     2.2740 
   66.0000    66.0000     0.0270    -0.0350     9.0470    78.0280     7.7940     6.5170    16.9810     2.3160 
   66.1250    66.1250     0.0270    -0.0350     7.5850    78.8440     8.4560     7.2340    14.7260     2.3510 
   66.2500    66.2500     0.0280    -0.0360     6.2000    80.3130     8.6720     7.4600     8.5600     2.3590 
   66.3750    66.3750     0.0290    -0.0360     4.9030    80.1470     8.3520     7.1620     7.1860     2.3300 
   66.5000    66.5000     0.0290    -0.0370     3.7380    80.2100     7.7440     6.6210     8.3370     2.2800 
   66.6250    66.6250     0.0300    -0.0370     2.7810    82.9300     6.9730     5.9630     7.6900     2.2340 
   66.7500    66.7500     0.0300    -0.0380     2.0340    87.0470     6.5390     5.6310     6.2720     2.2070 
   66.8750    66.8750     0.0310    -0.0380     1.4710    88.9600     6.3980     5.5530     5.9880     2.2010 
   67.0000    67.0000     0.0310    -0.0390     1.0290    88.8910     6.4430     5.6210     6.3250     2.2070 
   67.1250    67.1250     0.0320    -0.0390     0.6600    88.0670     6.7020     5.8700     6.7730     2.2200 
   67.2500    67.2500     0.0320    -0.0400     0.3030    86.4810     6.9860     6.1590     6.9840     2.2370 
   67.3750    67.3750     0.0320    -0.0400    -0.0670    83.9070     7.1580     6.3420     6.6780     2.2590 
   67.5000    67.5000     0.0330    -0.0410    -0.4330    83.0220     6.9940     6.2150     6.1080     2.2800 
   67.6250    67.6250     0.0330    -0.0410    -0.7660    85.4460     6.5760     5.8890     5.6450     2.2920 
   67.7500    67.7500     0.0340    -0.0420    -1.0320    89.7340     6.0010     5.3910     5.5470     2.2930 
   67.8750    67.8750     0.0340    -0.0420    -1.1730    94.8870     5.4900     4.9460     5.5780     2.2830 
   68.0000    68.0000     0.0350    -0.0420    -1.1560    98.8370     5.2870     4.8170     5.4570     2.2710 
   68.1250    68.1250     0.0350    -0.0430    -0.9330    98.6830     5.5880     5.1750     5.6740     2.2580 
   68.2500    68.2500     0.0360    -0.0430    -0.4960    93.2910     6.4150     6.0290     7.8770     2.2430 
   68.3750    68.3750     0.0360    -0.0440     0.1680    83.0810     7.9290     7.5690    11.4840     2.2240 
   68.5000    68.5000     0.0360    -0.0440     1.0230    72.6160    10.4060    10.0340    13.2130     2.2040 
   68.6250    68.6250     0.0370    -0.0450     2.0480    66.4220    13.2460    12.7490    15.9000     2.1890 
   68.7500    68.7500     0.0370    -0.0450     3.1620    65.6540    15.6650    14.9880    19.8900     2.1830 
   68.8750    68.8750     0.0380    -0.0460     4.2590    65.7550    17.2250    16.2820    19.9470     2.1780 
   69.0000    69.0000     0.0380    -0.0460     5.2290    63.7020    17.5800    16.4110    18.8710     2.1660 
