~V
VERS. 2.00: Ver 2.00
~W
STRT.M 63.0000:
STOP.M 269.0000:
STEP.M 0.1250:
NULL. -999.2500:
UWI. F10891:
~C
DEPT.M :
TVD. :
DX. :
DY. :
SP.MV :
GR.API :
RI. :
RML.OHMM :
RXO.OHMM :
DEN.GM/CC :
~A
# ...
  172.5000   172.4930    -0.6560    -1.0340   -25.1270    61.0570    14.3060    16.5160    15.1200     2.4170 
  172.6250   172.6180    -0.6570    -1.0360   -25.0750    60.0900    14.1150    16.2430    14.6100     2.4230 
  172.7500   172.7430    -0.6570    -1.0370   -25.0510    60.0960    13.8750    15.9180    13.8430     2.4230 
  172.8750   172.8680    -0.6580    -1.0380   -25.0520    58.9970    13.7820    15.7980    13.7950     2.4180 
  173.0000   172.9930    -0.6590    -1.0400   -25.0780    57.2610    13.9750    16.0450    14.7310     2.4110 
  173.1250   173.1180    -0.6590    -1.0410   -25.1200    53.9980    14.3620    16.5220    15.7400     2.4070 
  173.2500   173.2430    -0.6600    -1.0430   -25.1750    51.2830    14.6830    16.8850    15.9170     2.4080 
  173.3750   173.3680    -0.6610    -1.0440   -25.2320    50.7730    14.6490    16.7890    15.3510     2.4130 
  173.5000   173.4930    -0.6610    -1.0460   -25.2840    53.5000    14.0880    16.0440    14.4470     2.4180 
  173.6250   173.6180    -0.6620    -1.0470   -25.3280    56.3490    13.1660    14.8840    13.4060     2.4190 
  173.7500   173.7430    -0.6630    -1.0490   -25.3600    56.1790    12.1820    13.6960    12.4990     2.4080 
  173.8750   173.8680    -0.6630    -1.0500   -25.3800    54.9170    11.4290    12.8320    12.0250     2.3900 
  174.0000   173.9930    -0.6640    -1.0520   -25.3840    54.7980    11.0800    12.4820    11.8970     2.3720 
  174.1250   174.1180    -0.6650    -1.0530   -25.3730    56.0390    11.0860    12.5540    11.8920     2.3620 
  174.2500   174.2430    -0.6650    -1.0550   -25.3470    55.8650    11.3460    12.9000    12.1210     2.3660 
  174.3750   174.3680    -0.6660    -1.0560   -25.3070    53.6820    11.7000    13.3230    12.6120     2.3750 
  174.5000   174.4930    -0.6670    -1.0580   -25.2570    51.2700    12.0340    13.6920    13.1190     2.3770 
  174.6250   174.6180    -0.6680    -1.0590   -25.2040    49.9100    12.2990    13.9650    13.3350     2.3680 
  174.7500   174.7430    -0.6680    -1.0610   -25.1540    49.4290    12.5230    14.1820    13.3810     2.3540 
  174.8750   174.8680    -0.6690    -1.0620   -25.1150    48.6570    12.7740    14.4320    13.3320     2.3470 
  175.0000   174.9930    -0.6700    -1.0640   -25.0860    48.6050    13.1010    14.7780    13.4640     2.3520 
  175.1250   175.1180    -0.6700    -1.0650   -25.0700    48.9210    13.4760    15.1880    14.8050     2.3690 
  175.2500   175.2430    -0.6710    -1.0670   -25.0650    48.7230    13.7800    15.5150    16.7750     2.3900 
  175.3750   175.3680    -0.6720    -1.0680   -25.0690    47.6270    13.8770    15.5970    17.5950     2.4030 
  175.5000   175.4930    -0.6720    -1.0700   -25.0830    46.7930    13.6880    15.3380    16.8150     2.4000 
  175.6250   175.6180    -0.6730    -1.0710   -25.1100    48.1260    13.2910    14.8350    15.3020     2.3890 
  175.7500   175.7430    -0.6740    -1.0730   -25.1580    50.6560    12.8280    14.2700    13.9180     2.3820 
  175.8750   175.8680    -0.6740    -1.0740   -25.2260    52.6370    12.4690    13.8450    13.2940     2.3830 
  176.0000   175.9930    -0.6750    -1.0760   -25.3130    51.5960    12.3100    13.6690    13.4610     2.3890 
  176.1250   176.1180    -0.6760    -1.0770   -25.4090    49.4550    12.3140    13.6790    13.9200     2.3920 
  176.2500   176.2430    -0.6760    -1.0790   -25.5090    48.6860    12.4130    13.7820    14.2620     2.3920 
  176.3750   176.3680    -0.6770    -1.0800   -25.6100    49.1710    12.5350    13.8960    14.0660     2.3900 
  176.5000   176.4930    -0.6780    -1.0810   -25.7120    50.6120    12.6440    13.9900    13.5600     2.3880 
  176.6250   176.6180    -0.6780    -1.0830   -25.8160    51.6650    12.7420    14.0760    13.7010     2.3840 
  176.7500   176.7430    -0.6790    -1.0840   -25.9220    52.2630    12.8420    14.1770    14.5070     2.3810 
  176.8750   176.8680    -0.6800    -1.0860   -26.0270    53.0890    12.9560    14.2990    14.8700     2.3780 
  177.0000   176.9930    -0.6800    -1.0870   -26.1290    52.7790    13.0850    14.4380    14.4560     2.3780 
  177.1250   177.1180    -0.6810    -1.0890   -26.2230    51.5770    13.2260    14.5910    14.1210     2.3810 
  177.2500   177.2430    -0.6820    -1.0900   -26.3080    49.4670    13.4030    14.7920    14.3950     2.3840 
  177.3750   177.3680    -0.6820    -1.0920   -26.3770    48.8800    13.6670    15.1070    14.9970     2.3860 
  177.5000   177.4930    -0.6830    -1.0930   -26.4220    50.0040    14.0900    15.6140    15.5570     2.3870 
  177.6250   177.6180    -0.6840    -1.0950   -26.4320    50.8660    14.7040    16.3380    15.6410     2.3860 
  177.7500   177.7430    -0.6840    -1.0960   -26.3960    50.6670    15.5500    17.3220    15.0730     2.3840 
  177.8750   177.8680    -0.6850    -1.0980   -26.3160    51.0970    16.5720    18.4920    14.6340     2.3810 
  178.0000   177.9930    -0.6860    -1.0990   -26.1990    53.3600    17.6020    19.6420    15.6810     2.3820 
  178.1250   178.1180    -0.6860    -1.1010   -26.0640    55.8360    18.3810    20.4750    18.5860     2.3900 
  178.2500   178.2430    -0.6870    -1.1020   -25.9310    57.4880    18.6570    20.7190    21.0580     2.4020 
  178.3750   178.3680    -0.6880    -1.1030   -25.8100    58.2880    18.4170    20.3840    20.6110     2.4080 
  178.5000   178.4930    -0.6880    -1.1050   -25.7080    57.5550    17.7890    19.6410    18.9170     2.4050 
  178.6250   178.6170    -0.6890    -1.1060   -25.6230    55.8160    17.0790    18.8480    17.9400     2.3960 
  178.7500   178.7420    -0.6900    -1.1080   -25.5550    54.6180    16.5510    18.3050    17.3240     2.3880 
  178.8750   178.8670    -0.6900    -1.1090   -25.5020    54.0790    16.3350    18.1410    17.0870     2.3850 
  179.0000   178.9920    -0.6910    -1.1110   -25.4610    53.5920    16.4640    18.3630    17.1900     2.3910 
  179.1250   179.1170    -0.6920    -1.1120   -25.4290    51.0860    16.8080    18.8020    17.4700     2.4020 
  179.2500   179.2420    -0.6920    -1.1140   -25.3960    50.0830    17.2400    19.3030    17.8290     2.4120 
  179.3750   179.3670    -0.6930    -1.1150   -25.3580    50.7820    17.6400    19.7370    18.0110     2.4220 
  179.5000   179.4920    -0.6930    -1.1160   -25.3130    53.7630    17.9080    19.9860    17.9460     2.4310 
  179.6250   179.6170    -0.6940    -1.1180   -25.2660    55.1880    17.9770    19.9840    17.8210     2.4370 
  179.7500   179.7420    -0.6950    -1.1190   -25.2260    54.5420    17.7840    19.6800    17.8370     2.4360 
  179.8750   179.8670    -0.6950    -1.1210   -25.1910    52.5620    17.3790    19.1540    17.9260     2.4320 
  180.0000   179.9920    -0.6960    -1.1220   -25.1570    51.7850    16.8490    18.5210    17.7430     2.4300 
  180.1250   180.1170    -0.6970    -1.1230   -25.1160    52.6580    16.3350    17.9400    17.2770     2.4290 
  180.2500   180.2420    -0.6970    -1.1250   -25.0570    55.0140    15.9560    17.5420    16.7850     2.4250 
  180.3750   180.3670    -0.6980    -1.1260   -24.9880    56.0340    15.7480    17.3590    16.3610     2.4180 
  180.5000   180.4920    -0.6980    -1.1280   -24.9220    55.7360    15.6870    17.3510    16.1810     2.4130 
  180.6250   180.6170    -0.6990    -1.1290   -24.8730    54.1220    15.6850    17.4150    16.2560     2.4120 
  180.7500   180.7420    -0.7000    -1.1300   -24.8500    53.2620    15.6930    17.4860    16.4480     2.4160 
  180.8750   180.8670    -0.7000    -1.1320   -24.8450    52.1390    15.7000    17.5480    16.7890     2.4260 
  181.0000   180.9920    -0.7010    -1.1330   -24.8520    52.0550    15.7060    17.6040    17.0610     2.4380 
  181.1250   181.1170    -0.7020    -1.1350   -24.8670    51.5070    15.6880    17.6310    16.9150     2.4500 
  181.2500   181.2420    -0.7020    -1.1360   -24.8920    50.9490    15.5920    17.5660    16.5050     2.4550 
  181.3750   181.3670    -0.7030    -1.1370   -24.9300    50.6340    15.3890    17.3690    16.1200     2.4510 
  181.5000   181.4920    -0.7030    -1.1390   -24.9840    51.1800    15.0890    17.0520    15.7400     2.4420 
