~V
VERS. 2.00: Ver 2.00
~W
STRT.M 63.0000:
STOP.M 269.0000:
STEP.M 0.1250:
NULL. -999.2500:
UWI. F10891:
~C
DEPT.M :
TVD. :
DX. :
DY. :
SP.MV :
GR.API :
RI. :
RML.OHMM :
RXO.OHMM :
DEN.GM/CC :
~A
# ...
  154.2500   154.2450    -0.5430    -0.8210   -27.9230    65.0030    18.0300    20.9830    21.5240     2.2220 
  154.3750   154.3700    -0.5440    -0.8220   -27.1570    65.5890    17.7800    20.5290    19.5050     2.2090 
  154.5000   154.4950    -0.5450    -0.8240   -26.3850    63.0810    17.4740    20.0560    18.2310     2.1910 
  154.6250   154.6200    -0.5460    -0.8250   -25.6300    61.3460    17.1960    19.6510    17.3610     2.1880 
  154.7500   154.7450    -0.5470    -0.8260   -24.8930    60.3070    16.8790    19.2040    17.2580     2.2170 
  154.8750   154.8700    -0.5470    -0.8280   -24.1400    61.5550    16.3580    18.5010    20.1560     2.2670 
  155.0000   154.9950    -0.5480    -0.8290   -23.3320    62.4550    15.4840    17.3910    24.4780     2.3130 
  155.1250   155.1200    -0.5490    -0.8310   -22.4690    63.5290    14.3700    16.0410    23.5390     2.3310 
  155.2500   155.2450    -0.5500    -0.8320   -21.6130    65.6090    13.2840    14.7990    18.2430     2.3180 
  155.3750   155.3700    -0.5510    -0.8340   -20.8740    69.1890    12.4860    13.9550    14.7330     2.2910 
  155.5000   155.4940    -0.5520    -0.8350   -20.3870    71.8610    12.1000    13.6270    13.6380     2.2630 
  155.6250   155.6190    -0.5520    -0.8370   -20.1970    71.7280    11.9930    13.6130    13.1390     2.2410 
  155.7500   155.7440    -0.5530    -0.8380   -20.3170    69.3970    11.9660    13.6360    13.1280     2.2300 
  155.8750   155.8690    -0.5540    -0.8400   -20.6470    68.9300    11.8620    13.5000    13.5440     2.2280 
  156.0000   155.9940    -0.5550    -0.8410   -21.0860    70.9740    11.6900    13.2260    13.8140     2.2270 
  156.1250   156.1190    -0.5560    -0.8430   -21.5460    73.4070    11.6240    13.0530    13.6730     2.2160 
  156.2500   156.2440    -0.5570    -0.8440   -22.0150    74.5400    11.8970    13.2860    13.5530     2.1940 
  156.3750   156.3690    -0.5570    -0.8450   -22.5410    72.3730    12.5770    13.9940    14.3810     2.1720 
  156.5000   156.4940    -0.5580    -0.8470   -23.1840    69.5860    13.5420    15.0100    16.7880     2.1580 
  156.6250   156.6190    -0.5590    -0.8480   -23.9120    66.6100    14.4290    15.8940    19.0220     2.1510 
  156.7500   156.7440    -0.5600    -0.8500   -24.6070    65.5660    14.8350    16.2040    18.6050     2.1440 
  156.8750   156.8690    -0.5610    -0.8510   -25.1220    65.7860    14.6430    15.8590    17.2160     2.1380 
  157.0000   156.9940    -0.5610    -0.8530   -25.3210    67.6040    13.9100    14.9700    15.9170     2.1380 
  157.1250   157.1190    -0.5620    -0.8540   -25.1750    69.8750    12.8460    13.7670    14.0790     2.1480 
  157.2500   157.2440    -0.5630    -0.8560   -24.6540    70.9450    11.5450    12.3300    12.0260     2.1670 
  157.3750   157.3690    -0.5640    -0.8570   -23.8250    70.8640    10.0860    10.7170    10.4160     2.1900 
  157.5000   157.4940    -0.5650    -0.8590   -22.7520    71.8510     8.5650     9.0320     9.2020     2.2140 
  157.6250   157.6190    -0.5660    -0.8600   -21.5710    76.6060     7.1930     7.5240     7.9160     2.2390 
  157.7500   157.7440    -0.5660    -0.8620   -20.4080    82.6260     6.2380     6.4960     6.7530     2.2670 
  157.8750   157.8690    -0.5670    -0.8630   -19.3820    87.8420     5.8310     6.0910     6.3080     2.2860 
  158.0000   157.9940    -0.5680    -0.8650   -18.6400    89.0310     6.1420     6.4810     7.1700     2.2790 
  158.1250   158.1190    -0.5690    -0.8660   -18.2990    86.9760     7.1810     7.6510     8.9940     2.2430 
  158.2500   158.2440    -0.5700    -0.8680   -18.5120    80.9740     8.8820     9.4840    10.7550     2.1900 
  158.3750   158.3690    -0.5700    -0.8690   -19.2360    74.7830    10.7740    11.4480    11.7780     2.1420 
  158.5000   158.4940    -0.5710    -0.8700   -20.3470    69.9870    12.2300    12.8860    12.5290     2.1140 
  158.6250   158.6190    -0.5720    -0.8720   -21.5630    67.9500    12.8700    13.4460    13.3320     2.1040 
  158.7500   158.7440    -0.5730    -0.8730   -22.6440    66.4810    12.6350    13.1230    13.4600     2.1040 
  158.8750   158.8690    -0.5740    -0.8750   -23.4890    65.0230    11.9430    12.3920    12.6580     2.1050 
  159.0000   158.9940    -0.5750    -0.8760   -24.0870    62.8930    11.2500    11.7480    11.8830     2.1050 
  159.1250   159.1190    -0.5750    -0.8780   -24.5090    61.8840    10.9730    11.6230    11.4540     2.1100 
  159.2500   159.2440    -0.5760    -0.8790   -24.7940    61.3400    11.6380    12.5840    11.4510     2.1360 
  159.3750   159.3690    -0.5770    -0.8810   -24.9920    60.2480    13.8410    15.3210    14.5580     2.1970 
  159.5000   159.4940    -0.5780    -0.8820   -25.1320    57.4240    18.7690    21.3270    26.3850     2.2980 
  159.6250   159.6190    -0.5790    -0.8840   -25.2540    55.3210    26.8610    31.0820    43.0790     2.4160 
  159.7500   159.7440    -0.5790    -0.8850   -25.3600    54.5500    36.9480    42.8130    58.2810     2.5150 
  159.8750   159.8690    -0.5800    -0.8870   -25.4340    53.8230    45.2330    51.7710    73.1980     2.5760 
  160.0000   159.9940    -0.5810    -0.8880   -25.4710    51.0630    47.6970    53.4630    83.2580     2.5950 
  160.1250   160.1190    -0.5820    -0.8900   -25.4800    49.5500    44.0200    48.1760    77.5600     2.5870 
  160.2500   160.2440    -0.5830    -0.8910   -25.4800    49.9880    36.4690    39.1170    56.0340     2.5610 
  160.3750   160.3690    -0.5830    -0.8920   -25.4800    52.0480    29.0910    30.9320    35.2050     2.5330 
  160.5000   160.4940    -0.5840    -0.8940   -25.4820    52.2210    24.2370    25.9050    26.3060     2.5170 
  160.6250   160.6190    -0.5850    -0.8950   -25.5050    50.6080    21.8020    23.5460    24.5080     2.5150 
  160.7500   160.7440    -0.5860    -0.8970   -25.5650    48.4030    21.2520    23.1500    23.1500     2.5170 
  160.8750   160.8690    -0.5870    -0.8980   -25.6580    46.3790    21.8170    23.8690    22.3710     2.5190 
  161.0000   160.9940    -0.5870    -0.9000   -25.7650    46.0770    23.0790    25.2600    23.7900     2.5230 
  161.1250   161.1190    -0.5880    -0.9010   -25.8390    46.7390    24.6980    27.0030    25.9390     2.5300 
  161.2500   161.2440    -0.5890    -0.9030   -25.8770    48.6260    26.5300    28.9670    29.4140     2.5380 
  161.3750   161.3690    -0.5900    -0.9040   -25.8840    49.5150    28.3150    30.8530    35.6640     2.5460 
  161.5000   161.4940    -0.5910    -0.9060   -25.8840    48.9680    29.6120    32.1480    40.7860     2.5610 
  161.6250   161.6190    -0.5910    -0.9070   -25.8730    48.3480    30.0750    32.4870    40.9660     2.5840 
  161.7500   161.7440    -0.5920    -0.9090   -25.8110    48.8800    29.4740    31.6570    38.8960     2.6050 
  161.8750   161.8690    -0.5930    -0.9100   -25.7050    50.5640    27.9910    29.8990    36.5580     2.6070 
  162.0000   161.9940    -0.5940    -0.9120   -25.5670    51.0200    25.8340    27.4730    32.1600     2.5870 
  162.1250   162.1190    -0.5940    -0.9130   -25.4700    50.0400    23.3840    24.7910    27.2410     2.5580 
  162.2500   162.2440    -0.5950    -0.9150   -25.4810    47.9300    20.9600    22.1750    23.7560     2.5300 
  162.3750   162.3690    -0.5960    -0.9160   -25.5630    47.4480    18.7940    19.8520    20.9370     2.5040 
  162.5000   162.4940    -0.5970    -0.9180   -25.6950    48.3390    17.0750    18.0140    18.7070     2.4760 
  162.6250   162.6190    -0.5980    -0.9190   -25.7990    50.2970    15.8380    16.6990    17.2980     2.4470 
  162.7500   162.7440    -0.5980    -0.9210   -25.8390    51.4070    15.1280    15.9650    16.3200     2.4280 
  162.8750   162.8690    -0.5990    -0.9220   -25.8130    52.5680    14.9180    15.7940    15.6830     2.4250 
  163.0000   162.9940    -0.6000    -0.9240   -25.7270    53.8340    15.2750    16.2540    15.6190     2.4410 
  163.1250   163.1190    -0.6010    -0.9250   -25.6140    54.6330    16.1030    17.2250    16.4050     2.4660 
  163.2500   163.2440    -0.6010    -0.9270   -25.5020    54.6240    17.2560    18.5300    18.4770     2.4840 
