~V
VERS. 2.00: Ver 2.00
~W
STRT.M 40.0000:
STOP.M 205.0000:
STEP.M 0.1250:
NULL. -999.2500:
UWI. F10810:
~C
DEPT.M :
SP.MV :
GR.API :
RI. :
RML.OHMM :
RXO.OHMM :
DEN.GM/CC :
~A
# ...
  155.8750   -23.7010    67.2520   146.9930   155.0930    70.2320     2.1670 
  156.0000   -23.6820    69.2580   121.0290   128.1600    67.1700     2.1830 
  156.1250   -23.6950    70.9900   100.5460   107.6800    58.4550     2.1870 
  156.2500   -23.7280    71.9220    88.9560    95.7280    50.7210     2.1790 
  156.3750   -23.7660    72.6320    85.3020    92.3020    47.9510     2.1650 
  156.5000   -23.7930    72.3720    88.4180    95.9880    54.1920     2.1520 
  156.6250   -23.7940    71.8570    98.4260   106.8020    73.7890     2.1450 
  156.7500   -23.7640    70.3950   112.9320   121.5510    96.5360     2.1360 
  156.8750   -23.6980    69.3140   126.8310   135.3770   113.4100     2.1300 
  157.0000   -23.6060    67.6310   137.4630   144.9230   126.4490     2.1270 
  157.1250   -23.4980    67.2870   140.4630   148.2760   123.9930     2.1230 
  157.2500   -23.3900    66.9570   137.9130   146.7320    91.2470     2.1200 
  157.3750   -23.2960    66.8450   130.7120   138.1230    53.9960     2.1220 
  157.5000   -23.2250    65.3290   119.2290   125.0750    51.0360     2.1310 
  157.6250   -23.1830    64.0970   105.5250   110.3480    66.6800     2.1450 
  157.7500   -23.1670    63.7470    92.2950    96.3980    66.5370     2.1520 
  157.8750   -23.1700    64.8870    80.6730    84.0280    53.6440     2.1480 
  158.0000   -23.1820    67.4570    69.8680    72.7000    44.2270     2.1440 
  158.1250   -23.1920    70.4860    60.0470    62.6920    39.0930     2.1540 
  158.2500   -23.1910    73.1710    52.0590    54.9250    32.7300     2.1770 
  158.3750   -23.1700    75.3520    48.1390    51.2030    25.1900     2.2060 
  158.5000   -23.1270    75.7160    48.2600    51.6880    20.9340     2.2200 
  158.6250   -23.0620    75.5360    52.1520    56.8290    24.5760     2.2020 
  158.7500   -22.9840    74.2650    60.9610    66.8050    33.8740     2.1630 
  158.8750   -22.9020    72.2400    73.8830    79.7190    43.1480     2.1360 
  159.0000   -22.8290    69.3420    86.9420    92.8200    49.0810     2.1340 
  159.1250   -22.7740    66.6020    98.4810   103.2520    69.7080     2.1450 
  159.2500   -22.7400    66.3220   108.4760   114.3560   109.9650     2.1560 
  159.3750   -22.7290    67.8660   121.0320   128.3740   137.5390     2.1640 
  159.5000   -22.7300    69.7190   133.6850   142.0710   140.7370     2.1900 
  159.6250   -22.7320    68.8220   141.3540   149.4330   132.0490     2.2470 
  159.7500   -22.7220    64.5280   139.7930   146.8020   123.4980     2.3310 
  159.8750   -22.6840    60.4800   128.4680   136.7210   114.3600     2.4120 
  160.0000   -22.6120    59.2790   111.9630   121.2300   101.8710     2.4620 
  160.1250   -22.4990    61.0480    94.9390   102.5320    89.1350     2.4700 
  160.2500   -22.3500    63.6250    80.1630    86.0380    73.8240     2.4420 
  160.3750   -22.1660    65.8190    67.6170    72.5770    57.5810     2.3790 
  160.5000   -21.9560    68.6960    58.6170    62.3430    48.5220     2.2890 
  160.6250   -21.7260    70.4800    51.8610    55.0370    43.7500     2.2040 
  160.7500   -21.4840    71.8840    47.5000    50.0780    35.6120     2.1560 
  160.8750   -21.2400    71.6530    44.9270    47.4850    31.0110     2.1570 
  161.0000   -21.0080    72.6120    41.8300    43.7510    34.1880     2.1830 
  161.1250   -20.8090    74.3780    37.9320    39.6580    41.4800     2.2150 
  161.2500   -20.6590    77.4800    34.4920    36.1850    42.8840     2.2430 
  161.3750   -20.5790    80.1670    32.8410    34.7260    31.7820     2.2680 
  161.5000   -20.5690    82.0020    33.7780    35.9100    24.8860     2.2790 
  161.6250   -20.6330    81.3500    37.4520    40.3890    35.7770     2.2680 
  161.7500   -20.7510    79.5510    44.1640    47.9730    51.2480     2.2400 
  161.8750   -20.9100    77.4170    52.4700    56.4500    54.6360     2.2100 
  162.0000   -21.0870    76.5820    58.1950    62.1960    46.8320     2.1940 
  162.1250   -21.2690    77.2220    59.5850    63.2780    37.8210     2.1920 
  162.2500   -21.4460    78.2620    56.7910    60.6380    34.0050     2.1960 
  162.3750   -21.6100    77.6820    53.2420    55.4470    32.9140     2.1980 
  162.5000   -21.7570    76.5250    51.5690    54.2340    31.0640     2.2000 
  162.6250   -21.8770    74.8600    52.3080    55.5560    30.4230     2.2050 
  162.7500   -21.9590    72.6230    54.7350    58.7310    34.1220     2.2160 
  162.8750   -21.9860    69.8730    58.2170    62.0890    48.7710     2.2390 
  163.0000   -21.9480    68.4710    61.2680    63.9120    66.4410     2.2750 
  163.1250   -21.8310    68.8960    62.5420    65.2190    69.3360     2.3150 
  163.2500   -21.6360    68.7530    62.1460    65.4800    62.1130     2.3570 
  163.3750   -21.3630    66.7780    61.6120    65.6450    53.0050     2.4090 
  163.5000   -21.0320    65.8840    62.5780    67.3480    46.2970     2.4720 
  163.6250   -20.6570    67.1310    65.9550    71.8180    54.1790     2.5250 
  163.7500   -20.2620    68.9800    72.3930    79.4920    72.3490     2.5580 
  163.8750   -19.8630    69.4410    81.7830    89.9610    80.3750     2.5740 
  164.0000   -19.4680    68.1750    92.1410   101.1380    76.1950     2.5870 
  164.1250   -19.0780    66.5800   102.1850   111.8550    79.1230     2.6020 
  164.2500   -18.6880    66.3150   112.0220   123.1360    96.5370     2.6150 
  164.3750   -18.2890    67.9460   123.9220   135.2000   116.9630     2.6220 
  164.5000   -17.8800    69.9190   131.6280   143.2920   129.9800     2.6290 
  164.6250   -17.4670    70.7410   132.9680   144.6310   153.0010     2.6380 
  164.7500   -17.0560    70.3390   119.1100   125.9460   182.2150     2.6460 
  164.8750   -16.6560    71.3490    85.0190    91.3740   164.2790     2.6460 
  165.0000   -16.2630    73.6440    52.2100    55.8060   115.1350     2.6410 
  165.1250   -15.8710    77.6080    23.3410    27.6060   107.4440     2.6470 
  165.2500   -15.4690    80.8930     9.9480    12.4960   103.2650     2.6440 
  165.3750   -15.0570    82.4440     6.4910     7.6490    48.2080     2.5840 
  165.5000   -14.6510    82.5690     4.7970     5.7650     8.0650     2.4570 
  165.6250   -14.2810    80.9000     4.2330     5.0900     5.3490     2.3210 
  165.7500   -13.9730    78.5480     4.3290     5.2980     5.3780     2.2410 
  165.8750   -13.7550    75.5690     4.6780     5.7440     5.1170     2.2240 
  166.0000   -13.6240    73.8120     5.0620     6.1340     4.8210     2.2310 
  166.1250   -13.5670    72.3090     5.3490     6.3810     5.0200     2.2330 
  166.2500   -13.5480    72.1040     5.5770     6.5700     5.7060     2.2300 
  166.3750   -13.5330    73.3180     5.7530     6.7400     6.3010     2.2330 
  166.5000   -13.4960    76.0210     5.8740     6.8790     6.2010     2.2440 
  166.6250   -13.4240    77.9760     6.0100     7.0370     5.7330     2.2510 
  166.7500   -13.3270    79.3240     6.1960     7.3580     5.6920     2.2490 
  166.8750   -13.2170    81.2940     6.3950     7.6530     6.2730     2.2490 
  167.0000   -13.1120    83.9090     6.6590     8.0970     6.8210     2.2610 
  167.1250   -13.0170    85.3720     6.9320     8.6130     6.9500     2.2750 
  167.2500   -12.9270    84.9700     7.0810     8.8630     7.0660     2.2770 
  167.3750   -12.8310    85.4530     6.9970     8.8230     7.5560     2.2590 
  167.5000   -12.7180    87.4450     6.6450     8.5320     7.7900     2.2380 
  167.6250   -12.5870    88.6680     6.1990     8.0670     7.0700     2.2270 
  167.7500   -12.4530    87.1300     5.7980     7.6610     6.1660     2.2240 
  167.8750   -12.3360    83.2470     5.5960     7.5490     5.6840     2.2270 
  168.0000   -12.2540    79.5480     5.5340     7.5560     5.8020     2.2340 
  168.1250   -12.2210    77.0160     5.5480     7.6670     6.5010     2.2470 
  168.2500   -12.2390    75.9600     5.5670     7.7600     6.6900     2.2560 
  168.3750   -12.3090    75.4990     5.5520     7.7690     5.8280     2.2570 
  168.5000   -12.4250    75.6010     5.4960     7.6950     4.8060     2.2500 
  168.6250   -12.5880    76.0730     5.3910     7.5540     5.0160     2.2460 
