~V
VERS. 2.00: Ver 2.00
~W
STRT.M 40.0000:
STOP.M 205.0000:
STEP.M 0.1250:
NULL. -999.2500:
UWI. F10807:
~C
DEPT.M :
SP.MV :
GR.API :
RI. :
RML.OHMM :
RXO.OHMM :
DEN.GM/CC :
~A
# ...
  130.1250   -13.1390    80.6370     8.3010     8.8020     8.9170     2.3360 
  130.2500   -13.2640    80.0990     8.8130     9.3360     9.8300     2.3350 
  130.3750   -13.4370    80.1860     9.5110    10.0820    11.9460     2.3370 
  130.5000   -13.6270    81.4980    10.2700    10.8470    14.4530     2.3460 
  130.6250   -13.7180    82.0860    10.8060    11.3510    15.3370     2.3620 
  130.7500   -13.7860    82.1750    10.9640    11.4480    13.8230     2.3760 
  130.8750   -13.7370    81.3460    10.7350    11.1930    11.9470     2.3850 
  131.0000   -13.6300    78.9130    10.4080    10.8580    11.6180     2.3900 
  131.1250   -13.5300    76.6160    10.1770    10.6290    12.1320     2.3880 
  131.2500   -13.4880    75.8880    10.0720    10.5730    13.2250     2.3810 
  131.3750   -13.4760    75.7850    10.1680    10.7200    14.8850     2.3760 
  131.5000   -13.5210    75.7100    10.2640    10.9330    14.7360     2.3760 
  131.6250   -13.6280    72.9590    10.3380    11.0630    13.2500     2.3710 
  131.7500   -13.7550    71.3890    10.4630    11.2310    12.6060     2.3660 
  131.8750   -13.9130    70.9930    10.7420    11.5560    12.2360     2.3650 
  132.0000   -14.0370    73.9020    11.1360    12.0420    13.5680     2.3760 
  132.1250   -14.2400    76.6270    11.7130    12.7040    16.9900     2.3860 
  132.2500   -14.4740    77.9240    12.3700    13.4740    18.6490     2.3910 
  132.3750   -14.6870    77.6300    13.0860    14.3080    17.7500     2.3910 
  132.5000   -14.8030    78.0770    13.8430    15.1950    16.4340     2.3920 
  132.6250   -14.8860    80.5160    14.6630    16.1500    17.1770     2.3960 
  132.7500   -14.9550    81.9940    15.5180    17.1670    20.6430     2.4040 
  132.8750   -15.0230    80.3000    16.3960    18.1030    23.2590     2.4160 
  133.0000   -15.0230    77.4610    16.8540    18.5020    23.0790     2.4150 
  133.1250   -14.9260    76.0640    16.3840    17.9010    21.5210     2.3950 
  133.2500   -14.7650    78.1590    15.2170    16.5510    20.2760     2.3660 
  133.3750   -14.5450    78.8890    13.8030    14.9770    18.3650     2.3570 
  133.5000   -14.4160    80.9940    12.6980    13.7750    15.8230     2.3620 
  133.6250   -14.4020    81.9240    12.2750    13.3120    15.5880     2.3720 
  133.7500   -14.5070    83.5380    12.3060    13.3790    16.5720     2.3770 
  133.8750   -14.6140    83.0780    12.4260    13.5340    16.8710     2.3840 
  134.0000   -14.6460    81.9040    12.2020    13.2960    16.4200     2.3760 
  134.1250   -14.5710    80.5080    11.3460    12.3450    14.4930     2.3430 
  134.2500   -14.3710    79.0580     9.9760    10.8470    11.4130     2.2880 
  134.3750   -14.0830    78.2220     8.5290     9.2620     8.7080     2.2460 
  134.5000   -13.6490    78.3210     7.3600     7.9720     7.6720     2.2200 
  134.6250   -13.1990    79.3840     6.5080     7.0500     7.6910     2.2090 
  134.7500   -12.7870    79.5800     5.9070     6.4210     7.3970     2.2020 
  134.8750   -12.5910    78.0290     5.5480     6.0530     6.8040     2.2030 
  135.0000   -12.5670    75.5540     5.3470     5.8670     6.3160     2.2090 
  135.1250   -12.6640    73.4840     5.2790     5.8250     6.3950     2.2130 
  135.2500   -12.8110    72.7700     5.2860     5.8750     6.7780     2.2090 
  135.3750   -12.9840    74.0570     5.3610     5.9770     6.7890     2.2000 
  135.5000   -13.0790    75.9080     5.4690     6.1090     6.9070     2.1910 
  135.6250   -13.1530    76.8990     5.6230     6.2770     7.1060     2.1870 
  135.7500   -13.1940    75.4680     5.7960     6.4380     7.2640     2.1840 
  135.8750   -13.2770    74.0710     5.9700     6.5940     7.9250     2.1830 
  136.0000   -13.4340    73.6340     6.1160     6.7560     8.4130     2.1790 
  136.1250   -13.6020    75.1070     6.1810     6.8490     8.1790     2.1820 
  136.2500   -13.6380    75.8070     6.2010     6.8950     7.7130     2.1860 
  136.3750   -13.4780    74.6950     6.2110     6.9450     7.3630     2.1940 
  136.5000   -13.3330    72.6420     6.2410     7.0380     7.8380     2.1970 
  136.6250   -13.3160    72.0360     6.3020     7.1700     8.9820     2.1990 
  136.7500   -13.4380    72.4830     6.3340     7.2520     9.2130     2.1970 
  136.8750   -13.5800    74.3100     6.2570     7.2000     8.5160     2.1930 
  137.0000   -13.6510    75.4340     6.1030     7.0360     7.8580     2.1870 
  137.1250   -13.6610    76.9630     5.8920     6.8120     7.3200     2.1850 
  137.2500   -13.6340    77.5900     5.7260     6.6260     7.4180     2.1840 
  137.3750   -13.6870    78.0030     5.6480     6.5370     7.8600     2.1850 
  137.5000   -13.7390    77.6580     5.6660     6.5470     7.6110     2.1850 
  137.6250   -13.7470    78.0050     5.7820     6.6740     7.1330     2.1860 
  137.7500   -13.7290    78.3550     6.0160     6.9490     7.4550     2.1850 
  137.8750   -13.8320    77.8490     6.4030     7.4020     8.8730     2.1840 
  138.0000   -14.0370    77.6330     6.8700     7.9280    10.2740     2.1820 
  138.1250   -14.2240    77.1540     7.2340     8.2970    11.0540     2.1850 
  138.2500   -14.1390    78.9400     7.2760     8.2800    11.2520     2.1940 
  138.3750   -13.8320    78.1880     6.8940     7.7740    12.1270     2.2120 
  138.5000   -13.4570    77.7680     6.2360     6.9660    14.0470     2.2340 
  138.6250   -12.9310    76.4220     5.4600     6.0810    12.4970     2.2460 
  138.7500   -12.3990    76.4440     4.8260     5.3570     8.0120     2.2500 
  138.8750   -12.0160    76.0310     4.4170     4.9460     5.8510     2.2520 
  139.0000   -11.7820    74.4820     4.3070     4.8670     5.6080     2.2600 
  139.1250   -11.6880    73.3790     4.4580     5.0740     5.6200     2.2620 
  139.2500   -11.6870    73.5500     4.7050     5.3860     6.5320     2.2500 
  139.3750   -11.5660    75.1960     4.8770     5.5990     7.3760     2.2310 
  139.5000   -11.3750    78.2520     4.9120     5.6290     6.8620     2.2180 
  139.6250   -11.1000    81.0630     4.8220     5.4820     6.0520     2.2130 
  139.7500   -10.8460    83.2280     4.6720     5.2820     5.6470     2.2060 
  139.8750   -10.7350    81.7740     4.6230     5.2150     5.9830     2.1920 
  140.0000   -10.7500    78.1120     4.7670     5.3920     6.7180     2.1780 
  140.1250   -10.9620    75.2190     5.1720     5.8910     6.8290     2.1740 
  140.2500   -11.2930    74.7630     5.7590     6.6760     7.3770     2.1800 
  140.3750   -11.7470    74.3660     6.5640     7.6810     7.9600     2.1860 
  140.5000   -12.2900    72.6820     7.6200     8.9210     8.3150     2.1850 
  140.6250   -12.9320    70.2640     8.7850    10.3460    11.2840     2.1730 
  140.7500   -13.5920    69.4120     9.9990    11.7510    15.3380     2.1570 
  140.8750   -14.1700    70.1530    10.7960    12.6380    16.9720     2.1410 
  141.0000   -14.5270    70.7380    10.9210    12.7330    15.9320     2.1390 
  141.1250   -14.5920    70.9830    10.3790    12.0010    13.0440     2.1550 
  141.2500   -14.5370    71.6280     9.4290    10.8770    11.1210     2.1710 
  141.3750   -14.4730    73.9990     8.6490    10.0420    11.3680     2.1780 
  141.5000   -14.6050    75.9370     8.5110     9.9550    11.4520     2.1700 
  141.6250   -14.8340    75.2430     9.0550    10.6950    12.5180     2.1630 
  141.7500   -15.1310    71.8370    10.0480    11.9340    17.0610     2.1580 
  141.8750   -15.4680    68.8430    11.1850    13.2270    21.0610     2.1590 
  142.0000   -15.7270    67.4590    11.9810    14.0220    20.4690     2.1580 
  142.1250   -15.7440    68.3230    12.0000    13.9200    17.0590     2.1560 
  142.2500   -15.6460    70.1050    11.4080    13.0820    14.1150     2.1560 
  142.3750   -15.4760    72.1510    10.4130    11.9030    12.7310     2.1610 
  142.5000   -15.3000    73.0840     9.5980    10.9520    12.0140     2.1670 
  142.6250   -15.2270    72.7260     9.2110    10.5160    11.7440     2.1670 
  142.7500   -15.2010    72.0510     9.1440    10.4740    12.1570     2.1640 
  142.8750   -15.2320    70.7440     9.3050    10.7150    12.8460     2.1550 
