~V
VERS. 2.00: Ver 2.00
~W
STRT.M 40.0000:
STOP.M 216.0000:
STEP.M 0.1250:
NULL. -999.2500:
UWI. F10813:
~C
DEPT.M :
SP.MV :
GR.API :
RI. :
RML.OHMM :
RXO.OHMM :
DEN.GM/CC :
~A
# ...
  130.1250   -13.3610    73.6400     8.4830    10.2150     8.3060     2.2000 
  130.2500   -13.3930    74.2250     8.7130    10.4700     8.3990     2.2200 
  130.3750   -13.4190    73.6500     8.9290    10.6890     9.2500     2.2500 
  130.5000   -13.5270    72.9700     8.9800    10.7370    10.5840     2.2920 
  130.6250   -13.6130    71.9510     8.8430    10.5620    11.0190     2.3240 
  130.7500   -13.7460    71.3900     8.5710    10.2530    10.1810     2.3270 
  130.8750   -13.9140    70.8630     8.2870     9.9460     9.0570     2.2930 
  131.0000   -14.1050    71.4320     8.0630     9.7370     8.2380     2.2490 
  131.1250   -14.2140    72.5830     7.9660     9.6780     8.2260     2.2160 
  131.2500   -14.2590    74.9970     7.9790     9.7690     8.6110     2.2020 
  131.3750   -14.2880    77.2530     8.1570    10.0550     8.6840     2.2010 
  131.5000   -14.2790    79.5190     8.5630    10.5520     8.3940     2.2160 
  131.6250   -14.2680    79.1880     9.0980    11.2740     8.8540     2.2410 
  131.7500   -14.2640    76.9390     9.9070    12.2990    11.2900     2.2540 
  131.8750   -14.2500    73.1190    10.9940    13.5990    12.8740     2.2370 
  132.0000   -14.1950    72.0390    12.1260    14.9220    12.1030     2.2060 
  132.1250   -14.1790    71.6780    13.1240    16.0700    11.9750     2.1850 
  132.2500   -14.1560    71.1920    13.9450    17.0140    13.8820     2.1800 
  132.3750   -14.1150    69.3020    14.6020    17.7950    16.2570     2.1800 
  132.5000   -14.1040    68.4980    15.1560    18.3670    16.6740     2.1780 
  132.6250   -14.1550    68.3600    15.2070    18.3080    16.1280     2.1740 
  132.7500   -14.2660    68.9600    14.5030    17.4090    15.9360     2.1750 
  132.8750   -14.3690    70.5970    13.2180    15.8930    15.3560     2.1790 
  133.0000   -14.5400    71.2390    11.9430    14.3780    14.3330     2.1860 
  133.1250   -14.6260    71.8520    11.1330    13.3760    11.9140     2.1900 
  133.2500   -14.7050    71.3470    10.8190    13.0660     9.6280     2.1890 
  133.3750   -14.7160    70.9940    11.1780    13.5440    10.6110     2.1850 
  133.5000   -14.6900    68.9130    11.9410    14.5060    13.7030     2.1830 
  133.6250   -14.6000    66.2790    12.8040    15.5210    15.3390     2.1850 
  133.7500   -14.5330    64.5400    13.3940    16.1410    14.9810     2.1850 
  133.8750   -14.5200    64.9220    13.4210    16.0790    14.5660     2.1820 
  134.0000   -14.5790    65.9350    12.9930    15.4830    14.0590     2.1790 
  134.1250   -14.7870    66.3150    12.3150    14.6000    12.9250     2.1790 
  134.2500   -15.0120    67.3880    11.5910    13.6910    11.9110     2.1840 
  134.3750   -15.1980    70.0220    11.0170    12.9950    11.1570     2.1900 
  134.5000   -15.2450    73.2110    10.7320    12.6570    10.3130     2.2000 
  134.6250   -15.2380    74.7090    10.8440    12.7570    10.2100     2.2170 
  134.7500   -15.2030    73.8560    11.1940    13.1680    11.0590     2.2370 
  134.8750   -15.1630    71.7310    11.6900    13.7220    11.6470     2.2510 
  135.0000   -15.1000    70.5290    12.0970    14.1630    11.9030     2.2530 
  135.1250   -15.1150    70.8920    12.2320    14.2770    12.2850     2.2400 
  135.2500   -15.1700    71.8920    12.0270    14.0080    12.4450     2.2220 
  135.3750   -15.2410    71.5090    11.5250    13.4420    12.2360     2.2020 
  135.5000   -15.3590    69.8130    11.0030    12.8270    11.7920     2.1910 
  135.6250   -15.4750    69.2160    10.5340    12.3160    11.1180     2.1860 
  135.7500   -15.5680    70.4940    10.2970    12.0820    10.5640     2.1910 
  135.8750   -15.5490    74.3710    10.4510    12.3400    10.2490     2.1940 
  136.0000   -15.5260    76.3130    11.0180    13.1450    10.4350     2.1980 
  136.1250   -15.5100    74.8650    12.1430    14.5940    11.3000     2.2150 
  136.2500   -15.4540    69.8400    13.7330    16.5600    13.4110     2.2470 
  136.3750   -15.3740    66.4680    15.5750    18.7910    18.0370     2.2760 
  136.5000   -15.2930    64.8370    17.4160    20.8620    22.4050     2.2710 
  136.6250   -15.2280    66.1270    18.6600    22.1970    23.9990     2.2330 
  136.7500   -15.1900    67.1850    19.0930    22.5880    24.2250     2.1900 
  136.8750   -15.2030    68.0030    18.7720    22.1390    23.1290     2.1680 
  137.0000   -15.1550    67.3630    18.1030    21.3450    21.5400     2.1670 
  137.1250   -15.0990    66.8470    17.5060    20.6650    20.6450     2.1720 
  137.2500   -15.0360    66.0830    17.1850    20.3320    20.2390     2.1750 
  137.3750   -15.0300    65.7260    17.1320    20.3000    20.1130     2.1750 
  137.5000   -15.0340    66.7680    17.0920    20.2850    19.7650     2.1750 
  137.6250   -15.0970    68.7820    16.8590    19.9810    19.4160     2.1740 
  137.7500   -15.2060    70.7130    16.2370    19.2380    19.4090     2.1710 
  137.8750   -15.3260    70.6360    15.2800    18.0970    19.2300     2.1660 
  138.0000   -15.3980    70.0080    14.1830    16.8150    17.4280     2.1620 
  138.1250   -15.4030    68.6060    13.2330    15.6990    14.3720     2.1600 
  138.2500   -15.3430    67.9370    12.5990    14.9660    12.6690     2.1550 
  138.3750   -15.1680    67.6310    12.3990    14.7300    12.7230     2.1490 
  138.5000   -14.9790    68.3320    12.5530    14.8490    13.1740     2.1470 
  138.6250   -14.8450    70.2530    12.8570    15.1210    13.4380     2.1440 
  138.7500   -14.8560    72.8950    13.1650    15.3680    13.6640     2.1410 
  138.8750   -14.9420    75.9480    13.3830    15.5230    13.8230     2.1360 
  139.0000   -15.0580    77.5430    13.5610    15.6180    13.8050     2.1370 
  139.1250   -15.1300    78.5680    13.6560    15.6590    13.6880     2.1370 
  139.2500   -15.1450    78.3180    13.6690    15.6280    13.4210     2.1360 
  139.3750   -15.1480    76.4310    13.5410    15.4550    13.1770     2.1290 
  139.5000   -15.1300    74.4370    13.1980    15.0730    12.7780     2.1270 
  139.6250   -15.2030    74.5920    12.5890    14.3770    12.0320     2.1310 
  139.7500   -15.3800    78.4510    11.6340    13.3780    11.2500     2.1380 
  139.8750   -15.6370    82.1070    10.6030    12.2310    10.3930     2.1420 
  140.0000   -15.7760    85.3450     9.5470    11.0780     9.5200     2.1490 
  140.1250   -15.8600    86.2050     8.6890    10.1490     8.8930     2.1630 
  140.2500   -15.8830    86.6210     8.2510     9.6640     8.5110     2.1830 
  140.3750   -15.8610    85.7780     8.2610     9.7570     8.0820     2.2030 
  140.5000   -15.7260    84.3490     8.8290    10.5610     7.7180     2.2130 
  140.6250   -15.5560    82.3080    10.2450    12.5690     9.7010     2.2110 
  140.7500   -15.5150    79.0810    12.9570    15.8960    14.1000     2.1960 
  140.8750   -15.5160    75.1610    16.2280    19.8550    20.1940     2.1790 
  141.0000   -15.5850    71.2080    19.1690    23.3360    34.5520     2.1680 
  141.1250   -15.6960    68.9330    20.7430    24.9710    45.8580     2.1680 
  141.2500   -15.8580    69.0690    20.1460    24.2360    36.1340     2.1710 
  141.3750   -15.9680    71.2090    18.1900    21.8630    21.8400     2.1710 
  141.5000   -16.0440    73.5680    16.0700    19.2770    17.2360     2.1700 
  141.6250   -16.0720    75.4910    14.5540    17.6600    15.9450     2.1680 
  141.7500   -16.0530    75.7620    14.5750    17.7680    15.1140     2.1660 
  141.8750   -16.0610    76.2320    15.9500    19.6470    15.9260     2.1620 
  142.0000   -16.0960    76.1680    18.1880    22.5420    19.1650     2.1610 
  142.1250   -16.1710    75.8960    20.6560    25.4800    24.1340     2.1610 
  142.2500   -16.2500    74.2780    22.2210    27.1990    31.4800     2.1610 
  142.3750   -16.4700    73.5480    22.0090    26.6760    35.7780     2.1630 
  142.5000   -16.7650    74.8210    20.0900    24.2060    29.6520     2.1720 
  142.6250   -17.0560    77.0090    17.4250    20.8830    19.9820     2.1870 
  142.7500   -17.3870    78.2700    15.1190    17.9380    15.0680     2.1960 
  142.8750   -17.8020    78.3370    13.4340    15.8780    13.8300     2.1960 
