~V
VERS. 2.00: Ver 2.00
~W
STRT.M 63.0000:
STOP.M 269.0000:
STEP.M 0.1250:
NULL. -999.2500:
UWI. F10891:
~C
DEPT.M :
TVD. :
DX. :
DY. :
SP.MV :
GR.API :
RI. :
RML.OHMM :
RXO.OHMM :
DEN.GM/CC :
~A
# ...
  117.7500   117.7470    -0.2950    -0.4870   -14.0180    59.3110     5.8100     6.3790     8.9620     2.2030 
  117.8750   117.8720    -0.2960    -0.4880   -15.1400    59.5170     5.9520     6.4750     7.8360     2.1360 
  118.0000   117.9970    -0.2970    -0.4890   -16.0920    62.9750     5.7880     6.2520     7.1680     2.0930 
  118.1250   118.1220    -0.2980    -0.4900   -16.7640    65.1290     5.4940     5.9280     6.4730     2.0750 
  118.2500   118.2470    -0.2980    -0.4910   -17.0810    65.4770     5.1890     5.6310     5.8480     2.0740 
  118.3750   118.3720    -0.2990    -0.4920   -17.1180    63.9650     4.9160     5.3900     5.1480     2.0790 
  118.5000   118.4970    -0.3000    -0.4930   -16.9720    64.0620     4.6930     5.2100     4.4430     2.0860 
  118.6250   118.6220    -0.3010    -0.4940   -16.7780    64.9180     4.5490     5.1130     4.0090     2.0930 
  118.7500   118.7470    -0.3020    -0.4950   -16.6440    67.8790     4.5280     5.1430     3.9090     2.0970 
  118.8750   118.8720    -0.3030    -0.4960   -16.6320    69.9590     4.6330     5.3030     4.6590     2.0980 
  119.0000   118.9970    -0.3040    -0.4970   -16.7920    69.9730     4.8400     5.5570     7.4080     2.0950 
  119.1250   119.1220    -0.3040    -0.4980   -17.1060    68.4170     5.0770     5.8090    10.4810     2.0930 
  119.2500   119.2470    -0.3050    -0.4990   -17.5200    66.9620     5.2630     5.9470    10.5320     2.0950 
  119.3750   119.3720    -0.3060    -0.5000   -17.9300    68.0390     5.3470     5.9260     8.4090     2.1010 
  119.5000   119.4970    -0.3070    -0.5010   -18.2040    69.1240     5.3160     5.7630     6.8200     2.1040 
  119.6250   119.6220    -0.3080    -0.5020   -18.2540    69.2320     5.2160     5.5580     6.0630     2.1030 
  119.7500   119.7470    -0.3090    -0.5030   -18.0140    68.3230     5.1120     5.4080     5.5220     2.0970 
  119.8750   119.8720    -0.3100    -0.5040   -17.5280    68.0210     5.0450     5.3460     5.1240     2.0900 
  120.0000   119.9970    -0.3100    -0.5050   -16.8470    69.5750     4.9900     5.3180     4.8400     2.0860 
  120.1250   120.1220    -0.3110    -0.5060   -16.0450    69.9880     4.8570     5.1930     4.5320     2.0850 
  120.2500   120.2470    -0.3120    -0.5070   -15.1400    69.4990     4.5390     4.8420     4.2840     2.0910 
  120.3750   120.3720    -0.3130    -0.5080   -14.1230    67.9670     4.0190     4.2610     4.2740     2.1110 
  120.5000   120.4970    -0.3140    -0.5090   -12.9760    71.6640     3.3530     3.5300     4.2050     2.1510 
  120.6250   120.6220    -0.3150    -0.5100   -11.7430    78.7970     2.6860     2.8160     3.4970     2.2040 
  120.7500   120.7470    -0.3160    -0.5110   -10.5110    87.0620     2.1430     2.2510     2.5020     2.2550 
  120.8750   120.8720    -0.3170    -0.5120    -9.4100    92.1320     1.7680     1.8710     1.9050     2.2910 
  121.0000   120.9970    -0.3170    -0.5130    -8.5950    95.1180     1.5720     1.6840     1.7110     2.3070 
  121.1250   121.1220    -0.3180    -0.5140    -8.1490    97.1200     1.5240     1.6530     1.6330     2.3060 
  121.2500   121.2470    -0.3190    -0.5150    -8.1530    97.1520     1.6240     1.7840     1.6860     2.2920 
  121.3750   121.3720    -0.3200    -0.5160    -8.5600    94.7210     1.8730     2.0800     2.1910     2.2680 
  121.5000   121.4970    -0.3210    -0.5170    -9.3600    90.4280     2.2930     2.5670     3.4210     2.2340 
  121.6250   121.6220    -0.3220    -0.5180   -10.4650    85.0820     2.8580     3.2030     4.9030     2.1960 
  121.7500   121.7470    -0.3230    -0.5190   -11.8210    79.6390     3.5240     3.9190     5.8600     2.1680 
  121.8750   121.8720    -0.3230    -0.5200   -13.3070    73.8020     4.2070     4.6210     6.4980     2.1610 
  122.0000   121.9970    -0.3240    -0.5210   -14.8000    69.4320     4.8390     5.2440     7.5650     2.1790 
  122.1250   122.1220    -0.3250    -0.5220   -16.1890    66.5770     5.3890     5.7800     8.9670     2.2090 
  122.2500   122.2470    -0.3260    -0.5230   -17.3960    64.2660     5.8410     6.2310     9.4580     2.2310 
  122.3750   122.3720    -0.3270    -0.5240   -18.4190    61.6260     6.1630     6.5740     8.5050     2.2280 
  122.5000   122.4970    -0.3280    -0.5250   -19.2460    59.6750     6.2430     6.6910     7.3190     2.1980 
  122.6250   122.6220    -0.3290    -0.5260   -19.8810    59.5860     6.0060     6.4860     6.9500     2.1570 
  122.7500   122.7470    -0.3300    -0.5260   -20.2690    60.9530     5.4350     5.9230     7.0170     2.1260 
  122.8750   122.8720    -0.3300    -0.5270   -20.3860    61.0890     4.7000     5.1710     6.8590     2.1170 
  123.0000   122.9970    -0.3310    -0.5280   -20.1780    61.4350     4.0280     4.4590     6.0240     2.1260 
  123.1250   123.1220    -0.3320    -0.5290   -19.6900    62.3480     3.5960     3.9910     4.7400     2.1420 
  123.2500   123.2470    -0.3330    -0.5300   -18.9870    63.9170     3.5250     3.9290     4.2350     2.1480 
  123.3750   123.3720    -0.3340    -0.5310   -18.2330    63.6000     3.7950     4.2800     4.9180     2.1410 
  123.5000   123.4970    -0.3350    -0.5320   -17.5940    60.8480     4.3800     5.0310     5.5920     2.1300 
  123.6250   123.6220    -0.3360    -0.5330   -17.1420    56.8920     5.1530     6.0090     5.2830     2.1290 
  123.7500   123.7470    -0.3370    -0.5340   -16.8620    54.3170     5.8970     6.9110     4.7780     2.1480 
  123.8750   123.8720    -0.3380    -0.5350   -16.6110    52.2000     6.3090     7.3550     7.6040     2.1940 
  124.0000   123.9970    -0.3380    -0.5360   -16.2990    51.9310     6.1140     7.0340    18.3510     2.2750 
  124.1250   124.1220    -0.3390    -0.5370   -15.8140    53.8020     5.3580     6.0530    30.6170     2.3700 
  124.2500   124.2470    -0.3400    -0.5380   -15.0760    60.0030     4.2640     4.7190    29.7850     2.4370 
  124.3750   124.3720    -0.3410    -0.5390   -14.0660    68.8770     3.2100     3.4890    16.9610     2.4440 
  124.5000   124.4970    -0.3420    -0.5400   -12.8690    79.3580     2.4540     2.6570     6.0050     2.3950 
  124.6250   124.6220    -0.3430    -0.5410   -11.7160    86.2050     2.0250     2.2320     2.3820     2.3320 
  124.7500   124.7470    -0.3440    -0.5420   -10.8190    89.3160     1.8810     2.1510     2.2260     2.2840 
  124.8750   124.8720    -0.3450    -0.5430   -10.2630    87.7390     1.8990     2.2470     2.3440     2.2530 
  125.0000   124.9970    -0.3450    -0.5440   -10.0090    84.6440     1.9690     2.3720     2.3620     2.2330 
  125.1250   125.1220    -0.3460    -0.5450    -9.9110    80.8120     2.0030     2.4200     2.3790     2.2220 
  125.2500   125.2470    -0.3470    -0.5450    -9.8490    78.2690     1.9650     2.3550     2.3480     2.2230 
  125.3750   125.3720    -0.3480    -0.5460    -9.7330    78.0810     1.8750     2.2240     2.1680     2.2340 
  125.5000   125.4970    -0.3490    -0.5470    -9.5250    80.5390     1.7730     2.0830     1.9950     2.2460 
  125.6250   125.6220    -0.3500    -0.5480    -9.2490    83.4120     1.6960     1.9820     2.0170     2.2530 
  125.7500   125.7470    -0.3510    -0.5490    -8.9490    85.2850     1.6740     1.9590     2.1140     2.2560 
  125.8750   125.8720    -0.3520    -0.5500    -8.6800    86.4760     1.7090     2.0140     2.1080     2.2600 
  126.0000   125.9970    -0.3520    -0.5510    -8.4810    86.6450     1.7860     2.1300     2.4390     2.2650 
  126.1250   126.1220    -0.3530    -0.5520    -8.3650    86.9590     1.8690     2.2560     4.2450     2.2640 
  126.2500   126.2470    -0.3540    -0.5530    -8.3260    85.4850     1.9190     2.3370     7.0850     2.2570 
  126.3750   126.3720    -0.3550    -0.5540    -8.3220    84.3070     1.9160     2.3420     7.6370     2.2480 
  126.5000   126.4970    -0.3560    -0.5550    -8.2910    82.5760     1.8530     2.2590     4.9960     2.2450 
  126.6250   126.6220    -0.3570    -0.5560    -8.1630    83.3260     1.7500     2.1220     2.5420     2.2540 
  126.7500   126.7470    -0.3580    -0.5570    -7.8980    85.7640     1.6340     1.9750     1.7960     2.2700 
