~V
VERS. 2.00: Ver 2.00
~W
STRT.M 62.0000:
STOP.M 256.0000:
STEP.M 0.1250:
NULL. -999.2500:
UWI. F10886:
~C
DEPT.M :
TVD. :
DX. :
DY. :
SP.MV :
GR.API :
RI. :
RML.OHMM :
RXO.OHMM :
DEN.GM/CC :
~A
# ...
  180.6250   180.6150    -0.8350    -1.2550   -12.9750    71.4040     1.9300     2.2870     2.6290     2.2480 
  180.7500   180.7400    -0.8360    -1.2560   -13.0190    71.3820     1.7930     2.1040     2.1960     2.2450 
  180.8750   180.8650    -0.8360    -1.2570   -13.0750    71.4220     1.7280     2.0290     2.1400     2.2510 
  181.0000   180.9900    -0.8370    -1.2580   -13.1170    70.1790     1.7400     2.0630     2.4920     2.2680 
  181.1250   181.1150    -0.8380    -1.2590   -13.1190    67.4860     1.8140     2.1760     2.9640     2.2930 
  181.2500   181.2400    -0.8390    -1.2600   -13.0760    64.8970     1.9000     2.2920     3.1520     2.3160 
  181.3750   181.3650    -0.8400    -1.2610   -12.9950    65.4490     1.9470     2.3340     2.9510     2.3230 
  181.5000   181.4900    -0.8410    -1.2620   -12.9010    68.6990     1.9300     2.2830     2.6710     2.3160 
  181.6250   181.6150    -0.8420    -1.2630   -12.8140    74.6580     1.8540     2.1640     2.5770     2.3030 
  181.7500   181.7400    -0.8430    -1.2650   -12.7460    79.5120     1.7580     2.0360     2.7240     2.2950 
  181.8750   181.8650    -0.8440    -1.2660   -12.7000    80.1870     1.6740     1.9400     2.9600     2.2900 
  182.0000   181.9900    -0.8450    -1.2670   -12.6710    77.9590     1.6120     1.8760     2.9150     2.2840 
  182.1250   182.1150    -0.8460    -1.2680   -12.6530    74.3490     1.5730     1.8360     2.4240     2.2790 
  182.2500   182.2400    -0.8470    -1.2690   -12.6350    73.4830     1.5560     1.8180     1.8990     2.2800 
  182.3750   182.3650    -0.8480    -1.2700   -12.6040    73.8120     1.5750     1.8350     1.7270     2.2890 
  182.5000   182.4900    -0.8490    -1.2710   -12.5470    75.1690     1.6310     1.8920     1.8510     2.3050 
  182.6250   182.6150    -0.8500    -1.2720   -12.4520    76.5230     1.7210     1.9880     2.1250     2.3250 
  182.7500   182.7400    -0.8510    -1.2730   -12.3180    77.4700     1.8300     2.1070     2.4530     2.3460 
  182.8750   182.8650    -0.8520    -1.2740   -12.1520    77.8270     1.9490     2.2400     2.7970     2.3670 
  183.0000   182.9900    -0.8530    -1.2750   -11.9760    77.8360     2.0700     2.3790     3.0180     2.3900 
  183.1250   183.1150    -0.8540    -1.2760   -11.8110    77.7190     2.1820     2.5140     2.9530     2.4140 
  183.2500   183.2400    -0.8550    -1.2770   -11.6760    76.4540     2.2730     2.6280     2.7470     2.4300 
  183.3750   183.3650    -0.8560    -1.2780   -11.5800    74.3910     2.3200     2.6940     2.5950     2.4280 
  183.5000   183.4900    -0.8570    -1.2800   -11.5190    71.6550     2.3160     2.7030     2.4890     2.4130 
  183.6250   183.6150    -0.8580    -1.2810   -11.4870    71.2530     2.2640     2.6510     2.4940     2.3950 
  183.7500   183.7400    -0.8590    -1.2820   -11.4730    72.2140     2.1840     2.5580     2.6630     2.3840 
  183.8750   183.8650    -0.8600    -1.2830   -11.4700    75.7020     2.1050     2.4580     2.8220     2.3790 
  184.0000   183.9900    -0.8610    -1.2840   -11.4750    77.6530     2.0770     2.4130     2.8830     2.3760 
  184.1250   184.1150    -0.8620    -1.2850   -11.4900    77.4180     2.1840     2.5340     2.8950     2.3730 
  184.2500   184.2400    -0.8630    -1.2860   -11.5230    73.6400     2.4990     2.9210     3.0880     2.3680 
  184.3750   184.3650    -0.8640    -1.2870   -11.5820    70.2560     3.1290     3.7170     4.2570     2.3600 
  184.5000   184.4900    -0.8650    -1.2880   -11.6730    67.0350     4.1300     4.9830     6.7520     2.3540 
  184.6250   184.6150    -0.8670    -1.2890   -11.7990    63.4070     5.5210     6.7000     9.6200     2.3600 
  184.7500   184.7400    -0.8680    -1.2900   -11.9470    58.9180     7.0530     8.4870    10.9720     2.3730 
  184.8750   184.8650    -0.8690    -1.2920   -12.1030    56.0360     8.2470     9.7250    10.2810     2.3940 
  185.0000   184.9900    -0.8700    -1.2930   -12.2460    54.5340     8.7630    10.0800     9.4600     2.4200 
  185.1250   185.1150    -0.8710    -1.2940   -12.3620    54.3760     8.5510     9.5990     9.4270     2.4350 
  185.2500   185.2400    -0.8720    -1.2950   -12.4510    53.9750     8.0240     8.8490     9.4160     2.4140 
  185.3750   185.3650    -0.8730    -1.2960   -12.5210    55.5610     7.6290     8.3730     9.1890     2.3570 
  185.5000   185.4900    -0.8740    -1.2970   -12.5930    57.0810     7.6070     8.4110     9.0970     2.3180 
  185.6250   185.6150    -0.8750    -1.2980   -12.6920    56.8000     7.9950     8.9920     9.6210     2.3410 
  185.7500   185.7400    -0.8760    -1.2990   -12.8270    53.4270     8.6060     9.8510    10.5240     2.4070 
  185.8750   185.8650    -0.8770    -1.3000   -12.9890    49.7920     9.1890    10.6130    10.7760     2.4550 
  186.0000   185.9900    -0.8780    -1.3010   -13.1490    49.3710     9.4340    10.8690    10.0730     2.4480 
  186.1250   186.1150    -0.8790    -1.3020   -13.2800    52.2760     9.1300    10.4020     8.9790     2.3870 
  186.2500   186.2400    -0.8800    -1.3040   -13.3820    55.8020     8.4530     9.5150     8.1250     2.3120 
  186.3750   186.3650    -0.8810    -1.3050   -13.4660    59.0910     7.6860     8.5990     7.6400     2.2560 
  186.5000   186.4900    -0.8820    -1.3060   -13.5440    61.6720     7.0800     7.9310     7.4130     2.2320 
  186.6250   186.6150    -0.8840    -1.3070   -13.6130    63.7720     6.7480     7.5980     7.2950     2.2350 
  186.7500   186.7400    -0.8850    -1.3080   -13.6570    63.2770     6.5960     7.4550     7.0720     2.2480 
  186.8750   186.8650    -0.8860    -1.3090   -13.6540    62.7730     6.5400     7.3950     6.8640     2.2570 
  187.0000   186.9900    -0.8870    -1.3100   -13.5930    63.1540     6.5500     7.3970     6.9560     2.2630 
  187.1250   187.1150    -0.8880    -1.3110   -13.4700    64.4020     6.6410     7.4860     7.2480     2.2720 
  187.2500   187.2400    -0.8890    -1.3120   -13.3000    63.8600     6.8190     7.6750     7.4830     2.2840 
  187.3750   187.3650    -0.8900    -1.3130   -13.1000    62.3850     7.0720     7.9550     7.9940     2.2980 
  187.5000   187.4900    -0.8910    -1.3140   -12.8950    61.5550     7.3330     8.2360     8.9030     2.3060 
  187.6250   187.6150    -0.8920    -1.3160   -12.7090    62.0450     7.5030     8.3980     9.8240     2.2980 
  187.7500   187.7400    -0.8930    -1.3170   -12.5620    62.5090     7.5250     8.3800    10.3620     2.2760 
  187.8750   187.8650    -0.8940    -1.3180   -12.4680    61.8660     7.3990     8.1880     9.9000     2.2490 
  188.0000   187.9900    -0.8950    -1.3190   -12.4220    60.4630     7.2070     7.9270     8.6900     2.2230 
  188.1250   188.1150    -0.8960    -1.3200   -12.4150    59.2320     7.0630     7.7470     7.8190     2.2040 
  188.2500   188.2400    -0.8970    -1.3210   -12.4220    59.2880     7.0570     7.7520     7.6560     2.1930 
  188.3750   188.3650    -0.8990    -1.3220   -12.4250    59.9710     7.1860     7.9230     8.0400     2.1950 
  188.5000   188.4900    -0.9000    -1.3230   -12.4120    61.0590     7.3480     8.1200     8.9680     2.2060 
  188.6250   188.6150    -0.9010    -1.3240   -12.3770    61.3930     7.4390     8.2110    10.0290     2.2210 
  188.7500   188.7400    -0.9020    -1.3260   -12.3230    60.4760     7.4080     8.1410    10.0850     2.2280 
  188.8750   188.8650    -0.9030    -1.3270   -12.2520    59.1360     7.2700     7.9460     9.0110     2.2270 
  189.0000   188.9890    -0.9040    -1.3280   -12.1680    58.0300     7.1000     7.7280     8.1320     2.2210 
  189.1250   189.1140    -0.9050    -1.3290   -12.0690    58.6620     6.9680     7.5730     7.9380     2.2180 
  189.2500   189.2390    -0.9060    -1.3300   -11.9560    59.2470     6.9000     7.4950     7.9790     2.2190 
  189.3750   189.3640    -0.9070    -1.3310   -11.8230    60.0670     6.8700     7.4610     8.1800     2.2230 
  189.5000   189.4890    -0.9080    -1.3320   -11.6750    59.2370     6.8320     7.4160     8.3370     2.2290 
  189.6250   189.6140    -0.9090    -1.3330   -11.5180    58.9740     6.7650     7.3400     7.8650     2.2420 
