~V
VERS. 2.00: Ver 2.00
~W
STRT.M 1.0000:
STOP.M 205.0000:
STEP.M 0.1250:
NULL. -999.2500:
UWI. F10806:
~C
DEPT.M :
SP.MV :
GR.API :
RI. :
RML.OHMM :
RXO.OHMM :
DEN.GM/CC :
~A
# ...
   65.3750   -32.6230    73.7290     2.0870     3.5730     4.3170     2.0940 
   65.5000   -32.7710    73.3400     2.0980     3.5960     4.3230     2.0860 
   65.6250   -32.8810    72.3340     2.1190     3.6370     4.4050     2.0880 
   65.7500   -32.8440    71.1190     2.1370     3.6910     4.4700     2.0860 
   65.8750   -32.6340    69.9150     2.1550     3.7420     4.3420     2.0810 
   66.0000   -32.2240    68.1820     2.1580     3.7580     4.2280     2.0740 
   66.1250   -31.6430    66.0950     2.1230     3.7100     4.0760     2.0750 
   66.2500   -30.8920    66.6550     2.0340     3.5640     3.8250     2.0840 
   66.3750   -30.0280    69.8020     1.8960     3.3300     3.4380     2.1020 
   66.5000   -29.1900    75.3200     1.7440     3.0690     2.7640     2.1280 
   66.6250   -28.6200    80.3270     1.6210     2.8780     2.3600     2.1540 
   66.7500   -28.6330    82.9370     1.5840     2.8440     2.5120     2.1690 
   66.8750   -29.2750    81.6670     1.6460     2.9770     2.8790     2.1740 
   67.0000   -30.4020    77.2850     1.8050     3.2470     5.7170     2.1730 
   67.1250   -31.6560    73.0510     1.9970     3.5580     8.7040     2.1610 
   67.2500   -32.7680    69.2340     2.1690     3.8100     6.7060     2.1310 
   67.3750   -33.5510    65.1820     2.2680     3.9380     4.0040     2.0970 
   67.5000   -33.7730    61.8540     2.2730     3.9260     3.6230     2.0770 
   67.6250   -33.3690    60.4010     2.2160     3.8190     3.6180     2.0730 
   67.7500   -32.3140    61.9610     2.1000     3.6590     3.7420     2.0760 
   67.8750   -30.7470    65.3740     1.9610     3.4670     3.7140     2.0830 
   68.0000   -28.7780    70.1680     1.8110     3.2430     3.1290     2.1000 
   68.1250   -26.7410    74.8330     1.6550     3.0000     2.3340     2.1190 
   68.2500   -25.1210    78.6510     1.5240     2.7870     1.9170     2.1370 
   68.3750   -24.2580    80.8400     1.4450     2.6610     1.8200     2.1450 
   68.5000   -24.2820    81.8390     1.4370     2.6710     2.0690     2.1350 
   68.6250   -24.9670    82.1860     1.5020     2.8160     2.7010     2.1130 
   68.7500   -26.0790    82.5200     1.6200     3.0650     3.2830     2.0870 
   68.8750   -27.2730    81.8850     1.7530     3.3370     3.5420     2.0680 
   69.0000   -28.2930    78.8280     1.8570     3.5720     3.6220     2.0600 
   69.1250   -29.0840    76.0900     1.9140     3.6920     3.6240     2.0610 
   69.2500   -29.6910    74.1680     1.9200     3.6670     3.4880     2.0730 
   69.3750   -30.2050    73.0150     1.8990     3.5900     3.3910     2.0880 
   69.5000   -30.6990    71.8490     1.8790     3.5300     3.4890     2.0970 
   69.6250   -31.1880    71.4840     1.8750     3.5080     3.5820     2.0990 
   69.7500   -31.6240    71.0090     1.8840     3.5100     3.5990     2.0970 
   69.8750   -31.9330    70.1090     1.8920     3.5170     3.6050     2.0990 
   70.0000   -32.0720    68.8880     1.8920     3.5190     3.6750     2.1010 
   70.1250   -32.0950    69.4290     1.8780     3.5100     4.6530     2.1060 
   70.2500   -32.0720    69.0950     1.8580     3.4980     5.7550     2.1100 
   70.3750   -32.0510    68.2670     1.8430     3.4940     5.0900     2.1110 
   70.5000   -32.0470    67.3000     1.8460     3.5140     4.0530     2.1100 
   70.6250   -32.0600    67.1110     1.8680     3.5700     3.9970     2.1110 
   70.7500   -32.0770    67.0690     1.8990     3.6400     4.3890     2.1140 
   70.8750   -32.0270    66.7000     1.9160     3.6810     4.8010     2.1170 
   71.0000   -31.7340    67.4840     1.8950     3.6590     4.7220     2.1190 
   71.1250   -31.1690    69.1980     1.8390     3.5710     4.3300     2.1200 
   71.2500   -30.4780    71.7230     1.7560     3.4340     3.9400     2.1250 
   71.3750   -29.9140    73.8660     1.6720     3.3000     3.5110     2.1360 
   71.5000   -29.6560    76.7950     1.5990     3.1900     3.3080     2.1520 
   71.6250   -29.6800    78.8140     1.5460     3.1070     3.3300     2.1670 
   71.7500   -29.9100    78.9080     1.5140     3.0420     3.1740     2.1660 
   71.8750   -30.2970    76.1660     1.4990     2.9850     2.8430     2.1510 
   72.0000   -30.9450    73.6240     1.4940     2.9480     2.7420     2.1280 
   72.1250   -31.8330    72.0900     1.5020     2.9480     2.8150     2.1020 
   72.2500   -32.7300    70.3450     1.5170     2.9920     2.7610     2.0840 
   72.3750   -33.3780    66.8790     1.5410     3.0550     2.7100     2.0740 
   72.5000   -33.7380    63.6530     1.5670     3.1290     2.8880     2.0740 
   72.6250   -33.9570    62.0450     1.5840     3.1830     3.2340     2.0770 
   72.7500   -34.1260    62.7900     1.5890     3.2060     3.4870     2.0840 
   72.8750   -34.2500    64.4670     1.5920     3.1860     3.5440     2.0880 
   73.0000   -34.2910    65.8850     1.5930     3.1070     3.4650     2.0870 
   73.1250   -34.2210    66.0350     1.5970     2.9840     3.3670     2.0830 
   73.2500   -34.0160    64.5420     1.6040     2.8340     3.3260     2.0800 
   73.3750   -33.6860    62.9440     1.6110     2.6890     3.3220     2.0790 
   73.5000   -33.2000    63.3660     1.6070     2.5500     3.2810     2.0800 
   73.6250   -32.5630    65.0810     1.5780     2.4010     3.1790     2.0820 
   73.7500   -31.7760    66.7430     1.5170     2.2380     2.9930     2.0920 
   73.8750   -30.9440    68.2740     1.4540     2.0800     2.5310     2.1090 
   74.0000   -30.3440    70.9080     1.4170     1.9680     2.1570     2.1250 
   74.1250   -30.3450    72.7130     1.4270     1.9250     2.6060     2.1260 
   74.2500   -31.2240    72.4420     1.5010     1.9570     3.3630     2.1050 
   74.3750   -32.6090    69.7800     1.6130     2.0360     3.5050     2.0780 
   74.5000   -33.8390    67.8250     1.7430     2.1250     3.2600     2.0590 
   74.6250   -34.5080    66.8020     1.8370     2.1850     3.1180     2.0500 
   74.7500   -34.5840    66.4780     1.8730     2.1820     3.1960     2.0480 
   74.8750   -34.2610    66.7200     1.8640     2.1190     3.2450     2.0470 
   75.0000   -33.6520    67.5920     1.8400     2.0410     3.0540     2.0480 
   75.1250   -32.8670    68.1750     1.8190     1.9950     2.9470     2.0540 
   75.2500   -31.9090    66.2730     1.8090     1.9760     2.8980     2.0600 
   75.3750   -30.7340    62.9770     1.8190     1.9780     2.5900     2.0690 
   75.5000   -29.2250    61.2590     1.8270     2.0060     4.3600     2.0990 
   75.6250   -27.3340    62.5730     1.8690     2.0580    13.3040     2.1850 
   75.7500   -25.0570    65.5640     1.9400     2.1050    20.8370     2.3020 
   75.8750   -22.5680    69.9810     1.9480     2.0950    15.9450     2.4010 
   76.0000   -20.0890    75.1540     1.8500     1.9700    10.4330     2.4320 
   76.1250   -17.8860    84.2210     1.6380     1.7370     8.5930     2.4230 
   76.2500   -16.2310    94.5350     1.3640     1.4560     3.7790     2.3840 
   76.3750   -15.2060   104.0790     1.1330     1.2070     0.7050     2.3320 
   76.5000   -14.7870   109.3480     1.0080     1.0550     0.6070     2.2780 
   76.6250   -14.7370   112.9890     0.9420     0.9940     0.8930     2.2340 
   76.7500   -14.8730   115.1790     0.9390     0.9980     1.4540     2.2030 
   76.8750   -15.0250   115.9140     0.9660     1.0110     1.3680     2.1880 
   77.0000   -15.0930   113.0450     0.9590     0.9910     0.7810     2.1960 
   77.1250   -15.1450   110.8860     0.9170     0.9380     0.5390     2.2110 
   77.2500   -15.3600   110.4660     0.8710     0.8950     0.6050     2.2250 
   77.3750   -15.7890   112.9350     0.8800     0.9290     0.7100     2.2280 
   77.5000   -16.4010   113.9230     1.0490     1.1290     0.9910     2.2430 
   77.6250   -17.0830   111.0170     1.4120     1.5370     2.8140     2.2870 
   77.7500   -17.7240   100.3820     2.0080     2.1700     7.5640     2.3660 
   77.8750   -18.2440    87.3370     2.7880     2.9110    11.3950     2.4340 
   78.0000   -18.6700    76.7330     3.4780     3.5190    10.2490     2.4330 
   78.1250   -19.1230    73.1260     3.7550     3.7820     7.3070     2.3560 
