~V
VERS. 2.00: Ver 2.00
~W
STRT.M 40.0000:
STOP.M 216.0000:
STEP.M 0.1250:
NULL. -999.2500:
UWI. F10813:
~C
DEPT.M :
SP.MV :
GR.API :
RI. :
RML.OHMM :
RXO.OHMM :
DEN.GM/CC :
~A
# ...
  181.6250   -10.1570    75.4540     5.3370     6.9450     5.7640     2.2180 
  181.7500   -10.1970    74.9890     5.4440     7.0830     5.9130     2.2220 
  181.8750   -10.1790    79.2110     5.5520     7.2010     6.3720     2.2240 
  182.0000   -10.1480    85.8770     5.5880     7.2270     9.7610     2.2250 
  182.1250   -10.0710    88.5140     5.5230     7.1170    11.9900     2.2300 
  182.2500    -9.9640    87.5820     5.3870     6.9100     7.6590     2.2410 
  182.3750    -9.8460    83.5780     5.2240     6.6740     3.7670     2.2560 
  182.5000    -9.7390    80.4210     5.0980     6.4980     3.6730     2.2660 
  182.6250    -9.7060    79.0120     5.0870     6.4740     4.3000     2.2590 
  182.7500    -9.7790    78.4690     5.1980     6.6120     5.2740     2.2460 
  182.8750    -9.9030    79.4090     5.4220     6.9020     6.1320     2.2320 
  183.0000    -9.9910    81.3560     5.7340     7.2790     6.5460     2.2320 
  183.1250   -10.1070    85.1890     6.0370     7.6390     6.6600     2.2370 
  183.2500   -10.1660    88.4340     6.2580     7.8750     6.6190     2.2450 
  183.3750   -10.1790    92.4130     6.3180     7.9250     6.4700     2.2460 
  183.5000   -10.1960    95.8590     6.2590     7.8220     6.3950     2.2490 
  183.6250   -10.2530    97.5880     6.0960     7.6250     6.2550     2.2470 
  183.7500   -10.2490    96.1840     5.9260     7.4210     6.0810     2.2440 
  183.8750   -10.2350    94.4940     5.7620     7.2360     5.9680     2.2400 
  184.0000   -10.1930    94.1700     5.6330     7.0860     5.6810     2.2360 
  184.1250   -10.1230    94.3750     5.5750     7.0000     5.3550     2.2380 
  184.2500    -9.9820    92.7730     5.5880     6.9930     5.1810     2.2480 
  184.3750    -9.7830    90.3560     5.7020     7.0860     5.1780     2.2580 
  184.5000    -9.7670    88.8250     5.8660     7.2380     5.4230     2.2620 
  184.6250    -9.8140    86.7890     6.0200     7.3850     5.9130     2.2610 
  184.7500    -9.9120    84.9270     6.1100     7.4610     5.9370     2.2590 
  184.8750    -9.9890    84.4550     6.1040     7.4200     5.7960     2.2580 
  185.0000   -10.0560    85.5840     6.0060     7.2810     5.8290     2.2550 
  185.1250   -10.0190    87.7340     5.8610     7.0880     5.3380     2.2540 
  185.2500    -9.9910    87.6440     5.6730     6.8700     6.1290     2.2550 
  185.3750    -9.9290    86.4360     5.4540     6.6380     8.1400     2.2620 
  185.5000    -9.8610    82.5870     5.2550     6.4260     8.7040     2.2700 
  185.6250    -9.8160    78.6380     5.1110     6.2670     7.5770     2.2780 
  185.7500    -9.8050    75.4360     5.0320     6.1770     5.6940     2.2830 
  185.8750    -9.8290    74.9680     5.0140     6.1490     4.6690     2.2830 
  186.0000    -9.8960    75.8180     5.0440     6.1720     4.7550     2.2790 
  186.1250    -9.9780    77.0830     5.1160     6.2340     5.1950     2.2770 
  186.2500    -9.9760    77.1150     5.2170     6.3260     6.0220     2.2760 
  186.3750    -9.9840    76.8560     5.3290     6.4490     6.7140     2.2770 
  186.5000    -9.9650    75.3950     5.4800     6.6090     6.8940     2.2760 
  186.6250    -9.9390    75.1780     5.6640     6.7850     9.2920     2.2790 
  186.7500    -9.9090    74.8260     5.7980     6.9310    13.5550     2.2820 
  186.8750    -9.9830    76.7560     5.9140     7.0360    12.8090     2.2860 
  187.0000   -10.0610    78.3220     5.9730     7.0900     8.8140     2.2900 
  187.1250   -10.0870    79.4550     5.9880     7.0820     7.4680     2.2900 
  187.2500   -10.0390    79.8590     5.9490     7.0220     6.9740     2.2860 
  187.3750   -10.0030    79.5500     5.8690     6.9370     6.3360     2.2810 
  187.5000   -10.0210    79.2570     5.7750     6.8610     6.0790     2.2810 
  187.6250    -9.9820    78.6300     5.7100     6.8060     6.0060     2.2840 
  187.7500    -9.9420    78.6530     5.6470     6.7240     6.0120     2.2910 
  187.8750    -9.8860    77.7730     5.5060     6.5530     5.6850     2.2990 
  188.0000    -9.8700    75.9780     5.3110     6.3220     5.3600     2.3050 
  188.1250    -9.8910    72.8480     5.1450     6.1030     5.0690     2.3000 
  188.2500   -10.0480    70.3390     5.0140     5.9450     4.9260     2.2920 
  188.3750   -10.2780    68.9930     4.9970     5.9180     5.0420     2.2850 
  188.5000   -10.4100    69.6270     5.1240     6.0460     5.1340     2.2840 
  188.6250   -10.3960    71.5320     5.3380     6.2870     5.3440     2.2870 
  188.7500   -10.1880    75.5250     5.5710     6.5330     5.8350     2.2940 
  188.8750    -9.9350    79.5890     5.6590     6.6440     6.4990     2.3050 
  189.0000    -9.7330    81.6310     5.6250     6.5870     6.6890     2.3120 
  189.1250    -9.6320    79.7250     5.4590     6.3630     5.8040     2.3120 
  189.2500    -9.4940    76.9500     5.2350     6.0740     4.8510     2.3080 
  189.3750    -9.4310    75.2880     5.0760     5.8590     6.1200     2.3020 
  189.5000    -9.5540    74.9740     5.0310     5.8060     7.8110     2.3000 
  189.6250    -9.7860    74.4690     5.1620     5.9420     6.8340     2.2990 
  189.7500    -9.8990    73.3350     5.3560     6.1540     5.7570     2.3000 
  189.8750   -10.0440    72.7510     5.5230     6.3320     5.8480     2.2970 
  190.0000    -9.9940    72.8180     5.6070     6.4140     5.6210     2.2940 
  190.1250    -9.7820    73.5380     5.6220     6.4250     5.5080     2.2890 
  190.2500    -9.6720    72.2780     5.6380     6.4340     5.6800     2.2850 
  190.3750    -9.6970    69.6390     5.6880     6.4860     5.9990     2.2870 
  190.5000    -9.7130    66.7960     5.7840     6.5980     6.6740     2.2930 
  190.6250    -9.5960    66.8390     5.9190     6.7580     7.2020     2.3000 
  190.7500    -9.4990    69.8860     6.0670     6.9130     6.9450     2.3050 
  190.8750    -9.3530    74.5850     6.1380     6.9780     6.3400     2.3040 
  191.0000    -9.1840    77.5890     6.0810     6.8890     6.3100     2.2950 
  191.1250    -8.9820    78.4370     5.8170     6.5890     6.3700     2.2850 
  191.2500    -8.8780    77.4210     5.4280     6.1520     5.8990     2.2760 
  191.3750    -8.7050    75.9680     5.0340     5.7240     5.3320     2.2810 
  191.5000    -8.5900    73.7280     4.8430     5.5100     4.8580     2.2890 
  191.6250    -8.5830    72.8110     4.9650     5.6720     4.6410     2.2960 
  191.7500    -8.6170    75.1870     5.3990     6.1920     4.7290     2.2870 
  191.8750    -8.6800    82.4770     6.0410     6.9130     5.4440     2.2740 
  192.0000    -8.7600    91.7760     6.5620     7.4840     7.7580     2.2610 
  192.1250    -8.8730    98.0560     6.7180     7.5830     9.4600     2.2580 
  192.2500    -8.8340    99.3590     6.4140     7.1640     7.8840     2.2590 
  192.3750    -8.5970    94.4540     5.7850     6.4300     5.5720     2.2620 
  192.5000    -8.1430    87.8640     5.2190     5.7840     4.6850     2.2700 
  192.6250    -7.7800    82.1910     4.9490     5.5070     4.8010     2.2800 
  192.7500    -7.6540    80.4590     5.0320     5.6130     5.4410     2.2870 
  192.8750    -7.8560    81.6340     5.3400     5.9600     6.0050     2.2870 
  193.0000    -8.0270    83.5880     5.6840     6.3270     6.5970     2.2870 
  193.1250    -8.0540    82.5670     5.9740     6.5970     6.8280     2.2930 
  193.2500    -7.9660    79.9420     6.1430     6.7610     6.3150     2.3020 
  193.3750    -7.7480    77.1660     6.2680     6.8960     6.3180     2.3080 
  193.5000    -7.6070    77.2450     6.3950     7.0570     7.2000     2.3130 
  193.6250    -7.5480    78.9390     6.5080     7.1800     8.0700     2.3200 
  193.7500    -7.5090    79.5800     6.4850     7.1500     8.5430     2.3280 
  193.8750    -7.3240    77.7390     6.2410     6.8870     8.8800     2.3300 
  194.0000    -7.1560    74.7600     5.8530     6.4760     8.9670     2.3190 
  194.1250    -6.8270    72.1480     5.4480     6.0640     7.5620     2.3020 
  194.2500    -6.4270    69.6360     5.1680     5.7960     5.5730     2.2910 
  194.3750    -6.0660    68.0560     5.0980     5.7460     4.9160     2.2890 
