~V
VERS. 2.00: Ver 2.00
~W
STRT.M 40.0000:
STOP.M 216.0000:
STEP.M 0.1250:
NULL. -999.2500:
UWI. F10813:
~C
DEPT.M :
SP.MV :
GR.API :
RI. :
RML.OHMM :
RXO.OHMM :
DEN.GM/CC :
~A
# ...
  143.0000   -18.3120    77.9970    12.2840    14.4530    15.0340     2.1960 
  143.1250   -18.8730    78.7130    11.3020    13.2400    17.6450     2.2140 
  143.2500   -19.4840    81.3510    10.1970    11.9720    17.8260     2.2510 
  143.3750   -20.0360    85.4090     9.2050    10.7770    13.4910     2.2920 
  143.5000   -20.4590    88.6140     8.4250     9.8280     8.8280     2.3150 
  143.6250   -20.5400    90.2740     7.9280     9.2560     7.7870     2.3200 
  143.7500   -20.2310    91.5630     7.7760     9.0280     8.2430     2.3230 
  143.8750   -19.5220    93.3520     7.7430     8.9510     8.0350     2.3270 
  144.0000   -19.0570    94.3980     7.7190     8.8710     7.8980     2.3330 
  144.1250   -19.0460    95.1010     7.7010     8.8210     8.2280     2.3340 
  144.2500   -19.0390    95.2420     7.8340     8.9480     8.4070     2.3350 
  144.3750   -18.9110    95.0310     8.2200     9.3660     8.5240     2.3270 
  144.5000   -18.8580    92.7050     8.8100    10.0290     8.9250     2.3160 
  144.6250   -19.0740    91.0400     9.5420    10.8390    10.4320     2.3040 
  144.7500   -19.2910    89.2900    10.2790    11.6150    12.3460     2.3030 
  144.8750   -19.5110    88.4520    10.8930    12.2200    12.5270     2.3090 
  145.0000   -19.7340    87.7410    11.3780    12.6660    11.8820     2.3100 
  145.1250   -19.9500    89.3580    11.7060    12.9650    12.1580     2.3010 
  145.2500   -20.1360    92.1220    11.9290    13.1960    12.8310     2.2890 
  145.3750   -20.3830    92.6470    12.1670    13.4380    12.6990     2.2820 
  145.5000   -20.5790    90.5440    12.3800    13.6690    12.1520     2.2810 
  145.6250   -20.7110    88.7350    12.5620    13.8870    12.2030     2.2810 
  145.7500   -20.8430    90.1600    12.7720    14.1340    13.1190     2.2790 
  145.8750   -20.9880    92.5020    12.9820    14.3590    13.8030     2.2780 
  146.0000   -21.1020    92.8530    13.0510    14.4310    13.6400     2.2810 
  146.1250   -21.1430    90.1300    12.9410    14.3120    14.1010     2.2860 
  146.2500   -21.2640    88.9990    12.7590    14.0890    14.6270     2.2900 
  146.3750   -21.3650    90.0590    12.5930    13.8810    14.2250     2.2940 
  146.5000   -21.5380    92.3630    12.6010    13.8660    14.3390     2.2930 
  146.6250   -21.8240    90.0150    13.0920    14.5160    16.1500     2.2860 
  146.7500   -22.2180    88.0150    14.9220    16.4310    22.6520     2.2690 
  146.8750   -22.6740    85.2290    18.3800    20.1200    27.0830     2.2500 
  147.0000   -23.1320    84.3370    23.3240    25.4570    30.7090     2.2250 
  147.1250   -23.5860    79.1590    29.5980    33.1510    72.8900     2.2000 
  147.2500   -24.0130    72.7610    40.0500    44.1280   136.2520     2.1800 
  147.3750   -24.4120    66.7340    51.9820    56.1690   139.8350     2.1800 
  147.5000   -24.7850    64.0170    61.9450    66.4030    95.6940     2.1890 
  147.6250   -25.2030    63.4470    69.7360    74.2290    79.2710     2.1980 
  147.7500   -25.6140    62.3940    74.8720    80.9070   106.5170     2.1950 
  147.8750   -26.0290    61.4900    81.8830    88.3910   131.4400     2.1830 
  148.0000   -26.4880    61.8010    88.3640    95.1240   126.8390     2.1690 
  148.1250   -26.8960    62.9340    91.4220    98.1730   110.0740     2.1580 
  148.2500   -27.2090    64.5670    90.0390    97.1300    92.9270     2.1510 
  148.3750   -27.4850    64.3430    86.9230    94.2050    84.6340     2.1500 
  148.5000   -27.7400    65.2100    84.4100    91.5450    84.4710     2.1550 
  148.6250   -27.8620    65.7130    82.2750    89.3420    83.7140     2.1640 
  148.7500   -27.8780    66.0310    80.5640    87.5600    81.2180     2.1740 
  148.8750   -27.8490    64.3540    79.4060    86.3570    77.4500     2.1800 
  149.0000   -27.8530    62.5110    78.9900    86.0300    75.1350     2.1810 
  149.1250   -27.8560    62.7150    79.9020    86.9890    75.3530     2.1780 
  149.2500   -27.9000    64.2420    81.7020    88.8450    76.5780     2.1710 
  149.3750   -28.0210    66.2840    83.7870    90.8450    78.4400     2.1650 
  149.5000   -28.1500    67.0610    85.1460    92.0920    84.1310     2.1640 
  149.6250   -28.2710    66.3740    85.3810    92.0990    91.6140     2.1690 
  149.7500   -28.3110    65.2210    84.5170    91.0500    95.3970     2.1710 
  149.8750   -28.3770    64.8450    82.9610    89.3470    90.2180     2.1700 
  150.0000   -28.3810    65.9510    81.3490    87.5530    77.9860     2.1660 
  150.1250   -28.4060    67.4060    79.7860    86.0270    71.4580     2.1640 
  150.2500   -28.4650    68.0710    78.7700    85.1070    76.0600     2.1620 
  150.3750   -28.5680    67.6410    78.5420    85.0890    80.4620     2.1610 
  150.5000   -28.6330    66.5840    79.3070    86.0980    73.9790     2.1580 
  150.6250   -28.6190    64.8900    81.3830    88.5810    67.5990     2.1570 
  150.7500   -28.6420    64.3820    85.2130    92.9250    72.1990     2.1570 
  150.8750   -28.7300    64.2190    91.1240    99.3310    84.1640     2.1550 
  151.0000   -28.8920    66.2400    98.5770   107.0350    96.8910     2.1490 
  151.1250   -29.0580    67.0090   105.9420   114.1130   108.7220     2.1450 
  151.2500   -29.2370    66.9170   110.5090   117.8260   118.3830     2.1450 
  151.3750   -29.3620    64.5590   110.2050   116.2860   115.1550     2.1500 
  151.5000   -29.4870    64.7880   103.9550   110.5520   106.0560     2.1570 
  151.6250   -29.5730    66.3810    94.0050   100.4370   103.0210     2.1640 
  151.7500   -29.6350    68.2210    83.1970    88.8990    93.4950     2.1670 
  151.8750   -29.6150    68.1410    74.6950    79.9030    73.8050     2.1680 
  152.0000   -29.6500    68.5360    69.8910    74.7560    59.9320     2.1680 
  152.1250   -29.6910    69.9550    69.1670    73.8580    55.4100     2.1670 
  152.2500   -29.7240    71.5760    71.2130    75.9780    54.2740     2.1650 
  152.3750   -29.8010    70.9690    75.0830    79.4580    60.5860     2.1620 
  152.5000   -29.9630    69.1900    78.6820    81.7450    72.4230     2.1640 
  152.6250   -30.2140    65.8440    80.7420    83.0350    76.4430     2.1670 
  152.7500   -30.4000    64.2120    81.3970    83.8670    76.0820     2.1730 
  152.8750   -30.5160    64.0770    81.3830    84.4040    73.1500     2.1770 
  153.0000   -30.6220    65.8700    81.8810    85.9310    65.3410     2.1810 
  153.1250   -30.7130    67.0880    85.2460    90.6440    65.7160     2.1820 
  153.2500   -30.7810    67.6900    92.6740   100.2800    74.4160     2.1800 
  153.3750   -30.9400    68.0150   106.3200   116.3850    81.8960     2.1750 
  153.5000   -31.1320    67.7490   124.6020   137.2830    86.6930     2.1690 
  153.6250   -31.1940    66.0980   143.9990   158.9110   109.5200     2.1590 
  153.7500   -31.1510    63.9990   159.4110   174.1260   231.6570     2.1570 
  153.8750   -31.0190    63.8750   161.5640   175.1220   341.8250     2.1630 
  154.0000   -30.8310    65.8060   151.4030   163.5390   258.8880     2.1720 
  154.1250   -30.4970    67.9310   134.5710   145.1590   152.9320     2.1740 
  154.2500   -30.2200    69.9580   117.9090   128.2340   130.1640     2.1720 
  154.3750   -30.1210    70.8410   109.2730   118.8150   107.9420     2.1690 
  154.5000   -30.1440    69.4940   106.4180   115.5400    97.1740     2.1700 
  154.6250   -30.2080    67.2000   106.8240   115.9530   107.9240     2.1720 
  154.7500   -30.3230    64.8090   109.0080   117.7580   106.2770     2.1740 
  154.8750   -30.4710    64.3980   110.5770   119.0610    97.9150     2.1760 
  155.0000   -30.4840    64.9330   110.9220   119.3080    97.1450     2.1760 
  155.1250   -30.4360    65.1350   110.7090   119.5060   105.1620     2.1730 
  155.2500   -30.4150    65.3130   112.1430   121.5400   107.6510     2.1690 
  155.3750   -30.4100    64.6480   116.6600   127.1380   103.4600     2.1650 
  155.5000   -30.3260    64.6840   124.9270   136.8490   113.1840     2.1610 
  155.6250   -30.2070    64.2230   137.1800   151.2420   155.0670     2.1570 
  155.7500   -29.9790    64.1470   153.1560   168.3000   206.4100     2.1510 
