~V
VERS. 2.00: Ver 2.00
~W
STRT.M 40.0000:
STOP.M 216.0000:
STEP.M 0.1250:
NULL. -999.2500:
UWI. F10813:
~C
DEPT.M :
SP.MV :
GR.API :
RI. :
RML.OHMM :
RXO.OHMM :
DEN.GM/CC :
~A
# ...
   91.5000   -23.3490    60.8000     6.8190     7.9070     9.8740     2.1520 
   91.6250   -23.1720    59.7900     6.9540     8.0480     9.9090     2.1530 
   91.7500   -23.0490    60.3000     6.9940     8.0870    10.3150     2.1590 
   91.8750   -22.9710    63.3030     6.9240     7.9790    10.7610     2.1560 
   92.0000   -22.8480    67.4690     6.7450     7.7430    10.5410     2.1380 
   92.1250   -22.6530    68.7840     6.5110     7.4210     9.6200     2.1130 
   92.2500   -22.3890    66.9320     6.2680     7.0800     8.7710     2.0980 
   92.3750   -22.1970    64.1750     6.0740     6.8030     8.3910     2.0970 
   92.5000   -21.9850    62.5910     5.9580     6.6400     8.3360     2.1020 
   92.6250   -21.7430    61.4150     5.9390     6.6180     8.2400     2.1040 
   92.7500   -21.4710    61.3070     5.9930     6.6920     8.1660     2.1030 
   92.8750   -21.1620    62.1540     6.0540     6.7560     8.3720     2.0980 
   93.0000   -20.7720    64.9860     6.0090     6.7090     8.5840     2.0950 
   93.1250   -20.2530    66.7730     5.8420     6.5150     8.5020     2.1050 
   93.2500   -19.6480    67.6970     5.6040     6.2480     7.9490     2.1320 
   93.3750   -19.1510    68.4760     5.3890     6.0250     6.9050     2.1610 
   93.5000   -18.9390    71.9590     5.2850     5.9340     6.0880     2.1730 
   93.6250   -19.0010    74.4550     5.3320     6.0040     6.2760     2.1550 
   93.7500   -19.1680    73.6070     5.4340     6.1430     7.2470     2.1290 
   93.8750   -19.1880    70.0440     5.5120     6.2410     7.6920     2.1160 
   94.0000   -19.0720    68.7230     5.4920     6.2110     7.2720     2.1250 
   94.1250   -18.6710    70.7470     5.3510     6.0520     6.8610     2.1440 
   94.2500   -18.2160    72.6280     5.2090     5.8950     6.4420     2.1620 
   94.3750   -17.9160    75.4100     5.1760     5.8700     6.1720     2.1660 
   94.5000   -17.9200    76.9580     5.2930     6.0280     6.8700     2.1550 
   94.6250   -18.2810    77.1200     5.5650     6.3460     8.3190     2.1310 
   94.7500   -18.8650    74.5990     5.8770     6.7000     8.9800     2.1130 
   94.8750   -19.5170    72.1420     6.1400     6.9860     8.5390     2.1120 
   95.0000   -20.0810    71.0530     6.2960     7.1510     8.0450     2.1210 
   95.1250   -20.4940    70.0310     6.3300     7.1960     7.8210     2.1270 
   95.2500   -20.7890    68.5250     6.3060     7.1810     7.7600     2.1260 
   95.3750   -21.0090    67.5090     6.2700     7.1510     7.7320     2.1190 
   95.5000   -20.9740    68.2510     6.2520     7.1300     7.7310     2.1120 
   95.6250   -20.7260    69.2990     6.2370     7.1150     7.8390     2.1080 
   95.7500   -20.2640    70.9350     6.2170     7.0960     8.0560     2.1120 
   95.8750   -19.7130    70.4950     6.1940     7.0750     8.2870     2.1180 
   96.0000   -19.2530    69.4340     6.1760     7.0560     8.3900     2.1220 
   96.1250   -18.8720    67.5730     6.1630     7.0510     8.3900     2.1190 
   96.2500   -18.5600    66.6230     6.1570     7.0480     8.3650     2.1140 
   96.3750   -18.2690    67.3580     6.1290     7.0220     8.3310     2.1150 
   96.5000   -18.1010    69.6910     6.0820     6.9680     8.3170     2.1230 
   96.6250   -17.9970    71.4880     6.0070     6.8980     8.2620     2.1290 
   96.7500   -18.0280    71.5950     5.9290     6.8390     8.1500     2.1300 
   96.8750   -18.2080    69.0230     5.8780     6.8250     8.1070     2.1300 
   97.0000   -18.5260    66.7090     5.8630     6.8550     8.1510     2.1280 
   97.1250   -18.8420    65.9880     5.8910     6.9060     8.2960     2.1240 
   97.2500   -19.1820    66.1740     5.9220     6.9420     8.5100     2.1180 
   97.3750   -19.6460    66.2740     5.9310     6.9380     8.4820     2.1130 
   97.5000   -20.1410    66.6100     5.9240     6.9140     8.0910     2.1120 
   97.6250   -20.6390    68.8750     5.9340     6.9200     7.2220     2.1170 
   97.7500   -21.1910    71.8980     5.9990     7.0050     6.6510     2.1190 
   97.8750   -21.8160    76.1490     6.1590     7.2120     7.3600     2.1130 
   98.0000   -22.3630    77.7600     6.4150     7.5050     8.1090     2.1000 
   98.1250   -22.8420    76.2600     6.6790     7.7980    13.3590     2.0910 
   98.2500   -23.2130    70.1440     6.8980     8.0070    21.3310     2.0900 
   98.3750   -23.4110    65.8240     6.9880     8.0540    19.5580     2.0930 
   98.5000   -23.5170    64.7420     6.9400     7.9620    12.7800     2.0940 
   98.6250   -23.6050    65.7160     6.8290     7.8190    10.5990     2.1020 
   98.7500   -23.7600    66.5120     6.7080     7.7010    10.3680     2.1130 
   98.8750   -23.9360    66.7330     6.6200     7.6480     9.6280     2.1230 
   99.0000   -24.1450    67.7920     6.5800     7.6360     8.9650     2.1240 
   99.1250   -24.2960    67.8450     6.5340     7.6150     8.7150     2.1240 
   99.2500   -24.3880    67.7870     6.4810     7.5690     8.5930     2.1190 
   99.3750   -24.3170    67.2070     6.4350     7.5310     8.5250     2.1100 
   99.5000   -24.1430    66.9560     6.4520     7.5730     8.4990     2.0980 
   99.6250   -23.7680    65.4150     6.5940     7.7430     8.4430     2.0930 
   99.7500   -23.2430    64.0340     6.7890     7.9910     8.4330     2.1000 
   99.8750   -22.6820    62.5010     6.9910     8.2350     8.8730     2.1140 
  100.0000   -22.1100    62.1310     7.1050     8.3590     9.4500     2.1180 
  100.1250   -21.5340    61.7850     7.0430     8.2720     9.2160     2.1080 
  100.2500   -20.9460    63.1120     6.8560     8.0170     8.4850     2.0950 
  100.3750   -20.4870    64.3840     6.5780     7.6740     8.0270     2.0930 
  100.5000   -20.1310    65.1340     6.3290     7.3790     7.8200     2.0950 
  100.6250   -19.9520    65.2710     6.1900     7.2240     7.6650     2.0970 
  100.7500   -19.8920    65.0180     6.1570     7.1890     7.6530     2.0940 
  100.8750   -19.8780    64.0220     6.2010     7.2180     7.8030     2.0920 
  101.0000   -19.8300    62.5970     6.2660     7.2470     7.8410     2.0920 
  101.1250   -19.7550    62.2740     6.3200     7.2440     7.8360     2.0960 
  101.2500   -19.6560    64.3710     6.3690     7.2200     7.8950     2.0970 
  101.3750   -19.5230    67.1640     6.4320     7.2050     7.8880     2.0970 
  101.5000   -19.3700    69.5280     6.5480     7.2340     7.7530     2.0960 
  101.6250   -19.1760    69.7940     6.6880     7.2990     7.7910     2.0940 
  101.7500   -18.8500    69.1230     6.8040     7.3480     8.2200     2.0890 
  101.8750   -18.1240    68.9610     6.8180     7.2810     8.6290     2.0900 
  102.0000   -17.0580    70.1570     6.5760     6.9800     8.3740     2.1020 
  102.1250   -15.6780    73.7580     6.0640     6.4380     7.6420     2.1270 
  102.2500   -14.1920    77.7080     5.4310     5.7790     7.0910     2.1560 
  102.3750   -12.7050    82.7490     4.7410     5.1250     5.9540     2.1840 
  102.5000   -11.2950    87.7910     4.2300     4.6020     4.4300     2.2060 
  102.6250   -10.2300    94.4080     3.8300     4.2110     3.9200     2.2230 
  102.7500    -9.6290    98.5910     3.5190     3.9030     4.0300     2.2360 
  102.8750    -9.3690    99.8910     3.3270     3.6940     3.9150     2.2450 
  103.0000    -9.2240    98.7660     3.2590     3.6430     3.6520     2.2490 
  103.1250    -9.2780    97.7620     3.5040     3.9380     3.5900     2.2530 
  103.2500    -9.5890    96.1510     4.1470     4.7560     4.0750     2.2700 
  103.3750   -10.2030    93.4330     5.4770     6.4430     6.4970     2.3280 
  103.5000   -10.8090    88.6910     7.8060     9.2970    14.3800     2.4160 
  103.6250   -11.2530    82.2300    11.5440    13.4060    23.4500     2.4690 
  103.7500   -11.8150    74.2180    15.6240    17.7100    24.1630     2.4220 
  103.8750   -12.6350    68.3880    18.7170    20.8850    21.6010     2.2860 
  104.0000   -13.4750    65.8860    20.3270    22.3900    23.3150     2.1520 
  104.1250   -14.1820    66.6320    20.2240    22.2730    25.8800     2.0860 
  104.2500   -14.7390    66.7380    19.5690    21.5330    25.7970     2.0750 
