~V
VERS. 2.00: Ver 2.00
~W
STRT.M 60.0000:
STOP.M 249.0000:
STEP.M 0.1250:
NULL. -999.2500:
UWI. F10851:
~C
DEPT.M :
TVD. :
DX. :
DY. :
SP.MV :
GR.API :
RI. :
RML.OHMM :
RXO.OHMM :
DEN.GM/CC :
~A
# ...
  142.1250   142.1220     0.3300    -0.2880    -7.9320    57.3480    16.8270    19.1510    20.6290     2.4620 
  142.2500   142.2470     0.3300    -0.2870    -7.8900    57.2470    17.5900    19.7810    19.3580     2.4480 
  142.3750   142.3720     0.3290    -0.2860    -7.7180    57.7440    17.3210    19.2420    18.6510     2.4310 
  142.5000   142.4970     0.3280    -0.2850    -7.4920    56.8680    17.2530    19.1370    21.3320     2.4250 
  142.6250   142.6220     0.3280    -0.2840    -7.3020    54.5870    17.6880    19.7710    28.2560     2.4410 
  142.7500   142.7470     0.3270    -0.2830    -7.2180    53.3770    18.1380    20.5110    30.3400     2.4710 
  142.8750   142.8720     0.3270    -0.2820    -7.2730    54.0740    18.2490    20.8200    25.8130     2.4980 
  143.0000   142.9970     0.3260    -0.2820    -7.4360    54.1490    17.8140    20.4450    22.7480     2.5100 
  143.1250   143.1220     0.3260    -0.2810    -7.6570    53.7370    17.0570    19.6080    21.8500     2.5050 
  143.2500   143.2470     0.3250    -0.2800    -7.8580    54.6270    16.2310    18.6420    20.6960     2.4920 
  143.3750   143.3720     0.3240    -0.2790    -7.9860    56.3310    16.0910    18.4090    19.7310     2.4840 
  143.5000   143.4970     0.3240    -0.2780    -8.0600    55.8770    16.7080    18.9600    20.5500     2.4910 
  143.6250   143.6220     0.3230    -0.2770    -8.1140    52.8560    18.1680    20.4100    23.5560     2.5120 
  143.7500   143.7470     0.3230    -0.2760    -8.1740    50.6480    19.8160    22.0500    27.5250     2.5410 
  143.8750   143.8720     0.3220    -0.2750    -8.2830    50.8220    21.2670    23.5730    36.0100     2.5660 
  144.0000   143.9970     0.3210    -0.2740    -8.4700    52.5070    22.2650    24.5980    42.0510     2.5810 
  144.1250   144.1220     0.3210    -0.2730    -8.7300    54.3900    22.1840    24.3870    35.4120     2.5790 
  144.2500   144.2470     0.3200    -0.2720    -9.0300    55.4590    21.1180    23.0730    27.1740     2.5640 
  144.3750   144.3720     0.3200    -0.2710    -9.3610    56.8270    19.2310    20.8420    22.6090     2.5380 
  144.5000   144.4970     0.3190    -0.2700    -9.7100    57.9800    16.6690    17.8520    18.0640     2.5050 
  144.6250   144.6220     0.3180    -0.2690   -10.0640    59.2430    13.9350    14.7830    14.8570     2.4650 
  144.7500   144.7470     0.3180    -0.2690   -10.4260    61.4290    11.2510    11.7730    12.5920     2.4210 
  144.8750   144.8720     0.3170    -0.2680   -10.7960    64.2340     8.7750     9.0250     9.7950     2.3820 
  145.0000   144.9970     0.3160    -0.2670   -11.1630    67.1380     7.0390     7.1030     7.1590     2.3570 
  145.1250   145.1220     0.3160    -0.2660   -11.5060    69.3280     6.5070     6.5120     6.2480     2.3550 
  145.2500   145.2470     0.3150    -0.2650   -11.7960    70.7260     7.0340     7.1240    12.4630     2.3750 
  145.3750   145.3720     0.3150    -0.2640   -11.9930    69.1010     8.9550     9.3530    30.1050     2.4130 
  145.5000   145.4970     0.3140    -0.2630   -12.1060    64.0420    12.5410    13.4990    40.3480     2.4520 
  145.6250   145.6220     0.3130    -0.2620   -12.1250    58.6180    15.8110    17.0670    31.4390     2.4770 
  145.7500   145.7470     0.3130    -0.2610   -11.9440    56.1430    16.4940    17.6620    21.7530     2.4800 
  145.8750   145.8720     0.3120    -0.2610   -11.7470    57.5500    14.8770    15.6450    17.4630     2.4610 
  146.0000   145.9970     0.3110    -0.2600   -11.5600    61.3060    11.5860    11.8120    12.0660     2.4360 
  146.1250   146.1220     0.3110    -0.2590   -11.3880    65.6270     9.7170     9.7690    10.4690     2.4190 
  146.2500   146.2470     0.3100    -0.2580   -11.1170    68.0380     9.8790    10.0550    14.6310     2.4190 
  146.3750   146.3720     0.3090    -0.2570   -10.8760    66.0520    11.9090    12.5230    20.1450     2.4360 
  146.5000   146.4970     0.3090    -0.2560   -10.4510    60.9950    15.5980    16.9050    23.0890     2.4640 
  146.6250   146.6220     0.3080    -0.2560    -9.9270    55.8350    19.3730    21.3460    22.3600     2.4980 
  146.7500   146.7470     0.3080    -0.2550    -9.2350    53.2420    22.1870    24.5640    22.4660     2.5310 
  146.8750   146.8720     0.3070    -0.2540    -8.4040    53.3230    22.7810    25.1920    23.3340     2.5580 
  147.0000   146.9970     0.3060    -0.2530    -7.6190    54.0170    22.0520    24.2650    22.7480     2.5740 
  147.1250   147.1220     0.3060    -0.2520    -6.8350    53.8670    21.0050    22.9540    21.9570     2.5730 
  147.2500   147.2470     0.3050    -0.2520    -6.0200    52.7940    20.1770    21.9290    21.2740     2.5570 
  147.3750   147.3720     0.3050    -0.2510    -5.2350    52.0080    19.8760    21.5420    20.6160     2.5370 
  147.5000   147.4970     0.3040    -0.2500    -4.6800    51.9010    20.1010    21.8830    20.4830     2.5260 
  147.6250   147.6220     0.3030    -0.2490    -4.0240    52.3640    20.8790    22.9550    23.5780     2.5310 
  147.7500   147.7470     0.3030    -0.2490    -3.5830    53.1090    21.9940    24.4620    28.4520     2.5470 
  147.8750   147.8720     0.3020    -0.2480    -3.3360    54.0550    23.4050    26.2890    29.2800     2.5670 
  148.0000   147.9970     0.3020    -0.2470    -3.2530    54.9250    24.8110    27.9340    27.2450     2.5840 
  148.1250   148.1220     0.3010    -0.2460    -3.2240    54.5530    25.4380    28.5420    30.6880     2.5910 
  148.2500   148.2470     0.3000    -0.2460    -3.3740    52.4910    25.4470    28.3510    36.3260     2.5860 
  148.3750   148.3720     0.3000    -0.2450    -3.5330    50.3170    24.7550    27.3600    33.0440     2.5650 
  148.5000   148.4970     0.2990    -0.2440    -3.6230    49.9180    24.1350    26.5500    26.7280     2.5310 
  148.6250   148.6220     0.2980    -0.2430    -3.6090    52.2220    23.8250    26.1510    25.0670     2.4910 
  148.7500   148.7470     0.2980    -0.2430    -3.5020    55.5430    23.8020    26.1330    29.5030     2.4550 
  148.8750   148.8720     0.2970    -0.2420    -3.3290    56.9100    24.0640    26.4510    33.7800     2.4290 
  149.0000   148.9970     0.2970    -0.2410    -3.1450    55.5210    24.6430    27.1280    30.6890     2.4150 
  149.1250   149.1220     0.2960    -0.2400    -3.0160    53.7570    25.5580    28.1210    28.9590     2.4060 
  149.2500   149.2470     0.2950    -0.2400    -2.9700    53.8400    26.4620    29.0740    31.2310     2.4010 
  149.3750   149.3720     0.2950    -0.2390    -3.0030    55.0700    27.6390    30.3280    32.8200     2.4000 
  149.5000   149.4970     0.2940    -0.2380    -3.0790    55.9030    28.8530    31.6210    34.3270     2.4020 
  149.6250   149.6220     0.2940    -0.2380    -3.1500    56.4420    30.2910    33.1720    35.3520     2.4070 
  149.7500   149.7470     0.2930    -0.2370    -3.1660    57.1900    31.1510    34.0320    35.3880     2.4120 
  149.8750   149.8720     0.2920    -0.2360    -3.1150    58.2630    31.1020    33.8940    35.3910     2.4130 
  150.0000   149.9970     0.2920    -0.2350    -3.0270    59.4350    30.2200    32.8330    33.6840     2.4090 
  150.1250   150.1220     0.2910    -0.2350    -2.9260    59.7390    28.9610    31.3860    30.5580     2.4050 
  150.2500   150.2470     0.2900    -0.2340    -2.8430    59.2740    27.8940    30.1990    29.9360     2.4060 
  150.3750   150.3720     0.2900    -0.2330    -2.8170    58.8300    27.4740    29.7850    30.9890     2.4160 
  150.5000   150.4970     0.2890    -0.2330    -2.8550    58.6360    27.2830    29.6390    32.1050     2.4350 
  150.6250   150.6220     0.2880    -0.2320    -2.9520    58.2770    26.8760    29.2570    34.4380     2.4590 
  150.7500   150.7470     0.2880    -0.2310    -3.0950    58.0430    25.9180    28.2140    34.1350     2.4790 
  150.8750   150.8720     0.2870    -0.2310    -3.2770    58.3640    24.2690    26.3480    28.5010     2.4870 
  151.0000   150.9970     0.2860    -0.2300    -3.4870    59.3340    22.5080    24.3250    22.8030     2.4810 
  151.1250   151.1220     0.2860    -0.2290    -3.7230    60.1890    21.3130    22.9630    20.8880     2.4660 
