~V
VERS. 2.00: Ver 2.00
~W
STRT.M 63.0000:
STOP.M 236.0000:
STEP.M 0.1250:
NULL. -999.2500:
UWI. F10859:
~C
DEPT.M :
TVD. :
DX. :
DY. :
SP.MV :
GR.API :
RI. :
RML.OHMM :
RXO.OHMM :
DEN.GM/CC :
~A
# ...
   72.1250    72.1240    -0.1330     0.0490   -11.3710    91.4970     4.7090     6.1660     5.0240     2.3120 
   72.2500    72.2490    -0.1350     0.0500   -11.2580    90.8530     4.7820     6.3020     5.2930     2.3120 
   72.3750    72.3740    -0.1370     0.0510   -11.2500    90.6220     4.9050     6.4830     5.4400     2.3030 
   72.5000    72.4990    -0.1390     0.0520   -11.3380    90.1930     5.0420     6.6600     5.4890     2.2870 
   72.6250    72.6240    -0.1400     0.0520   -11.4780    87.4270     5.1710     6.8190     5.5660     2.2730 
   72.7500    72.7490    -0.1420     0.0530   -11.6090    83.9000     5.2860     6.9670     5.5990     2.2650 
   72.8750    72.8740    -0.1440     0.0540   -11.6950    81.4550     5.4030     7.1260     5.5900     2.2600 
   73.0000    72.9990    -0.1460     0.0550   -11.7280    82.3130     5.5410     7.3140     5.6340     2.2500 
   73.1250    73.1240    -0.1470     0.0560   -11.7380    82.3460     5.6970     7.5170     5.7890     2.2350 
   73.2500    73.2490    -0.1490     0.0560   -11.7560    81.2050     5.8450     7.6890     6.1120     2.2200 
   73.3750    73.3740    -0.1510     0.0570   -11.7800    78.8700     5.9490     7.7850     6.4710     2.2120 
   73.5000    73.4990    -0.1520     0.0580   -11.7870    79.7170     5.9780     7.7660     6.5600     2.2140 
   73.6250    73.6240    -0.1540     0.0590   -11.7720    81.4990     5.9440     7.6560     6.3380     2.2200 
   73.7500    73.7490    -0.1560     0.0590   -11.7470    84.0650     5.9000     7.5390     6.0600     2.2200 
   73.8750    73.8740    -0.1580     0.0600   -11.7340    84.9640     5.9480     7.5740     5.9500     2.2100 
   74.0000    73.9990    -0.1590     0.0610   -11.7610    83.2600     6.2380     7.9850     6.0610     2.1930 
   74.1250    74.1240    -0.1610     0.0620   -11.8440    78.6740     6.8230     8.8380     6.4370     2.1740 
   74.2500    74.2490    -0.1630     0.0620   -12.0040    75.1060     7.5830     9.9320     7.6310     2.1600 
   74.3750    74.3740    -0.1640     0.0630   -12.2370    74.4230     8.1600    10.7230     9.8780     2.1510 
   74.5000    74.4990    -0.1660     0.0640   -12.5280    76.4370     8.1690    10.6490    11.6330     2.1560 
   74.6250    74.6240    -0.1680     0.0650   -12.8300    78.9350     7.5690     9.6950    10.9120     2.1830 
   74.7500    74.7490    -0.1690     0.0660   -13.0950    83.2890     6.5680     8.2210     8.1980     2.2340 
   74.8750    74.8740    -0.1710     0.0660   -13.2870    89.7900     5.5840     6.8610     6.1390     2.2900 
   75.0000    74.9990    -0.1730     0.0670   -13.4060    95.1460     4.9520     6.0880     5.7170     2.3250 
   75.1250    75.1240    -0.1740     0.0680   -13.5240    97.6210     4.7630     5.9770     5.6600     2.3270 
   75.2500    75.2490    -0.1760     0.0690   -13.7340    96.9080     5.0310     6.4850     5.5440     2.3020 
   75.3750    75.3740    -0.1780     0.0700   -14.0850    93.2850     5.6430     7.4160     5.9770     2.2670 
   75.5000    75.4990    -0.1800     0.0700   -14.5640    89.2610     6.5450     8.6570     6.8930     2.2300 
   75.6250    75.6230    -0.1810     0.0710   -15.0830    83.9240     7.7130    10.1700     7.7690     2.2030 
   75.7500    75.7480    -0.1830     0.0720   -15.5740    80.3420     9.2750    12.1360     8.5250     2.2110 
   75.8750    75.8730    -0.1850     0.0730   -16.0170    77.3200    11.2440    14.5990     9.9210     2.2750 
   76.0000    75.9980    -0.1860     0.0740   -16.4170    76.7500    13.4680    17.3700    14.4820     2.3860 
   76.1250    76.1230    -0.1880     0.0740   -16.7850    76.1670    15.5340    19.8900    22.6850     2.4890 
   76.2500    76.2480    -0.1900     0.0750   -17.1250    74.1630    16.8570    21.3690    29.5620     2.5270 
   76.3750    76.3730    -0.1910     0.0760   -17.4590    70.0070    17.1070    21.4110    29.5950     2.4820 
   76.5000    76.4980    -0.1930     0.0770   -17.8260    67.5710    16.2170    20.0290    22.8980     2.3740 
   76.6250    76.6230    -0.1950     0.0780   -18.2560    68.6070    14.6980    17.9830    15.2110     2.2560 
   76.7500    76.7480    -0.1960     0.0780   -18.7510    72.3760    13.1840    16.1400    10.7880     2.1710 
   76.8750    76.8730    -0.1980     0.0790   -19.2730    73.9620    12.1820    15.0800     9.5560     2.1280 
   77.0000    76.9980    -0.2000     0.0800   -19.7790    70.9330    11.8840    14.9310    10.2200     2.1120 
   77.1250    77.1230    -0.2010     0.0810   -20.2370    66.2630    12.0670    15.3050    11.6770     2.1050 
   77.2500    77.2480    -0.2030     0.0820   -20.6380    63.5500    12.5060    15.8680    12.8020     2.1030 
   77.3750    77.3730    -0.2050     0.0830   -20.9850    63.8430    13.0350    16.4600    12.8060     2.1100 
   77.5000    77.4980    -0.2070     0.0830   -21.2780    64.7570    13.6900    17.2060    12.3610     2.1340 
   77.6250    77.6230    -0.2080     0.0840   -21.5190    63.6370    14.5800    18.3040    13.4220     2.1850 
   77.7500    77.7480    -0.2100     0.0850   -21.7090    61.1150    15.7640    19.8390    20.2450     2.2780 
   77.8750    77.8730    -0.2120     0.0860   -21.8690    59.5700    17.0660    21.5340    34.8250     2.3890 
   78.0000    77.9980    -0.2130     0.0870   -22.0230    60.2470    18.1430    22.8740    49.4510     2.4650 
   78.1250    78.1230    -0.2150     0.0880   -22.1950    62.7990    18.6870    23.4260    52.3650     2.4650 
   78.2500    78.2480    -0.2170     0.0880   -22.4090    63.2440    18.5410    23.0120    42.2640     2.3830 
   78.3750    78.3730    -0.2180     0.0890   -22.6710    61.4850    17.9780    22.0790    29.2310     2.2670 
   78.5000    78.4980    -0.2200     0.0900   -22.9860    58.8660    17.4900    21.3480    20.9660     2.1690 
   78.6250    78.6230    -0.2220     0.0910   -23.3320    57.3440    17.5990    21.5090    17.9460     2.1200 
   78.7500    78.7480    -0.2230     0.0920   -23.6720    56.7160    18.6600    22.9810    19.0020     2.1390 
   78.8750    78.8730    -0.2250     0.0930   -23.9500    56.8380    20.4070    25.3390    28.5370     2.2100 
   79.0000    78.9980    -0.2270     0.0940   -24.1040    57.3030    22.2190    27.7190    49.4400     2.2870 
   79.1250    79.1230    -0.2280     0.0950   -24.1250    58.2220    23.3310    29.0840    63.3890     2.3150 
   79.2500    79.2480    -0.2300     0.0950   -24.0220    59.5730    23.0700    28.5560    52.8410     2.2700 
   79.3750    79.3730    -0.2320     0.0960   -23.8530    61.8550    21.5210    26.3300    32.5550     2.1910 
   79.5000    79.4980    -0.2340     0.0970   -23.6570    65.1720    19.1690    23.1570    21.1280     2.1270 
   79.6250    79.6230    -0.2350     0.0980   -23.4540    66.7020    16.8310    20.1500    17.6970     2.0970 
   79.7500    79.7480    -0.2370     0.0990   -23.2460    66.2500    15.1580    18.1180    16.2170     2.0920 
   79.8750    79.8730    -0.2390     0.1000   -23.0220    64.8740    14.2960    17.1490    14.7480     2.0920 
   80.0000    79.9980    -0.2400     0.1010   -22.7810    64.7620    14.1730    17.1030    14.1010     2.0910 
   80.1250    80.1230    -0.2420     0.1020   -22.5300    65.6590    14.5300    17.6510    14.6490     2.0910 
   80.2500    80.2480    -0.2440     0.1030   -22.2960    65.2550    15.0680    18.3950    15.7040     2.0940 
   80.3750    80.3730    -0.2450     0.1040   -22.1040    64.7440    15.2270    18.5720    16.3350     2.0960 
   80.5000    80.4980    -0.2470     0.1040   -21.9520    64.7250    14.3650    17.3540    16.3320     2.1020 
   80.6250    80.6230    -0.2490     0.1050   -21.7960    66.3610    12.4580    14.8000    15.8090     2.1190 
   80.7500    80.7480    -0.2510     0.1060   -21.5610    68.9280     9.9890    11.6330    13.9760     2.1520 
   80.8750    80.8730    -0.2520     0.1070   -21.1990    72.9050     7.7940     8.9510    10.5680     2.1930 
   81.0000    80.9980    -0.2540     0.1080   -20.6750    78.1680     6.4820     7.4880     7.3290     2.2280 
   81.1250    81.1230    -0.2560     0.1090   -20.0340    82.6970     6.0050     7.0830     5.9990     2.2460 
