~V
VERS. 2.00: Ver 2.00
~W
STRT.M 65.0000:
STOP.M 239.0000:
STEP.M 0.1250:
NULL. -999.2500:
UWI. F10876:
~C
DEPT.M :
TVD. :
DX. :
DY. :
SP.MV :
GR.API :
RI. :
RML.OHMM :
RXO.OHMM :
DEN.GM/CC :
~A
# ...
  156.2500   156.2370    -1.5020    -0.1700   -11.0280    52.2460     8.6320     9.3440     9.1590     2.4310 
  156.3750   156.3620    -1.5040    -0.1700   -11.0890    52.5430     8.5460     9.2550    10.0110     2.4310 
  156.5000   156.4870    -1.5070    -0.1700   -11.1810    54.4620     8.5800     9.3070    10.6870     2.4330 
  156.6250   156.6120    -1.5090    -0.1690   -11.3290    58.0520     8.7590     9.5250    10.5170     2.4370 
  156.7500   156.7370    -1.5110    -0.1690   -11.5510    60.1700     9.0720     9.8890    10.1820     2.4440 
  156.8750   156.8620    -1.5130    -0.1690   -11.8130    58.5210     9.5300    10.4160    10.8940     2.4520 
  157.0000   156.9870    -1.5150    -0.1690   -12.0520    55.1130    10.0980    11.0600    12.0960     2.4560 
  157.1250   157.1120    -1.5180    -0.1690   -12.2230    51.8440    10.6640    11.6890    12.6410     2.4530 
  157.2500   157.2370    -1.5200    -0.1690   -12.3300    49.8440    11.1040    12.1650    12.9150     2.4400 
  157.3750   157.3620    -1.5220    -0.1680   -12.4150    49.2840    11.3500    12.4300    13.4420     2.4230 
  157.5000   157.4870    -1.5240    -0.1680   -12.4810    50.8960    11.3950    12.4840    13.8600     2.4090 
  157.6250   157.6120    -1.5260    -0.1680   -12.5120    52.2920    11.2470    12.3290    13.8440     2.4060 
  157.7500   157.7370    -1.5280    -0.1680   -12.5240    51.9100    10.9460    11.9980    13.6050     2.4160 
  157.8750   157.8620    -1.5310    -0.1670   -12.5580    53.7230    10.5160    11.5100    13.4690     2.4310 
  158.0000   157.9870    -1.5330    -0.1670   -12.6180    57.6800    10.0490    10.9720    13.2600     2.4420 
  158.1250   158.1120    -1.5350    -0.1670   -12.6720    58.5740     9.6800    10.5550    12.8280     2.4490 
  158.2500   158.2370    -1.5370    -0.1670   -12.6910    56.2200     9.5560    10.4300    12.2090     2.4540 
  158.3750   158.3620    -1.5390    -0.1670   -12.6650    55.1050     9.7140    10.6340    11.7940     2.4600 
  158.5000   158.4870    -1.5410    -0.1660   -12.5940    54.9500    10.1120    11.1140    12.2760     2.4650 
  158.6250   158.6120    -1.5430    -0.1660   -12.5000    52.1400    10.5550    11.6240    13.1570     2.4690 
  158.7500   158.7370    -1.5450    -0.1660   -12.4100    49.2050    10.7050    11.7680    13.3490     2.4670 
  158.8750   158.8620    -1.5470    -0.1660   -12.3420    50.5520    10.4040    11.3870    12.5900     2.4610 
  159.0000   158.9870    -1.5490    -0.1650   -12.2990    54.7110     9.7280    10.5830    10.8840     2.4560 
  159.1250   159.1120    -1.5510    -0.1650   -12.2750    56.4750     8.9260     9.6510     8.9250     2.4530 
  159.2500   159.2370    -1.5530    -0.1650   -12.2660    54.9650     8.2730     8.9130     7.9870     2.4510 
  159.3750   159.3620    -1.5560    -0.1650   -12.2540    52.4660     7.8950     8.5100     8.4560     2.4500 
  159.5000   159.4870    -1.5580    -0.1640   -12.2020    50.8450     7.8130     8.4520     9.4900     2.4490 
  159.6250   159.6120    -1.5600    -0.1640   -12.0880    51.0370     7.9500     8.6330     9.7680     2.4520 
  159.7500   159.7370    -1.5620    -0.1640   -11.9240    51.6100     8.1900     8.9040     9.1770     2.4570 
  159.8750   159.8620    -1.5640    -0.1640   -11.7520    50.4420     8.3910     9.1100     8.7760     2.4600 
  160.0000   159.9870    -1.5660    -0.1640   -11.5970    47.4640     8.4620     9.1680     8.9690     2.4600 
  160.1250   160.1120    -1.5680    -0.1630   -11.4610    45.2450     8.4310     9.1200     9.2240     2.4580 
  160.2500   160.2370    -1.5700    -0.1630   -11.3470    46.1200     8.3250     9.0040     9.2000     2.4530 
  160.3750   160.3620    -1.5720    -0.1630   -11.2760    49.2460     8.1420     8.7950     9.1300     2.4480 
  160.5000   160.4870    -1.5740    -0.1630   -11.2790    50.8720     7.8780     8.4830     9.0670     2.4430 
  160.6250   160.6120    -1.5760    -0.1630   -11.3520    49.1360     7.6080     8.1590     8.6580     2.4420 
  160.7500   160.7370    -1.5780    -0.1620   -11.4630    45.5720     7.3990     7.8980     7.9670     2.4430 
  160.8750   160.8620    -1.5800    -0.1620   -11.5720    44.6750     7.2720     7.7430     7.6590     2.4430 
  161.0000   160.9870    -1.5820    -0.1620   -11.6640    49.0790     7.2250     7.6780     7.8350     2.4380 
  161.1250   161.1120    -1.5850    -0.1620   -11.7460    54.0010     7.2060     7.6310     7.7890     2.4310 
  161.2500   161.2360    -1.5870    -0.1620   -11.8070    52.8740     7.1790     7.5620     7.4310     2.4240 
  161.3750   161.3610    -1.5890    -0.1610   -11.8270    48.0750     7.1480     7.4930     7.3090     2.4210 
  161.5000   161.4860    -1.5910    -0.1610   -11.8150    47.0980     7.1510     7.4800     7.2790     2.4210 
  161.6250   161.6110    -1.5930    -0.1610   -11.8140    50.5760     7.2360     7.5640     7.1040     2.4220 
  161.7500   161.7360    -1.5950    -0.1610   -11.8660    53.0900     7.4450     7.7750     7.3650     2.4220 
  161.8750   161.8610    -1.5970    -0.1610   -11.9640    52.4270     7.7320     8.0480     8.2710     2.4200 
  162.0000   161.9860    -1.5990    -0.1610   -12.0640    50.9200     8.0180     8.2880     9.1270     2.4190 
  162.1250   162.1110    -1.6010    -0.1610   -12.1250    50.2160     8.2190     8.4300     9.4140     2.4180 
  162.2500   162.2360    -1.6040    -0.1600   -12.1330    51.7860     8.2780     8.4030     9.4050     2.4180 
  162.3750   162.3610    -1.6060    -0.1600   -12.1060    54.5910     8.2250     8.2560     9.3400     2.4160 
  162.5000   162.4860    -1.6080    -0.1600   -12.0330    54.1330     8.1310     8.0790     9.0900     2.4120 
  162.6250   162.6110    -1.6100    -0.1600   -11.9020    52.8300     8.0900     7.9900     8.9510     2.4080 
  162.7500   162.7360    -1.6120    -0.1600   -11.7360    54.1290     8.1640     8.0780     9.0920     2.4020 
  162.8750   162.8610    -1.6140    -0.1600   -11.5870    55.8360     8.3400     8.3120     9.1390     2.3950 
  163.0000   162.9860    -1.6170    -0.1600   -11.4800    52.0030     8.5460     8.5960     9.1070     2.3890 
  163.1250   163.1110    -1.6190    -0.1590   -11.3950    47.1790     8.6530     8.7650     9.4150     2.3830 
  163.2500   163.2360    -1.6210    -0.1590   -11.2890    50.1010     8.5940     8.7350     9.9130     2.3770 
  163.3750   163.3610    -1.6230    -0.1590   -11.1300    57.0540     8.4550     8.6070     9.7660     2.3660 
  163.5000   163.4860    -1.6250    -0.1590   -10.9520    60.1560     8.4440     8.5840     9.0570     2.3510 
  163.6250   163.6110    -1.6280    -0.1590   -10.8250    59.8730     8.7910     8.9000     9.1140     2.3410 
  163.7500   163.7360    -1.6300    -0.1590   -10.7670    61.2790     9.8130     9.9530    10.6510     2.3400 
  163.8750   163.8610    -1.6320    -0.1580   -10.7240    66.1000    11.8320    12.1070    14.1460     2.3450 
  164.0000   163.9860    -1.6340    -0.1580   -10.6600    67.6760    15.0730    15.6540    20.0740     2.3430 
  164.1250   164.1110    -1.6370    -0.1580   -10.5910    65.7150    19.2420    20.2520    26.0740     2.3270 
  164.2500   164.2360    -1.6390    -0.1580   -10.5380    63.5250    23.8670    25.2490    30.5090     2.2980 
  164.3750   164.3610    -1.6410    -0.1580   -10.4860    63.4940    28.1520    29.7690    33.0590     2.2660 
  164.5000   164.4860    -1.6430    -0.1580   -10.3840    63.9430    31.5290    33.1870    34.2060     2.2460 
  164.6250   164.6110    -1.6460    -0.1580   -10.2040    64.5690    33.9490    35.5220    35.3410     2.2400 
  164.7500   164.7360    -1.6480    -0.1580    -9.9870    64.3850    35.3700    36.9050    36.1890     2.2500 
  164.8750   164.8610    -1.6500    -0.1570    -9.8300    60.5810    36.2670    37.8700    36.2100     2.2670 
  165.0000   164.9860    -1.6530    -0.1570    -9.8010    55.2580    36.9340    38.6830    36.2390     2.2800 
  165.1250   165.1110    -1.6550    -0.1570    -9.8730    53.5240    37.4550    39.4120    37.9070     2.2830 
  165.2500   165.2360    -1.6570    -0.1570   -10.0200    56.0520    37.9200    40.1900    42.0750     2.2710 
