~V
VERS. 2.00: Ver 2.00
~W
STRT.M 63.0000:
STOP.M 247.0000:
STEP.M 0.1250:
NULL. -999.2500:
UWI. F10865:
~C
DEPT.M :
TVD. :
DX. :
DY. :
SP.MV :
GR.API :
RI. :
RML.OHMM :
RXO.OHMM :
DEN.GM/CC :
~A
# ...
  163.3750   163.3650    -1.3790    -0.1160  -110.8410    59.7070    11.4400    12.4650    10.9120     2.4150 
  163.5000   163.4900    -1.3800    -0.1170  -110.6340    58.8800    10.8680    11.8480     9.9220     2.4080 
  163.6250   163.6150    -1.3820    -0.1180  -110.4270    58.0420    10.3160    11.2680     8.9020     2.3990 
  163.7500   163.7400    -1.3830    -0.1190  -110.2400    57.8690     9.9620    10.9140     8.3830     2.3890 
  163.8750   163.8650    -1.3840    -0.1190  -110.0840    58.3400     9.8880    10.8820     8.2610     2.3820 
  164.0000   163.9900    -1.3860    -0.1200  -109.9630    58.7190    10.0820    11.1560     8.4540     2.3780 
  164.1250   164.1150    -1.3870    -0.1210  -109.8700    58.3880    10.5350    11.7190     9.0810     2.3770 
  164.2500   164.2400    -1.3890    -0.1220  -109.8020    59.2990    11.0790    12.3590     9.9750     2.3730 
  164.3750   164.3650    -1.3900    -0.1220  -109.7570    61.5910    11.5500    12.8850    11.0890     2.3680 
  164.5000   164.4900    -1.3910    -0.1230  -109.7400    61.7530    11.8200    13.1680    12.2920     2.3640 
  164.6250   164.6150    -1.3930    -0.1240  -109.7560    60.0810    11.8170    13.1310    14.0100     2.3650 
  164.7500   164.7400    -1.3940    -0.1250  -109.8100    58.7810    11.5840    12.8410    16.3640     2.3690 
  164.8750   164.8650    -1.3960    -0.1250  -109.8960    57.7250    11.1810    12.3720    16.9250     2.3740 
  165.0000   164.9900    -1.3970    -0.1260  -110.0080    57.9060    10.6380    11.7690    14.8210     2.3790 
  165.1250   165.1150    -1.3990    -0.1270  -110.1300    58.8110    10.0300    11.1110    12.8670     2.3840 
  165.2500   165.2400    -1.4000    -0.1280  -110.2420    59.6510     9.4100    10.4440    12.0310     2.3880 
  165.3750   165.3650    -1.4010    -0.1290  -110.3330    58.5870     8.8570     9.8470    10.8320     2.3890 
  165.5000   165.4900    -1.4030    -0.1300  -110.3940    57.5150     8.4550     9.4070     9.4710     2.3880 
  165.6250   165.6150    -1.4040    -0.1300  -110.4340    57.0700     8.1760     9.1010     8.9450     2.3890 
  165.7500   165.7400    -1.4060    -0.1310  -110.4650    56.7270     7.9940     8.8990     9.0070     2.3950 
  165.8750   165.8650    -1.4070    -0.1320  -110.5000    56.6030     7.8950     8.7830     8.9200     2.4040 
  166.0000   165.9900    -1.4090    -0.1330  -110.5510    56.8060     7.8540     8.7230     8.4480     2.4120 
  166.1250   166.1150    -1.4100    -0.1340  -110.6210    55.9890     7.8520     8.7070     8.0250     2.4160 
  166.2500   166.2400    -1.4120    -0.1340  -110.7080    55.0990     7.8820     8.7310     7.9970     2.4160 
  166.3750   166.3650    -1.4130    -0.1350  -110.8020    56.0700     7.9430     8.7930     8.1720     2.4160 
  166.5000   166.4900    -1.4150    -0.1360  -110.8910    57.1270     8.0110     8.8620     8.4020     2.4170 
  166.6250   166.6150    -1.4160    -0.1370  -110.9650    56.8130     8.0710     8.9200     8.7890     2.4210 
  166.7500   166.7400    -1.4180    -0.1380  -111.0190    56.0470     8.1030     8.9430     9.1400     2.4250 
  166.8750   166.8650    -1.4190    -0.1380  -111.0560    55.2350     8.0760     8.8890     9.2300     2.4290 
  167.0000   166.9900    -1.4210    -0.1390  -111.0830    52.6520     8.0400     8.8220     9.1090     2.4330 
  167.1250   167.1150    -1.4220    -0.1400  -111.1090    49.1340     8.0640     8.8190     8.8940     2.4370 
  167.2500   167.2400    -1.4240    -0.1410  -111.1410    47.5210     8.1940     8.9520     8.7470     2.4380 
  167.3750   167.3650    -1.4250    -0.1420  -111.1830    47.2100     8.4350     9.2310     8.7870     2.4320 
  167.5000   167.4900    -1.4270    -0.1430  -111.2390    46.5500     8.7220     9.5660     9.4330     2.4190 
  167.6250   167.6150    -1.4280    -0.1430  -111.3070    47.0390     8.9850     9.8650    11.2150     2.4020 
  167.7500   167.7400    -1.4300    -0.1440  -111.3900    50.3470     9.1320    10.0100    12.7100     2.3860 
  167.8750   167.8650    -1.4320    -0.1450  -111.4800    56.4000     9.1010     9.9420    12.0720     2.3790 
  168.0000   167.9900    -1.4330    -0.1460  -111.5730    60.3660     8.9440     9.7410    10.5570     2.3800 
  168.1250   168.1140    -1.4350    -0.1470  -111.6600    57.9530     8.7600     9.5260     9.8300     2.3890 
  168.2500   168.2390    -1.4360    -0.1470  -111.7300    50.9760     8.6440     9.4000     9.7530     2.3980 
  168.3750   168.3640    -1.4380    -0.1480  -111.7800    47.1710     8.6680     9.4390     9.9730     2.4040 
  168.5000   168.4890    -1.4390    -0.1490  -111.8090    49.0720     8.8090     9.6200    10.0950     2.4070 
  168.6250   168.6140    -1.4410    -0.1500  -111.8250    54.4400     9.0510     9.9150    10.0410     2.4100 
  168.7500   168.7390    -1.4420    -0.1510  -111.8400    59.1320     9.4000    10.3320    10.3710     2.4160 
  168.8750   168.8640    -1.4440    -0.1510  -111.8580    60.6580     9.8670    10.8660    11.2030     2.4270 
  169.0000   168.9890    -1.4460    -0.1520  -111.8790    59.2270    10.3960    11.4440    12.1300     2.4390 
  169.1250   169.1140    -1.4470    -0.1530  -111.8910    57.2820    10.8630    11.9440    13.3200     2.4490 
  169.2500   169.2390    -1.4490    -0.1540  -111.8810    56.0190    11.2060    12.3040    14.4450     2.4530 
  169.3750   169.3640    -1.4500    -0.1550  -111.8430    53.8350    11.3550    12.4440    14.1570     2.4520 
  169.5000   169.4890    -1.4520    -0.1560  -111.7760    51.0220    11.3130    12.3770    12.7910     2.4500 
  169.6250   169.6140    -1.4530    -0.1560  -111.6910    51.2590    11.1660    12.2090    12.0090     2.4490 
  169.7500   169.7390    -1.4550    -0.1570  -111.5990    54.0120    10.9850    12.0190    12.0720     2.4490 
  169.8750   169.8640    -1.4560    -0.1580  -111.5130    55.5970    10.7900    11.8340    12.3980     2.4470 
  170.0000   169.9890    -1.4580    -0.1590  -111.4440    55.5140    10.6300    11.6900    12.8350     2.4420 
  170.1250   170.1140    -1.4590    -0.1600  -111.3950    55.2820    10.4450    11.5000    13.0790     2.4370 
  170.2500   170.2390    -1.4610    -0.1600  -111.3640    56.5940    10.1930    11.2070    12.7410     2.4370 
  170.3750   170.3640    -1.4630    -0.1610  -111.3460    58.8890     9.9040    10.8520    11.8250     2.4390 
  170.5000   170.4890    -1.4640    -0.1620  -111.3350    60.9960     9.6810    10.5640    10.6170     2.4390 
  170.6250   170.6140    -1.4660    -0.1630  -111.3300    61.5320     9.6730    10.5270    10.1840     2.4320 
  170.7500   170.7390    -1.4670    -0.1640  -111.3300    59.0330     9.9260    10.7950    12.9710     2.4200 
  170.8750   170.8640    -1.4690    -0.1640  -111.3320    55.1770    10.2940    11.1890    20.6610     2.4090 
  171.0000   170.9890    -1.4700    -0.1650  -111.3320    52.6570    10.5820    11.4860    30.3330     2.4030 
  171.1250   171.1140    -1.4720    -0.1660  -111.3250    53.0340    10.6060    11.4630    35.6170     2.3970 
  171.2500   171.2390    -1.4730    -0.1670  -111.3100    55.6460    10.2530    11.0580    31.5330     2.3890 
  171.3750   171.3640    -1.4750    -0.1680  -111.2870    58.4760     9.5750    10.3370    21.4410     2.3810 
  171.5000   171.4890    -1.4760    -0.1680  -111.2600    60.0230     8.7450     9.4230    13.9670     2.3800 
  171.6250   171.6140    -1.4770    -0.1690  -111.2280    59.1880     7.9130     8.5110    10.4810     2.3870 
  171.7500   171.7390    -1.4790    -0.1700  -111.1880    58.6840     7.2640     7.7500     8.5130     2.4000 
  171.8750   171.8640    -1.4800    -0.1710  -111.1400    59.1490     6.8270     7.2360     7.5560     2.4160 
  172.0000   171.9890    -1.4820    -0.1710  -111.0850    57.6960     6.5890     6.9740     7.1390     2.4290 
  172.1250   172.1140    -1.4830    -0.1720  -111.0300    53.9800     6.5950     6.9990     7.0490     2.4370 
  172.2500   172.2390    -1.4850    -0.1730  -110.9810    51.5420     6.7900     7.2380     7.1890     2.4410 
  172.3750   172.3640    -1.4860    -0.1730  -110.9410    53.4570     7.1010     7.5760     7.4930     2.4410 
