~V
VERS. 2.00: Ver 2.00
~W
STRT.M 54.0000:
STOP.M 205.0000:
STEP.M 0.1250:
NULL. -999.2500:
UWI. F10812:
~C
DEPT.M :
SP.MV :
GR.API :
RI. :
RML.OHMM :
RXO.OHMM :
DEN.GM/CC :
~A
# ...
  195.6250     0.1350    85.5690     6.3980     7.2800     7.2540     2.2530 
  195.7500     0.1350    85.7790     6.4330     7.3550     7.4310     2.2520 
  195.8750     0.1350    86.3850     6.4080     7.3280     7.2790     2.2390 
  196.0000     0.1350    87.3630     6.3160     7.1680     7.0160     2.2220 
  196.1250     0.1350    88.6710     6.2120     6.9470     7.1460     2.2160 
  196.2500     0.1350    88.1780     6.1430     6.8350     7.5220     2.2220 
  196.3750     0.1350    86.1850     6.1420     6.8400     7.8030     2.2240 
  196.5000     0.1350    84.6000     6.1710     6.9510     7.9810     2.2180 
  196.6250     0.1350    85.1560     6.1920     7.0440     7.9660     2.2070 
  196.7500     0.1350    87.2110     6.1970     7.0610     7.4580     2.2010 
  196.8750     0.1350    88.1370     6.2010     7.0630     6.9620     2.1960 
  197.0000     0.1350    87.7130     6.2000     7.0640     6.6660     2.1870 
  197.1250     0.1350    86.5930     6.2000     7.0610     6.5920     2.1680 
  197.2500     0.1350    86.0540     6.2000     7.0560     7.1520     2.1550 
  197.3750     0.1350    86.3850     6.2010     7.0510     8.0350     2.1530 
  197.5000     0.1350    86.6760     6.2000     7.0470     8.1970     2.1570 
  197.6250     0.1350    87.1090     6.1940     7.0470     6.6820     2.1610 
  197.7500     0.1350    87.3900     6.1930     7.0480     5.0370     2.1660 
  197.8750     0.1350    87.6710     6.1960     7.0520     5.2870     2.1760 
  198.0000     0.1350    87.7220     6.2000     7.0540     6.9180     2.1920 
  198.1250     0.1350    87.7220     6.2000     7.0570     8.7750     2.2140 
  198.2500     0.1350    87.7220     6.1950     7.0580     9.8510     2.2350 
  198.3750     0.1350    87.7220     6.1890     7.0540     9.0970     2.2460 
  198.5000     0.1350    87.7220     6.1890     7.0530     7.4890     2.2500 
  198.6250     0.1350    87.7220     6.1860     7.0500     6.5130     2.2530 
  198.7500     0.1350    87.7220     6.1900     7.0500     5.5810     2.2420 
  198.8750     0.1350    87.7220     6.1890     7.0510     4.7200     2.2270 
  199.0000     0.1350    87.7220     6.1860     7.0540     4.5980     2.2130 
  199.1250     0.1350    87.7220     6.1880     7.0530     4.7910     2.2000 
  199.2500     0.1350    87.7220     6.1890     7.0520     4.9600     2.1680 
  199.3750     0.1350    87.7220     6.1880     7.0510     5.1860     2.1400 
  199.5000     0.1350    87.7220     6.1910     7.0500     5.3500     2.1400 
  199.6250     0.1350    87.7220     6.1840     7.0520     5.4020     2.1660 
  199.7500     0.1350    87.7220     6.1850     7.0510     5.4860     2.1880 
  199.8750     0.1350    87.7220     6.1840     7.0510     5.3380     2.1970 
  200.0000     0.1350    87.7220     6.1810     7.0520     4.8520     2.2000 
  200.1250     0.1350    87.7220     6.1790     7.0560     4.5070     2.2030 
  200.2500     0.1350    87.7220     6.1780     7.0610     4.7140     2.2110 
  200.3750     0.1350    87.7220     6.1780     7.0640     5.5320     2.2220 
  200.5000     0.1350    87.7220     6.1780     7.0650     6.1510     2.2210 
  200.6250     0.1350    87.7220     6.1780     7.0650     5.9140     2.1970 
  200.7500     0.1350    87.7220     6.1780     7.0650     5.4970     2.1770 
  200.8750     0.1350    87.7220     6.1780     7.0650     5.7140     2.1750 
  201.0000     0.1350    87.7220     6.1780     7.0650     6.6770     2.1640 
  201.1250     0.1350    87.7220     6.1780     7.0650     7.8420     2.0990 
  201.2500     0.1350    87.7220     6.1780     7.0650     8.0870     1.9980 
  201.3750     0.1350    87.7220     6.1780     7.0650     7.4240     1.9100 
  201.5000     0.1350    87.7220     6.1780     7.0650     6.8610     1.8680 
  201.6250     0.1350    87.7220     6.1780     7.0650     6.1630     1.8570 
  201.7500     0.1350    87.7220     6.1780     7.0650     5.4040     1.8590 
  201.8750     0.1350    87.7220     6.1780     7.0650     5.1520     1.8620 
  202.0000     0.1350    87.7220     6.1780     7.0650     5.1430     1.8610 
  202.1250     0.1350    87.7220     6.1780     7.0650     5.1430     1.8580 
  202.2500     0.1350    87.7220     6.1780     7.0650     5.1430     1.8550 
  202.3750     0.1350    87.7220     6.1780     7.0650     5.1420     1.8540 
  202.5000     0.1350    87.7220     6.1780     7.0650     5.1420     1.8560 
  202.6250     0.1350    87.7220     6.1780     7.0650     5.1420     1.8590 
  202.7500     0.1350    87.7220     6.1780     7.0650     5.1420     1.8600 
  202.8750     0.1350    87.7220     6.1780     7.0650     5.1420     1.8580 
  203.0000     0.1350    87.7220     6.1780     7.0650     5.1410     1.8570 
  203.1250     0.1350    87.7220     6.1780     7.0650     5.1410     1.8570 
  203.2500     0.1350    87.7220     6.1780     7.0650     5.1410     1.8580 
  203.3750     0.1350    87.7220     6.1780     7.0650     5.1400     1.8570 
  203.5000     0.1350    87.7220     6.1780     7.0650     5.1400     1.8590 
  203.6250     0.1350    87.7220     6.1780     7.0650     5.1390     1.8630 
  203.7500     0.1350    87.7220     6.1780     7.0650     5.1390     1.8680 
  203.8750     0.1350    87.7220     6.1780     7.0650     5.1390     1.8710 
  204.0000     0.1350    87.7220     6.1780     7.0650     5.1390     1.8710 
  204.1250     0.1350    87.7220     6.1780     7.0650     5.1380     1.8690 
  204.2500     0.1350    87.7220     6.1780     7.0650     5.1370     1.8670 
  204.3750     0.1350    87.7220     6.1780     7.0650     5.1370     1.8620 
  204.5000     0.1350    87.7220     6.1780     7.0650     5.1370     1.8600 
  204.6250     0.1350    87.7220     6.1780     7.0650     5.1370     1.8610 
  204.7500     0.1350    87.7220     6.1780     7.0650     5.1370     1.8760 
  204.8750     0.1350    87.7220     6.1780     7.0650     5.1360     1.9030 
  205.0000     0.1350    87.7220     6.1780     7.0650     5.1360     1.9320 
