~V
VERS. 2.00: Ver 2.00
~W
STRT.M 1.0000:
STOP.M 205.0000:
STEP.M 0.1250:
NULL. -999.2500:
UWI. F10806:
~C
DEPT.M :
SP.MV :
GR.API :
RI. :
RML.OHMM :
RXO.OHMM :
DEN.GM/CC :
~A
# ...
  168.3750   -23.2190    58.9580   174.5340   186.1110    19.7480     2.1190 
  168.5000   -22.7700    57.3470   180.7110   189.9330    60.0330     2.0840 
  168.6250   -22.3720    56.4800   187.8390   195.2290   127.3870     2.0310 
  168.7500   -22.0310    55.4310   194.4090   199.6670   139.2310     1.9890 
  168.8750   -21.7160    56.2020   198.7810   200.2940    84.9680     1.9970 
  169.0000   -21.3970    58.7020   193.4930   193.2330    55.5440     2.0520 
  169.1250   -21.0690    62.1130   176.2970   177.7900    61.3370     2.1230 
  169.2500   -20.7460    64.6210   148.7910   156.3380    51.0930     2.1590 
  169.3750   -20.4430    65.0310   122.7450   134.9990    37.0450     2.1610 
  169.5000   -20.1720    64.4650   106.6020   119.4370    40.1760     2.1440 
  169.6250   -19.9370    64.3790   100.5470   111.7500    57.3990     2.1330 
  169.7500   -19.7550    63.9420   103.1070   112.2430   170.7420     2.1250 
  169.8750   -19.6380    64.3490   111.7520   118.2430   356.7310     2.1200 
  170.0000   -19.6120    65.6320   123.7560   127.1630   495.2500     2.1190 
  170.1250   -19.6840    67.8200   134.1950   136.1440   618.1710     2.1220 
  170.2500   -19.8720    68.7240   140.7380   143.4470   637.6420     2.1370 
  170.3750   -20.1610    68.5200   144.1850   148.7830   449.2340     2.1500 
  170.5000   -20.5420    68.3640   146.2090   152.3440   260.5770     2.1470 
  170.6250   -20.9790    67.7550   148.4080   154.8350   219.6590     2.1200 
  170.7500   -21.4280    66.7520   150.8480   156.8420   185.6810     2.0890 
  170.8750   -21.8380    65.3720   152.8520   158.7740   110.2350     2.0790 
  171.0000   -22.1670    65.3720   154.2230   160.4180    80.0460     2.0880 
  171.1250   -22.4180    65.8340   154.5530   161.3660    95.9130     2.0970 
  171.2500   -22.6040    66.0480   153.5200   161.0460   112.5030     2.1020 
  171.3750   -22.7400    66.0460   151.6040   159.1860   107.3370     2.1060 
  171.5000   -22.8150    65.0160   149.8290   156.6160    95.1860     2.1150 
  171.6250   -22.8300    63.9910   148.7470   154.8100   102.0720     2.1230 
  171.7500   -22.7820    62.0880   148.3630   154.6460   126.9650     2.1320 
  171.8750   -22.6690    61.7960   148.7880   156.1110   141.7690     2.1370 
  172.0000   -22.5010    61.3340   150.8770   159.6710   136.1510     2.1420 
  172.1250   -22.3290    62.1520   155.8580   165.7080   130.1570     2.1390 
  172.2500   -22.2210    63.1160   164.0300   174.7370   142.4120     2.1360 
  172.3750   -22.2070    63.6230   174.6720   186.2630   163.0660     2.1320 
  172.5000   -22.2710    63.0820   188.2740   199.3230   175.7960     2.1370 
  172.6250   -22.3520    62.3350   202.0300   211.8800   182.7000     2.1420 
  172.7500   -22.3900    61.4890   212.7480   221.4720   188.3360     2.1420 
  172.8750   -22.3520    61.1550   218.5150   226.6480   189.9000     2.1380 
  173.0000   -22.2120    60.6720   218.1530   226.3450   185.1110     2.1340 
  173.1250   -21.9850    60.3410   213.1050   221.0120   195.0810     2.1290 
  173.2500   -21.6970    60.1300   203.1840   210.4780   282.6770     2.1180 
  173.3750   -21.3530    59.7580   188.9440   196.6510   433.9760     2.1090 
  173.5000   -20.8820    60.6240   171.4800   183.0660   415.7430     2.0920 
  173.6250   -20.2420    63.5510   156.8420   171.1780   199.4230     2.0640 
  173.7500   -19.5250    69.2680   148.8370   162.6660    83.3040     2.0620 
  173.8750   -18.9450    77.0290   147.5890   163.1500   113.1790     2.1450 
  174.0000   -18.6680    82.1750   155.5620   173.6480   166.7000     2.3120 
  174.1250   -18.6760    82.0770   172.3230   191.7400   194.0600     2.4950 
  174.2500   -18.9290    75.7720   196.9090   216.3030   202.3370     2.6040 
  174.3750   -19.3450    68.5450   221.6000   244.3090   225.3600     2.6470 
  174.5000   -19.8590    62.5220   244.0600   269.8670   240.1790     2.6450 
  174.6250   -20.3970    58.4600   259.2990   287.8480   245.2550     2.6460 
  174.7500   -20.8700    55.5530   266.2520   291.9180   276.5270     2.6460 
  174.8750   -21.1850    54.0760   256.4400   274.9890   307.0920     2.6490 
  175.0000   -21.2940    53.2220   213.1070   231.2420   288.4430     2.6460 
  175.1250   -21.2900    52.7480   154.0280   170.6310   242.5470     2.6380 
  175.2500   -21.2540    51.8890    91.7860   109.1190   168.8940     2.6080 
  175.3750   -21.1870    52.6310    46.2050    61.3160    83.0010     2.5510 
  175.5000   -21.0680    53.9030    24.7160    33.0910    32.1260     2.4620 
  175.6250   -20.9490    56.1110    13.7570    18.3390    12.6790     2.3650 
  175.7500   -20.8860    56.0920     9.0800    11.5830     7.1640     2.2890 
  175.8750   -20.8700    54.8360     6.8600     8.3890     5.8440     2.2570 
  176.0000   -20.8690    52.4310     5.7250     6.8630     5.5120     2.2410 
  176.1250   -20.8800    52.4350     5.1370     6.0620     5.1780     2.2040 
  176.2500   -20.9320    53.0060     4.9100     5.8050     4.8450     2.1320 
  176.3750   -21.0460    53.0350     4.8490     5.7350     4.4960     2.0850 
  176.5000   -21.2010    50.5690     4.8770     5.7750     4.5460     2.1000 
  176.6250   -21.3650    49.0650     4.9890     5.9060     4.9340     2.1530 
  176.7500   -21.5150    48.8130     5.1490     6.0930     5.2200     2.1940 
  176.8750   -21.6180    50.1220     5.3040     6.2700     5.3150     2.2110 
  177.0000   -21.6550    50.7550     5.3770     6.3670     5.4540     2.2160 
  177.1250   -21.6400    51.5320     5.3510     6.3530     5.6880     2.2270 
  177.2500   -21.5640    53.1150     5.2200     6.2300     5.5260     2.2420 
  177.3750   -21.4330    54.2740     5.0290     6.0490     5.1140     2.2450 
  177.5000   -21.2750    54.4970     4.8040     5.8560     5.0300     2.2370 
  177.6250   -21.1010    53.0990     4.6180     5.7100     4.9450     2.2310 
  177.7500   -20.9400    52.9720     4.4760     5.6070     4.6070     2.2380 
  177.8750   -20.8450    52.6460     4.3320     5.4990     4.5750     2.2360 
  178.0000   -20.7800    52.9770     4.1890     5.3730     4.6700     2.1920 
  178.1250   -20.6290    52.6210     4.0410     5.2350     4.2830     2.1220 
  178.2500   -20.3320    53.0950     3.9070     5.1020     4.1010     2.0710 
  178.3750   -19.9280    54.1520     3.7810     4.9780     4.3020     2.0620 
  178.5000   -19.4730    55.7730     3.6780     4.8780     4.0820     2.0740 
  178.6250   -19.0170    57.0450     3.6120     4.8190     3.7980     2.0860 
  178.7500   -18.5550    57.9460     3.6090     4.8390     3.8100     2.1040 
  178.8750   -18.0860    59.8620     3.6760     4.9430     3.8350     2.1280 
  179.0000   -17.7220    63.2140     3.7670     5.0900     4.3830     2.1450 
  179.1250   -17.5460    66.5800     3.8560     5.2410     5.2210     2.1450 
  179.2500   -17.5210    68.4890     3.9180     5.3480     4.9200     2.1330 
  179.3750   -17.5030    69.1250     3.9340     5.3870     3.9220     2.1210 
  179.5000   -17.3700    68.6250     3.9070     5.3610     3.6740     2.1150 
  179.6250   -17.1200    66.9790     3.8760     5.3220     3.9490     2.1230 
  179.7500   -16.8530    66.0040     3.8690     5.3300     4.0650     2.1410 
  179.8750   -16.6710    67.9270     3.8990     5.3920     4.1380     2.1540 
  180.0000   -16.5510    72.4640     3.9410     5.4890     4.2740     2.1430 
  180.1250   -16.4070    76.2390     3.9830     5.5840     4.1460     2.1230 
  180.2500   -16.2420    77.9020     4.0100     5.6490     3.7010     2.1120 
  180.3750   -16.1080    77.9580     4.0320     5.6960     3.6480     2.1170 
  180.5000   -16.0010    78.2220     4.0640     5.7480     4.1360     2.1280 
  180.6250   -15.8890    77.5730     4.1140     5.8220     4.4180     2.1420 
  180.7500   -15.7860    76.6610     4.1770     5.9050     4.4390     2.1560 
  180.8750   -15.7160    75.7320     4.2260     5.9730     4.4120     2.1710 
  181.0000   -15.6620    74.7770     4.2950     6.0470     4.3980     2.1850 
  181.1250   -15.5630    74.2710     4.3780     6.1470     4.6280     2.2080 
