~V
VERS. 2.00: Ver 2.00
~W
STRT.M 50.0000:
STOP.M 213.0000:
STEP.M 0.1250:
NULL. -999.2500:
UWI. F10803:
~C
DEPT.M :
SP.MV :
GR.API :
RI. :
RML.OHMM :
RXO.OHMM :
DEN.GM/CC :
~A
# ...
   75.7500   -24.9320    62.4600     5.2640     6.1920     5.6160     2.0020 
   75.8750   -24.8210    64.4240     5.1110     6.0680     5.5750     2.0030 
   76.0000   -24.8060    66.1290     4.9560     5.9230     5.4920     2.0050 
   76.1250   -24.8310    67.5610     4.8190     5.7960     5.3920     2.0120 
   76.2500   -24.8230    68.9640     4.7230     5.7010     5.2490     2.0170 
   76.3750   -24.7570    69.9060     4.6960     5.6660     5.0520     2.0120 
   76.5000   -24.7210    69.5980     4.7090     5.6770     4.8890     1.9990 
   76.6250   -24.7380    66.8280     4.7550     5.7710     5.0260     1.9970 
   76.7500   -24.7250    64.0270     4.8070     5.8760     5.4780     2.0120 
   76.8750   -24.7760    63.1340     4.8620     5.9150     5.8200     2.0410 
   77.0000   -24.8770    66.1510     4.9340     5.9670     5.8930     2.0540 
   77.1250   -25.1550    69.1240     5.0110     6.0260     5.9040     2.0460 
   77.2500   -25.4710    70.3380     5.0930     6.0950     5.8980     2.0260 
   77.3750   -25.6060    67.1270     5.1580     6.1770     5.7900     2.0110 
   77.5000   -25.6470    64.6470     5.1980     6.2160     5.5990     1.9980 
   77.6250   -25.7350    64.1430     5.1910     6.2120     5.4480     1.9920 
   77.7500   -25.7450    65.9560     5.1330     6.1560     5.4320     1.9870 
   77.8750   -25.4830    66.1240     5.0730     6.0500     5.4740     1.9880 
   78.0000   -25.2840    64.7230     5.0300     5.9710     5.6470     1.9900 
   78.1250   -25.2130    63.7220     5.0220     5.9450     6.1220     1.9950 
   78.2500   -24.9960    63.6860     5.0380     5.9640     6.5860     2.0010 
   78.3750   -24.3260    65.2100     5.0640     6.0080     6.7290     2.0090 
   78.5000   -23.5580    66.9830     5.0860     6.0130     6.6700     2.0110 
   78.6250   -22.8870    69.1890     5.1180     5.9800     6.5880     2.0140 
   78.7500   -22.2050    70.5400     5.1570     5.9300     6.5960     2.0180 
   78.8750   -21.5540    70.1510     5.2260     5.8990     6.6810     2.0320 
   79.0000   -20.9070    68.7030     5.3050     5.9050     6.7250     2.0450 
   79.1250   -20.2420    67.7660     5.2790     5.7710     6.7420     2.0560 
   79.2500   -19.6040    67.8090     5.0930     5.5890     6.7860     2.0680 
   79.3750   -18.9210    70.5240     4.7480     5.2320     6.3410     2.0900 
   79.5000   -18.2070    74.5100     4.3680     4.8060     5.3890     2.1140 
   79.6250   -17.6120    79.1700     4.1290     4.4570     5.0140     2.1450 
   79.7500   -16.8820    82.5970     4.0120     4.2670     5.1510     2.1800 
   79.8750   -16.2270    85.7180     3.9980     4.2210     5.5820     2.2170 
   80.0000   -15.6410    89.4410     3.9870     4.2220     6.2580     2.2290 
   80.1250   -15.1860    93.5280     3.9330     4.1970     6.0500     2.2140 
   80.2500   -14.8670    97.8060     3.7900     4.0930     5.1560     2.1930 
   80.3750   -14.7340   100.2900     3.6350     3.9450     4.5890     2.1850 
   80.5000   -14.9830   101.5890     3.5330     3.8280     4.5160     2.1790 
   80.6250   -15.5580   100.3640     3.4990     3.7710     4.9910     2.1680 
   80.7500   -16.1870    98.6850     3.5170     3.7650     5.6230     2.1580 
   80.8750   -16.5340    95.7290     3.6110     3.8060     5.5290     2.1630 
   81.0000   -16.7390    94.6410     3.9200     4.0070     4.9690     2.1880 
   81.1250   -16.8830    93.9300     4.6090     4.5750     5.2500     2.2390 
   81.2500   -17.2110    92.2150     5.6980     5.5700     9.1100     2.3120 
   81.3750   -17.6360    88.6940     7.0070     6.8760    16.3700     2.3860 
   81.5000   -18.0010    85.2110     8.1320     8.0430    17.9480     2.4120 
   81.6250   -18.3130    83.1740     8.3040     8.5320    11.4690     2.3500 
   81.7500   -18.5970    81.4830     7.6260     8.1600     6.4570     2.2370 
   81.8750   -18.9350    81.6810     6.4070     7.1200     5.3690     2.1380 
   82.0000   -19.1770    83.9880     5.3210     6.0260     4.9440     2.0910 
   82.1250   -19.3930    86.2320     4.8930     5.3700     4.6310     2.0760 
   82.2500   -19.7270    86.4950     4.8570     5.1940     4.4500     2.0710 
   82.3750   -20.1170    84.4230     4.9820     5.2920     4.4280     2.0640 
   82.5000   -20.4960    83.9470     5.1000     5.4520     4.5960     2.0610 
   82.6250   -20.8590    84.7140     5.2040     5.6070     4.8060     2.0640 
   82.7500   -21.1170    87.0110     5.2680     5.7310     4.8750     2.0660 
   82.8750   -21.2250    87.0610     5.3100     5.8150     4.8900     2.0690 
   83.0000   -21.2590    85.6360     5.3360     5.8610     4.9920     2.0700 
   83.1250   -21.2320    83.5930     5.3530     5.8800     5.1030     2.0750 
   83.2500   -21.2290    83.5330     5.3540     5.8760     5.1940     2.0780 
   83.3750   -21.1520    84.7550     5.3350     5.8380     5.2960     2.0860 
   83.5000   -20.9740    86.3100     5.3040     5.7850     5.3520     2.0930 
   83.6250   -20.7290    86.8120     5.2460     5.7280     5.3270     2.1020 
   83.7500   -20.5880    86.9330     5.2020     5.7060     5.2970     2.1060 
   83.8750   -20.4690    86.6020     5.1710     5.7360     5.2950     2.1070 
   84.0000   -20.3100    86.3240     5.1510     5.7840     5.2890     2.1130 
   84.1250   -20.2440    86.4390     5.1240     5.8080     5.2730     2.1180 
   84.2500   -20.2080    87.2350     5.0510     5.7590     5.2150     2.1220 
   84.3750   -20.2200    89.7130     4.9640     5.6510     5.0990     2.1240 
   84.5000   -20.2080    92.2840     4.9030     5.5520     4.8540     2.1300 
   84.6250   -20.2780    92.3590     4.8840     5.5260     4.6140     2.1370 
   84.7500   -20.5880    89.2940     4.9220     5.5640     4.6350     2.1400 
   84.8750   -21.2630    85.3730     4.9960     5.6530     4.7490     2.1380 
   85.0000   -21.8700    82.5550     5.0700     5.7480     4.8360     2.1350 
   85.1250   -22.1390    81.7920     5.1210     5.7950     5.0140     2.1290 
   85.2500   -22.1650    81.1100     5.1330     5.7900     5.2260     2.1200 
   85.3750   -22.0170    81.0340     5.0990     5.7210     5.3920     2.1080 
   85.5000   -21.8360    81.3390     5.0800     5.6230     5.5440     2.1010 
   85.6250   -21.7090    82.3670     5.0990     5.5560     5.7010     2.0980 
   85.7500   -21.5440    83.0370     5.1700     5.5420     5.9470     2.1000 
   85.8750   -21.1460    83.1490     5.2510     5.6490     6.2400     2.1010 
   86.0000   -20.4350    83.0790     5.2630     5.6720     6.2850     2.1010 
   86.1250   -19.4620    82.6260     5.2190     5.6490     6.0640     2.1050 
   86.2500   -18.5360    83.2280     5.0970     5.5690     5.7910     2.1200 
   86.3750   -17.7380    85.9690     4.8900     5.4140     5.5960     2.1390 
   86.5000   -17.2680    88.8460     4.6490     5.2030     5.6220     2.1460 
   86.6250   -17.2310    90.5990     4.3970     4.9760     5.6950     2.1450 
   86.7500   -17.3800    90.5010     4.1730     4.7660     5.4530     2.1470 
   86.8750   -17.6650    90.6010     4.1050     4.6550     5.1170     2.1510 
   87.0000   -18.1190    89.4700     4.2550     4.7510     4.9190     2.1560 
   87.1250   -18.5430    86.9030     4.7260     5.1770     4.6200     2.1730 
   87.2500   -18.8860    82.7380     5.5500     5.9710     4.2940     2.2320 
   87.3750   -19.1910    78.7290     6.6000     7.0530     4.3050     2.3250 
   87.5000   -19.4180    76.0500     7.5010     7.9690     4.5640     2.4010 
   87.6250   -19.6520    73.6900     7.8750     8.4590     4.6740     2.4050 
   87.7500   -19.7840    72.9500     7.6910     8.3560     4.6320     2.3350 
   87.8750   -19.8400    72.8630     7.1360     7.9500     4.7160     2.2300 
   88.0000   -19.8960    74.6420     6.5800     7.2760     4.8520     2.1440 
   88.1250   -20.0180    74.9170     6.2530     6.7990     4.8370     2.1020 
   88.2500   -20.2080    74.2430     6.1110     6.5950     4.7630     2.0930 
   88.3750   -20.2150    72.6180     6.1090     6.5760     4.7250     2.0970 
   88.5000   -20.1540    72.0500     6.1430     6.6010     4.7190     2.0970 
