~V
VERS. 2.00: Ver 2.00
~W
STRT.M 65.0000:
STOP.M 239.0000:
STEP.M 0.1250:
NULL. -999.2500:
UWI. F10876:
~C
DEPT.M :
TVD. :
DX. :
DY. :
SP.MV :
GR.API :
RI. :
RML.OHMM :
RXO.OHMM :
DEN.GM/CC :
~A
# ...
  165.3750   165.3610    -1.6600    -0.1570   -10.2240    57.0200    38.4350    41.2490    45.9290     2.2490 
  165.5000   165.4860    -1.6620    -0.1570   -10.4780    54.9870    38.6610    41.9260    46.6530     2.2270 
  165.6250   165.6110    -1.6640    -0.1560   -10.7510    53.9400    36.9080    39.9940    46.0360     2.2150 
  165.7500   165.7360    -1.6670    -0.1560   -11.0120    56.4490    31.0480    33.6370    45.4100     2.2230 
  165.8750   165.8610    -1.6690    -0.1560   -11.2610    58.4930    22.3290    24.0550    42.9380     2.2440 
  166.0000   165.9860    -1.6710    -0.1560   -11.5260    59.1830    13.2780    14.3400    34.5300     2.2700 
  166.1250   166.1110    -1.6740    -0.1560   -11.8010    62.1210     6.7040     7.4570    20.5720     2.2930 
  166.2500   166.2360    -1.6760    -0.1550   -12.0160    63.9160     3.8280     4.2650     8.4640     2.3070 
  166.3750   166.3610    -1.6790    -0.1550   -12.1110    57.9000     2.7310     3.0640     3.2010     2.3140 
  166.5000   166.4860    -1.6810    -0.1550   -12.0930    47.0610     2.3660     2.7310     2.4710     2.3090 
  166.6250   166.6110    -1.6840    -0.1550   -12.0340    40.5220     2.3300     2.7660     2.5770     2.2960 
  166.7500   166.7360    -1.6860    -0.1540   -11.9640    41.5580     2.4490     2.9380     2.7570     2.2850 
  166.8750   166.8610    -1.6890    -0.1540   -11.8620    45.5220     2.5870     3.0780     2.8940     2.2880 
  167.0000   166.9860    -1.6910    -0.1540   -11.7170    47.7420     2.6680     3.1250     2.8850     2.3060 
  167.1250   167.1110    -1.6930    -0.1530   -11.6030    45.4640     2.6940     3.1090     2.7730     2.3210 
  167.2500   167.2350    -1.6960    -0.1530   -11.6110    40.3410     2.6820     3.0640     2.6500     2.3220 
  167.3750   167.3600    -1.6990    -0.1530   -11.7220    38.6820     2.6500     3.0090     2.5440     2.3130 
  167.5000   167.4850    -1.7010    -0.1530   -11.8880    42.9920     2.6100     2.9390     2.4210     2.3050 
  167.6250   167.6100    -1.7040    -0.1520   -12.0830    47.9940     2.5690     2.8680     2.3100     2.2990 
  167.7500   167.7350    -1.7060    -0.1520   -12.2990    48.1880     2.5250     2.8070     2.3080     2.2980 
  167.8750   167.8600    -1.7090    -0.1520   -12.5170    45.0180     2.4750     2.7520     2.4080     2.3010 
  168.0000   167.9850    -1.7110    -0.1520   -12.7200    44.4660     2.4230     2.7050     2.5090     2.3110 
  168.1250   168.1100    -1.7140    -0.1510   -12.9070    48.0570     2.3780     2.6670     2.4820     2.3240 
  168.2500   168.2350    -1.7160    -0.1510   -13.0800    49.8300     2.3520     2.6360     2.2750     2.3350 
  168.3750   168.3600    -1.7190    -0.1510   -13.2540    48.9140     2.3380     2.6130     2.0540     2.3410 
  168.5000   168.4850    -1.7220    -0.1510   -13.4220    49.5510     2.3260     2.5880     2.0280     2.3440 
  168.6250   168.6100    -1.7240    -0.1500   -13.5460    54.3920     2.3040     2.5470     2.1950     2.3450 
  168.7500   168.7350    -1.7270    -0.1500   -13.5940    57.9440     2.2630     2.4850     2.3740     2.3420 
  168.8750   168.8600    -1.7290    -0.1500   -13.6000    60.1160     2.2110     2.4120     2.4350     2.3320 
  169.0000   168.9850    -1.7320    -0.1490   -13.6070    63.7460     2.1640     2.3530     2.4420     2.3120 
  169.1250   169.1100    -1.7340    -0.1490   -13.6320    68.4390     2.1420     2.3280     2.4640     2.2880 
  169.2500   169.2350    -1.7370    -0.1490   -13.6810    71.7740     2.1670     2.3580     2.4580     2.2680 
  169.3750   169.3600    -1.7400    -0.1480   -13.7680    73.9200     2.2340     2.4340     2.4830     2.2570 
  169.5000   169.4850    -1.7420    -0.1480   -13.9000    74.5930     2.3320     2.5350     2.6870     2.2580 
  169.6250   169.6100    -1.7450    -0.1480   -14.0420    72.6850     2.4490     2.6470     3.0000     2.2680 
  169.7500   169.7350    -1.7470    -0.1470   -14.1470    69.3380     2.5880     2.7830     3.1910     2.2800 
  169.8750   169.8600    -1.7500    -0.1470   -14.2160    68.8550     2.7790     3.1200     3.3010     2.2920 
  170.0000   169.9850    -1.7520    -0.1470   -14.2710    71.1650     3.0590     3.6790     3.5230     2.3020 
  170.1250   170.1100    -1.7550    -0.1460   -14.2960    72.6100     3.4540     4.1980     3.8480     2.3140 
  170.2500   170.2350    -1.7570    -0.1460   -14.2440    72.7140     3.9540     4.7880     4.6630     2.3270 
  170.3750   170.3600    -1.7600    -0.1460   -14.1030    72.2420     4.4950     5.4020     6.2820     2.3380 
  170.5000   170.4850    -1.7620    -0.1450   -13.8630    71.1190     5.0520     6.0110     7.8950     2.3380 
  170.6250   170.6100    -1.7650    -0.1450   -13.5010    66.8410     5.5810     6.5920     9.2070     2.3220 
  170.7500   170.7350    -1.7670    -0.1450   -12.9730    62.0060     6.2960     7.3360    11.1130     2.2870 
  170.8750   170.8600    -1.7700    -0.1440   -12.3290    60.9940     7.4630     8.5300    13.0820     2.2400 
  171.0000   170.9850    -1.7720    -0.1440   -11.7050    63.1010     9.2050    10.5070    15.1650     2.1930 
  171.1250   171.1100    -1.7750    -0.1440   -11.2570    65.6770    11.6020    13.3860    18.5890     2.1590 
  171.2500   171.2350    -1.7770    -0.1430   -11.0510    66.5610    14.3540    16.8370    21.6630     2.1440 
  171.3750   171.3600    -1.7790    -0.1430   -10.9870    65.0150    16.8400    19.9700    21.9840     2.1430 
  171.5000   171.4850    -1.7820    -0.1420   -10.9890    61.6260    18.3320    21.6340    20.3550     2.1480 
  171.6250   171.6100    -1.7840    -0.1420   -11.0340    58.1980    18.3290    21.4500    19.2900     2.1580 
  171.7500   171.7350    -1.7870    -0.1420   -11.1280    57.0180    16.3360    19.1540    19.0790     2.1770 
  171.8750   171.8600    -1.7890    -0.1410   -11.2450    57.0820    13.2440    15.5560    17.5900     2.2040 
  172.0000   171.9850    -1.7910    -0.1410   -11.3450    58.9450     9.9040    11.7290    13.5870     2.2340 
  172.1250   172.1090    -1.7940    -0.1400   -11.4030    63.9210     7.1630     8.4670     8.9720     2.2560 
  172.2500   172.2340    -1.7960    -0.1400   -11.4250    69.3430     5.6280     6.5250     6.0460     2.2600 
  172.3750   172.3590    -1.7990    -0.1400   -11.4550    71.9150     4.9400     5.7530     5.1910     2.2470 
  172.5000   172.4840    -1.8010    -0.1390   -11.5280    69.0520     4.8880     5.8020     5.8810     2.2240 
  172.6250   172.6090    -1.8030    -0.1390   -11.6370    64.4350     5.1500     6.2170     7.1020     2.2020 
  172.7500   172.7340    -1.8060    -0.1380   -11.7480    59.8410     5.4340     6.6020     7.7070     2.1910 
  172.8750   172.8590    -1.8080    -0.1380   -11.8290    58.0440     5.4960     6.6540     7.0900     2.1890 
  173.0000   172.9840    -1.8100    -0.1380   -11.8850    60.3490     5.1880     6.2200     5.9120     2.1960 
  173.1250   173.1090    -1.8130    -0.1370   -11.9450    64.2540     4.5990     5.4450     5.0860     2.2110 
  173.2500   173.2340    -1.8150    -0.1370   -12.0220    67.7100     3.9460     4.6180     4.4130     2.2320 
  173.3750   173.3590    -1.8170    -0.1370   -12.1300    70.2640     3.4060     3.9460     3.7010     2.2550 
  173.5000   173.4840    -1.8190    -0.1360   -12.3240    73.6960     3.0810     3.5380     3.3420     2.2770 
  173.6250   173.6090    -1.8220    -0.1360   -12.6430    76.2420     2.9760     3.3980     3.3630     2.2960 
  173.7500   173.7340    -1.8240    -0.1350   -13.0580    76.4700     3.0870     3.5190     3.5610     2.3090 
  173.8750   173.8590    -1.8260    -0.1350   -13.4630    75.0960     3.3480     3.8180     3.9610     2.3150 
  174.0000   173.9840    -1.8290    -0.1350   -13.7670    73.7190     3.6500     4.1540     4.7000     2.3090 
  174.1250   174.1090    -1.8310    -0.1340   -13.9510    70.9080     3.8530     4.3550     5.3540     2.2920 
  174.2500   174.2340    -1.8330    -0.1340   -14.0190    69.3670     3.8680     4.3210     5.2190     2.2680 
  174.3750   174.3590    -1.8350    -0.1340   -14.0050    71.1330     3.7190     4.0970     4.3810     2.2490 
