~V
VERS. 2.00: Ver 2.00
~W
STRT.M 63.0000:
STOP.M 247.0000:
STEP.M 0.1250:
NULL. -999.2500:
UWI. F10865:
~C
DEPT.M :
TVD. :
DX. :
DY. :
SP.MV :
GR.API :
RI. :
RML.OHMM :
RXO.OHMM :
DEN.GM/CC :
~A
# ...
   99.5000    99.4960    -0.5070    -0.0340  -101.8370    62.6680    18.9550    20.0170    17.3700     2.1490 
   99.6250    99.6210    -0.5090    -0.0340  -103.5790    65.4770    16.5920    17.5070    15.9000     2.2000 
   99.7500    99.7460    -0.5100    -0.0340  -105.1820    69.7980    13.4300    14.1310    13.2260     2.2430 
   99.8750    99.8710    -0.5110    -0.0330  -106.5450    76.4440    10.1930    10.8470     9.5300     2.2710 
  100.0000    99.9960    -0.5120    -0.0330  -107.5990    84.4820     7.7910     8.4700     6.8130     2.2810 
  100.1250   100.1210    -0.5130    -0.0330  -108.3680    91.9090     6.5470     7.0650     5.9080     2.2710 
  100.2500   100.2460    -0.5150    -0.0330  -108.8560    96.9750     5.9860     6.5170     5.8420     2.2500 
  100.3750   100.3710    -0.5160    -0.0320  -109.1210    96.0460     5.9960     6.6300     5.9530     2.2270 
  100.5000   100.4960    -0.5170    -0.0320  -109.1900    92.4170     6.3740     7.1100     6.0760     2.2100 
  100.6250   100.6210    -0.5180    -0.0320  -109.1360    91.6740     7.0310     7.8140     6.2250     2.1960 
  100.7500   100.7460    -0.5200    -0.0320  -109.0250    92.5860     7.9470     8.7480     6.4840     2.1790 
  100.8750   100.8710    -0.5210    -0.0320  -108.9470    89.4870     9.1070     9.8700     6.9470     2.1510 
  101.0000   100.9960    -0.5220    -0.0310  -108.9930    82.6740    10.3520    11.1820     7.7540     2.1180 
  101.1250   101.1210    -0.5230    -0.0310  -109.2170    76.7150    11.4790    12.0900     9.2080     2.0910 
  101.2500   101.2460    -0.5250    -0.0310  -109.6630    73.6470    12.1770    12.6510    10.9220     2.0780 
  101.3750   101.3710    -0.5260    -0.0310  -110.2990    73.4660    11.9940    12.8330    11.9770     2.0830 
  101.5000   101.4960    -0.5270    -0.0300  -111.0830    76.3580    11.0950    12.1710    12.2450     2.1030 
  101.6250   101.6210    -0.5280    -0.0300  -111.9300    80.0490     9.6940    10.6940    11.7900     2.1320 
  101.7500   101.7460    -0.5300    -0.0300  -112.7610    82.9130     8.1800     9.0010    10.2510     2.1620 
  101.8750   101.8710    -0.5310    -0.0300  -113.5160    85.7100     7.0550     7.6560     8.1460     2.1820 
  102.0000   101.9960    -0.5320    -0.0300  -114.1470    86.3440     6.2200     6.6980     6.8710     2.1900 
  102.1250   102.1210    -0.5330    -0.0290  -114.6530    84.4960     5.7710     6.2580     6.5050     2.1910 
  102.2500   102.2460    -0.5350    -0.0290  -115.0300    85.0260     5.6640     6.2110     6.3150     2.1940 
  102.3750   102.3710    -0.5360    -0.0290  -115.3030    86.4700     5.8800     6.5130     6.1340     2.2010 
  102.5000   102.4960    -0.5370    -0.0290  -115.4830    84.0790     6.3090     6.9810     6.1320     2.2060 
  102.6250   102.6210    -0.5390    -0.0280  -115.5940    81.3820     6.9170     7.6020     6.6780     2.2010 
  102.7500   102.7460    -0.5400    -0.0280  -115.6460    82.2550     7.5900     8.2970     7.4290     2.1890 
  102.8750   102.8710    -0.5410    -0.0280  -115.6510    84.6740     8.1140     8.8280     7.7440     2.1790 
  103.0000   102.9960    -0.5430    -0.0280  -115.6020    83.4130     8.3680     9.0510     7.7920     2.1740 
  103.1250   103.1210    -0.5440    -0.0270  -115.4900    81.4260     8.3230     8.9050     7.7230     2.1750 
  103.2500   103.2460    -0.5450    -0.0270  -115.2920    79.3440     8.1270     8.5580     7.4460     2.1770 
  103.3750   103.3710    -0.5470    -0.0270  -115.0030    78.5990     7.9580     8.2500     7.1650     2.1790 
  103.5000   103.4960    -0.5480    -0.0270  -114.5990    78.5920     7.7980     7.9770     7.1010     2.1790 
  103.6250   103.6210    -0.5490    -0.0270  -114.0610    75.9500     7.5550     7.6030     7.2150     2.1820 
  103.7500   103.7460    -0.5510    -0.0260  -113.3210    71.0640     7.1810     7.0770     7.1950     2.1950 
  103.8750   103.8710    -0.5520    -0.0260  -112.3270    71.4410     6.6310     6.3880     6.7320     2.2190 
  104.0000   103.9960    -0.5530    -0.0260  -111.0010    77.5380     6.0730     5.7730     6.0290     2.2460 
  104.1250   104.1210    -0.5550    -0.0260  -109.3610    84.4210     5.7780     5.5670     5.5470     2.2730 
  104.2500   104.2460    -0.5560    -0.0260  -107.4470    87.1670     6.1540     6.0020     6.4480     2.2930 
  104.3750   104.3710    -0.5580    -0.0250  -105.4100    87.4860     7.6370     7.5230    11.3000     2.2970 
  104.5000   104.4960    -0.5590    -0.0250  -103.4220    83.4860    10.5130    10.6080    18.3460     2.2730 
  104.6250   104.6210    -0.5600    -0.0250  -101.6460    75.9910    14.4400    14.7770    20.9810     2.2200 
  104.7500   104.7460    -0.5620    -0.0250  -100.2320    69.5050    17.6160    18.2370    18.1880     2.1540 
  104.8750   104.8710    -0.5630    -0.0250   -99.2110    66.2990    19.2260    20.0020    16.0450     2.0960 
  105.0000   104.9960    -0.5640    -0.0240   -98.6130    64.7350    19.0300    19.7500    17.4300     2.0570 
  105.1250   105.1210    -0.5660    -0.0240   -98.3550    64.8900    17.8460    18.4860    19.8890     2.0410 
  105.2500   105.2460    -0.5670    -0.0240   -98.3850    67.5440    16.8220    17.4140    20.4650     2.0410 
  105.3750   105.3710    -0.5690    -0.0240   -98.6010    70.2010    16.0930    16.6460    18.4760     2.0520 
  105.5000   105.4960    -0.5700    -0.0240   -98.9320    68.9720    15.5840    16.1600    16.6670     2.0640 
  105.6250   105.6210    -0.5710    -0.0230   -99.3000    67.7280    15.4130    16.0800    15.8130     2.0670 
  105.7500   105.7460    -0.5730    -0.0230   -99.6590    66.9520    15.5490    16.3200    16.2440     2.0580 
  105.8750   105.8710    -0.5740    -0.0230   -99.9820    65.6330    15.8440    16.6710    17.7140     2.0410 
  106.0000   105.9960    -0.5750    -0.0230  -100.2640    64.8520    16.1270    16.9370    18.4170     2.0260 
  106.1250   106.1210    -0.5770    -0.0230  -100.5200    65.7370    16.2370    16.9770    18.3920     2.0200 
  106.2500   106.2460    -0.5780    -0.0220  -100.7680    66.3100    16.1270    16.7480    18.5180     2.0260 
  106.3750   106.3710    -0.5790    -0.0220  -101.0260    63.8870    15.7550    16.2320    18.6080     2.0410 
  106.5000   106.4960    -0.5810    -0.0220  -101.3120    61.3340    15.3060    15.6870    18.0730     2.0570 
  106.6250   106.6210    -0.5820    -0.0220  -101.6320    63.6850    15.0070    15.4130    16.6510     2.0650 
  106.7500   106.7460    -0.5830    -0.0220  -101.9830    68.3810    14.9070    15.4740    14.9840     2.0640 
  106.8750   106.8710    -0.5850    -0.0210  -102.3510    70.0410    14.9290    15.7000    13.9780     2.0570 
  107.0000   106.9960    -0.5860    -0.0210  -102.7130    67.2830    14.8510    15.7260    13.7050     2.0490 
  107.1250   107.1210    -0.5870    -0.0210  -103.0510    65.5050    14.5600    15.4900    13.6400     2.0440 
  107.2500   107.2460    -0.5890    -0.0210  -103.3500    66.9290    14.0760    15.0960    13.4370     2.0430 
  107.3750   107.3710    -0.5900    -0.0210  -103.6070    68.9710    13.5120    14.7070    13.2240     2.0470 
  107.5000   107.4960    -0.5910    -0.0200  -103.8310    70.9670    13.0070    14.4370    13.1690     2.0530 
  107.6250   107.6210    -0.5920    -0.0200  -104.0490    71.8700    12.7630    14.3760    13.2980     2.0570 
  107.7500   107.7460    -0.5940    -0.0200  -104.2960    70.0830    12.9460    14.6540    13.5500     2.0590 
  107.8750   107.8710    -0.5950    -0.0200  -104.6070    66.8820    13.6110    15.3100    13.8640     2.0600 
  108.0000   107.9960    -0.5960    -0.0200  -105.0210    65.8570    14.6020    16.1670    14.2960     2.0600 
  108.1250   108.1210    -0.5980    -0.0190  -105.5480    64.3500    15.7370    17.0290    15.0730     2.0610 
  108.2500   108.2460    -0.5990    -0.0190  -106.2040    60.3830    16.7950    17.6690    15.8640     2.0640 
  108.3750   108.3710    -0.6000    -0.0190  -106.9750    57.6420    17.6030    17.8990    15.9420     2.0790 
  108.5000   108.4960    -0.6020    -0.0190  -107.8580    61.9730    18.1920    17.9190    15.6800     2.1150 
