~V
VERS. 2.00: Ver 2.00
~W
STRT.M 40.0000:
STOP.M 215.0000:
STEP.M 0.1250:
NULL. -999.2500:
UWI. F10811:
~C
DEPT.M :
SP.MV :
GR.API :
RI. :
RML.OHMM :
RXO.OHMM :
DEN.GM/CC :
~A
# ...
   52.8750   138.4140    36.0360     0.2950     0.6770     0.4720     2.2650 
   53.0000   137.0010    37.2370     0.2580     0.7220     0.4650     2.2770 
   53.1250   135.4650    38.5680     0.1890     0.7300     0.3990     2.2930 
   53.2500   133.9030    38.6660     0.1210     0.6770     0.3380     2.3070 
   53.3750   132.2150    37.2600     0.1160     0.5510     0.3500     2.3110 
   53.5000   130.1650    35.7310     0.1390     0.4350     0.4310     2.3060 
   53.6250   127.4160    33.4540     0.1620     0.3170     0.4110     2.2920 
   53.7500   123.8080    31.4810     0.1560     0.2550     0.2810     2.2750 
   53.8750   119.0980    29.4130     0.1090     0.1930     0.2610     2.2620 
   54.0000   113.0740    28.3210     0.0740     0.1360     0.4750     2.2550 
   54.1250   104.9280    28.4400     0.0380     0.1110     0.7480     2.2600 
   54.2500    93.9450    30.7850     0.0450     0.1660     1.9260     2.2500 
   54.3750    79.0870    35.3260     0.1420     0.4290    18.1280     2.1530 
   54.5000    60.8560    43.0810     0.4220     1.1520    43.9500     1.9640 
   54.6250    41.6310    53.3950     0.9870     3.2210    41.3230     1.7990 
   54.7500    25.3560    65.3780     1.9250     5.5990    17.1640     1.7980 
   54.8750    14.4360    77.5530     3.1280     6.5300     5.6030     1.9530 
   55.0000     7.6130    87.7760     3.8420     6.6150     4.9080     2.1280 
   55.1250     3.4310    96.7890     4.1410     5.3390     4.8550     2.2240 
   55.2500     0.6170   102.1870     4.0590     4.4070     4.6650     2.2580 
   55.3750    -1.3380   105.4280     3.9270     4.5850     4.4980     2.2540 
   55.5000    -2.8130   106.7320     3.9620     4.6970     4.3640     2.2350 
   55.6250    -3.9580   106.8670     4.0280     4.5230     4.2270     2.2170 
   55.7500    -4.9570   107.0330     4.1950     4.2490     4.1830     2.2090 
   55.8750    -5.9660   106.4210     4.6400     4.2770     4.4680     2.2030 
   56.0000    -7.1290   103.8890     5.2780     4.6440     5.0980     2.2010 
   56.1250    -8.5050    99.3410     5.9030     4.8210     6.2780     2.2190 
   56.2500    -9.9710    95.3290     6.4030     4.8130     7.9520     2.2570 
   56.3750   -11.3150    93.3400     6.6570     4.7960     8.2530     2.2710 
   56.5000   -12.4140    91.1370     6.4600     4.7390     6.8540     2.2350 
   56.6250   -13.3240    88.6340     6.0730     4.7600     6.6650     2.1710 
   56.7500   -14.2210    87.9000     5.6720     4.8960     7.6890     2.1310 
   56.8750   -15.2100    90.0890     5.5040     5.1780     7.3110     2.1320 
   57.0000   -16.3700    93.2280     5.6670     5.8120     6.8540     2.1460 
   57.1250   -17.8220    91.9140     6.0300     6.9470     7.9650     2.1440 
   57.2500   -19.4320    88.4410     6.4330     8.1880     8.7670     2.1280 
   57.3750   -20.8060    82.2130     6.8000     8.8710     8.6660     2.1110 
   57.5000   -21.6540    78.2710     7.0560     8.7380     8.6360     2.1000 
   57.6250   -21.9060    73.7010     7.0850     7.9770     8.8860     2.0930 
   57.7500   -21.7450    71.7440     6.9220     7.2120     9.1420     2.0870 
   57.8750   -21.3340    71.2630     6.6790     6.9010     8.9380     2.0860 
   58.0000   -20.9190    73.1890     6.3740     6.7320     8.5070     2.0920 
   58.1250   -20.7460    74.2450     6.0610     6.5160     8.3460     2.1110 
   58.2500   -20.9410    75.1610     5.8430     6.3350     8.0760     2.1310 
   58.3750   -21.5570    77.3690     5.8820     6.4400     7.3910     2.1460 
   58.5000   -22.5250    80.3790     6.2560     7.0320     7.3530     2.1500 
   58.6250   -23.7760    81.0480     7.0710     8.2280     8.6430     2.1460 
   58.7500   -25.0730    76.7520     8.3680     9.9350    11.9230     2.1370 
   58.8750   -26.1730    70.0830     9.6490    11.6350    23.0310     2.1370 
   59.0000   -27.0490    64.8900    10.5250    12.6760    47.5200     2.1660 
   59.1250   -27.7900    63.1050    10.5900    12.6270    65.8810     2.2020 
   59.2500   -28.4630    63.1360     9.7200    11.5910    51.3920     2.2010 
   59.3750   -29.0020    63.4500     8.5540    10.2150    22.8490     2.1460 
   59.5000   -29.3310    64.3000     7.4890     9.0840    10.8660     2.0810 
   59.6250   -29.4050    65.4780     6.7920     8.4900    10.3950     2.0480 
   59.7500   -29.3000    66.8390     6.5550     8.4580    10.4310     2.0440 
   59.8750   -29.0990    66.8840     6.4860     8.6980    10.2000     2.0540 
   60.0000   -28.8960    66.0490     6.4650     8.9730     9.7450     2.0610 
   60.1250   -28.7710    65.3880     6.4340     9.1920     9.3240     2.0580 
   60.2500   -28.7490    66.2860     6.3870     9.3330     9.2080     2.0480 
   60.3750   -28.7910    68.6850     6.3540     9.4430     9.2420     2.0420 
   60.5000   -28.8060    70.2620     6.3310     9.5280     9.0880     2.0510 
   60.6250   -28.7240    69.6830     6.3200     9.5800     9.0750     2.0730 
   60.7500   -28.5380    67.2100     6.3070     9.6040     9.3460     2.0930 
   60.8750   -28.2750    65.7250     6.2420     9.5820     9.3820     2.1020 
   61.0000   -27.9880    65.8770     6.1250     9.5130     9.3300     2.1030 
   61.1250   -27.7030    66.7240     5.9880     9.4140     9.4470     2.0990 
   61.2500   -27.4460    67.8500     5.8530     9.2810     9.3780     2.0960 
   61.3750   -27.2450    68.9680     5.7020     9.0670     9.3200     2.0980 
   61.5000   -27.0740    69.5020     5.5250     8.7490     9.8190     2.1030 
   61.6250   -26.8380    69.5970     5.3270     8.3680    10.2220     2.1130 
   61.7500   -26.5020    70.5720     5.1920     8.0420     9.5990     2.1300 
   61.8750   -26.1710    73.9880     5.1920     7.9010     8.4240     2.1490 
   62.0000   -26.0180    76.3320     5.3310     8.0010     8.1020     2.1510 
   62.1250   -26.1200    74.6750     5.5950     8.3560     9.0730     2.1330 
   62.2500   -26.2950    70.9320     5.9560     8.8810    10.1780     2.1060 
   62.3750   -26.2620    67.4510     6.2930     9.3880    10.3390     2.0830 
   62.5000   -25.8720    67.0240     6.4730     9.6820     9.8650     2.0670 
   62.6250   -25.1060    67.8940     6.4350     9.6630     9.8540     2.0620 
   62.7500   -24.0810    69.0030     6.1970     9.3860    10.2550     2.0720 
   62.8750   -22.8520    70.6830     5.7820     8.8910    10.0660     2.1030 
   63.0000   -21.5340    74.4580     5.2850     8.2310     8.9610     2.1480 
   63.1250   -20.3150    79.7610     4.7350     7.4310     7.5680     2.1870 
   63.2500   -19.3910    84.0490     4.2540     6.7000     6.6350     2.2120 
   63.3750   -18.9310    87.0790     4.1020     6.4590     5.9620     2.2280 
   63.5000   -18.9690    88.5720     4.4070     7.1550     5.6080     2.2470 
   63.6250   -19.5530    88.6600     5.6550     9.3330     8.5410     2.2800 
   63.7500   -20.5450    82.2560     7.4870    12.5200    21.9900     2.3510 
   63.8750   -21.7780    72.9460     9.4390    15.5280    41.2930     2.4530 
   64.0000   -23.0940    65.5820    10.3930    16.7830    45.9460     2.5290 
   64.1250   -24.4560    65.1800     9.9070    15.5910    32.5870     2.5030 
   64.2500   -25.8190    68.1330     8.3300    12.8270    17.5660     2.3840 
   64.3750   -27.0450    69.4380     6.6450    10.0790    10.1260     2.2430 
   64.5000   -28.0110    68.5680     5.5460     8.4690     8.5470     2.1520 
   64.6250   -28.6750    66.7140     5.1930     8.0880     8.9490     2.1200 
   64.7500   -29.1410    66.4000     5.2610     8.3720     9.3460     2.1150 
   64.8750   -29.4790    66.9000     5.4090     8.8080     9.4600     2.1090 
   65.0000   -29.7210    68.1380     5.4860     9.0890     9.6210     2.1000 
   65.1250   -29.8690    69.0460     5.4650     9.1510     9.7930     2.0910 
   65.2500   -29.9660    69.2560     5.3990     9.0770     9.6780     2.0820 
   65.3750   -30.0470    69.3470     5.3480     8.8940     9.4090     2.0810 
   65.5000   -30.1140    68.4110     5.3200     8.7160     9.3940     2.0980 
   65.6250   -30.1300    66.7070     5.3190     8.5540     9.5520     2.1300 
