~V
VERS. 2.00: Ver 2.00
~W
STRT.M 50.0000:
STOP.M 213.0000:
STEP.M 0.1250:
NULL. -999.2500:
UWI. F10803:
~C
DEPT.M :
SP.MV :
GR.API :
RI. :
RML.OHMM :
RXO.OHMM :
DEN.GM/CC :
~A
# ...
  165.8750    -8.5250    57.6330   201.3060   225.3690   142.0030     2.1180 
  166.0000    -8.4210    58.5990   203.6000   224.4550   156.7260     2.1110 
  166.1250    -8.1650    58.9400   211.4520   229.7050   161.7910     2.1080 
  166.2500    -7.9300    60.0650   223.3680   239.7370   144.5470     2.1140 
  166.3750    -7.6130    61.9960   227.2290   245.5030   138.0200     2.1190 
  166.5000    -7.2280    63.8620   204.3400   229.5780   157.9410     2.1210 
  166.6250    -6.9070    63.1310   162.3100   193.5640   171.3370     2.1230 
  166.7500    -6.7430    62.3140   114.0330   145.2280   143.8540     2.1390 
  166.8750    -6.5340    63.0280    79.4680   102.4650    85.4940     2.1690 
  167.0000    -6.3430    66.0060    62.2540    75.3800    47.1470     2.1950 
  167.1250    -6.2750    68.9690    54.8130    62.4940    42.4060     2.2040 
  167.2500    -6.1500    71.2680    52.5110    57.3600    48.2240     2.2000 
  167.3750    -6.0120    72.7330    54.3460    57.4240    54.0740     2.1960 
  167.5000    -6.0450    73.0420    57.6700    60.0240    55.7330     2.1920 
  167.6250    -6.2940    74.0120    60.6980    63.1380    52.8430     2.1900 
  167.7500    -6.3430    75.4320    62.6200    65.5540    52.2540     2.1890 
  167.8750    -6.0650    75.8220    64.5450    67.3970    56.5800     2.1900 
  168.0000    -5.6850    73.9570    66.9710    69.6210    61.2600     2.1880 
  168.1250    -5.3710    71.4460    68.9380    72.4220    66.7380     2.1830 
  168.2500    -5.0540    70.6080    71.1070    75.4000    70.4430     2.1800 
  168.3750    -4.7120    71.3180    72.9740    77.9060    64.1540     2.1800 
  168.5000    -4.3560    72.4730    75.0640    79.6890    56.9250     2.1770 
  168.6250    -4.0120    73.8460    78.6450    82.9380    60.4970     2.1680 
  168.7500    -3.8340    74.0020    83.6560    87.1600    66.5950     2.1500 
  168.8750    -3.7290    73.9040    88.7330    93.5130    67.5200     2.1330 
  169.0000    -3.5930    72.7050    93.3320    99.2540    63.7340     2.1190 
  169.1250    -3.4450    72.4040    95.0380   102.5300    59.7760     2.1210 
  169.2500    -3.4300    72.1660    93.0100   102.2800    59.6200     2.1320 
  169.3750    -3.6030    72.3480    88.8480    99.0170    63.9300     2.1530 
  169.5000    -3.9290    72.6840    84.5470    94.8390    66.7560     2.1690 
  169.6250    -4.1740    72.6250    81.2580    91.1900    64.3780     2.1730 
  169.7500    -4.5190    72.9140    78.9180    88.5140    64.4130     2.1650 
  169.8750    -4.9830    72.4570    77.5140    86.9120    65.2450     2.1560 
  170.0000    -5.5360    72.9500    77.3740    86.3760    61.1280     2.1550 
  170.1250    -6.1070    73.3880    78.2210    86.9960    56.6650     2.1600 
  170.2500    -6.7940    73.2360    80.3380    88.4880    57.5750     2.1650 
  170.3750    -7.5400    72.1320    82.0480    90.0700    59.5050     2.1660 
  170.5000    -7.9330    70.5350    83.3800    90.9580    55.4730     2.1680 
  170.6250    -7.8540    69.9810    83.4740    90.6630    49.5380     2.1820 
  170.7500    -7.5600    70.7170    82.5800    89.1560    47.9250     2.2200 
  170.8750    -7.3110    71.3010    80.7080    86.8570    48.3540     2.2750 
  171.0000    -7.1470    72.4170    79.7870    85.0090    48.0930     2.3130 
  171.1250    -7.1870    72.3820    80.2850    84.4790    53.9370     2.3070 
  171.2500    -7.2380    73.4200    79.8040    84.2100    70.6070     2.2690 
  171.3750    -7.3330    73.2480    75.4280    81.3040    84.3740     2.2300 
  171.5000    -7.4750    72.8340    67.0360    74.0870    75.3290     2.2080 
  171.6250    -7.6720    70.6790    56.8180    63.9540    50.5710     2.2100 
  171.7500    -7.8080    70.6060    48.3500    54.3490    35.1680     2.2210 
  171.8750    -7.8720    71.8600    43.8380    48.0820    33.4420     2.2290 
  172.0000    -7.8790    73.9510    43.3280    46.0020    36.0890     2.2200 
  172.1250    -7.8110    74.5500    46.8930    48.4890    45.7800     2.1960 
  172.2500    -7.6820    74.4730    53.6540    54.6290    60.2980     2.1720 
  172.3750    -7.5620    72.5430    62.4250    62.9250    65.9160     2.1610 
  172.5000    -7.5260    69.5880    69.9070    70.6760    67.1480     2.1610 
  172.6250    -7.4970    67.6980    75.0440    76.6340    71.9440     2.1640 
  172.7500    -7.4690    67.9710    78.3390    80.9330    70.7520     2.1650 
  172.8750    -7.3480    70.3810    80.2530    83.9430    62.2840     2.1620 
  173.0000    -7.1970    71.1860    83.3370    87.0420    61.0620     2.1600 
  173.1250    -6.9070    71.8500    86.5680    90.6270    67.7450     2.1550 
  173.2500    -6.6550    71.3960    89.2830    93.9950    70.3170     2.1550 
  173.3750    -6.5680    72.0180    91.3860    96.6090    64.7500     2.1560 
  173.5000    -6.5570    71.5310    92.1810    98.1240    57.5330     2.1610 
  173.6250    -6.5680    71.6080    92.0050    98.5470    59.1340     2.1620 
  173.7500    -6.5970    71.0070    92.2600    98.8480    69.6380     2.1590 
  173.8750    -6.6410    70.5220    93.4990    99.6950    78.7800     2.1550 
  174.0000    -6.6110    69.0850    94.5510   100.5430    80.1800     2.1540 
  174.1250    -6.5580    68.2860    94.0270    99.9860    79.1050     2.1560 
  174.2500    -6.4410    67.2500    89.8300    96.9150    79.8920     2.1610 
  174.3750    -6.2600    66.4310    83.6880    91.3320    79.0560     2.1680 
  174.5000    -5.9260    65.7720    77.7680    85.1050    70.1770     2.1780 
  174.6250    -5.5970    65.9740    74.7990    80.7820    61.9910     2.1770 
  174.7500    -5.1730    66.5010    75.2380    79.8910    67.0900     2.1700 
  174.8750    -4.8090    66.5250    80.6980    83.7310    75.3820     2.1590 
  175.0000    -4.5250    65.9860    90.5150    92.1840    84.6600     2.1530 
  175.1250    -4.2590    64.2100   103.6090   104.2250    95.5630     2.1490 
  175.2500    -3.9590    62.1050   116.3220   116.5240   101.2170     2.1500 
  175.3750    -3.5780    60.9650   122.5460   124.5490   106.2170     2.1540 
  175.5000    -3.2880    61.1010   122.2740   126.5070   106.1820     2.1580 
  175.6250    -2.9830    62.0670   118.1370   123.8570    95.4050     2.1590 
  175.7500    -2.7860    61.6240   114.5400   120.6330    82.2560     2.1630 
  175.8750    -2.6540    60.4640   114.4170   119.5810    78.7430     2.1720 
  176.0000    -2.5180    58.6440   115.7950   120.4500    95.9240     2.1830 
  176.1250    -2.3670    58.5810   117.5590   122.5360   118.9450     2.1900 
  176.2500    -2.2640    59.0180   120.0200   125.5410   112.5210     2.1950 
  176.3750    -2.1790    60.6430   123.4620   129.0220    81.5010     2.2140 
  176.5000    -2.0160    60.1970   128.7840   134.8500    79.9600     2.2600 
  176.6250    -1.7720    58.2220   142.5170   149.5480   135.9580     2.3450 
  176.7500    -1.5750    54.0260   174.9370   180.7550   199.2190     2.4490 
  176.8750    -1.3940    50.1530   232.8880   236.2240   247.5770     2.5380 
  177.0000    -1.1960    46.7080   307.4290   309.6640   340.0490     2.5920 
  177.1250    -1.0500    45.7810   372.5360   382.8890   431.6310     2.6160 
  177.2500    -0.8570    46.8230   412.3880   436.2220   404.4320     2.6280 
  177.3750    -0.6410    48.6320   426.4620   456.5060   290.7310     2.6380 
  177.5000    -0.3580    49.2840   389.8720   431.7150   208.5350     2.6450 
  177.6250    -0.1160    48.9990   293.6680   350.6860   267.7030     2.6430 
  177.7500     0.2050    50.0790   182.3600   238.9700   410.5580     2.6220 
  177.8750     0.5790    53.6360    76.6590   128.7910   399.8700     2.5460 
  178.0000     0.9470    59.6990    23.9550    52.1710   224.1530     2.4170 
  178.1250     1.2140    67.7330    11.8880    20.8070    70.5190     2.2790 
  178.2500     1.4320    75.0060     7.6230    10.9030    12.8640     2.1970 
  178.3750     1.4930    79.0610     5.6790     7.4550     5.3930     2.1780 
  178.5000     1.3780    79.7700     4.8110     5.9190     4.4370     2.1940 
  178.6250     1.1240    78.2890     4.5870     5.4000     4.5270     2.2130 
