~V
VERS. 2.00: Ver 2.00
~W
STRT.M 1.0000:
STOP.M 205.0000:
STEP.M 0.1250:
NULL. -999.2500:
UWI. F10806:
~C
DEPT.M :
SP.MV :
GR.API :
RI. :
RML.OHMM :
RXO.OHMM :
DEN.GM/CC :
~A
# ...
   78.2500   -19.6580    72.4220     3.6020     3.6310     5.9420     2.2520 
   78.3750   -20.2230    70.8270     3.1720     3.2600     5.6370     2.1710 
   78.5000   -20.7700    67.9320     2.7920     2.9030     5.4020     2.1300 
   78.6250   -21.2790    65.4600     2.6290     2.6930     5.0640     2.1080 
   78.7500   -21.7150    64.5400     2.5580     2.6110     4.8470     2.0910 
   78.8750   -22.0530    62.8560     2.5120     2.5810     4.6780     2.0790 
   79.0000   -22.2470    60.9000     2.4720     2.5710     4.3510     2.0720 
   79.1250   -22.3180    59.2170     2.4540     2.5720     4.2270     2.0710 
   79.2500   -22.3090    58.3780     2.4480     2.5810     4.5530     2.0790 
   79.3750   -22.3090    57.9090     2.4460     2.5880     4.7740     2.0890 
   79.5000   -22.3830    57.5780     2.4420     2.5820     4.6780     2.0940 
   79.6250   -22.5330    59.1090     2.4260     2.5600     4.5670     2.0930 
   79.7500   -22.7460    60.3630     2.3960     2.5200     4.4620     2.0900 
   79.8750   -22.9610    60.7690     2.3550     2.4710     4.3740     2.0910 
   80.0000   -23.1030    58.3790     2.3040     2.4160     4.3820     2.0930 
   80.1250   -23.1490    56.7050     2.2450     2.3560     4.4140     2.0950 
   80.2500   -23.1250    56.1350     2.1840     2.2960     4.3730     2.0960 
   80.3750   -23.0640    57.3370     2.1270     2.2450     4.2040     2.1020 
   80.5000   -22.9820    58.0700     2.0890     2.2100     3.9950     2.1090 
   80.6250   -22.9070    58.5210     2.0640     2.1940     3.7550     2.1120 
   80.7500   -22.8570    58.9890     2.0610     2.1990     3.5100     2.1040 
   80.8750   -22.8250    58.9940     2.0750     2.2220     3.3220     2.0920 
   81.0000   -22.7930    58.4300     2.1050     2.2580     3.1530     2.0770 
   81.1250   -22.7180    57.8260     2.1380     2.2950     3.2140     2.0660 
   81.2500   -22.5580    57.8870     2.1690     2.3240     3.5070     2.0660 
   81.3750   -22.3200    58.6980     2.1940     2.3450     3.5480     2.0720 
   81.5000   -21.9820    59.4590     2.2040     2.3520     3.3020     2.0750 
   81.6250   -21.5700    58.3600     2.2010     2.3500     3.2080     2.0740 
   81.7500   -21.0880    57.4650     2.2000     2.3470     3.1720     2.0780 
   81.8750   -20.5350    57.5710     2.2150     2.3610     3.0830     2.0910 
   82.0000   -19.9290    60.4480     2.2650     2.4180     3.5050     2.1120 
   82.1250   -19.2920    62.4810     2.3810     2.5270     4.3450     2.1360 
   82.2500   -18.5550    63.4270     2.5750     2.6760     5.0280     2.1770 
   82.3750   -17.6210    63.6510     2.7180     2.7980     6.1770     2.2400 
   82.5000   -16.4350    65.4750     2.7230     2.7880     7.1810     2.3170 
   82.6250   -15.1220    68.7220     2.5330     2.6000     5.8370     2.3630 
   82.7500   -13.9260    72.7190     2.1740     2.2560     3.2290     2.3470 
   82.8750   -12.9800    76.7060     1.7770     1.8680     1.8690     2.2870 
   83.0000   -12.2440    81.0270     1.4460     1.5290     1.5780     2.2390 
   83.1250   -11.6350    86.9710     1.1920     1.2820     1.4220     2.2200 
   83.2500   -11.2040    91.8380     1.0570     1.1560     1.2670     2.2210 
   83.3750   -10.9930    93.9420     1.0270     1.1390     1.1550     2.2190 
   83.5000   -11.0370    92.4380     1.0930     1.2370     0.9700     2.2210 
   83.6250   -11.3130    90.7450     1.2190     1.3820     1.8060     2.2220 
   83.7500   -11.8350    88.4550     1.3430     1.5370     3.4460     2.2140 
   83.8750   -12.4310    88.3940     1.4410     1.6540     3.3530     2.1960 
   84.0000   -12.7060    90.2750     1.4430     1.6550     1.8710     2.1850 
   84.1250   -12.4730    94.5950     1.3680     1.5640     1.0430     2.1840 
   84.2500   -12.0320    96.4230     1.2540     1.4220     1.0960     2.1830 
   84.3750   -11.8830    95.6290     1.1420     1.2920     1.2820     2.1780 
   84.5000   -12.0760    92.6640     1.0980     1.2480     1.2480     2.1800 
   84.6250   -12.3470    90.8500     1.1160     1.2800     1.2140     2.1850 
   84.7500   -12.6530    90.5160     1.1730     1.3600     1.3050     2.1840 
   84.8750   -13.1120    91.0000     1.2470     1.4700     1.4730     2.1700 
   85.0000   -13.7740    90.4730     1.3310     1.5860     1.8560     2.1490 
   85.1250   -14.5190    88.2970     1.4150     1.6740     2.2690     2.1310 
   85.2500   -15.1630    86.2790     1.4650     1.7250     2.2720     2.1180 
   85.3750   -15.5540    85.1210     1.4750     1.7330     2.1450     2.1110 
   85.5000   -15.6480    85.7400     1.4490     1.7040     2.2200     2.1100 
   85.6250   -15.5320    86.0740     1.4140     1.6580     2.2840     2.1140 
   85.7500   -15.2690    86.3700     1.3750     1.6170     2.1850     2.1220 
   85.8750   -14.9340    86.6690     1.3460     1.5890     2.0910     2.1260 
   86.0000   -14.6120    86.1010     1.3390     1.5820     2.0290     2.1270 
   86.1250   -14.3800    85.7000     1.3430     1.5880     2.0330     2.1250 
   86.2500   -14.2840    84.9360     1.3580     1.6060     2.2330     2.1310 
   86.3750   -14.2770    84.7210     1.3850     1.6340     2.4230     2.1380 
   86.5000   -14.2810    84.5550     1.4070     1.6650     2.5530     2.1460 
   86.6250   -14.2500    85.0100     1.4240     1.6890     2.6860     2.1440 
   86.7500   -14.1780    86.4040     1.4290     1.6970     2.6710     2.1390 
   86.8750   -14.0960    87.9910     1.4230     1.6940     2.4690     2.1320 
   87.0000   -14.0440    88.7530     1.4160     1.6880     2.2620     2.1320 
   87.1250   -14.0680    88.2140     1.4170     1.6910     2.2250     2.1360 
   87.2500   -14.1820    86.6870     1.4290     1.7030     2.3290     2.1370 
   87.3750   -14.3480    84.9310     1.4490     1.7200     2.5520     2.1310 
   87.5000   -14.4920    85.0750     1.4720     1.7390     2.7490     2.1210 
   87.6250   -14.5290    86.4330     1.4860     1.7500     2.6940     2.1190 
   87.7500   -14.4500    87.3930     1.4840     1.7530     2.5450     2.1210 
   87.8750   -14.3600    86.2940     1.4750     1.7480     2.5270     2.1250 
   88.0000   -14.3480    85.2010     1.4640     1.7400     2.5310     2.1250 
   88.1250   -14.4060    86.4240     1.4650     1.7360     2.5300     2.1260 
   88.2500   -14.5150    87.7220     1.4690     1.7340     2.5210     2.1280 
   88.3750   -14.6560    87.5930     1.4710     1.7280     2.4140     2.1270 
   88.5000   -14.8090    85.5340     1.4660     1.7190     2.2820     2.1200 
   88.6250   -14.9680    85.6050     1.4620     1.7100     2.2100     2.1100 
   88.7500   -15.1580    87.2310     1.4640     1.7090     2.2510     2.0980 
   88.8750   -15.3760    88.3350     1.4710     1.7160     2.4070     2.0880 
   89.0000   -15.5670    86.9610     1.4850     1.7260     2.5790     2.0840 
   89.1250   -15.6310    84.9750     1.4970     1.7300     2.6440     2.0860 
   89.2500   -15.4780    84.5630     1.4990     1.7260     2.5570     2.0950 
   89.3750   -15.1520    87.0070     1.4900     1.7120     2.4080     2.1030 
   89.5000   -14.7780    90.2930     1.4710     1.6890     2.3010     2.1080 
   89.6250   -14.5250    92.0900     1.4550     1.6650     2.2810     2.1070 
   89.7500   -14.4400    91.5690     1.4460     1.6560     2.2950     2.1100 
   89.8750   -14.4780    89.8890     1.4500     1.6640     2.2260     2.1150 
   90.0000   -14.6680    88.4200     1.4730     1.6910     2.1940     2.1170 
   90.1250   -15.0440    87.0930     1.5090     1.7280     2.3530     2.1110 
   90.2500   -15.5970    85.6230     1.5560     1.7750     2.5330     2.0960 
   90.3750   -16.2160    82.1360     1.6140     1.8340     2.6130     2.0840 
   90.5000   -16.7950    79.0190     1.6720     1.8990     2.6730     2.0760 
   90.6250   -17.2850    75.5100     1.7320     1.9620     2.7750     2.0740 
   90.7500   -17.6990    74.8410     1.7820     2.0180     2.9580     2.0750 
   90.8750   -18.0680    74.5680     1.8310     2.0720     3.0730     2.0760 
   91.0000   -18.3930    76.0970     1.8960     2.1400     3.0380     2.0800 
