~V
VERS. 2.00: Ver 2.00
~W
STRT.M 40.0000:
STOP.M 216.0000:
STEP.M 0.1250:
NULL. -999.2500:
UWI. F10813:
~C
DEPT.M :
SP.MV :
GR.API :
RI. :
RML.OHMM :
RXO.OHMM :
DEN.GM/CC :
~A
# ...
  168.7500   -13.5080    62.3600    20.7250    23.0610    44.9950     2.4860 
  168.8750   -13.7190    61.9500    26.3360    28.3800    30.6320     2.4980 
  169.0000   -13.9140    62.8340    31.1030    32.5810    28.1650     2.5000 
  169.1250   -14.0810    62.8810    34.4810    36.0130    29.2580     2.5140 
  169.2500   -14.2200    63.0520    37.2550    39.2820    30.3240     2.5340 
  169.3750   -14.3260    61.5170    40.7720    43.4400    41.4590     2.5370 
  169.5000   -14.4020    60.8420    44.7510    47.6730    54.0940     2.5270 
  169.6250   -14.4480    60.1310    47.3530    50.3130    49.3810     2.5250 
  169.7500   -14.4690    60.3550    44.3060    48.3820    41.3310     2.5530 
  169.8750   -14.4700    60.1920    35.5080    40.2750    41.9770     2.6030 
  170.0000   -14.4600    60.8440    24.3540    28.8230    46.4150     2.6180 
  170.1250   -14.4450    62.8450    13.9370    17.8670    56.2260     2.5510 
  170.2500   -14.3600    64.9670     8.1590    10.4890    54.5650     2.4280 
  170.3750   -13.8710    65.4660     5.2270     6.7300    32.2230     2.3240 
  170.5000   -13.4550    63.6160     3.7550     4.9690    12.3600     2.2810 
  170.6250   -13.0660    61.4910     3.4670     4.5730     5.5170     2.2810 
  170.7500   -12.7090    60.2850     3.6370     4.8460     4.9160     2.2950 
  170.8750   -12.4140    60.8360     4.1230     5.5450     5.7970     2.3050 
  171.0000   -12.1710    62.6770     4.8480     6.4290     5.8730     2.3050 
  171.1250   -12.0830    66.0400     5.5210     7.1730     5.5570     2.2870 
  171.2500   -12.0430    68.8680     5.9340     7.5500     5.5510     2.2630 
  171.3750   -11.9370    70.7660     5.9920     7.5030     5.6340     2.2430 
  171.5000   -11.7930    71.1750     5.8130     7.2360     5.6830     2.2320 
  171.6250   -11.5440    71.9870     5.6040     6.9440     5.8620     2.2290 
  171.7500   -11.2070    72.7130     5.3570     6.6670     5.9090     2.2310 
  171.8750   -10.8370    75.3880     5.1040     6.4210     5.7240     2.2330 
  172.0000   -10.5320    78.4480     4.8920     6.2550     5.5100     2.2290 
  172.1250   -10.2740    81.7540     4.7670     6.2320     5.2130     2.2200 
  172.2500   -10.2070    83.7550     4.7690     6.3650     5.0750     2.2090 
  172.3750   -10.3550    85.1590     4.8630     6.6280     5.5160     2.1990 
  172.5000   -10.5770    85.2020     5.0170     6.9330     6.0330     2.1940 
  172.6250   -10.7120    84.7120     5.1560     7.1840     6.0010     2.1950 
  172.7500   -10.8410    84.2560     5.2360     7.3440     5.9970     2.1970 
  172.8750   -10.9260    84.9930     5.2930     7.4490     6.3920     2.1950 
  173.0000   -10.9480    86.6990     5.3590     7.5670     6.4820     2.1920 
  173.1250   -11.0100    89.7930     5.4670     7.7290     6.4890     2.1940 
  173.2500   -11.1400    93.4720     5.5880     7.9240     6.7570     2.2030 
  173.3750   -11.2940    96.2080     5.7120     8.1480     6.6510     2.2090 
  173.5000   -11.3460    96.0700     5.8280     8.3560     6.4080     2.2100 
  173.6250   -11.2590    93.6000     5.8720     8.4600     6.3040     2.2100 
  173.7500   -11.0760    90.4110     5.8330     8.4320     6.3160     2.2130 
  173.8750   -10.9610    87.5950     5.7040     8.2710     6.5600     2.2180 
  174.0000   -10.8230    85.9730     5.5670     8.0810     6.5270     2.2200 
  174.1250   -10.6660    85.3110     5.5180     7.9790     6.2290     2.2220 
  174.2500   -10.4940    85.4460     5.5430     7.9980     6.0570     2.2210 
  174.3750   -10.4120    86.5420     5.6930     8.1800     5.9650     2.2180 
  174.5000   -10.3790    87.8610     5.9260     8.4800     6.6830     2.2110 
  174.6250   -10.3140    90.0850     6.1750     8.7940     8.0270     2.2070 
  174.7500   -10.2730    92.3160     6.3640     9.0180     8.0170     2.2050 
  174.8750   -10.2060    93.8070     6.4220     9.0770     7.1540     2.2150 
  175.0000   -10.0820    93.8960     6.3710     8.9780     6.8340     2.2320 
  175.1250    -9.8640    92.7950     6.1740     8.7050     6.3760     2.2520 
  175.2500    -9.7010    90.9220     5.8690     8.2750     6.6730     2.2500 
  175.3750    -9.4900    88.1340     5.4310     7.6920     7.7350     2.2150 
  175.5000    -9.2860    85.0810     4.9710     7.0780     7.0050     2.1620 
  175.6250    -9.0840    81.4480     4.6160     6.5950     4.9860     2.1230 
  175.7500    -8.9660    78.8500     4.4220     6.3660     3.8310     2.1140 
  175.8750    -9.0080    76.4360     4.4950     6.5130     3.7970     2.1330 
  176.0000    -9.2500    76.0510     4.7850     6.9560     4.7490     2.1690 
  176.1250    -9.6100    77.3610     5.1800     7.5420     6.2660     2.2050 
  176.2500    -9.8900    80.4000     5.5920     8.0960     7.2230     2.2310 
  176.3750   -10.0820    83.3210     5.8820     8.4530     7.1880     2.2390 
  176.5000   -10.1870    85.1430     6.0010     8.5730     6.9320     2.2400 
  176.6250   -10.2740    86.2120     6.0010     8.5270     7.1130     2.2370 
  176.7500   -10.3820    87.5150     5.9910     8.4680     7.4250     2.2430 
  176.8750   -10.4780    88.5190     6.0620     8.5160     7.5800     2.2570 
  177.0000   -10.5240    90.4500     6.1940     8.6970     7.6350     2.2780 
  177.1250   -10.6670    92.5230     6.4070     8.9840     7.5660     2.2950 
  177.2500   -10.8580    94.1430     6.5730     9.2470     7.1120     2.3020 
  177.3750   -10.9950    93.2990     6.6590     9.3720     6.3830     2.2900 
  177.5000   -11.0270    91.4040     6.6200     9.3270     6.0370     2.2660 
  177.6250   -11.0530    88.7060     6.5060     9.1680     6.1890     2.2420 
  177.7500   -11.1310    85.8450     6.3700     9.0080     6.3910     2.2280 
  177.8750   -11.2350    85.7240     6.3150     8.9550     6.5850     2.2210 
  178.0000   -11.3840    87.5730     6.3450     8.9820     6.7660     2.2170 
  178.1250   -11.4900    90.6720     6.3560     8.9770     6.7280     2.2120 
  178.2500   -11.5930    93.1470     6.3330     8.9060     6.6180     2.2080 
  178.3750   -11.6190    94.9730     6.2750     8.7730     6.4590     2.2070 
  178.5000   -11.5750    95.0970     6.2060     8.6250     6.3090     2.2130 
  178.6250   -11.4170    94.3720     6.1860     8.5570     6.2990     2.2220 
  178.7500   -11.2410    93.0480     6.2710     8.6470     6.1330     2.2250 
  178.8750   -11.0270    92.1260     6.4820     8.9130     5.9070     2.2220 
  179.0000   -10.8230    89.5360     6.7210     9.2320     6.8170     2.2300 
  179.1250   -10.5920    86.8980     6.8830     9.4080     9.4730     2.2630 
  179.2500   -10.3270    84.7370     6.7610     9.2380    11.3080     2.3030 
  179.3750   -10.0790    83.5680     6.3700     8.6880     9.7670     2.3240 
  179.5000    -9.8750    82.9750     5.8380     7.9420     6.6400     2.3160 
  179.6250    -9.7270    81.4900     5.2950     7.2310     4.7170     2.2960 
  179.7500    -9.5920    80.8980     4.9660     6.7860     4.7130     2.2800 
  179.8750    -9.6510    81.0620     4.8920     6.7080     5.3730     2.2710 
  180.0000    -9.8280    83.7220     5.0330     6.9030     5.6340     2.2630 
  180.1250   -10.0800    88.2260     5.2900     7.2350     6.0710     2.2470 
  180.2500   -10.3360    91.9020     5.5630     7.5900     6.2960     2.2290 
  180.3750   -10.5660    94.2080     5.8360     7.9110     6.1290     2.2150 
  180.5000   -10.7350    94.5080     6.0620     8.1750     6.3580     2.2090 
  180.6250   -10.9380    94.9870     6.2420     8.3500     6.8670     2.2090 
  180.7500   -11.0490    94.6130     6.2920     8.3610     7.0780     2.2150 
  180.8750   -10.9380    92.8280     6.1850     8.1710     6.6790     2.2180 
  181.0000   -10.6680    89.5750     5.9720     7.8330     6.0960     2.2140 
  181.1250   -10.3620    87.2680     5.6770     7.4240     5.9030     2.2060 
  181.2500   -10.1720    85.6490     5.4220     7.0760     5.9110     2.2000 
  181.3750   -10.0830    83.3720     5.2680     6.8820     5.7180     2.2020 
  181.5000   -10.1300    79.4740     5.2570     6.8530     5.5920     2.2100 
