~V
VERS. 2.00: Ver 2.00
~W
STRT.M 40.0000:
STOP.M 213.0000:
STEP.M 0.1250:
NULL. -999.2500:
UWI. F10805:
~C
DEPT.M :
SP.MV :
GR.API :
RI. :
RML.OHMM :
RXO.OHMM :
DEN.GM/CC :
~A
# ...
  143.0000   -14.7710    67.6050    17.1740    18.0280    29.4330     2.1700 
  143.1250   -14.8750    69.2400    18.0300    18.6390    26.3450     2.1600 
  143.2500   -14.9460    71.1280    17.6510    18.1300    21.6250     2.1560 
  143.3750   -14.9230    73.5590    16.1620    16.7480    17.5660     2.1580 
  143.5000   -14.8330    73.8580    14.3600    15.0410    15.5160     2.1630 
  143.6250   -14.6490    73.6770    12.7050    13.2690    14.2520     2.1800 
  143.7500   -14.4890    73.7340    11.0260    11.5580    12.6300     2.2210 
  143.8750   -14.3120    76.7210     9.4760    10.0310    10.3040     2.2700 
  144.0000   -14.2060    79.9740     8.1850     8.8270     8.1080     2.2960 
  144.1250   -14.2230    82.2780     7.3900     8.1800     6.8060     2.2710 
  144.2500   -14.3170    82.6870     7.2970     8.1670     6.5980     2.2280 
  144.3750   -14.4790    82.0500     8.0140     8.7630     6.8770     2.1920 
  144.5000   -14.6750    80.5000     9.1170     9.7230    10.1320     2.1710 
  144.6250   -14.8600    77.6110    10.1570    10.8500    20.2360     2.1520 
  144.7500   -14.9320    74.5110    11.2800    11.9770    28.8070     2.1320 
  144.8750   -14.8940    71.4720    12.3760    13.0650    24.5460     2.1200 
  145.0000   -14.7100    68.7960    13.3850    14.2810    19.2500     2.1160 
  145.1250   -14.5670    67.3970    14.7570    16.0720    26.5270     2.1210 
  145.2500   -14.5700    66.4640    17.0700    18.7230    34.3980     2.1230 
  145.3750   -14.7640    65.8930    20.3170    22.0480    33.9610     2.1260 
  145.5000   -14.9420    64.7470    23.5200    25.2230    30.3780     2.1290 
  145.6250   -15.0390    64.4130    25.6720    27.4210    30.4470     2.1300 
  145.7500   -15.1270    64.8000    26.3320    28.5810    36.3760     2.1290 
  145.8750   -15.2010    64.9820    26.6300    29.2340    40.3640     2.1210 
  146.0000   -15.2380    64.8940    27.0570    30.1510    38.1800     2.1120 
  146.1250   -15.2630    64.4770    27.5620    30.9640    35.2670     2.1020 
  146.2500   -15.3110    65.2610    28.1630    31.5680    34.7480     2.0970 
  146.3750   -15.2880    66.5280    28.8950    32.0470    35.8620     2.1030 
  146.5000   -15.2390    66.4730    29.2490    31.9710    39.6780     2.1130 
  146.6250   -15.1060    64.6600    28.3060    30.6790    46.0450     2.1260 
  146.7500   -14.9050    62.9490    25.6120    27.9360    44.9160     2.1360 
  146.8750   -14.5770    65.0480    20.9990    23.6200    32.4940     2.1470 
  147.0000   -14.1880    71.3460    16.0150    18.5080    21.5530     2.1580 
  147.1250   -13.8350    78.3620    11.9070    13.9060    14.8330     2.1790 
  147.2500   -13.4650    83.0180     9.2070    10.6450     9.5610     2.2080 
  147.3750   -13.2490    84.2810     7.8420     8.8120     7.7440     2.2360 
  147.5000   -13.2160    83.0510     7.1200     7.8350     8.4450     2.2560 
  147.6250   -13.2700    80.4500     6.7370     7.3460     9.0340     2.2640 
  147.7500   -13.2490    78.2120     6.5800     7.0730     7.8860     2.2680 
  147.8750   -13.2030    78.0580     6.5340     6.8980     7.0630     2.2610 
  148.0000   -13.2040    79.4140     6.5270     6.8550     7.1970     2.2500 
  148.1250   -13.2860    78.6500     6.5480     6.8870     7.0490     2.2310 
  148.2500   -13.4160    77.2300     6.6300     6.9270     6.7470     2.2140 
  148.3750   -13.6290    75.9650     6.7100     6.9870     6.7010     2.2050 
  148.5000   -13.9540    76.6840     6.7890     7.1320     7.0950     2.2070 
  148.6250   -14.4320    77.3630     7.0650     7.5400     7.6880     2.2120 
  148.7500   -15.0140    77.1820     7.6960     8.3790     8.7730     2.2180 
  148.8750   -15.4760    76.4790     8.9550     9.7410    11.4490     2.2180 
  149.0000   -15.8060    75.0500    10.6320    11.4020    16.4950     2.2150 
  149.1250   -16.0500    72.5000    12.4890    13.0270    21.4480     2.2040 
  149.2500   -16.2530    71.0830    13.8950    14.2670    22.0070     2.1930 
  149.3750   -16.4060    72.0050    14.3760    14.7710    19.8570     2.1830 
  149.5000   -16.5910    74.5130    13.9460    14.6020    18.5960     2.1760 
  149.6250   -16.8510    76.0660    13.2690    14.2810    17.0300     2.1730 
  149.7500   -17.1150    75.9000    13.1530    14.5700    15.6580     2.1750 
  149.8750   -17.3740    74.3360    14.1010    16.0760    19.7480     2.1840 
  150.0000   -17.6700    72.2910    16.4990    19.2180    37.8700     2.1960 
  150.1250   -18.0630    70.0530    20.9880    24.1590    66.0310     2.2070 
  150.2500   -18.4210    68.5790    26.5400    30.1260    74.0030     2.2100 
  150.3750   -18.7570    67.1590    32.2820    36.0240    59.2770     2.2040 
  150.5000   -19.0880    65.8830    36.9290    40.7930    53.0910     2.1950 
  150.6250   -19.3840    65.4160    39.7340    43.8290    65.6600     2.1890 
  150.7500   -19.6090    65.8780    41.2730    45.5340    85.4900     2.1820 
  150.8750   -19.8580    66.6680    42.0900    46.3650    91.6790     2.1730 
  151.0000   -20.1170    66.5230    42.4640    46.8050    85.4770     2.1760 
  151.1250   -20.3350    65.3590    42.6040    47.0980    78.9880     2.1870 
  151.2500   -20.5260    64.3150    42.8600    47.5550    68.3010     2.1990 
  151.3750   -20.6440    63.1850    43.5520    48.5690    58.8230     2.1980 
  151.5000   -20.7380    62.9110    45.0260    50.3140    54.6690     2.1920 
  151.6250   -20.8190    63.1210    47.3680    52.7980    58.6310     2.1870 
  151.7500   -20.9440    63.4500    50.2290    55.6870    70.8310     2.1860 
  151.8750   -21.0630    64.2660    53.1850    58.7000    82.6660     2.1800 
  152.0000   -21.1760    65.5410    56.1190    61.7120    97.0110     2.1760 
  152.1250   -21.2790    67.2800    59.1080    64.7290   101.6130     2.1750 
  152.2500   -21.3620    68.9220    62.0840    67.6680    94.9500     2.1760 
  152.3750   -21.4120    69.6040    64.8320    70.0530   104.6010     2.1730 
  152.5000   -21.4080    70.1550    66.5480    71.0310   114.0830     2.1700 
  152.6250   -21.4510    71.3510    65.4890    69.5600    98.9660     2.1700 
  152.7500   -21.5020    71.6320    61.8250    65.8810    84.7640     2.1740 
  152.8750   -21.5520    69.9950    56.9490    61.0560    73.9290     2.1810 
  153.0000   -21.6400    67.3790    52.3560    56.8700    52.4250     2.1870 
  153.1250   -21.7000    66.2530    50.3690    54.8430    41.9900     2.1900 
  153.2500   -21.7100    67.0370    51.2970    55.9140    48.3160     2.1880 
  153.3750   -21.7290    68.2050    55.4820    60.0380    57.1310     2.1810 
  153.5000   -21.7560    68.3110    61.6870    65.0620    65.9730     2.1720 
  153.6250   -21.7520    67.1290    66.6080    68.5320    76.3870     2.1630 
  153.7500   -21.7650    67.1740    67.6080    68.5270    82.2990     2.1560 
  153.8750   -21.7200    67.8160    63.6030    64.3780    72.3580     2.1560 
  154.0000   -21.6920    68.9390    56.6530    57.8320    53.0570     2.1700 
  154.1250   -21.6490    69.2260    49.4060    51.0540    42.8140     2.1960 
  154.2500   -21.7080    69.7060    44.0180    45.7770    46.3520     2.2200 
  154.3750   -21.8450    69.1470    40.9740    43.0050    57.3830     2.2340 
  154.5000   -21.9780    69.1310    40.4110    42.7630   105.4240     2.2340 
  154.6250   -22.0500    68.8790    42.5550    45.1840   146.1980     2.2270 
  154.7500   -22.1090    69.2490    46.7720    49.7070   140.3280     2.2180 
  154.8750   -22.1760    68.5410    53.0630    55.9410   133.3760     2.2080 
  155.0000   -22.2570    67.4580    61.1490    64.1060   247.7640     2.1970 
  155.1250   -22.3990    65.1850    70.5130    73.5710   416.4100     2.1830 
  155.2500   -22.5200    62.1250    79.6020    83.1720   413.2560     2.1700 
  155.3750   -22.6540    59.0440    88.3080    92.2440   253.9650     2.1610 
  155.5000   -22.7430    58.3080    95.7520   100.3900   149.2750     2.1550 
  155.6250   -22.8240    59.5420   102.1070   106.8670   168.6570     2.1470 
  155.7500   -22.8880    61.9850   106.1960   111.1030   268.3590     2.1380 
