~V
VERS. 2.00: Ver 2.00
~W
STRT.M 54.0000:
STOP.M 205.0000:
STEP.M 0.1250:
NULL. -999.2500:
UWI. F10812:
~C
DEPT.M :
SP.MV :
GR.API :
RI. :
RML.OHMM :
RXO.OHMM :
DEN.GM/CC :
~A
# ...
  182.7500    -6.4240    42.8190     3.9210     5.1690     4.4990     2.1260 
  182.8750    -6.1840    42.7310     3.9310     5.1610     4.4950     2.1360 
  183.0000    -6.0050    43.2160     3.9600     5.1740     4.5560     2.1700 
  183.1250    -5.9270    44.6420     4.0150     5.2160     4.7870     2.2060 
  183.2500    -5.9170    46.4970     4.0920     5.2930     5.1000     2.2310 
  183.3750    -5.9320    48.2390     4.1770     5.3860     5.3310     2.2330 
  183.5000    -5.9230    49.1260     4.2430     5.4650     5.4100     2.2160 
  183.6250    -5.8560    49.9030     4.2910     5.5180     5.4870     2.1930 
  183.7500    -5.7570    50.0990     4.3220     5.5410     5.7150     2.1780 
  183.8750    -5.6840    50.5310     4.3350     5.5390     5.8570     2.1730 
  184.0000    -5.6820    49.7180     4.3330     5.5200     5.8440     2.1740 
  184.1250    -5.7320    50.1750     4.3110     5.4840     5.7840     2.1780 
  184.2500    -5.8090    50.4950     4.2750     5.4310     5.5180     2.1850 
  184.3750    -5.9090    52.2520     4.2370     5.3690     5.1850     2.1910 
  184.5000    -6.0290    52.9970     4.1990     5.3090     5.1180     2.1970 
  184.6250    -6.1880    53.8990     4.1740     5.2670     5.2210     2.1970 
  184.7500    -6.3740    53.7740     4.1700     5.2640     5.3210     2.1900 
  184.8750    -6.5310    53.4820     4.2120     5.3100     5.3800     2.1790 
  185.0000    -6.5730    53.9780     4.2730     5.3770     5.3350     2.1720 
  185.1250    -6.4340    55.0800     4.3190     5.4270     5.4710     2.1730 
  185.2500    -6.1360    55.9460     4.3380     5.4300     5.8810     2.1760 
  185.3750    -5.6590    56.1870     4.3010     5.3690     5.8870     2.1860 
  185.5000    -5.0740    56.2790     4.2330     5.2710     5.2450     2.2110 
  185.6250    -4.5210    56.3590     4.1770     5.1880     4.5190     2.2440 
  185.7500    -4.0930    55.9020     4.1620     5.1750     4.3440     2.2640 
  185.8750    -3.9270    54.8410     4.2310     5.2600     4.7400     2.2630 
  186.0000    -4.0630    53.9930     4.3500     5.4110     5.1240     2.2630 
  186.1250    -4.4060    54.7850     4.4830     5.5640     5.3480     2.2630 
  186.2500    -4.7710    56.7230     4.5660     5.6490     5.5920     2.2470 
  186.3750    -4.9360    59.3870     4.5930     5.6580     5.7090     2.2170 
  186.5000    -4.7130    62.5960     4.5760     5.6230     5.6670     2.1910 
  186.6250    -3.9250    64.3130     4.5480     5.5900     5.7360     2.1830 
  186.7500    -2.6080    64.8380     4.5440     5.5970     5.9300     2.1860 
  186.8750    -0.8640    63.6110     4.5670     5.6390     6.0110     2.1930 
  187.0000     1.0390    64.1960     4.5970     5.6860     5.9080     2.2030 
  187.1250     2.8160    65.4840     4.6150     5.7120     5.7950     2.2080 
  187.2500     4.2140    67.8440     4.5990     5.6900     5.7090     2.2090 
  187.3750     5.0840    68.6620     4.5500     5.6310     5.5040     2.2040 
  187.5000     5.5180    69.0060     4.4920     5.5590     5.5860     2.1910 
  187.6250     5.5800    68.2580     4.4670     5.5260     6.0280     2.1760 
  187.7500     5.4380    67.7180     4.5120     5.5810     6.2010     2.1640 
  187.8750     5.2220    68.0610     4.6260     5.7230     6.3710     2.1620 
  188.0000     5.0260    69.6030     4.8040     5.9350     8.0530     2.1720 
  188.1250     4.9180    71.4030     4.9690     6.1470    11.8530     2.1860 
  188.2500     4.9180    71.7130     5.0990     6.3040    13.3920     2.1920 
  188.3750     5.0060    70.9210     5.1730     6.3710    10.2650     2.1870 
  188.5000     5.1020    69.7180     5.1890     6.3710     7.3560     2.1860 
  188.6250     5.1340    68.6030     5.1810     6.3410     6.6930     2.1980 
  188.7500     5.0800    68.1920     5.1710     6.3240     6.6790     2.2160 
  188.8750     4.9480    69.4100     5.2170     6.3580     7.2680     2.2320 
  189.0000     4.7830    71.5780     5.2900     6.4190     7.7800     2.2420 
  189.1250     4.6260    73.5640     5.3600     6.4680     7.2060     2.2490 
  189.2500     4.5000    74.6670     5.3860     6.4730     6.2590     2.2460 
  189.3750     4.3840    75.4110     5.3570     6.4250     5.8570     2.2360 
  189.5000     4.2330    76.0990     5.2900     6.3350     5.9250     2.2250 
  189.6250     3.9950    75.8930     5.1930     6.2160     5.9290     2.2210 
  189.7500     3.6210    74.6010     5.1050     6.1030     6.6510     2.2200 
  189.8750     3.1080    74.3430     5.0510     6.0180     8.5480     2.2180 
  190.0000     2.5450    74.3960     5.0390     5.9720     8.9840     2.2130 
  190.1250     2.0150    74.7700     5.0570     5.9540     7.2140     2.2060 
  190.2500     1.5850    74.3040     5.0750     5.9390     6.1400     2.1970 
  190.3750     1.2890    74.1950     5.0940     5.9230     6.2090     2.1920 
  190.5000     1.0480    74.6510     5.1150     5.9180     6.3280     2.1890 
  190.6250     0.8150    74.8850     5.1880     5.9610     6.2990     2.1840 
  190.7500     0.5910    75.2560     5.2960     6.0450     6.2080     2.1790 
  190.8750     0.3920    75.6050     5.4220     6.1490     6.4960     2.1840 
  191.0000     0.2440    76.2700     5.5340     6.2280     7.1000     2.1950 
  191.1250     0.1710    75.3800     5.5640     6.2180     6.9360     2.2050 
  191.2500     0.1430    74.4540     5.4870     6.1020     5.8500     2.2150 
  191.3750     0.1360    72.5540     5.3400     5.9170     5.5000     2.2320 
  191.5000     0.1350    70.5430     5.1850     5.7430     6.7020     2.2510 
  191.6250     0.1350    68.9460     5.0800     5.6410     7.4560     2.2630 
  191.7500     0.1350    68.4540     5.0430     5.6250     6.6510     2.2690 
  191.8750     0.1350    69.1590     5.0580     5.6670     6.1520     2.2720 
  192.0000     0.1350    70.2700     5.0940     5.7240     6.5690     2.2740 
  192.1250     0.1350    71.5170     5.1330     5.7760     6.6590     2.2600 
  192.2500     0.1350    73.8970     5.1900     5.8360     6.7670     2.2360 
  192.3750     0.1350    76.6390     5.2880     5.9350     7.3830     2.2130 
  192.5000     0.1350    79.5370     5.4410     6.0920     7.6940     2.2000 
  192.6250     0.1350    82.0230     5.6670     6.3250     7.9250     2.1960 
  192.7500     0.1350    84.4340     5.9550     6.6170     8.3150     2.2000 
  192.8750     0.1350    86.7820     6.2500     6.9210     8.8810     2.2140 
  193.0000     0.1350    89.2740     6.5180     7.1910     9.2480     2.2320 
  193.1250     0.1350    90.8700     6.6990     7.3700     8.5230     2.2380 
  193.2500     0.1350    91.3910     6.7440     7.4050     8.0530     2.2310 
  193.3750     0.1350    90.6710     6.5950     7.2560     8.1930     2.2260 
  193.5000     0.1350    88.8740     6.3270     6.9820     7.7340     2.2340 
  193.6250     0.1350    85.8940     5.9830     6.6350     6.6680     2.2350 
  193.7500     0.1350    83.7470     5.6540     6.3000     5.3820     2.2130 
  193.8750     0.1350    83.6430     5.3940     6.0340     4.6090     2.1800 
  194.0000     0.1350    85.9450     5.2070     5.8570     4.6840     2.1660 
  194.1250     0.1350    87.9100     5.1460     5.8170     5.3090     2.1810 
  194.2500     0.1350    88.8060     5.2380     5.9340     5.8780     2.2150 
  194.3750     0.1350    87.9050     5.4690     6.1970     6.0470     2.2400 
  194.5000     0.1350    87.5400     5.7690     6.5330     6.3990     2.2270 
  194.6250     0.1350    87.4970     6.0990     6.8880     6.9980     2.1820 
  194.7500     0.1350    88.9370     6.3680     7.1670     7.6630     2.1460 
  194.8750     0.1350    89.4500     6.4870     7.2760     8.3460     2.1480 
  195.0000     0.1350    88.6010     6.4640     7.2250     8.1450     2.1760 
  195.1250     0.1350    85.9170     6.3430     7.0840     7.0690     2.2080 
  195.2500     0.1350    83.5060     6.2490     6.9890     6.3870     2.2290 
  195.3750     0.1350    83.5750     6.2600     7.0240     6.5990     2.2400 
  195.5000     0.1350    84.3710     6.3240     7.1470     7.0220     2.2470 
