~V
VERS. 2.00: Ver 2.00
~W
STRT.M 1.0000:
STOP.M 205.0000:
STEP.M 0.1250:
NULL. -999.2500:
UWI. F10806:
~C
DEPT.M :
SP.MV :
GR.API :
RI. :
RML.OHMM :
RXO.OHMM :
DEN.GM/CC :
~A
# ...
   91.1250   -18.6790    75.7720     1.9820     2.2300     2.9850     2.0830 
   91.2500   -18.9500    74.7680     2.0940     2.3380     2.9100     2.0790 
   91.3750   -19.2300    73.8770     2.2100     2.4400     2.8500     2.0730 
   91.5000   -19.4680    75.8200     2.2920     2.5070     2.9180     2.0730 
   91.6250   -19.6090    80.4700     2.3240     2.5340     3.0220     2.0880 
   91.7500   -19.6380    85.4700     2.3180     2.5380     2.9020     2.1160 
   91.8750   -19.6080    88.0590     2.3260     2.5670     2.5430     2.1470 
   92.0000   -19.5800    86.8570     2.4010     2.6730     2.3370     2.1650 
   92.1250   -19.6050    81.7300     2.5640     2.8750     2.6980     2.1590 
   92.2500   -19.6860    75.6520     2.8290     3.1630     3.4560     2.1360 
   92.3750   -19.7420    70.6310     3.1520     3.4670     4.2070     2.1150 
   92.5000   -19.6990    69.1500     3.4060     3.6720     5.1450     2.1090 
   92.6250   -19.5770    67.5880     3.5490     3.7310     6.1550     2.1110 
   92.7500   -19.4050    66.2880     3.5550     3.7540     6.6550     2.1110 
   92.8750   -19.2240    64.8700     3.4930     3.7260     6.6780     2.1100 
   93.0000   -19.0710    65.8260     3.4430     3.6710     6.5790     2.1130 
   93.1250   -18.9540    66.6370     3.4090     3.6400     6.4080     2.1150 
   93.2500   -18.8690    66.9150     3.4320     3.6740     6.0790     2.1080 
   93.3750   -18.7860    65.6270     3.5530     3.7850     5.6630     2.1050 
   93.5000   -18.6720    66.8540     3.7470     3.9600     5.4470     2.1080 
   93.6250   -18.5060    70.0340     3.9440     4.1510     5.6380     2.1200 
   93.7500   -18.3180    71.6070     4.1100     4.3250     5.8790     2.1280 
   93.8750   -18.1540    69.1520     4.2610     4.5020     5.7270     2.1300 
   94.0000   -18.0200    66.1190     4.4360     4.6790     5.6240     2.1410 
   94.1250   -17.9060    65.8400     4.6200     4.8540     7.1420     2.1760 
   94.2500   -17.8320    67.6490     4.7680     4.9760    10.1930     2.2340 
   94.3750   -17.7970    69.5180     4.7790     4.9710    11.3220     2.2750 
   94.5000   -17.7700    71.0810     4.6120     4.8110     9.2150     2.2670 
   94.6250   -17.7020    73.0870     4.3950     4.5880     6.6670     2.2220 
   94.7500   -17.5050    73.9490     4.2340     4.4610     5.1810     2.1860 
   94.8750   -17.1360    74.0760     4.3100     4.6280     6.1880     2.2050 
   95.0000   -16.5800    73.3850     4.7550     5.2210    10.3880     2.2850 
   95.1250   -15.9620    71.9400     5.6690     6.1360    14.1080     2.3870 
   95.2500   -15.4940    70.9050     6.8820     7.2120    15.0330     2.4610 
   95.3750   -15.3160    70.1560     7.9650     8.1210    15.8120     2.4980 
   95.5000   -15.4960    71.2200     8.5490     8.5330    18.7960     2.5050 
   95.6250   -15.9730    71.4330     8.3390     8.3260    20.1880     2.4930 
   95.7500   -16.6810    71.1730     7.4410     7.5260    17.5410     2.4570 
   95.8750   -17.4860    69.6100     6.2310     6.4210    13.5130     2.4100 
   96.0000   -18.2760    68.2950     5.0310     5.3100     9.7760     2.3530 
   96.1250   -18.9540    67.6370     4.1110     4.4410     6.9900     2.2840 
   96.2500   -19.4620    68.2980     3.6570     3.9450     4.9680     2.2120 
   96.3750   -19.8000    68.1480     3.5190     3.7470     4.2880     2.1670 
   96.5000   -19.9610    66.9740     3.5640     3.7570     5.6790     2.1720 
   96.6250   -19.9980    65.2050     3.6490     3.8200    15.8120     2.2090 
   96.7500   -19.9900    64.5590     3.6410     3.8030    28.1130     2.2320 
   96.8750   -19.9920    62.9920     3.4830     3.6700    22.4770     2.2170 
   97.0000   -19.9710    61.5780     3.2120     3.4100     9.4100     2.1720 
   97.1250   -19.8770    60.8840     2.9250     3.1250     5.2820     2.1330 
   97.2500   -19.6710    63.1450     2.7100     2.9130     5.0980     2.1150 
   97.3750   -19.3750    65.6860     2.5920     2.7780     4.7280     2.1120 
   97.5000   -19.0290    66.9900     2.5230     2.6930     4.2920     2.1130 
   97.6250   -18.7110    67.1310     2.4460     2.6140     3.7890     2.1120 
   97.7500   -18.4270    66.4110     2.3560     2.5260     3.3740     2.1090 
   97.8750   -18.1440    65.4240     2.2640     2.4320     3.2370     2.1030 
   98.0000   -17.9070    64.4670     2.1860     2.3500     3.2440     2.0950 
   98.1250   -17.7480    64.4300     2.1210     2.2970     3.2100     2.0870 
   98.2500   -17.6610    65.3980     2.0830     2.2590     3.1800     2.0840 
   98.3750   -17.6300    66.7070     2.0630     2.2440     3.1810     2.0870 
   98.5000   -17.6400    66.5940     2.0560     2.2420     3.2430     2.0940 
   98.6250   -17.6720    66.0130     2.0490     2.2440     3.2740     2.1000 
   98.7500   -17.7550    64.8990     2.0390     2.2440     3.1460     2.1010 
   98.8750   -17.8820    64.9170     2.0320     2.2440     3.0200     2.0920 
   99.0000   -18.0190    65.4300     2.0290     2.2480     3.1500     2.0770 
   99.1250   -18.1260    65.1140     2.0300     2.2560     3.4610     2.0680 
   99.2500   -18.2160    63.9000     2.0350     2.2730     3.6090     2.0740 
   99.3750   -18.3360    62.1170     2.0430     2.2930     3.4710     2.0860 
   99.5000   -18.4830    60.5290     2.0490     2.3170     3.4170     2.0870 
   99.6250   -18.6250    60.5490     2.0570     2.3410     3.6690     2.0770 
   99.7500   -18.7710    61.1860     2.0610     2.3600     3.8100     2.0710 
   99.8750   -18.9520    61.3550     2.0700     2.3790     3.7130     2.0740 
  100.0000   -19.1610    60.4030     2.0890     2.4000     3.7090     2.0830 
  100.1250   -19.3940    60.9990     2.1220     2.4440     3.7900     2.0880 
  100.2500   -19.6640    63.4370     2.1890     2.5220     3.8810     2.0870 
  100.3750   -19.9640    65.8300     2.2830     2.6350     4.1060     2.0790 
  100.5000   -20.2560    66.9460     2.3860     2.7640     4.4330     2.0690 
  100.6250   -20.5230    66.7380     2.4880     2.8870     4.5420     2.0630 
  100.7500   -20.7580    66.7570     2.5660     2.9930     4.3580     2.0650 
  100.8750   -20.9270    66.1570     2.6230     3.0650     4.2100     2.0680 
  101.0000   -20.9790    66.5370     2.6380     3.0820     4.2940     2.0710 
  101.1250   -20.9210    65.8600     2.5940     3.0330     4.5170     2.0780 
  101.2500   -20.7900    64.8940     2.5090     2.9280     4.5470     2.0960 
  101.3750   -20.6520    63.5920     2.4040     2.8090     4.0940     2.1150 
  101.5000   -20.6030    62.8610     2.3320     2.7260     3.6680     2.1290 
  101.6250   -20.7540    63.6440     2.2990     2.7020     3.9090     2.1300 
  101.7500   -21.2450    64.2240     2.3400     2.7630     4.2770     2.1190 
  101.8750   -22.0000    64.7990     2.4340     2.8860     4.4770     2.1050 
  102.0000   -22.7960    63.7520     2.5560     3.0340     4.8800     2.0970 
  102.1250   -23.4120    61.4940     2.6610     3.1510     5.1970     2.0990 
  102.2500   -23.7900    59.3290     2.7100     3.2020     5.3460     2.1080 
  102.3750   -24.0230    59.9200     2.7190     3.1980     5.5540     2.1160 
  102.5000   -24.1670    63.0070     2.7020     3.1700     5.6300     2.1200 
  102.6250   -24.2530    65.8970     2.6850     3.1440     5.7320     2.1230 
  102.7500   -24.2700    65.7230     2.6750     3.1370     6.0060     2.1240 
  102.8750   -24.2420    64.1630     2.6780     3.1400     6.1830     2.1240 
  103.0000   -24.1790    62.1790     2.6830     3.1440     6.3150     2.1190 
  103.1250   -24.1010    61.3030     2.6940     3.1380     6.3710     2.1120 
  103.2500   -24.0060    60.5100     2.6950     3.1220     6.2100     2.1050 
  103.3750   -23.8570    61.0650     2.6890     3.0940     6.1060     2.1030 
  103.5000   -23.6210    61.3400     2.6760     3.0540     6.1300     2.1030 
  103.6250   -23.2960    62.4370     2.6660     3.0170     5.9920     2.1030 
  103.7500   -22.8540    62.9120     2.6760     2.9970     5.5500     2.1020 
  103.8750   -22.2590    62.3780     2.6970     3.0000     5.0430     2.0950 
