~V
VERS. 2.00: Ver 2.00
~W
STRT.M 62.0000:
STOP.M 256.0000:
STEP.M 0.1250:
NULL. -999.2500:
UWI. F10886:
~C
DEPT.M :
TVD. :
DX. :
DY. :
SP.MV :
GR.API :
RI. :
RML.OHMM :
RXO.OHMM :
DEN.GM/CC :
~A
   62.0000    62.0000     0.0000     0.0000    84.9400    37.2620     0.1780     0.2740     0.0480     2.3860 
   62.1250    62.1250    -0.0010    -0.0010    83.9160    35.5250     0.1570     0.2580     0.0550     2.3690 
   62.2500    62.2500    -0.0010    -0.0030    82.6590    33.8490     0.1250     0.2170     0.0710     2.3740 
   62.3750    62.3750    -0.0020    -0.0040    81.1570    34.0150     0.0880     0.1570     0.0950     2.3990 
   62.5000    62.5000    -0.0020    -0.0050    79.2960    35.1260     0.0580     0.0970     0.1520     2.4280 
   62.6250    62.6250    -0.0030    -0.0070    76.7410    36.5010     0.0430     0.0580     0.2770     2.4470 
   62.7500    62.7500    -0.0040    -0.0080    73.2160    36.9380     0.0490     0.0480     0.4780     2.4530 
   62.8750    62.8750    -0.0040    -0.0090    68.3530    37.6380     0.0900     0.0740     1.0250     2.4560 
   63.0000    63.0000    -0.0050    -0.0110    62.1120    39.7950     0.1990     0.1620     2.2550     2.4620 
   63.1250    63.1250    -0.0050    -0.0120    54.3500    42.4270     0.4540     0.3930     3.7790     2.4500 
   63.2500    63.2500    -0.0060    -0.0130    45.2900    46.1470     0.9240     0.8610     4.6440     2.3750 
   63.3750    63.3750    -0.0070    -0.0150    35.2520    49.8710     1.6480     1.5970     4.5630     2.2120 
   63.5000    63.5000    -0.0070    -0.0160    25.0910    55.0120     2.4870     2.3890     4.0520     2.0190 
   63.6250    63.6250    -0.0080    -0.0180    15.9150    60.9080     3.2270     2.9860     3.8180     1.8950 
   63.7500    63.7500    -0.0090    -0.0190     8.5260    65.7900     3.7600     3.3180     4.4180     1.8820 
   63.8750    63.8750    -0.0090    -0.0200     3.4080    67.5940     4.1220     3.4870     5.5170     1.9470 
   64.0000    64.0000    -0.0100    -0.0220     0.1030    67.6620     4.4280     3.6750     6.1700     2.0180 
   64.1250    64.1250    -0.0110    -0.0230    -1.8890    69.2500     4.7230     3.8880     6.1620     2.0550 
   64.2500    64.2500    -0.0110    -0.0240    -3.2340    71.4470     4.9720     4.0460     5.9760     2.0680 
   64.3750    64.3750    -0.0120    -0.0260    -4.2540    72.0530     5.1480     4.1370     5.9180     2.0730 
   64.5000    64.5000    -0.0120    -0.0270    -5.1280    70.3390     5.3150     4.2570     6.0390     2.0810 
   64.6250    64.6250    -0.0130    -0.0290    -5.8980    69.3910     5.5230     4.4940     6.2900     2.0920 
   64.7500    64.7500    -0.0140    -0.0300    -6.5860    68.1780     5.7650     4.8230     6.5580     2.1030 
   64.8750    64.8750    -0.0140    -0.0310    -7.1990    66.2820     6.0070     5.1560     6.8200     2.1090 
   65.0000    65.0000    -0.0150    -0.0330    -7.7580    62.8960     6.2090     5.4020     7.1260     2.1120 
   65.1250    65.1250    -0.0160    -0.0340    -8.2720    60.6610     6.3310     5.5080     7.3990     2.1170 
   65.2500    65.2500    -0.0170    -0.0350    -8.7550    59.9330     6.3500     5.5030     7.4880     2.1260 
   65.3750    65.3750    -0.0170    -0.0370    -9.2180    60.9210     6.2530     5.4650     7.2900     2.1370 
   65.5000    65.5000    -0.0180    -0.0380    -9.6730    62.8520     6.0680     5.4410     6.8350     2.1410 
   65.6250    65.6250    -0.0190    -0.0400   -10.1260    63.5450     5.7940     5.3650     6.3010     2.1380 
   65.7500    65.7500    -0.0190    -0.0410   -10.5750    63.4850     5.4390     5.1460     5.9710     2.1350 
   65.8750    65.8750    -0.0200    -0.0420   -11.0090    62.5740     5.0150     4.7480     5.8350     2.1400 
   66.0000    66.0000    -0.0210    -0.0440   -11.4180    63.7870     4.5490     4.2550     5.5360     2.1580 
   66.1250    66.1250    -0.0210    -0.0450   -11.7840    68.6390     4.0910     3.7930     4.9110     2.1870 
   66.2500    66.2500    -0.0220    -0.0470   -12.1060    75.2690     3.6960     3.4460     4.3520     2.2180 
   66.3750    66.3750    -0.0230    -0.0480   -12.3790    81.3710     3.4240     3.2450     4.3120     2.2430 
   66.5000    66.5000    -0.0230    -0.0490   -12.6080    85.1660     3.3130     3.1810     4.5160     2.2560 
   66.6250    66.6250    -0.0240    -0.0510   -12.7910    86.3050     3.3750     3.2670     4.4590     2.2610 
   66.7500    66.7500    -0.0250    -0.0520   -12.9300    84.5960     3.5500     3.4710     4.3050     2.2670 
   66.8750    66.8750    -0.0250    -0.0540   -13.0270    82.8060     3.7770     3.7500     4.3850     2.2810 
   67.0000    67.0000    -0.0260    -0.0550   -13.0930    82.0860     3.9900     4.0130     4.5960     2.2940 
   67.1250    67.1250    -0.0270    -0.0560   -13.1370    84.8420     4.1350     4.1650     4.8220     2.2910 
   67.2500    67.2500    -0.0280    -0.0580   -13.1730    86.7170     4.1800     4.1710     4.8320     2.2650 
   67.3750    67.3750    -0.0280    -0.0590   -13.2110    85.8280     4.1080     4.0610     4.5650     2.2300 
   67.5000    67.5000    -0.0290    -0.0610   -13.2610    81.1290     3.9720     3.9300     4.3080     2.2070 
   67.6250    67.6250    -0.0300    -0.0620   -13.3250    77.1660     3.8540     3.8610     4.1880     2.2040 
   67.7500    67.7500    -0.0300    -0.0640   -13.3990    76.8100     3.8260     3.8920     4.2570     2.2090 
   67.8750    67.8750    -0.0310    -0.0650   -13.4710    78.6740     3.9200     4.0340     4.9750     2.2080 
   68.0000    68.0000    -0.0320    -0.0660   -13.5400    78.7780     4.0950     4.2560     6.4130     2.1970 
   68.1250    68.1250    -0.0320    -0.0680   -13.5980    74.9500     4.2820     4.5100     7.3880     2.1840 
   68.2500    68.2500    -0.0330    -0.0690   -13.6350    71.5950     4.3860     4.6850     6.9230     2.1790 
   68.3750    68.3750    -0.0340    -0.0710   -13.6450    71.0220     4.3300     4.6840     5.6450     2.1860 
   68.5000    68.5000    -0.0340    -0.0720   -13.6320    73.4660     4.1430     4.5200     4.6980     2.1990 
   68.6250    68.6240    -0.0350    -0.0740   -13.6300    75.5370     3.9080     4.3000     4.3200     2.2100 
   68.7500    68.7490    -0.0360    -0.0750   -13.6530    77.0200     3.7450     4.1960     4.1860     2.2170 
   68.8750    68.8740    -0.0370    -0.0770   -13.7040    76.8850     3.7330     4.3190     4.1090     2.2190 
   69.0000    68.9990    -0.0370    -0.0780   -13.7600    75.7380     3.8240     4.5860     4.0830     2.2120 
   69.1250    69.1240    -0.0380    -0.0790   -13.7980    72.4020     3.9000     4.7970     4.3090     2.1960 
   69.2500    69.2490    -0.0390    -0.0810   -13.8150    69.4680     3.8690     4.8050     4.8470     2.1810 
   69.3750    69.3740    -0.0390    -0.0820   -13.8190    67.5870     3.7330     4.6120     5.2320     2.1790 
   69.5000    69.4990    -0.0400    -0.0840   -13.8240    67.5700     3.6190     4.4180     5.0380     2.1900 
   69.6250    69.6240    -0.0410    -0.0850   -13.8420    68.2930     3.7260     4.5150     4.5660     2.2120 
   69.7500    69.7490    -0.0410    -0.0870   -13.8760    69.3210     4.1640     5.0620     4.5190     2.2520 
   69.8750    69.8740    -0.0420    -0.0880   -13.9350    67.4540     5.0300     6.2030     5.5080     2.3200 
   70.0000    69.9990    -0.0430    -0.0900   -14.0260    64.5090     6.2650     7.8560     7.9160     2.3950 
   70.1250    70.1240    -0.0440    -0.0910   -14.1600    60.5770     7.6060     9.5980    10.9680     2.4290 
   70.2500    70.2490    -0.0440    -0.0930   -14.3250    59.6490     8.5990    10.7980    12.0920     2.3960 
   70.3750    70.3740    -0.0450    -0.0940   -14.4860    58.8360     8.8290    10.9300    10.4850     2.3080 
   70.5000    70.4990    -0.0460    -0.0960   -14.5940    59.4230     8.2480    10.0240     8.7020     2.2150 
   70.6250    70.6240    -0.0460    -0.0970   -14.6040    60.5770     7.1270     8.5390     8.1280     2.1540 
   70.7500    70.7490    -0.0470    -0.0990   -14.5020    62.8140     5.9660     7.1160     7.8470     2.1340 
   70.8750    70.8740    -0.0480    -0.1000   -14.2620    64.8480     5.0440     6.0550     6.9230     2.1480 
   71.0000    70.9990    -0.0480    -0.1020   -13.8760    68.2730     4.3980     5.3400     5.5410     2.1810 
