~V
VERS. 2.00: Ver 2.00
~W
STRT.M 40.0000:
STOP.M 216.0000:
STEP.M 0.1250:
NULL. -999.2500:
UWI. F10813:
~C
DEPT.M :
SP.MV :
GR.API :
RI. :
RML.OHMM :
RXO.OHMM :
DEN.GM/CC :
~A
# ...
  194.5000    -5.8200    67.6230     5.1890     5.8830     4.8690     2.2870 
  194.6250    -5.5890    68.4060     5.4560     6.2170     4.9090     2.2860 
  194.7500    -5.4470    69.2510     5.9130     6.7380     5.9490     2.2870 
  194.8750    -5.4250    71.1790     6.5240     7.4270     7.7170     2.2940 
  195.0000    -5.4300    74.2040     7.2500     8.2150     8.5830     2.3090 
  195.1250    -5.3640    77.5960     8.0140     8.9780     8.3810     2.3370 
  195.2500    -5.1690    80.5630     8.6200     9.5540     8.1630     2.3620 
  195.3750    -4.9310    81.9420     8.9050     9.8120     8.5050     2.3720 
  195.5000    -4.5790    81.8670     8.9200     9.7980     9.6100     2.3640 
  195.6250    -4.3570    80.8370     8.7030     9.5760     9.9210     2.3520 
  195.7500    -4.1010    79.5940     8.3670     9.2560     8.8380     2.3410 
  195.8750    -3.9210    78.3520     8.0780     8.9540     7.8490     2.3420 
  196.0000    -3.6800    76.6970     7.8320     8.7160     7.1380     2.3480 
  196.1250    -3.4480    75.2010     7.7080     8.6260     6.8430     2.3590 
  196.2500    -3.0700    73.5600     7.7830     8.7330     7.3890     2.3650 
  196.3750    -2.7630    72.4950     7.9870     8.9800     8.2740     2.3620 
  196.5000    -2.7000    72.0250     8.2260     9.2400     8.7380     2.3570 
  196.6250    -2.8560    72.7370     8.4040     9.4070     8.4500     2.3620 
  196.7500    -2.9780    74.1730     8.4610     9.4390     8.0240     2.3780 
  196.8750    -2.9750    76.0280     8.4220     9.3660     8.1470     2.3940 
  197.0000    -3.0120    77.9590     8.3480     9.2580     8.6360     2.4060 
  197.1250    -2.9950    79.3430     8.2760     9.1820     8.8780     2.4190 
  197.2500    -3.0360    79.2760     8.2770     9.1820     9.3580     2.4280 
  197.3750    -3.0530    77.4010     8.3450     9.2770    10.0980     2.4270 
  197.5000    -3.0830    75.7340     8.5090     9.4700     9.7190     2.4150 
  197.6250    -3.0430    76.1740     8.7450     9.7260     9.0460     2.4040 
  197.7500    -2.9920    78.0270     8.9560     9.9610     9.2600     2.3980 
  197.8750    -2.9680    79.9940     9.0830    10.1060    11.0000     2.3890 
  198.0000    -2.9550    81.0990     9.1270    10.1620    13.3800     2.3850 
  198.1250    -2.9970    80.8980     9.1510    10.1930    13.3690     2.3920 
  198.2500    -3.0630    80.9360     9.2420    10.2860    12.1290     2.4100 
  198.3750    -3.1650    80.4290     9.4250    10.4900    11.9230     2.4260 
  198.5000    -3.1920    80.3170     9.6580    10.7600    12.2360     2.4350 
  198.6250    -3.2140    81.1050     9.8710    11.0230    12.5480     2.4400 
  198.7500    -3.1680    82.8410    10.0060    11.2000    12.2970     2.4390 
  198.8750    -3.1510    84.9280     9.9810    11.2140    11.8190     2.4330 
  199.0000    -3.1210    85.7600     9.8340    11.0900    11.5830     2.4260 
  199.1250    -3.1630    86.2790     9.6130    10.8940    11.1100     2.4300 
  199.2500    -3.1850    85.8220     9.3920    10.7010    10.4070     2.4390 
  199.3750    -3.2310    86.2010     9.2050    10.5420     9.8960     2.4310 
  199.5000    -3.2630    86.8520     9.0330    10.4010     9.7850     2.4060 
  199.6250    -3.2680    88.8060     8.8560    10.2610     9.5030     2.3760 
  199.7500    -3.2630    89.0870     8.7000    10.1300     8.4820     2.3580 
  199.8750    -3.2410    88.0720     8.5610    10.0040     7.2070     2.3510 
  200.0000    -3.2900    85.6480     8.4120     9.8540     6.6720     2.3510 
  200.1250    -3.2510    84.0880     8.2220     9.6520     6.7820     2.3570 
  200.2500    -3.2460    82.9100     8.0170     9.4220     6.6880     2.3680 
  200.3750    -3.2140    81.6800     7.8240     9.2020     6.4450     2.3750 
  200.5000    -3.2560    79.5350     7.7020     9.0520     6.5000     2.3810 
  200.6250    -3.2360    77.0530     7.6450     9.0030     7.0850     2.3980 
  200.7500    -3.3040    74.9160     7.6460     9.0360     7.9240     2.4210 
  200.8750    -3.3820    73.2670     7.6610     9.0930     8.0830     2.4320 
  201.0000    -3.4020    72.0870     7.6090     9.0710     7.3170     2.4240 
  201.1250    -3.5360    71.0850     7.4290     8.8920     6.3680     2.4010 
  201.2500    -3.5680    70.4110     7.1320     8.5820     5.6070     2.3800 
  201.3750    -3.5680    68.8380     6.8150     8.2400     4.8020     2.3540 
  201.5000    -3.5680    67.8350     6.5690     7.9780     4.3930     2.3260 
  201.6250    -3.5680    67.1670     6.4290     7.8340     5.4420     2.3080 
  201.7500    -3.5680    67.5610     6.3530     7.7610     7.2620     2.3100 
  201.8750    -3.5680    68.7400     6.2990     7.7000     7.9100     2.3220 
  202.0000    -3.5680    71.0230     6.2390     7.6200     7.5290     2.3260 
  202.1250    -3.5680    73.6430     6.1860     7.5390     7.3280     2.3230 
  202.2500    -3.5680    75.3240     6.1560     7.4910     6.6900     2.3190 
  202.3750    -3.5680    76.0700     6.1660     7.5030     5.4730     2.3180 
  202.5000    -3.5680    76.1610     6.2000     7.5520     4.8990     2.3130 
  202.6250    -3.5680    76.8490     6.2150     7.5850     4.8790     2.3010 
  202.7500    -3.5680    77.6230     6.1770     7.5550     5.1080     2.2880 
  202.8750    -3.5680    78.5830     6.0420     7.4350     5.7730     2.2760 
  203.0000    -3.5680    78.2010     5.8590     7.2560     5.8080     2.2650 
  203.1250    -3.5680    77.4700     5.6660     7.0650     4.7640     2.2590 
  203.2500    -3.5680    76.0410     5.5100     6.9020     3.9080     2.2620 
  203.3750    -3.5680    75.9780     5.4000     6.7910     4.0290     2.2590 
  203.5000    -3.5680    75.6820     5.3610     6.7540     4.3990     2.2470 
  203.6250    -3.5680    76.6980     5.4010     6.8020     4.3560     2.2310 
  203.7500    -3.5680    77.3020     5.4880     6.9050     4.5820     2.2410 
  203.8750    -3.5680    77.0350     5.6100     7.0510     5.1380     2.2720 
  204.0000    -3.5680    75.6310     5.7460     7.2250     5.4420     2.2990 
  204.1250    -3.5680    75.5580     5.9130     7.4280     5.5580     2.3090 
  204.2500    -3.5680    76.0710     6.0630     7.6170     5.4640     2.3050 
  204.3750    -3.5680    76.9960     6.1620     7.7420     5.1130     2.2880 
  204.5000    -3.5680    75.9850     6.1880     7.7850     4.6660     2.2700 
  204.6250    -3.5680    75.1700     6.1420     7.7510     4.2260     2.2670 
  204.7500    -3.5680    74.5410     6.1000     7.6990     4.2320     2.2810 
  204.8750    -3.5680    74.7550     6.0680     7.6750     5.2230     2.2990 
  205.0000    -3.5680    74.4970     6.0920     7.7050     6.1550     2.3070 
  205.1250    -3.5680    73.4330     6.1310     7.7700     5.9110     2.2980 
  205.2500    -3.5680    73.5030     6.1760     7.8450     5.5130     2.2840 
  205.3750    -3.5680    73.9140     6.1950     7.9010     5.7390     2.2770 
  205.5000    -3.5680    74.9780     6.1880     7.9280     6.2460     2.2810 
  205.6250    -3.5680    75.2490     6.1840     7.9460     6.8860     2.2910 
  205.7500    -3.5680    75.8000     6.1880     7.9480     8.3900     2.3040 
  205.8750    -3.5680    76.6360     6.1830     7.9340    10.2180     2.3090 
  206.0000    -3.5680    77.1050     6.1760     7.9150    11.0910     2.3060 
  206.1250    -3.5680    77.5620     6.1740     7.8990    10.7390     2.2980 
  206.2500    -3.5680    76.8290     6.1730     7.8900     9.1490     2.3010 
  206.3750    -3.5680    76.2930     6.1740     7.8820     7.8190     2.3150 
  206.5000    -3.5680    75.3410     6.1750     7.8730     7.1810     2.3270 
  206.6250    -3.5680    75.4380     6.1730     7.8620     6.9240     2.3260 
  206.7500    -3.5680    75.6460     6.1760     7.8520     7.2810     2.3160 
  206.8750    -3.5680    75.8130     6.1820     7.8490     8.0790     2.3090 
  207.0000    -3.5680    75.7210     6.1890     7.8550     8.8060     2.3140 
  207.1250    -3.5680    75.7410     6.1920     7.8640     8.7360     2.3310 
  207.2500    -3.5680    75.8320     6.1870     7.8700     8.4980     2.3430 
