~V
VERS. 2.00: Ver 2.00
~W
STRT.M 65.0000:
STOP.M 239.0000:
STEP.M 0.1250:
NULL. -999.2500:
UWI. F10876:
~C
DEPT.M :
TVD. :
DX. :
DY. :
SP.MV :
GR.API :
RI. :
RML.OHMM :
RXO.OHMM :
DEN.GM/CC :
~A
# ...
  128.8750   128.8670    -1.0080    -0.1560     7.6000    48.7150    25.0030    26.6840    21.2100     2.1080 
  129.0000   128.9920    -1.0100    -0.1570     8.1150    51.5180    25.9570    27.4990    25.2790     2.1150 
  129.1250   129.1170    -1.0120    -0.1570     8.3900    51.8490    25.4670    26.9530    26.5050     2.1210 
  129.2500   129.2420    -1.0140    -0.1570     8.5140    49.6050    24.4570    26.0330    26.8960     2.1270 
  129.3750   129.3670    -1.0170    -0.1570     8.4700    47.9260    23.2620    24.9440    26.5630     2.1390 
  129.5000   129.4920    -1.0190    -0.1570     8.1860    48.7090    21.7940    23.5390    23.6520     2.1600 
  129.6250   129.6170    -1.0210    -0.1580     7.7490    51.2110    20.2160    21.9750    20.3340     2.1880 
  129.7500   129.7420    -1.0240    -0.1580     7.3270    55.9090    18.6770    20.4520    19.1070     2.2180 
  129.8750   129.8670    -1.0260    -0.1580     6.9980    60.0360    17.5290    19.3620    20.5010     2.2540 
  130.0000   129.9920    -1.0280    -0.1580     6.6970    57.8550    17.1900    19.1450    22.9630     2.3140 
  130.1250   130.1170    -1.0300    -0.1590     6.3210    51.5460    17.9860    20.1390    25.8220     2.4070 
  130.2500   130.2410    -1.0330    -0.1590     5.8280    48.0180    20.3800    22.8770    32.6880     2.5190 
  130.3750   130.3660    -1.0350    -0.1590     5.2670    50.0240    24.2490    27.2830    45.2180     2.6190 
  130.5000   130.4910    -1.0370    -0.1590     4.7050    52.0910    29.2600    32.9030    58.3460     2.6740 
  130.6250   130.6160    -1.0400    -0.1590     4.2010    50.7600    33.8190    37.8660    64.5980     2.6800 
  130.7500   130.7410    -1.0420    -0.1600     3.8250    48.6030    35.5000    39.4950    61.2390     2.6360 
  130.8750   130.8660    -1.0440    -0.1600     3.6310    49.2010    33.4240    36.9260    52.4650     2.5470 
  131.0000   130.9910    -1.0460    -0.1600     3.6660    50.9470    28.2890    31.1140    42.0380     2.4240 
  131.1250   131.1160    -1.0490    -0.1600     3.8650    52.0960    22.6160    24.8860    32.0070     2.2940 
  131.2500   131.2410    -1.0510    -0.1610     4.1510    52.6550    18.4330    20.4030    24.0160     2.1900 
  131.3750   131.3660    -1.0540    -0.1610     4.4560    51.9380    16.0900    17.9810    19.1690     2.1240 
  131.5000   131.4910    -1.0560    -0.1610     4.7510    49.9120    15.1600    17.1100    17.2580     2.0980 
  131.6250   131.6160    -1.0580    -0.1610     5.0090    48.3800    15.0510    17.1120    16.6470     2.0990 
  131.7500   131.7410    -1.0610    -0.1620     5.1700    50.3770    15.5030    17.6640    15.9100     2.1200 
  131.8750   131.8660    -1.0630    -0.1620     5.2000    53.3580    16.1350    18.3180    16.0440     2.1440 
  132.0000   131.9910    -1.0660    -0.1620     5.0540    55.4710    16.7240    18.8290    17.0790     2.1570 
  132.1250   132.1160    -1.0680    -0.1620     4.6980    56.5800    17.2200    19.1800    17.9780     2.1520 
  132.2500   132.2410    -1.0710    -0.1630     4.0510    55.2910    17.6450    19.4380    18.4510     2.1290 
  132.3750   132.3660    -1.0730    -0.1630     3.0980    51.7870    18.0250    19.6930    19.0870     2.1010 
  132.5000   132.4910    -1.0760    -0.1630     1.8460    49.5960    18.2840    19.8020    20.4470     2.0780 
  132.6250   132.6160    -1.0780    -0.1630     0.4060    50.7410    18.1990    19.3370    21.7710     2.0690 
  132.7500   132.7410    -1.0810    -0.1640    -1.1740    51.5560    17.3380    17.9590    21.6510     2.0790 
  132.8750   132.8660    -1.0830    -0.1640    -2.8840    50.8600    15.5360    15.8150    20.0240     2.1040 
  133.0000   132.9910    -1.0860    -0.1640    -4.7160    53.0280    13.1060    13.3000    16.6990     2.1350 
  133.1250   133.1160    -1.0880    -0.1640    -6.5240    60.8990    10.6810    11.0050    12.1790     2.1580 
  133.2500   133.2410    -1.0910    -0.1640    -8.0660    71.3200     8.8790     9.2920     8.6540     2.1690 
  133.3750   133.3660    -1.0930    -0.1650    -9.1720    79.1040     7.8030     8.1530     7.1940     2.1730 
  133.5000   133.4910    -1.0960    -0.1650    -9.6940    80.3220     7.3840     7.6840     6.8670     2.1710 
  133.6250   133.6160    -1.0990    -0.1650    -9.6730    76.2870     7.4150     7.7280     6.7120     2.1620 
  133.7500   133.7410    -1.1010    -0.1650    -9.1270    70.9470     7.8670     8.2010     6.9020     2.1460 
  133.8750   133.8660    -1.1040    -0.1660    -8.1780    69.0330     8.5990     8.9400     7.7220     2.1290 
  134.0000   133.9910    -1.1060    -0.1660    -6.9460    69.0750     9.3650     9.7100     9.0430     2.1200 
  134.1250   134.1160    -1.1090    -0.1660    -5.6630    67.9250     9.9350    10.2730    10.3500     2.1220 
  134.2500   134.2410    -1.1110    -0.1660    -4.5120    65.6220    10.1670    10.4660    10.9610     2.1300 
  134.3750   134.3660    -1.1140    -0.1660    -3.5240    66.3850    10.1880    10.4300    10.4920     2.1380 
  134.5000   134.4910    -1.1160    -0.1660    -2.6190    69.0720    10.2890    10.4830     9.8750     2.1400 
  134.6250   134.6160    -1.1190    -0.1670    -1.6410    67.9680    10.7520    10.9860    10.9880     2.1330 
  134.7500   134.7410    -1.1210    -0.1670    -0.4790    63.0210    11.8310    12.2560    14.2590     2.1200 
  134.8750   134.8660    -1.1240    -0.1670     0.7830    58.3970    13.5650    14.7570    17.7420     2.1030 
  135.0000   134.9910    -1.1260    -0.1670     1.9510    55.8400    15.6240    17.9890    19.9940     2.0880 
  135.1250   135.1160    -1.1280    -0.1670     2.9240    53.8170    17.4270    20.2710    21.4500     2.0810 
  135.2500   135.2410    -1.1310    -0.1670     3.7220    53.6760    18.5550    21.6090    22.5520     2.0860 
  135.3750   135.3650    -1.1330    -0.1670     4.4530    56.2190    19.0810    22.3000    22.4410     2.0990 
  135.5000   135.4900    -1.1350    -0.1670     5.1780    58.4910    19.4180    22.8310    20.4390     2.1130 
  135.6250   135.6150    -1.1380    -0.1680     5.8870    57.9650    19.8290    23.4600    18.6080     2.1240 
  135.7500   135.7400    -1.1400    -0.1680     6.5550    55.5210    20.2570    24.0860    19.2420     2.1270 
  135.8750   135.8650    -1.1420    -0.1680     7.2140    53.9850    20.5550    24.5330    20.8410     2.1230 
  136.0000   135.9900    -1.1450    -0.1680     7.9040    53.2760    20.6090    24.6620    19.8870     2.1090 
  136.1250   136.1150    -1.1470    -0.1680     8.5850    52.3180    20.4760    24.5340    17.1260     2.0910 
  136.2500   136.2400    -1.1490    -0.1680     9.1380    51.6550    20.2790    24.2890    16.6470     2.0760 
  136.3750   136.3650    -1.1510    -0.1680     9.4670    51.9590    20.2190    24.1640    18.6080     2.0650 
  136.5000   136.4900    -1.1540    -0.1680     9.5200    52.1860    20.5150    24.4260    20.7950     2.0600 
  136.6250   136.6150    -1.1560    -0.1680     9.3340    51.8000    21.2150    25.1270    22.8260     2.0560 
  136.7500   136.7400    -1.1580    -0.1690     8.9010    50.9410    22.1710    26.0950    24.2750     2.0530 
  136.8750   136.8650    -1.1600    -0.1690     8.3040    50.7750    23.0780    26.9930    24.3840     2.0510 
  137.0000   136.9900    -1.1620    -0.1690     7.7040    51.3870    23.7830    27.6580    24.1180     2.0490 
  137.1250   137.1150    -1.1650    -0.1690     7.2660    50.9390    24.3130    28.1400    24.5320     2.0500 
  137.2500   137.2400    -1.1670    -0.1690     7.0200    48.3680    24.7320    28.5300    25.2410     2.0540 
  137.3750   137.3650    -1.1690    -0.1690     6.8160    46.7450    25.0690    28.8800    25.9890     2.0590 
  137.5000   137.4900    -1.1710    -0.1690     6.5050    48.1240    25.0010    28.8200    26.6790     2.0610 
  137.6250   137.6150    -1.1740    -0.1690     6.0590    49.2190    23.9650    27.6560    26.9240     2.0640 
  137.7500   137.7400    -1.1760    -0.1690     5.4780    48.9570    21.8650    25.0620    26.8420     2.0740 
  137.8750   137.8650    -1.1780    -0.1690     4.7660    49.1390    19.0320    21.4800    26.0460     2.0970 
