~V
VERS. 2.00: Ver 2.00
~W
STRT.M 63.0000:
STOP.M 247.0000:
STEP.M 0.1250:
NULL. -999.2500:
UWI. F10865:
~C
DEPT.M :
TVD. :
DX. :
DY. :
SP.MV :
GR.API :
RI. :
RML.OHMM :
RXO.OHMM :
DEN.GM/CC :
~A
# ...
  117.7500   117.7450    -0.7210    -0.0100  -114.1170    71.1950    11.5050    11.5800     9.6600     2.1030 
  117.8750   117.8700    -0.7230    -0.0100  -113.8790    65.2100    11.9610    11.9360    11.6590     2.0970 
  118.0000   117.9950    -0.7250    -0.0090  -113.6050    63.5930    12.4430    12.2880    14.1790     2.0910 
  118.1250   118.1200    -0.7270    -0.0090  -113.2910    65.2730    13.3190    13.0170    16.9990     2.0830 
  118.2500   118.2450    -0.7280    -0.0090  -112.9350    68.4170    14.9250    14.5730    18.6140     2.0770 
  118.3750   118.3700    -0.7300    -0.0090  -112.5500    70.2280    17.5120    17.3230    19.0220     2.0710 
  118.5000   118.4950    -0.7320    -0.0090  -112.1490    69.0640    21.5010    21.7420    20.5250     2.0670 
  118.6250   118.6200    -0.7340    -0.0090  -111.7470    65.4420    27.0060    27.9530    23.3930     2.0740 
  118.7500   118.7450    -0.7360    -0.0090  -111.3620    60.9020    33.5680    35.2940    26.7340     2.1010 
  118.8750   118.8700    -0.7370    -0.0090  -111.0050    56.7280    39.6120    41.9250    27.4520     2.1500 
  119.0000   118.9950    -0.7390    -0.0080  -110.6910    56.8760    43.4690    46.1730    27.9020     2.1970 
  119.1250   119.1200    -0.7410    -0.0080  -110.4270    60.8490    44.5080    47.4100    42.8210     2.2090 
  119.2500   119.2450    -0.7430    -0.0080  -110.2170    63.1030    43.6830    46.7140    55.9710     2.1780 
  119.3750   119.3700    -0.7450    -0.0080  -110.0530    60.9910    42.5550    45.8040    49.2030     2.1250 
  119.5000   119.4950    -0.7460    -0.0080  -109.9320    57.3720    42.2210    45.7320    39.3180     2.0810 
  119.6250   119.6200    -0.7480    -0.0080  -109.8430    56.4330    42.4630    46.1760    36.3110     2.0600 
  119.7500   119.7450    -0.7500    -0.0080  -109.7840    59.7410    42.2840    46.0250    37.6840     2.0520 
  119.8750   119.8700    -0.7520    -0.0080  -109.7540    64.7320    40.7840    44.2310    39.7090     2.0470 
  120.0000   119.9950    -0.7530    -0.0080  -109.7590    67.6800    38.1810    41.1490    37.0980     2.0430 
  120.1250   120.1200    -0.7550    -0.0080  -109.8030    67.0150    35.2580    37.6930    30.5140     2.0440 
  120.2500   120.2450    -0.7570    -0.0080  -109.8890    66.3530    33.0820    35.0890    26.8090     2.0500 
  120.3750   120.3700    -0.7590    -0.0080  -110.0080    65.5160    32.1430    33.8640    28.8230     2.0540 
  120.5000   120.4950    -0.7600    -0.0070  -110.1500    62.7010    32.1550    33.6800    31.7460     2.0530 
  120.6250   120.6200    -0.7620    -0.0070  -110.2960    58.5110    32.6000    33.9510    31.4950     2.0490 
  120.7500   120.7450    -0.7640    -0.0070  -110.4300    54.6050    32.7230    33.8790    29.2470     2.0460 
  120.8750   120.8700    -0.7650    -0.0070  -110.5440    54.4760    32.0230    32.9650    27.1260     2.0490 
  121.0000   120.9950    -0.7670    -0.0070  -110.6310    57.5460    30.0980    30.7600    26.1910     2.0590 
  121.1250   121.1200    -0.7690    -0.0070  -110.6880    62.3980    26.8290    27.2040    26.0200     2.0730 
  121.2500   121.2450    -0.7710    -0.0070  -110.7090    65.6420    22.9610    23.1070    24.0060     2.0870 
  121.3750   121.3700    -0.7720    -0.0070  -110.6900    67.6770    19.4440    19.4480    18.8870     2.0940 
  121.5000   121.4950    -0.7740    -0.0070  -110.6230    69.9620    17.0360    17.0420    14.6310     2.0910 
  121.6250   121.6200    -0.7760    -0.0070  -110.5120    71.5070    16.5640    16.6980    16.1090     2.0780 
  121.7500   121.7450    -0.7770    -0.0070  -110.3600    69.3470    18.1490    18.5110    21.4800     2.0630 
  121.8750   121.8700    -0.7790    -0.0070  -110.1810    63.2620    21.7190    22.4360    25.7810     2.0510 
  122.0000   121.9950    -0.7810    -0.0070  -109.9860    57.3320    26.8100    27.8500    28.2080     2.0430 
  122.1250   122.1200    -0.7820    -0.0070  -109.7920    56.1000    32.6540    33.8970    30.8180     2.0360 
  122.2500   122.2450    -0.7840    -0.0070  -109.6170    59.1080    37.7980    39.0700    34.2730     2.0310 
  122.3750   122.3700    -0.7860    -0.0070  -109.4730    60.4260    41.5960    42.7620    37.6380     2.0330 
  122.5000   122.4950    -0.7870    -0.0070  -109.3670    57.8650    43.6640    44.7570    38.5980     2.0400 
  122.6250   122.6200    -0.7890    -0.0070  -109.2970    54.7450    43.9270    45.0420    37.0830     2.0470 
  122.7500   122.7450    -0.7910    -0.0070  -109.2550    54.7160    42.8860    44.1290    40.3330     2.0480 
  122.8750   122.8700    -0.7920    -0.0070  -109.2280    56.8390    41.0030    42.4820    49.9400     2.0440 
  123.0000   122.9950    -0.7940    -0.0060  -109.2050    57.6890    38.9400    40.7090    52.6610     2.0420 
  123.1250   123.1200    -0.7960    -0.0060  -109.1800    57.3150    37.2650    39.3230    44.8430     2.0470 
  123.2500   123.2450    -0.7970    -0.0060  -109.1520    56.8210    36.2620    38.6340    40.1000     2.0530 
  123.3750   123.3700    -0.7990    -0.0060  -109.1270    56.4360    36.5330    39.3030    41.3480     2.0590 
  123.5000   123.4950    -0.8010    -0.0060  -109.1060    55.9540    38.3550    41.5090    39.8070     2.0760 
  123.6250   123.6200    -0.8020    -0.0060  -109.0870    56.1190    42.3520    46.1560    37.3890     2.1370 
  123.7500   123.7450    -0.8040    -0.0060  -109.0600    57.9820    49.1410    54.1510    39.1450     2.2530 
  123.8750   123.8700    -0.8060    -0.0060  -109.0150    59.7020    58.1640    64.8650    43.8010     2.4010 
  124.0000   123.9940    -0.8070    -0.0060  -108.9400    60.4980    65.9170    74.3150    50.0700     2.5230 
  124.1250   124.1190    -0.8090    -0.0060  -108.8320    60.1830    69.9230    79.4830    60.2530     2.5610 
  124.2500   124.2440    -0.8110    -0.0060  -108.6890    58.8410    69.4300    79.1920    75.0690     2.5130 
  124.3750   124.3690    -0.8120    -0.0060  -108.5220    57.5270    63.2430    72.0860    78.1740     2.4060 
  124.5000   124.4940    -0.8140    -0.0060  -108.3420    57.5140    53.2110    60.3980    58.5580     2.2890 
  124.6250   124.6190    -0.8160    -0.0060  -108.1660    57.4900    42.2680    47.7390    37.9640     2.1990 
  124.7500   124.7440    -0.8170    -0.0060  -108.0090    56.5190    33.1410    37.3210    32.1870     2.1420 
  124.8750   124.8690    -0.8190    -0.0060  -107.8810    57.2830    29.2350    32.9570    33.9630     2.1050 
  125.0000   124.9940    -0.8210    -0.0060  -107.7910    58.3810    29.8990    33.8180    35.2500     2.0730 
  125.1250   125.1190    -0.8220    -0.0060  -107.7420    57.6360    33.4460    38.0580    37.7820     2.0430 
  125.2500   125.2440    -0.8240    -0.0060  -107.7400    57.0790    38.5620    44.0130    44.4400     2.0240 
  125.3750   125.3690    -0.8260    -0.0060  -107.7810    58.6530    42.1950    47.8600    45.2330     2.0200 
  125.5000   125.4940    -0.8270    -0.0060  -107.8620    60.3270    42.1140    47.2420    36.5090     2.0290 
  125.6250   125.6190    -0.8290    -0.0060  -107.9670    59.6510    37.9260    41.8580    29.8410     2.0450 
  125.7500   125.7440    -0.8310    -0.0060  -108.0800    58.2050    31.3360    34.1730    27.3930     2.0640 
  125.8750   125.8690    -0.8330    -0.0060  -108.1810    57.9430    25.6570    27.8070    23.0560     2.0800 
  126.0000   125.9940    -0.8340    -0.0060  -108.2490    59.3980    21.2400    22.6180    17.9940     2.0940 
  126.1250   126.1190    -0.8360    -0.0060  -108.2710    63.1110    17.5690    18.4720    14.9570     2.1070 
  126.2500   126.2440    -0.8380    -0.0060  -108.2370    67.1930    14.7050    15.3500    12.5490     2.1220 
  126.3750   126.3690    -0.8390    -0.0060  -108.1540    69.9040    13.0230    13.8270     9.8240     2.1350 
  126.5000   126.4940    -0.8410    -0.0060  -108.0350    71.1010    12.4440    13.6930     8.5280     2.1400 
  126.6250   126.6190    -0.8430    -0.0060  -107.9020    72.0880    13.1440    14.7940    10.3230     2.1350 
  126.7500   126.7440    -0.8440    -0.0060  -107.7730    72.8310    14.8780    17.0710    13.4520     2.1250 
