~V
VERS. 2.00: Ver 2.00
~W
STRT.M 40.0000:
STOP.M 213.0000:
STEP.M 0.1250:
NULL. -999.2500:
UWI. F10805:
~C
DEPT.M :
SP.MV :
GR.API :
RI. :
RML.OHMM :
RXO.OHMM :
DEN.GM/CC :
~A
   40.0000   120.8780    39.5660     0.1020     0.2430     0.0880     2.0690 
   40.1250   119.4530    43.6890     0.1020     0.2450     0.1130     2.0740 
   40.2500   118.7100    47.7780     0.1020     0.2460     0.1050     2.0950 
   40.3750   117.9950    49.7590     0.1030     0.2440     0.0830     2.1240 
   40.5000   116.7750    51.2550     0.1030     0.2350     0.0730     2.1470 
   40.6250   114.9440    52.7170     0.1030     0.2240     0.0710     2.1750 
   40.7500   112.3070    54.4810     0.1030     0.2200     0.0700     2.1930 
   40.8750   109.5290    54.1370     0.0970     0.2240     0.0710     2.2100 
   41.0000   107.0930    51.7750     0.0950     0.2270     0.0710     2.2350 
   41.1250   105.0760    48.1020     0.0950     0.2290     0.0710     2.2760 
   41.2500   103.5510    44.6790     0.0870     0.2320     0.0720     2.3130 
   41.3750   102.5860    41.3070     0.0910     0.2290     0.0730     2.3320 
   41.5000   102.0840    39.1740     0.0830     0.2300     0.0730     2.3330 
   41.6250   102.0380    37.4580     0.0760     0.2300     0.0740     2.3190 
   41.7500   102.4140    36.8650     0.0800     0.2280     0.0770     2.3040 
   41.8750   103.1230    36.2270     0.0760     0.2280     0.0810     2.2880 
   42.0000   104.0460    36.5690     0.0840     0.2330     0.0830     2.2740 
   42.1250   104.9980    36.5680     0.0940     0.2380     0.0840     2.2690 
   42.2500   106.0510    37.2420     0.0960     0.2420     0.0870     2.2780 
   42.3750   107.0450    37.2010     0.1020     0.2460     0.1030     2.3030 
   42.5000   108.1240    37.5140     0.0920     0.2450     0.1320     2.3260 
   42.6250   109.3300    37.1630     0.0890     0.2410     0.1930     2.3480 
   42.7500   110.5800    37.2690     0.0850     0.2370     0.2630     2.3600 
   42.8750   111.4010    37.1770     0.0860     0.2290     0.2580     2.3720 
   43.0000   111.5510    37.3050     0.0920     0.2230     0.2500     2.3700 
   43.1250   110.9770    35.9550     0.0880     0.2230     0.2970     2.3710 
   43.2500   110.0200    34.4220     0.0950     0.2290     0.2790     2.3680 
   43.3750   109.0290    33.5910     0.0930     0.2380     0.2080     2.3700 
   43.5000   108.2510    34.6360     0.0950     0.2400     0.1510     2.3730 
   43.6250   107.7500    36.0560     0.0960     0.2390     0.1120     2.3630 
   43.7500   107.3370    37.2270     0.0960     0.2340     0.1030     2.3460 
   43.8750   107.0410    37.3210     0.1020     0.2350     0.1080     2.3230 
   44.0000   106.7550    36.8630     0.1030     0.2320     0.1150     2.3160 
   44.1250   106.6300    36.0850     0.1030     0.2290     0.1350     2.3250 
   44.2500   106.6650    35.3360     0.1040     0.2340     0.1700     2.3290 
   44.3750   106.8140    34.3370     0.1040     0.2470     0.3000     2.3630 
   44.5000   106.8860    33.2850     0.1050     0.2670     0.4860     2.4550 
   44.6250   106.8650    32.8110     0.1050     0.2810     0.5860     2.5790 
   44.7500   106.9720    33.1160     0.1020     0.2880     0.6290     2.6090 
   44.8750   107.2470    33.4680     0.0970     0.2870     0.6280     2.5130 
   45.0000   107.6450    33.7100     0.0960     0.2780     0.6220     2.3950 
   45.1250   107.9960    34.0140     0.0940     0.2660     0.6450     2.3350 
   45.2500   108.2970    34.4330     0.1000     0.2560     0.6350     2.3250 
   45.3750   108.4450    35.4650     0.1000     0.2560     0.6120     2.3230 
   45.5000   108.4810    36.4910     0.1000     0.2600     0.6080     2.3200 
   45.6250   108.5580    36.9990     0.1000     0.2640     0.6200     2.3220 
   45.7500   108.7810    36.0450     0.1000     0.2660     0.6340     2.3220 
   45.8750   109.0530    34.6490     0.1000     0.2650     0.6270     2.3170 
   46.0000   109.2330    34.4870     0.0990     0.2630     0.6380     2.3080 
   46.1250   109.2910    35.3330     0.0990     0.2620     0.6750     2.3020 
   46.2500   109.3120    36.5760     0.0990     0.2620     0.6740     2.3030 
   46.3750   109.3330    36.6400     0.1000     0.2620     0.6390     2.3010 
   46.5000   109.2690    36.4520     0.1000     0.2610     0.6410     2.2910 
   46.6250   109.2410    36.0990     0.1000     0.2610     0.6670     2.2780 
   46.7500   109.3620    36.3590     0.1000     0.2650     0.6490     2.2700 
   46.8750   109.7360    36.6820     0.1000     0.2670     0.6090     2.2720 
   47.0000   110.2280    37.2760     0.1000     0.2690     0.6340     2.2700 
   47.1250   110.6560    37.5620     0.1000     0.2730     0.7320     2.2560 
   47.2500   110.8740    37.7050     0.1010     0.2700     0.7580     2.2350 
   47.3750   110.7150    37.2020     0.0910     0.2650     0.7120     2.2190 
   47.5000   110.5630    36.5280     0.0860     0.2540     0.7180     2.2030 
   47.6250   110.7020    36.4440     0.0800     0.2430     0.7460     2.1980 
   47.7500   111.1540    37.1610     0.0820     0.2380     0.7590     2.1950 
   47.8750   111.9210    38.7780     0.0830     0.2340     0.7790     2.2070 
   48.0000   113.0200    39.7490     0.0850     0.2270     0.8130     2.2180 
   48.1250   114.3670    39.2350     0.0930     0.2250     0.8460     2.2280 
   48.2500   115.6460    38.9150     0.0970     0.2260     0.8460     2.2290 
   48.3750   116.3820    39.5330     0.1020     0.2260     0.8480     2.2270 
   48.5000   116.4440    40.9010     0.1030     0.2270     0.8890     2.2200 
   48.6250   116.0780    40.8640     0.1030     0.2170     0.9540     2.2170 
   48.7500   115.6820    39.8720     0.1030     0.2110     0.9930     2.2130 
   48.8750   115.4230    38.4520     0.1020     0.2090     0.9520     2.2180 
   49.0000   115.2020    37.1170     0.1020     0.2090     0.9080     2.2250 
   49.1250   115.0720    36.3480     0.1020     0.2100     0.9300     2.2420 
   49.2500   114.6840    35.8890     0.1020     0.2050     0.9420     2.2530 
   49.3750   113.7170    36.0520     0.1020     0.2020     0.9830     2.2530 
   49.5000   112.7660    36.0280     0.1020     0.2020     1.0570     2.2400 
   49.6250   112.1840    35.7180     0.1000     0.2020     0.9950     2.2430 
   49.7500   111.6660    35.1390     0.0980     0.1940     0.8580     2.2650 
   49.8750   111.0340    34.8620     0.1070     0.1790     0.7020     2.2950 
   50.0000   110.1540    35.1060     0.1150     0.1610     0.4760     2.3070 
   50.1250   109.1260    34.7360     0.1280     0.1520     0.3270     2.3050 
   50.2500   108.1580    33.1570     0.1340     0.1510     0.2970     2.3000 
   50.3750   107.2940    31.6690     0.1340     0.1520     0.3000     2.2920 
   50.5000   106.6440    31.6250     0.1310     0.1530     0.3050     2.2760 
   50.6250   106.1950    32.8390     0.1220     0.1570     0.2940     2.2480 
   50.7500   106.1300    35.1770     0.1130     0.1640     0.2830     2.2170 
   50.8750   106.5810    36.8870     0.1030     0.1750     0.2570     2.1900 
   51.0000   107.3550    37.9940     0.1010     0.1830     0.2150     2.1720 
   51.1250   107.9470    38.1280     0.1010     0.1870     0.2030     2.1660 
   51.2500   108.3670    38.6650     0.1010     0.1840     0.2100     2.1740 
   51.3750   108.9740    38.7270     0.1010     0.1770     0.2020     2.1990 
   51.5000   109.5820    37.8160     0.1050     0.1690     0.1890     2.2240 
   51.6250   110.1100    35.2620     0.1050     0.1640     0.1820     2.2410 
   51.7500   110.2680    32.7910     0.1040     0.1610     0.1730     2.2460 
   51.8750   110.1110    30.7840     0.1040     0.1610     0.1600     2.2520 
   52.0000   109.7270    30.3890     0.1010     0.1600     0.1460     2.2720 
   52.1250   109.1510    31.5480     0.1010     0.1570     0.1360     2.3010 
   52.2500   108.3140    33.7840     0.1010     0.1540     0.1260     2.3260 
   52.3750   107.2700    35.1790     0.1010     0.1510     0.1250     2.3310 
   52.5000   106.0090    34.5320     0.1090     0.1490     0.1360     2.3230 
   52.6250   104.5700    33.6340     0.1180     0.1480     0.1410     2.3150 
   52.7500   103.2200    33.8560     0.1270     0.1460     0.1340     2.3100 
