~V
VERS. 2.00: Ver 2.00
~W
STRT.M 40.0000:
STOP.M 215.0000:
STEP.M 0.1250:
NULL. -999.2500:
UWI. F10811:
~C
DEPT.M :
SP.MV :
GR.API :
RI. :
RML.OHMM :
RXO.OHMM :
DEN.GM/CC :
~A
# ...
  181.6250    -1.8310    86.9370     6.2470     7.9300     8.0040     2.3110 
  181.7500    -1.6510    83.2420     6.2150     7.9320     6.8870     2.2970 
  181.8750    -1.5460    78.9960     6.2260     7.9410     5.7950     2.2660 
  182.0000    -1.5480    75.9100     6.3850     8.0720     5.9760     2.2590 
  182.1250    -1.6570    75.2600     6.7370     8.4660     7.4580     2.2820 
  182.2500    -1.8310    77.2530     7.2060     8.9850     8.3900     2.3100 
  182.3750    -2.0260    82.4820     7.6510     9.4940     7.7300     2.3300 
  182.5000    -2.1910    88.4310     8.0420     9.8800     6.8250     2.3340 
  182.6250    -2.2930    92.1160     8.1950    10.0090     7.0900     2.3090 
  182.7500    -2.3240    92.7670     8.1360     9.8870     8.3130     2.2630 
  182.8750    -2.2650    90.8790     7.9030     9.5890    10.0570     2.2330 
  183.0000    -2.1160    88.1000     7.6270     9.2600    13.5510     2.2280 
  183.1250    -1.8600    84.7130     7.3810     8.9630    16.5260     2.2380 
  183.2500    -1.5190    81.4610     7.1840     8.7320    13.7700     2.2510 
  183.3750    -1.1510    78.8540     7.0480     8.5760     8.6920     2.2700 
  183.5000    -0.8410    77.0020     6.9490     8.4720     7.0910     2.2940 
  183.6250    -0.6400    75.7870     6.9400     8.4540     7.2550     2.3110 
  183.7500    -0.5060    74.6250     6.9690     8.4690     7.2770     2.3160 
  183.8750    -0.3840    72.4940     6.9970     8.4640     7.6680     2.3120 
  184.0000    -0.2590    70.8400     7.0140     8.4430     7.8860     2.3120 
  184.1250    -0.1470    69.6880     7.0200     8.4220     7.5940     2.3190 
  184.2500    -0.0430    70.0290     7.0340     8.4190     7.4110     2.3260 
  184.3750     0.0640    71.4000     7.0580     8.4380     7.4650     2.3320 
  184.5000     0.1550    73.4020     7.0960     8.4710     7.4400     2.3350 
  184.6250     0.2080    74.6750     7.1430     8.5190     7.4140     2.3330 
  184.7500     0.2320    73.8110     7.1920     8.5680     7.6500     2.3330 
  184.8750     0.2420    73.0130     7.2270     8.6020     7.9210     2.3430 
  185.0000     0.2350    72.5300     7.2360     8.6000     7.9620     2.3590 
  185.1250     0.1930    72.0220     7.2050     8.5600     7.9500     2.3660 
  185.2500     0.1140    70.3860     7.1590     8.5070     8.0010     2.3560 
  185.3750    -0.0110    71.0280     7.1100     8.4590     7.9320     2.3380 
  185.5000    -0.1950    75.5030     7.0800     8.4450     7.5090     2.3310 
  185.6250    -0.4440    81.5890     7.1160     8.4870     7.0340     2.3350 
  185.7500    -0.7170    85.9120     7.1880     8.5650     7.1140     2.3330 
  185.8750    -0.9520    88.5400     7.2610     8.6400     7.4110     2.3190 
  186.0000    -1.1010    89.9510     7.3030     8.6650     7.6700     2.3080 
  186.1250    -1.1070    88.8400     7.2850     8.6200     8.1940     2.3160 
  186.2500    -0.9600    85.9940     7.2390     8.5320     8.4100     2.3320 
  186.3750    -0.6970    82.1860     7.1900     8.4420     8.4470     2.3410 
  186.5000    -0.4330    81.2950     7.1870     8.4090     8.1780     2.3380 
  186.6250    -0.2610    81.6250     7.2670     8.4750     7.1470     2.3380 
  186.7500    -0.1920    83.7620     7.4120     8.6070     6.9310     2.3480 
  186.8750    -0.2110    84.5200     7.5850     8.7750     7.7670     2.3600 
  187.0000    -0.2960    84.9340     7.7390     8.9030     8.4350     2.3490 
  187.1250    -0.4120    84.4060     7.7380     8.8670     9.4070     2.3280 
  187.2500    -0.4910    84.5820     7.5430     8.6300    10.8910     2.3210 
  187.3750    -0.4860    84.7000     7.1710     8.1960    11.4050     2.3360 
  187.5000    -0.4170    82.7160     6.6870     7.6530    10.0840     2.3530 
  187.6250    -0.3280    79.3310     6.2130     7.1300     7.8870     2.3600 
  187.7500    -0.2630    74.5900     5.8890     6.7670     6.7470     2.3540 
  187.8750    -0.2650    71.9010     5.7730     6.6470     6.7220     2.3480 
  188.0000    -0.3430    70.1170     5.9030     6.8070     6.0620     2.3440 
  188.1250    -0.4900    73.1330     6.3440     7.3190     4.8650     2.3500 
  188.2500    -0.6720    79.1540     7.0400     8.0580     5.0160     2.3500 
  188.3750    -0.8500    85.6020     7.7180     8.7700     9.8030     2.3480 
  188.5000    -0.9830    88.6070     8.1150     9.1260    16.1450     2.3420 
  188.6250    -1.0310    88.2900     7.8930     8.8740    14.7180     2.3350 
  188.7500    -0.9760    86.7900     7.2920     8.1830     8.0370     2.3170 
  188.8750    -0.8240    83.2900     6.4590     7.3030     4.5630     2.2880 
  189.0000    -0.6360    79.8780     5.7850     6.5780     4.5200     2.2550 
  189.1250    -0.4640    77.0840     5.3200     6.1170     5.9540     2.2530 
  189.2500    -0.2940    76.4300     5.0380     5.8790     7.1940     2.2810 
  189.3750    -0.1020    74.7750     5.0160     5.8820     6.5860     2.3180 
  189.5000     0.0630    72.4170     5.1650     6.0580     5.5720     2.3200 
  189.6250     0.1180    70.9540     5.4610     6.4050     6.5230     2.2920 
  189.7500     0.0490    72.2730     5.9020     6.9360    20.4300     2.2630 
  189.8750    -0.0970    74.7300     6.5240     7.6170    50.6130     2.2630 
  190.0000    -0.2530    77.1220     7.0890     8.2050    58.1950     2.2990 
  190.1250    -0.3780    79.3940     7.4050     8.5050    31.0470     2.3490 
  190.2500    -0.4750    80.7420     7.4580     8.4790    12.0080     2.3770 
  190.3750    -0.5650    79.0450     7.1690     8.1520    10.7150     2.3650 
  190.5000    -0.6620    76.0090     6.8200     7.7640    10.4200     2.3430 
  190.6250    -0.7570    72.9700     6.5180     7.4710     8.5880     2.3410 
  190.7500    -0.8410    72.2120     6.3190     7.3210     7.2720     2.3540 
  190.8750    -0.9300    71.3360     6.2770     7.3420     6.9790     2.3560 
  191.0000    -1.0470    71.7430     6.3400     7.4620     6.8090     2.3390 
  191.1250    -1.1940    72.9150     6.4450     7.6050     6.6630     2.3140 
  191.2500    -1.3300    75.3260     6.5820     7.7720     6.6340     2.3030 
  191.3750    -1.4090    77.0790     6.7910     8.0050     6.8810     2.3060 
  191.5000    -1.4400    78.1690     7.0430     8.2790     7.5090     2.3110 
  191.6250    -1.4680    79.6460     7.3280     8.5940     8.6410     2.3120 
  191.7500    -1.5140    81.2550     7.6380     8.9220     9.6370     2.3120 
  191.8750    -1.5390    82.8970     7.9250     9.2130    10.1290     2.3140 
  192.0000    -1.5030    83.9210     8.1500     9.4230    11.0870     2.3190 
  192.1250    -1.4090    85.6460     8.2420     9.5020    11.8480     2.3330 
  192.2500    -1.2940    86.6780     8.2240     9.4480    11.6180     2.3510 
  192.3750    -1.1610    85.9310     8.0460     9.2260    11.4220     2.3450 
  192.5000    -0.9930    83.6130     7.7300     8.8580    11.0750     2.3340 
  192.6250    -0.7740    81.2280     7.3050     8.3830     9.8820     2.3470 
  192.7500    -0.5240    79.6570     6.8730     7.9130     8.4690     2.3810 
  192.8750    -0.2750    78.1290     6.5520     7.5790     8.0500     2.4090 
  193.0000    -0.0340    75.6300     6.3840     7.4150     8.8500     2.4050 
  193.1250     0.1990    71.6950     6.3650     7.4110     8.9410     2.3670 
  193.2500     0.4180    69.5090     6.4380     7.5030     7.7060     2.3150 
  193.3750     0.6090    68.9920     6.5650     7.6340     7.2060     2.2810 
  193.5000     0.7540    70.1590     6.7040     7.7640     7.2160     2.2740 
  193.6250     0.8420    71.8810     6.8350     7.8900     6.6390     2.2840 
  193.7500     0.9180    73.9440     6.9670     8.0100     6.3650     2.2990 
  193.8750     1.0320    75.3940     7.0510     8.1010     6.6060     2.3120 
  194.0000     1.1770    74.6890     7.0860     8.1420     6.9520     2.3260 
  194.1250     1.3170    73.4580     7.0620     8.1240     6.9860     2.3430 
  194.2500     1.4520    72.1360     6.9930     8.0620     7.0970     2.3610 
  194.3750     1.6320    71.7010     6.9320     8.0160     8.4320     2.3670 
