~V
VERS. 2.00: Ver 2.00
~W
STRT.M 40.0000:
STOP.M 205.0000:
STEP.M 0.1250:
NULL. -999.2500:
UWI. F10810:
~C
DEPT.M :
SP.MV :
GR.API :
RI. :
RML.OHMM :
RXO.OHMM :
DEN.GM/CC :
~A
   40.0000   140.4580    48.5160     0.0380     0.6400     4.1140     2.2290 
   40.1250   140.3530    50.7490     0.0380     0.6400     4.9560     2.2120 
   40.2500   140.3250    54.3240     0.0380     0.6320     2.9550     2.1870 
   40.3750   140.3540    56.1250     0.0380     0.6230    -7.3960     2.1680 
   40.5000   140.4010    59.0840     0.0380     0.6130   -15.9040     2.1720 
   40.6250   140.4200    61.6640     0.0380     0.6160    -5.3720     2.1860 
   40.7500   140.3690    63.5040     0.0380     0.6290     7.5470     2.2040 
   40.8750   140.1960    62.4420     0.0380     0.6450     6.1140     2.2170 
   41.0000   139.8750    61.5530     0.0380     0.6660     0.4870     2.2270 
   41.1250   139.3650    60.5350     0.0380     0.7170    -0.6090     2.2330 
   41.2500   138.6670    59.1110     0.0380     0.7740     0.1200     2.2370 
   41.3750   137.7650    56.5160     0.0380     0.8230     0.2410     2.2420 
   41.5000   136.6980    54.1300     0.0380     0.8360     0.2590     2.2570 
   41.6250   135.5050    54.3170     0.0380     0.7840     0.1890     2.2730 
   41.7500   134.2640    55.7800     0.0380     0.7200     0.2650     2.2870 
   41.8750   133.0590    58.5210     0.0380     0.6580     0.2430     2.2800 
   42.0000   131.9600    61.1980     0.0380     0.6180     0.1350     2.2660 
   42.1250   131.0260    63.8040     0.0390     0.6020     0.1080     2.2520 
   42.2500   130.2610    65.6030     0.0390     0.5920     0.0510     2.2490 
   42.3750   129.6640    64.7620     0.0390     0.5910    -0.0150     2.2430 
   42.5000   129.1890    62.1060     0.0390     0.5960    -0.0030     2.2320 
   42.6250   128.8120    57.0190     0.0390     0.6050     0.0080     2.2300 
   42.7500   128.5000    52.0040     0.0380     0.6130    -0.0760     2.2530 
   42.8750   128.2490    47.7690     0.0380     0.6180    -0.1220     2.2940 
   43.0000   128.0560    44.8890     0.0380     0.6230    -0.0650     2.3230 
   43.1250   127.9380    43.5360     0.0380     0.6230     0.1980     2.3340 
   43.2500   127.9020    42.9040     0.0390     0.6280     0.4370     2.3190 
   43.3750   127.9690    42.3820     0.0400     0.6240     0.2290     2.2840 
   43.5000   128.1440    41.3330     0.0410     0.6280    -0.0290     2.2670 
   43.6250   128.4510    40.4200     0.0410     0.6470    -0.0860     2.3310 
   43.7500   128.9000    40.4680     0.0400     0.6650    -0.1270     2.4470 
   43.8750   129.5260    41.2870     0.0400     0.6720    -0.1380     2.4970 
   44.0000   130.3350    42.7690     0.0390     0.6530    -0.1430     2.4430 
   44.1250   131.3490    43.3980     0.0380     0.6180    -0.1740     2.3550 
   44.2500   132.5440    43.3450     0.0380     0.5920    -0.1990     2.3080 
   44.3750   133.9060    41.7020     0.0390     0.5860    -0.2360     2.2960 
   44.5000   135.3900    39.7880     0.0390     0.5940    -0.2570     2.2890 
   44.6250   136.9680    38.8320     0.0390     0.6020    -0.2420     2.2800 
   44.7500   138.6080    38.6590     0.0390     0.6010    -0.2480     2.2700 
   44.8750   140.2950    38.6320     0.0390     0.5970    -0.2540     2.2470 
   45.0000   142.0210    37.3390     0.0390     0.5940    -0.1730     2.2240 
   45.1250   143.7890    35.3910     0.0390     0.5990    -0.0400     2.2060 
   45.2500   145.6010    33.8970     0.0390     0.6050     0.0220     2.1970 
   45.3750   147.4690    34.1630     0.0390     0.6020     0.0220     2.1910 
   45.5000   149.3890    36.0770     0.0390     0.5940     0.0220     2.1850 
   45.6250   151.3540    37.6930     0.0390     0.5920     0.0220     2.1790 
   45.7500   153.3340    38.1300     0.0390     0.6030     0.0210     2.1830 
   45.8750   155.2900    36.8400     0.0390     0.6120     0.0190     2.1920 
   46.0000   157.1810    35.0390     0.0390     0.6090     0.0190     2.1960 
   46.1250   158.9620    33.9940     0.0390     0.5970     0.0200     2.1940 
   46.2500   160.6140    33.5810     0.0390     0.5870     0.0210     2.1950 
   46.3750   162.1070    33.5160     0.0390     0.5870     0.0210     2.2120 
   46.5000   163.4440    33.9790     0.0390     0.6050     0.0200     2.2380 
   46.6250   164.6040    34.7720     0.0390     0.6260     0.0210     2.2620 
   46.7500   165.5930    36.2300     0.0390     0.6280     0.0210     2.2740 
   46.8750   166.3900    38.1800     0.0390     0.6200     0.0200     2.2680 
   47.0000   167.0090    39.4160     0.0390     0.5940     0.0190     2.2530 
   47.1250   167.4480    39.6820     0.0390     0.5820     0.0210     2.2370 
   47.2500   167.7430    38.7970     0.0390     0.5890     0.0240     2.2370 
   47.3750   167.9250    37.5250     0.0390     0.5950     0.0240     2.2500 
   47.5000   168.0490    36.5900     0.0390     0.6010     0.0240     2.2650 
   47.6250   168.1660    35.4740     0.0370     0.6050     0.0270     2.2600 
   47.7500   168.3190    34.5020     0.0300     0.6110     0.0290     2.2470 
   47.8750   168.5500    33.4070     0.0300     0.6140     0.0280     2.2360 
   48.0000   168.8750    33.2310     0.0300     0.6130     0.0280     2.2350 
   48.1250   169.3110    33.4400     0.0370     0.6060     0.0280     2.2350 
   48.2500   169.8500    34.5050     0.0390     0.5980     0.0210     2.2350 
   48.3750   170.4920    36.2290     0.0390     0.5870     0.0120     2.2350 
   48.5000   171.2190    38.1770     0.0390     0.5390     0.0140     2.2430 
   48.6250   172.0280    39.2590     0.0460     0.4500     0.0210     2.2590 
   48.7500   172.9010    39.2560     0.0580     0.3610     0.0230     2.2740 
   48.8750   173.8350    37.8740     0.0690     0.2840     0.0210     2.2780 
   49.0000   174.8160    37.0570     0.0810     0.2460     0.0190     2.2780 
   49.1250   175.8380    36.9610     0.0810     0.2370     0.0190     2.2860 
   49.2500   176.8860    37.3690     0.0810     0.2320     0.0190     2.3030 
   49.3750   177.9480    36.6770     0.0810     0.2340     0.0190     2.3190 
   49.5000   179.0080    35.3560     0.0820     0.2460     0.0180     2.3210 
   49.6250   180.0540    33.9660     0.0820     0.2500     0.0180     2.3180 
   49.7500   181.0720    33.6110     0.0820     0.2500     0.0190     2.3090 
   49.8750   182.0310    34.9490     0.0820     0.2430     0.0200     2.3020 
   50.0000   182.8850    36.6150     0.0820     0.2320     0.0270     2.2880 
   50.1250   183.5270    37.1430     0.0820     0.2270     0.0370     2.2750 
   50.2500   183.8500    36.8010     0.0820     0.2230     0.0340     2.2650 
   50.3750   183.6780    36.9680     0.0820     0.2180     0.0260     2.2590 
   50.5000   182.9220    38.5870     0.0820     0.2100     0.0240     2.2540 
   50.6250   181.4480    40.6920     0.0890     0.2050     0.0250     2.2590 
   50.7500   179.2990    41.9870     0.1000     0.1980     0.0250     2.2780 
   50.8750   176.4990    41.9800     0.1120     0.1920     0.0230     2.3040 
   51.0000   173.2440    41.5900     0.1150     0.1870     0.0230     2.3250 
   51.1250   169.7210    42.8690     0.1110     0.1860     0.0230     2.3250 
   51.2500   166.1740    45.4490     0.1110     0.1900     0.0220     2.3100 
   51.3750   162.8200    47.8320     0.1130     0.1960     0.0220     2.2920 
   51.5000   159.7800    47.4130     0.1240     0.1950     0.0220     2.2950 
   51.6250   157.1380    45.6510     0.1240     0.1820     0.0230     2.3140 
   51.7500   154.8360    43.4820     0.1240     0.1790     0.0250     2.3310 
   51.8750   152.8060    42.9840     0.1250     0.1740     0.0270     2.3290 
   52.0000   150.9090    42.4350     0.1260     0.1730     0.0250     2.3210 
   52.1250   149.0210    40.8140     0.1260     0.1790     0.0210     2.3240 
   52.2500   147.0230    37.6110     0.1270     0.1730     0.0200     2.3370 
   52.3750   144.7960    35.4060     0.1280     0.1740     0.0210     2.3530 
   52.5000   142.2670    35.1960     0.1280     0.1780     0.0220     2.3610 
   52.6250   139.3300    36.7280     0.1280     0.1780     0.0220     2.3710 
   52.7500   135.9430    38.0480     0.1270     0.1820     0.0210     2.3840 
