~V
VERS. 2.00: Ver 2.00
~W
STRT.M 63.0000:
STOP.M 236.0000:
STEP.M 0.1250:
NULL. -999.2500:
UWI. F10859:
~C
DEPT.M :
TVD. :
DX. :
DY. :
SP.MV :
GR.API :
RI. :
RML.OHMM :
RXO.OHMM :
DEN.GM/CC :
~A
# ...
  218.1250   218.1080    -2.1580     0.5810   -11.5700    37.6350     2.4160     3.0430     3.3520     2.3230 
  218.2500   218.2330    -2.1600     0.5810   -11.5550    36.4420     2.3480     2.9490     3.1350     2.3200 
  218.3750   218.3580    -2.1610     0.5820   -11.5480    34.7230     2.2840     2.8650     3.0640     2.3150 
  218.5000   218.4830    -2.1630     0.5820   -11.5520    32.4430     2.2440     2.8160     3.0670     2.3120 
  218.6250   218.6080    -2.1650     0.5830   -11.5740    31.5430     2.2370     2.8080     3.1090     2.3110 
  218.7500   218.7330    -2.1660     0.5830   -11.6200    31.6240     2.2780     2.8550     3.2340     2.3150 
  218.8750   218.8580    -2.1680     0.5830   -11.6890    33.0850     2.3750     2.9690     3.5570     2.3270 
  219.0000   218.9830    -2.1700     0.5840   -11.7600    34.5530     2.5380     3.1610     4.1890     2.3480 
  219.1250   219.1080    -2.1710     0.5840   -11.8160    35.1860     2.7490     3.4110     4.9830     2.3760 
  219.2500   219.2330    -2.1730     0.5850   -11.8600    34.7060     2.9780     3.6770     5.6860     2.4040 
  219.3750   219.3580    -2.1740     0.5850   -11.9020    33.7990     3.1680     3.8880     6.1120     2.4210 
  219.5000   219.4830    -2.1760     0.5860   -11.9550    33.2860     3.2460     3.9540     6.2260     2.4230 
  219.6250   219.6080    -2.1780     0.5860   -12.0130    32.6830     3.1840     3.8490     5.9730     2.4140 
  219.7500   219.7330    -2.1790     0.5870   -12.0740    30.8810     2.9920     3.5870     5.0550     2.4000 
  219.8750   219.8580    -2.1810     0.5870   -12.1270    28.5540     2.7400     3.2620     3.8580     2.3820 
  220.0000   219.9830    -2.1820     0.5880   -11.8670    26.8720     2.4980     2.9640     3.1050     2.3610 
  220.1250   220.1080    -2.1840     0.5880    -8.2190    26.3040     2.3070     2.7430     2.8280     2.3400 
  220.2500   220.2330    -2.1860     0.5880     3.9780    26.2640     2.1860     2.6140     2.7440     2.3230 
  220.3750   220.3580    -2.1870     0.5890    25.0230    26.7600     2.1230     2.5530     2.7040     2.3090 
  220.5000   220.4830    -2.1890     0.5890    52.3710    28.2300     2.1030     2.5360     2.6820     2.2990 
  220.6250   220.6080    -2.1900     0.5900    75.4490    29.7040     2.1050     2.5330     2.6570     2.2900 
  220.7500   220.7330    -2.1920     0.5900    89.0990    29.8970     2.1120     2.5320     2.6230     2.2770 
  220.8750   220.8580    -2.1930     0.5900    94.3900    29.5540     2.1180     2.5250     2.5920     2.2580 
  221.0000   220.9830    -2.1950     0.5910    94.8820    29.9250     2.1190     2.5090     2.5670     2.2380 
  221.1250   221.1080    -2.1960     0.5910    94.8820    30.5530     2.1120     2.4840     2.5430     2.2250 
  221.2500   221.2330    -2.1980     0.5920    94.8820    30.3940     2.0990     2.4530     2.5150     2.2190 
  221.3750   221.3580    -2.2000     0.5920    94.8820    28.8330     2.0850     2.4220     2.4840     2.2170 
  221.5000   221.4830    -2.2010     0.5920    94.8820    27.3270     2.0750     2.4010     2.4680     2.2240 
  221.6250   221.6080    -2.2030     0.5930    94.8820    26.1320     2.0750     2.3930     2.4840     2.2410 
  221.7500   221.7330    -2.2040     0.5930    94.8820    25.9080     2.0880     2.4030     2.5340     2.2620 
  221.8750   221.8580    -2.2060     0.5940    94.8820    25.5030     2.1120     2.4290     2.6100     2.2820 
  222.0000   221.9830    -2.2070     0.5940    94.8820    25.6590     2.1450     2.4640     2.7330     2.2950 
  222.1250   222.1080    -2.2090     0.5940    94.8820    27.3060     2.1850     2.5030     2.8710     2.2980 
  222.2500   222.2330    -2.2100     0.5950    94.8820    30.6410     2.2330     2.5460     2.9260     2.2850 
  222.3750   222.3580    -2.2120     0.5950    94.8820    34.1370     2.2920     2.5980     2.9100     2.2580 
  222.5000   222.4830    -2.2130     0.5960    94.8820    36.3620     2.3660     2.6670     2.9530     2.2310 
  222.6250   222.6080    -2.2150     0.5960    94.8820    39.0060     2.4500     2.7480     3.1130     2.2200 
  222.7500   222.7330    -2.2160     0.5960    94.8820    42.1890     2.5280     2.8260     3.3040     2.2260 
  222.8750   222.8580    -2.2180     0.5970    94.8820    44.8330     2.5870     2.8800     3.3820     2.2330 
  223.0000   222.9830    -2.2200     0.5970    94.8820    43.7300     2.6110     2.8910     3.3170     2.2310 
  223.1250   223.1080    -2.2210     0.5980    94.8820    40.8460     2.6070     2.8680     3.2320     2.2280 
  223.2500   223.2330    -2.2230     0.5980    94.8820    38.0520     2.5960     2.8380     3.2250     2.2330 
  223.3750   223.3580    -2.2240     0.5980    94.8820    36.7010     2.6040     2.8350     3.3080     2.2450 
  223.5000   223.4830    -2.2260     0.5990    94.8820    35.7860     2.6490     2.8830     3.4560     2.2600 
  223.6250   223.6080    -2.2270     0.5990    94.8820    35.5080     2.7260     2.9710     3.5860     2.2720 
  223.7500   223.7330    -2.2290     0.5990    94.8820    34.7460     2.8080     3.0670     3.6610     2.2830 
  223.8750   223.8580    -2.2300     0.6000    94.8820    35.0340     2.8640     3.1310     3.7220     2.2930 
  224.0000   223.9830    -2.2320     0.6000    94.8820    35.5670     2.8670     3.1350     3.7230     2.2990 
  224.1250   224.1080    -2.2330     0.6010    94.8820    37.1000     2.8200     3.0830     3.5940     2.2970 
  224.2500   224.2330    -2.2350     0.6010    94.8820    37.4050     2.7350     2.9910     3.3740     2.2870 
  224.3750   224.3580    -2.2370     0.6010    94.8820    36.5490     2.6400     2.8910     3.1720     2.2770 
  224.5000   224.4830    -2.2380     0.6020    94.8820    34.8630     2.5570     2.8080     3.0510     2.2750 
  224.6250   224.6080    -2.2400     0.6020    94.8820    34.4140     2.4970     2.7490     3.0060     2.2810 
  224.7500   224.7330    -2.2410     0.6020    94.8820    35.2110     2.4610     2.7190     3.0060     2.2900 
  224.8750   224.8580    -2.2430     0.6030    94.8820    36.1210     2.4470     2.7100     3.0220     2.2970 
  225.0000   224.9830    -2.2440     0.6030    94.8820    35.5060     2.4570     2.7230     3.0760     2.2940 
  225.1250   225.1080    -2.2460     0.6040    94.8820    34.3610     2.4910     2.7590     3.1970     2.2870 
  225.2500   225.2330    -2.2470     0.6040    94.8820    33.9170     2.5530     2.8280     3.3450     2.2810 
  225.3750   225.3580    -2.2490     0.6040    94.8820    33.9880     2.6390     2.9250     3.4140     2.2800 
  225.5000   225.4830    -2.2500     0.6050    94.8820    34.4250     2.7380     3.0430     3.4030     2.2840 
  225.6250   225.6080    -2.2520     0.6050    94.8820    35.0240     2.8330     3.1570     3.4380     2.2890 
  225.7500   225.7330    -2.2540     0.6050    94.8820    35.7900     2.9030     3.2440     3.5470     2.2880 
  225.8750   225.8580    -2.2550     0.6060    94.8820    36.2440     2.9430     3.2940     3.5970     2.2820 
  226.0000   225.9830    -2.2570     0.6060    94.8820    36.6830     2.9540     3.3080     3.4840     2.2770 
  226.1250   226.1080    -2.2580     0.6070    94.8820    36.6420     2.9510     3.3030     3.3870     2.2750 
  226.2500   226.2330    -2.2600     0.6070    94.8820    35.8890     2.9460     3.2950     3.5540     2.2760 
  226.3750   226.3580    -2.2610     0.6070    94.8820    34.8050     2.9440     3.2920     3.9040     2.2780 
  226.5000   226.4830    -2.2630     0.6080    94.8820    34.2730     2.9430     3.2930     4.1710     2.2820 
  226.6250   226.6080    -2.2650     0.6080    94.8820    34.4580     2.9430     3.2970     4.1590     2.2880 
  226.7500   226.7330    -2.2660     0.6080    94.8820    34.7620     2.9430     3.3010     3.8120     2.2910 
  226.8750   226.8580    -2.2680     0.6090    94.8820    34.8280     2.9430     3.3010     3.3540     2.2900 
  227.0000   226.9830    -2.2690     0.6090    94.8820    35.1580     2.9430     3.2980     3.0720     2.2870 
  227.1250   227.1080    -2.2710     0.6100    94.8820    35.1320     2.9430     3.2940     3.0270     2.2860 
