~V
VERS. 2.00: Ver 2.00
~W
STRT.M 63.0000:
STOP.M 236.0000:
STEP.M 0.1250:
NULL. -999.2500:
UWI. F10859:
~C
DEPT.M :
TVD. :
DX. :
DY. :
SP.MV :
GR.API :
RI. :
RML.OHMM :
RXO.OHMM :
DEN.GM/CC :
~A
# ...
  163.3750   163.3650    -1.3610     0.4250   -25.1000    59.8700    11.3010    12.7010    40.0070     2.5690 
  163.5000   163.4900    -1.3620     0.4250   -25.1710    53.8550    12.1340    13.5440    39.5710     2.5530 
  163.6250   163.6150    -1.3640     0.4250   -25.2830    53.7120    12.0760    13.2790    28.7420     2.4770 
  163.7500   163.7400    -1.3650     0.4250   -25.4340    59.1630    11.1320    11.9980    17.6300     2.3750 
  163.8750   163.8650    -1.3670     0.4260   -25.6070    67.2590     9.8390    10.4120    11.7460     2.2910 
  164.0000   163.9900    -1.3680     0.4260   -25.7810    73.0570     8.7680     9.2090    10.3830     2.2500 
  164.1250   164.1150    -1.3700     0.4260   -25.9390    76.5340     8.1920     8.6470    10.6030     2.2450 
  164.2500   164.2400    -1.3710     0.4260   -26.0710    76.7110     8.1000     8.6380    11.1770     2.2610 
  164.3750   164.3650    -1.3720     0.4260   -26.1820    76.7150     8.2610     8.8810    11.3810     2.2810 
  164.5000   164.4900    -1.3740     0.4270   -26.2900    76.0920     8.4940     9.1620    11.0310     2.2960 
  164.6250   164.6150    -1.3750     0.4270   -26.4140    73.9580     8.6610     9.3400    10.8620     2.3040 
  164.7500   164.7400    -1.3770     0.4270   -26.5690    69.8830     8.7040     9.3710    11.1140     2.3000 
  164.8750   164.8640    -1.3780     0.4270   -26.7410    65.7970     8.6600     9.3090    11.0900     2.2840 
  165.0000   164.9890    -1.3800     0.4280   -26.9020    64.1850     8.5820     9.2150    10.4940     2.2640 
  165.1250   165.1140    -1.3810     0.4280   -27.0290    63.3620     8.5100     9.1300    10.0540     2.2560 
  165.2500   165.2390    -1.3830     0.4280   -27.1060    63.8920     8.4730     9.0840    10.6170     2.2650 
  165.3750   165.3640    -1.3840     0.4280   -27.1440    65.9070     8.5260     9.1450    11.8660     2.2790 
  165.5000   165.4890    -1.3860     0.4280   -27.1560    68.9350     8.8000     9.4680    12.3160     2.2810 
  165.6250   165.6140    -1.3870     0.4290   -27.1590    70.9330     9.4020    10.1690    11.6300     2.2690 
  165.7500   165.7390    -1.3880     0.4290   -27.1570    70.4520    10.4430    11.3520    11.9120     2.2470 
  165.8750   165.8640    -1.3900     0.4290   -27.1520    68.7770    11.9040    12.9640    14.6570     2.2220 
  166.0000   165.9890    -1.3910     0.4290   -27.1350    67.1010    13.6900    14.8610    18.3600     2.2000 
  166.1250   166.1140    -1.3930     0.4300   -27.1090    66.6580    15.4630    16.6570    20.1710     2.1830 
  166.2500   166.2390    -1.3940     0.4300   -27.0840    66.3570    16.7450    17.8480    19.6420     2.1740 
  166.3750   166.3640    -1.3960     0.4300   -27.0610    63.9510    17.2530    18.1930    19.0780     2.1690 
  166.5000   166.4890    -1.3970     0.4300   -27.0380    59.8940    16.9420    17.7090    19.4640     2.1630 
  166.6250   166.6140    -1.3990     0.4310   -27.0070    56.9910    16.1650    16.7970    19.2630     2.1580 
  166.7500   166.7390    -1.4000     0.4310   -26.9610    58.5890    15.2240    15.7690    17.4880     2.1560 
  166.8750   166.8640    -1.4020     0.4310   -26.9050    61.4840    14.3080    14.7970    15.4830     2.1570 
  167.0000   166.9890    -1.4030     0.4310   -26.8420    63.8860    13.4910    13.9530    14.3920     2.1610 
  167.1250   167.1140    -1.4050     0.4310   -26.7780    63.7430    12.8150    13.2780    13.9490     2.1670 
  167.2500   167.2390    -1.4060     0.4320   -26.7150    63.8710    12.3190    12.7890    13.8580     2.1750 
  167.3750   167.3640    -1.4080     0.4320   -26.6580    63.3540    11.9590    12.4210    13.9100     2.1870 
  167.5000   167.4890    -1.4090     0.4320   -26.6120    63.0110    11.7290    12.1650    13.8700     2.2030 
  167.6250   167.6140    -1.4100     0.4320   -26.5770    61.2460    11.6790    12.1040    13.6820     2.2230 
  167.7500   167.7390    -1.4120     0.4330   -26.5510    61.8600    11.9430    12.4080    13.6360     2.2390 
  167.8750   167.8640    -1.4130     0.4330   -26.5260    62.7040    12.5530    13.1090    14.9500     2.2480 
  168.0000   167.9890    -1.4150     0.4330   -26.4880    63.0380    13.4820    14.1510    19.3990     2.2480 
  168.1250   168.1140    -1.4160     0.4330   -26.4310    60.1910    14.5320    15.2820    25.8610     2.2440 
  168.2500   168.2390    -1.4180     0.4330   -26.3430    57.8390    15.4340    16.1850    29.4190     2.2380 
  168.3750   168.3640    -1.4190     0.4340   -26.2270    56.6520    15.9730    16.6480    27.1410     2.2310 
  168.5000   168.4890    -1.4210     0.4340   -26.0870    56.6150    16.0230    16.5790    22.4240     2.2220 
  168.6250   168.6140    -1.4220     0.4340   -25.9390    57.0370    15.7000    16.1540    19.9920     2.2160 
  168.7500   168.7390    -1.4240     0.4340   -25.8000    58.3430    15.2050    15.6190    20.1670     2.2210 
  168.8750   168.8640    -1.4250     0.4350   -25.6770    59.2960    14.7850    15.2220    20.7660     2.2340 
  169.0000   168.9890    -1.4270     0.4350   -25.5740    59.1370    14.5990    15.1020    19.9240     2.2430 
  169.1250   169.1140    -1.4280     0.4350   -25.4920    59.6160    14.6300    15.2120    18.5460     2.2370 
  169.2500   169.2390    -1.4300     0.4350   -25.4340    61.8260    14.7750    15.4260    21.1550     2.2180 
  169.3750   169.3640    -1.4310     0.4360   -25.4010    62.7080    14.8690    15.5520    28.0060     2.1990 
  169.5000   169.4890    -1.4330     0.4360   -25.4060    61.7680    14.7700    15.4220    30.9030     2.1900 
  169.6250   169.6140    -1.4340     0.4360   -25.4470    59.1920    14.4600    15.0250    26.1580     2.1890 
  169.7500   169.7390    -1.4350     0.4360   -25.5260    58.0230    14.0260    14.4850    20.0850     2.1910 
  169.8750   169.8640    -1.4370     0.4370   -25.6350    56.4700    13.6670    14.0510    17.2460     2.1910 
  170.0000   169.9890    -1.4380     0.4370   -25.7630    58.0000    13.6060    13.9800    17.0730     2.1870 
  170.1250   170.1140    -1.4400     0.4370   -25.9080    60.9560    13.8660    14.2730    18.9040     2.1790 
  170.2500   170.2390    -1.4410     0.4370   -26.0600    64.4500    14.2620    14.6980    21.8150     2.1730 
  170.3750   170.3640    -1.4430     0.4380   -26.2130    64.0320    14.4600    14.8840    23.2510     2.1740 
  170.5000   170.4890    -1.4440     0.4380   -26.3530    61.5710    14.1540    14.5130    21.6080     2.1860 
  170.6250   170.6140    -1.4460     0.4380   -26.4650    58.1160    13.3030    13.5670    18.0900     2.2020 
  170.7500   170.7390    -1.4470     0.4380   -26.5370    57.1910    12.0250    12.1990    14.8340     2.2200 
  170.8750   170.8640    -1.4490     0.4390   -26.5680    58.6340    10.6470    10.7660    13.0720     2.2360 
  171.0000   170.9890    -1.4500     0.4390   -26.5600    63.3170     9.4890     9.6090    11.9410     2.2480 
  171.1250   171.1140    -1.4520     0.4390   -26.5290    67.3520     8.7530     8.9250    10.4140     2.2540 
  171.2500   171.2390    -1.4530     0.4390   -26.4790    68.2300     8.5600     8.8270     9.4120     2.2540 
  171.3750   171.3640    -1.4550     0.4400   -26.4120    65.3840     8.8080     9.1950     9.7860     2.2490 
  171.5000   171.4890    -1.4560     0.4400   -26.3240    62.6350     9.3660     9.8690    11.2010     2.2410 
  171.6250   171.6140    -1.4580     0.4400   -26.2200    62.3730    10.0170    10.6090    12.8040     2.2340 
  171.7500   171.7390    -1.4590     0.4400   -26.1110    65.3910    10.6060    11.2420    14.0280     2.2300 
  171.8750   171.8640    -1.4610     0.4410   -26.0110    66.9770    11.0950    11.7460    14.4550     2.2310 
  172.0000   171.9890    -1.4620     0.4410   -25.9260    65.6600    11.5560    12.2250    14.2280     2.2330 
  172.1250   172.1140    -1.4640     0.4410   -25.8590    61.9990    12.1090    12.8280    14.8300     2.2310 
  172.2500   172.2390    -1.4650     0.4410   -25.8210    59.3520    12.8680    13.6990    17.2580     2.2210 
  172.3750   172.3640    -1.4670     0.4420   -25.8200    57.9520    13.8540    14.8570    19.9860     2.2110 
