~V
VERS. 2.00: Ver 2.00
~W
STRT.M 63.0000:
STOP.M 269.0000:
STEP.M 0.1250:
NULL. -999.2500:
UWI. F10891:
~C
DEPT.M :
TVD. :
DX. :
DY. :
SP.MV :
GR.API :
RI. :
RML.OHMM :
RXO.OHMM :
DEN.GM/CC :
~A
# ...
  263.7500   263.7350    -1.0320    -2.1580    53.4790    87.9090    10.0090    11.0340     6.7010     2.2270 
  263.8750   263.8600    -1.0320    -2.1590    53.4790    87.9090    10.0090    11.0340     6.8580     2.2220 
  264.0000   263.9850    -1.0320    -2.1600    53.4790    87.9090    10.0090    11.0340     7.0810     2.2170 
  264.1250   264.1100    -1.0330    -2.1600    53.4790    87.9090    10.0090    11.0340     6.5670     2.2120 
  264.2500   264.2350    -1.0330    -2.1610    53.4790    87.9090    10.0090    11.0340     5.6400     2.2060 
  264.3750   264.3600    -1.0330    -2.1620    53.4790    87.9090    10.0090    11.0340     5.2340     2.2010 
  264.5000   264.4850    -1.0340    -2.1620    53.4790    87.9090    10.0090    11.0340     5.3060     2.2060 
  264.6250   264.6100    -1.0340    -2.1630    53.4790    87.9090    10.0090    11.0340     5.1050     2.2200 
  264.7500   264.7350    -1.0340    -2.1640    53.4790    87.9090    10.0090    11.0340     4.2670     2.2320 
  264.8750   264.8600    -1.0340    -2.1640    53.4790    87.9090    10.0090    11.0340     3.5300     2.2260 
  265.0000   264.9850    -1.0350    -2.1650    53.4790    87.9090    10.0090    11.0340     3.3740     2.1970 
  265.1250   265.1100    -1.0350    -2.1660    53.4790    87.9090    10.0090    11.0340     3.3760     2.1530 
  265.2500   265.2350    -1.0350    -2.1660    53.4790    87.9090    10.0090    11.0340     3.3760     2.1090 
  265.3750   265.3600    -1.0360    -2.1670    53.4790    87.9090    10.0090    11.0340     3.3760     2.0790 
  265.5000   265.4850    -1.0360    -2.1680    53.4790    87.9090    10.0090    11.0340     3.3760     2.0640 
  265.6250   265.6100    -1.0360    -2.1680    53.4790    87.9090    10.0090    11.0340     3.3760     2.0590 
  265.7500   265.7350    -1.0370    -2.1690    53.4790    87.9090    10.0090    11.0340     3.3760     2.0560 
  265.8750   265.8600    -1.0370    -2.1690    53.4790    87.9090    10.0090    11.0340     3.3760     2.0520 
  266.0000   265.9850    -1.0370    -2.1700    53.4790    87.9090    10.0090    11.0340     3.3760     2.0480 
  266.1250   266.1100    -1.0380    -2.1710    53.4790    87.9090    10.0090    11.0340     3.3750     2.0450 
  266.2500   266.2350    -1.0380    -2.1710    53.4790    87.9090    10.0090    11.0340     3.3730     2.0440 
  266.3750   266.3600    -1.0380    -2.1720    53.4790    87.9090    10.0090    11.0340     3.3710     2.0420 
  266.5000   266.4850    -1.0380    -2.1730    53.4790    87.9090    10.0090    11.0340     3.3700     2.0390 
  266.6250   266.6100    -1.0390    -2.1730    53.4790    87.9090    10.0090    11.0340     3.3680     2.0370 
  266.7500   266.7350    -1.0390    -2.1740    53.4790    87.9090    10.0090    11.0340     3.3670     2.0350 
  266.8750   266.8600    -1.0390    -2.1750    53.4790    87.9090    10.0090    11.0340     3.3650     2.0340 
  267.0000   266.9850    -1.0400    -2.1750    53.4790    87.9090    10.0090    11.0340     3.3630     2.0330 
  267.1250   267.1100    -1.0400    -2.1760    53.4790    87.9090    10.0090    11.0340     3.3610     2.0340 
  267.2500   267.2350    -1.0400    -2.1770    53.4790    87.9090    10.0090    11.0340     3.3600     2.0390 
  267.3750   267.3600    -1.0410    -2.1770    53.4790    87.9090    10.0090    11.0340     3.3580     2.0450 
  267.5000   267.4850    -1.0410    -2.1780    53.4790    87.9090    10.0090    11.0340     3.3560     2.0480 
  267.6250   267.6100    -1.0410    -2.1790    53.4790    87.9090    10.0090    11.0340     3.3540     2.0480 
  267.7500   267.7350    -1.0410    -2.1790    53.4790    87.9090    10.0090    11.0340     3.3530     2.0440 
  267.8750   267.8600    -1.0420    -2.1800    53.4790    87.9090    10.0090    11.0340     3.3510     2.0400 
  268.0000   267.9850    -1.0420    -2.1810    53.4790    87.9090    10.0090    11.0340     3.3480     2.0380 
  268.1250   268.1100    -1.0420    -2.1810    53.4790    87.9090    10.0090    11.0340     3.3460     2.0420 
  268.2500   268.2350    -1.0430    -2.1820    53.4790    87.9090    10.0090    11.0340     3.3440     2.0490 
  268.3750   268.3600    -1.0430    -2.1830    53.4790    87.9090    10.0090    11.0340     3.3410     2.0560 
  268.5000   268.4850    -1.0430    -2.1830    53.4790    87.9090    10.0090    11.0360     3.2900     2.0590 
  268.6250   268.6100    -1.0440    -2.1840    53.4790    87.9090    10.0090    11.0390     3.0610     2.0600 
  268.7500   268.7350    -1.0440    -2.1840    53.4790    87.9090    10.0090    11.0400     2.5570     2.0600 
  268.8750   268.8600    -1.0440    -2.1850    53.4790    87.9090    10.0090    11.0400     2.0120     2.0600 
  269.0000   268.9850    -1.0450    -2.1860    53.4790    87.9090    10.0090    11.0400     1.7150     2.0600 
