~V
VERS. 2.00: Ver 2.00
~W
STRT.M 63.0000:
STOP.M 236.0000:
STEP.M 0.1250:
NULL. -999.2500:
UWI. F10859:
~C
DEPT.M :
TVD. :
DX. :
DY. :
SP.MV :
GR.API :
RI. :
RML.OHMM :
RXO.OHMM :
DEN.GM/CC :
~A
# ...
  117.7500   117.7440    -0.7460     0.3340   -38.3630    65.5140    28.9540    29.4500    28.9290     2.0670 
  117.8750   117.8690    -0.7480     0.3350   -38.6190    63.0780    29.2810    29.7260    27.8090     2.0730 
  118.0000   117.9940    -0.7500     0.3350   -38.8330    59.8470    31.3620    31.9640    27.8940     2.0790 
  118.1250   118.1190    -0.7520     0.3360   -38.9940    56.2820    35.3990    36.3850    30.6330     2.0800 
  118.2500   118.2440    -0.7540     0.3360   -39.0830    54.6350    41.4850    43.0230    36.4790     2.0790 
  118.3750   118.3690    -0.7550     0.3370   -39.0930    55.0210    48.3920    50.3640    43.7710     2.0880 
  118.5000   118.4940    -0.7570     0.3370   -39.0010    55.7830    53.4910    55.3260    51.3360     2.1190 
  118.6250   118.6190    -0.7590     0.3380   -38.8030    56.3000    53.9080    54.9860    58.9280     2.1680 
  118.7500   118.7440    -0.7610     0.3380   -38.4930    59.3960    47.7950    47.8850    65.0730     2.2210 
  118.8750   118.8690    -0.7620     0.3380   -38.1080    64.1880    37.3750    36.7780    63.8490     2.2620 
  119.0000   118.9940    -0.7640     0.3390   -37.6870    69.6160    26.4050    25.7240    49.7760     2.2810 
  119.1250   119.1190    -0.7660     0.3390   -37.2770    73.3760    18.2590    17.8890    30.6680     2.2770 
  119.2500   119.2440    -0.7680     0.3400   -36.9160    75.2180    14.4240    14.4670    18.2850     2.2540 
  119.3750   119.3690    -0.7700     0.3400   -36.6240    73.9630    13.9100    14.3770    15.8200     2.2230 
  119.5000   119.4940    -0.7710     0.3410   -36.4220    71.4310    15.6230    16.5210    19.4370     2.1950 
  119.6250   119.6190    -0.7730     0.3410   -36.3070    69.8290    18.0900    19.2990    23.6490     2.1760 
  119.7500   119.7440    -0.7750     0.3410   -36.2750    68.3690    19.9860    21.2520    28.1300     2.1700 
  119.8750   119.8690    -0.7770     0.3420   -36.2940    67.3750    20.5580    21.6920    34.1540     2.1730 
  120.0000   119.9940    -0.7790     0.3420   -36.3280    65.9540    19.8650    20.8620    38.4910     2.1780 
  120.1250   120.1190    -0.7800     0.3430   -36.3380    65.6620    18.8280    19.8470    35.0170     2.1740 
  120.2500   120.2440    -0.7820     0.3430   -36.2860    64.6990    18.2070    19.4240    25.8970     2.1550 
  120.3750   120.3690    -0.7840     0.3430   -36.1510    62.4860    18.1220    19.5850    20.2220     2.1290 
  120.5000   120.4940    -0.7860     0.3440   -35.9130    59.0320    18.3460    20.0090    19.7340     2.1120 
  120.6250   120.6190    -0.7880     0.3440   -35.5830    55.6720    18.6490    20.4750    20.5400     2.1100 
  120.7500   120.7440    -0.7890     0.3450   -35.1740    54.7140    19.0780    21.1080    20.8500     2.1140 
  120.8750   120.8690    -0.7910     0.3450   -34.7160    54.8340    19.7440    22.0770    20.5440     2.1190 
  121.0000   120.9930    -0.7930     0.3450   -34.2420    55.2480    20.6770    23.4150    20.1970     2.1280 
  121.1250   121.1180    -0.7950     0.3460   -33.7860    54.1080    21.7140    24.8830    20.5870     2.1440 
  121.2500   121.2430    -0.7970     0.3460   -33.4200    53.3350    22.6120    26.1370    22.0920     2.1600 
  121.3750   121.3680    -0.7990     0.3470   -33.1780    52.9180    23.1820    26.9310    24.1890     2.1630 
  121.5000   121.4930    -0.8000     0.3470   -33.0660    54.4980    23.3010    27.1340    25.5720     2.1510 
  121.6250   121.6180    -0.8020     0.3470   -32.9910    56.3900    23.0080    26.8330    25.5370     2.1350 
  121.7500   121.7430    -0.8040     0.3480   -32.8290    57.1330    22.3040    26.0830    24.9510     2.1280 
  121.8750   121.8680    -0.8060     0.3480   -32.5170    56.8690    21.2970    25.0380    24.7800     2.1290 
  122.0000   121.9930    -0.8080     0.3480   -32.0910    56.7080    20.1040    23.8340    24.6780     2.1320 
  122.1250   122.1180    -0.8100     0.3490   -31.6550    57.6550    18.8970    22.6300    23.7890     2.1320 
  122.2500   122.2430    -0.8110     0.3490   -31.3010    59.0270    17.8260    21.5600    22.4130     2.1250 
  122.3750   122.3680    -0.8130     0.3490   -31.0250    60.8310    16.9660    20.7060    21.7160     2.1150 
  122.5000   122.4930    -0.8150     0.3500   -30.7620    62.2690    16.3680    20.1370    20.8130     2.1080 
  122.6250   122.6180    -0.8170     0.3500   -30.5010    64.2550    16.0140    19.8460    18.6660     2.1090 
  122.7500   122.7430    -0.8190     0.3510   -30.2370    65.1500    15.8980    19.8260    16.6840     2.1160 
  122.8750   122.8680    -0.8210     0.3510   -30.0500    65.6080    15.9520    19.9920    16.0910     2.1220 
  123.0000   122.9930    -0.8220     0.3510   -29.9530    64.2310    16.1110    20.2660    17.5020     2.1230 
  123.1250   123.1180    -0.8240     0.3520   -29.9280    62.0660    16.2730    20.5200    20.9160     2.1210 
  123.2500   123.2430    -0.8260     0.3520   -29.9650    60.1990    16.3380    20.6340    23.3710     2.1240 
  123.3750   123.3680    -0.8280     0.3520   -30.0380    59.1850    16.2860    20.6000    21.9680     2.1310 
  123.5000   123.4930    -0.8300     0.3530   -30.1450    59.5640    16.1780    20.5220    18.9160     2.1360 
  123.6250   123.6180    -0.8320     0.3530   -30.2630    59.8520    16.1380    20.5730    17.7400     2.1330 
  123.7500   123.7430    -0.8340     0.3530   -30.3810    59.1800    16.2830    20.9090    18.3000     2.1200 
  123.8750   123.8680    -0.8360     0.3540   -30.5000    57.7970    16.6250    21.5230    18.8180     2.1070 
  124.0000   123.9930    -0.8370     0.3540   -30.6080    56.1700    17.1300    22.3490    18.7090     2.1030 
  124.1250   124.1180    -0.8390     0.3540   -30.6820    56.2960    17.7230    23.2730    18.4490     2.1070 
  124.2500   124.2430    -0.8410     0.3550   -30.7380    57.8510    18.3390    24.2010    18.8210     2.1130 
  124.3750   124.3680    -0.8430     0.3550   -30.7960    59.2530    18.9150    25.0560    20.2760     2.1170 
  124.5000   124.4930    -0.8450     0.3550   -30.8840    58.5760    19.3680    25.7320    21.7190     2.1180 
  124.6250   124.6180    -0.8470     0.3560   -30.9940    57.1000    19.5920    26.0740    21.6270     2.1170 
  124.7500   124.7430    -0.8490     0.3560   -31.0650    56.2170    19.4120    25.8300    20.4480     2.1170 
  124.8750   124.8680    -0.8510     0.3560   -31.0560    55.7640    18.8030    24.9790    19.2190     2.1200 
  125.0000   124.9930    -0.8520     0.3570   -30.9340    54.2140    17.8680    23.6960    18.0730     2.1250 
  125.1250   125.1180    -0.8540     0.3570   -30.7030    52.9610    16.8730    22.3670    17.2870     2.1290 
  125.2500   125.2430    -0.8560     0.3570   -30.4080    53.9440    15.9960    21.2450    16.9590     2.1320 
  125.3750   125.3680    -0.8580     0.3570   -30.0780    56.3090    15.2140    20.2730    16.5840     2.1340 
  125.5000   125.4930    -0.8600     0.3580   -29.7220    58.7510    14.3610    19.1910    15.5540     2.1390 
  125.6250   125.6180    -0.8620     0.3580   -29.3370    61.8070    13.2760    17.7470    14.0620     2.1490 
  125.7500   125.7430    -0.8640     0.3580   -28.9140    66.5190    11.8770    15.8130    12.7550     2.1660 
  125.8750   125.8680    -0.8660     0.3590   -28.4850    72.1640    10.2710    13.5610    11.3410     2.1900 
  126.0000   125.9930    -0.8670     0.3590   -28.0430    77.3790     8.6540    11.3050     9.5070     2.2220 
  126.1250   126.1180    -0.8690     0.3590   -27.5920    81.9950     7.2550     9.3870     7.9710     2.2540 
  126.2500   126.2430    -0.8710     0.3590   -27.1600    85.9020     6.2620     8.0630     7.2120     2.2780 
  126.3750   126.3680    -0.8730     0.3600   -26.7880    88.8880     5.6710     7.2960     7.0310     2.2920 
  126.5000   126.4930    -0.8750     0.3600   -26.5230    90.9480     5.4270     6.9810     7.2740     2.2940 
  126.6250   126.6180    -0.8770     0.3600   -26.3700    92.4420     5.4020     6.9310     7.5940     2.2870 
  126.7500   126.7430    -0.8790     0.3610   -26.3060    93.6730     5.5510     7.0840     7.6770     2.2750 
