~V
VERS. 2.00: Ver 2.00
~W
STRT.M 40.0000:
STOP.M 213.0000:
STEP.M 0.1250:
NULL. -999.2500:
UWI. F10805:
~C
DEPT.M :
SP.MV :
GR.API :
RI. :
RML.OHMM :
RXO.OHMM :
DEN.GM/CC :
~A
# ...
  130.1250   -14.4550    72.5160    10.7030    11.6400    11.9690     2.3990 
  130.2500   -14.5210    73.6540    10.0280    10.8850    10.1500     2.3690 
  130.3750   -14.5200    74.0630     9.7160    10.4280     9.9360     2.3480 
  130.5000   -14.5640    74.4580     9.7940    10.4590    11.2090     2.3460 
  130.6250   -14.5830    74.0690     9.9770    10.7030    13.2490     2.3520 
  130.7500   -14.5690    73.4630    10.1180    10.8610    13.7340     2.3620 
  130.8750   -14.5130    71.2730    10.0290    10.7540    13.1490     2.3650 
  131.0000   -14.4490    69.3300     9.6790    10.3710    11.9420     2.3670 
  131.1250   -14.3450    67.8480     9.1490     9.8120    10.1500     2.3680 
  131.2500   -14.2480    68.3810     8.6010     9.2720    10.1310     2.3780 
  131.3750   -14.1520    68.4370     8.1740     8.8570    10.4440     2.3890 
  131.5000   -14.0430    68.9680     7.8010     8.5190     9.5300     2.3900 
  131.6250   -13.9650    69.7410     7.5240     8.2590     9.4460     2.3820 
  131.7500   -13.9130    71.6230     7.3410     8.0860     9.5890     2.3800 
  131.8750   -13.9580    72.3500     7.3450     8.1420     8.8230     2.3890 
  132.0000   -14.0040    72.3420     7.6360     8.5350     9.0670     2.4050 
  132.1250   -14.0640    71.9700     8.1950     9.2700    10.4970     2.4160 
  132.2500   -14.1620    72.5320     8.9370    10.2020    11.6050     2.4240 
  132.3750   -14.2930    73.1970     9.6740    11.0950    13.1380     2.4210 
  132.5000   -14.3910    73.4990    10.2300    11.6810    14.5260     2.4170 
  132.6250   -14.5020    73.3100    10.2520    11.6590    14.2090     2.4180 
  132.7500   -14.5870    73.3810     9.7990    11.1230    13.4510     2.4110 
  132.8750   -14.6370    73.0180     9.0980    10.2600    12.4440     2.3840 
  133.0000   -14.6730    72.6880     8.1870     9.2500    10.7020     2.3300 
  133.1250   -14.5560    71.8760     7.3880     8.3370     9.3550     2.2710 
  133.2500   -14.3470    72.0140     6.7670     7.6340     8.4400     2.2270 
  133.3750   -14.0050    71.3530     6.3140     7.1270     7.8430     2.2130 
  133.5000   -13.6880    71.5650     5.9230     6.6940     8.3920     2.2210 
  133.6250   -13.4790    73.0930     5.5390     6.2690     9.1190     2.2350 
  133.7500   -13.3750    74.9830     5.1810     5.8730     8.0320     2.2450 
  133.8750   -13.3260    76.2770     4.9070     5.5750     6.0010     2.2450 
  134.0000   -13.2650    76.3620     4.7450     5.3980     5.9770     2.2390 
  134.1250   -13.1790    76.4670     4.6320     5.2730     7.7950     2.2300 
  134.2500   -13.0360    77.1600     4.5100     5.1310     8.0160     2.2290 
  134.3750   -12.8870    77.8770     4.3550     4.9160     6.3280     2.2330 
  134.5000   -12.6760    79.1520     4.1070     4.5880     5.1880     2.2390 
  134.6250   -12.4900    79.8230     3.7850     4.1830     4.8010     2.2410 
  134.7500   -12.3190    81.8420     3.4820     3.8260     4.5590     2.2410 
  134.8750   -12.1810    83.3050     3.3020     3.6290     4.3890     2.2400 
  135.0000   -12.0660    84.1150     3.2560     3.5790     4.1630     2.2350 
  135.1250   -12.0010    82.9440     3.2940     3.6440     4.2040     2.2260 
  135.2500   -11.9630    82.0310     3.4130     3.7930     4.4600     2.2250 
  135.3750   -11.9030    82.8950     3.5460     3.9600     4.7010     2.2310 
  135.5000   -11.7830    84.4540     3.6260     4.0640     5.0080     2.2390 
  135.6250   -11.6040    85.4950     3.5790     4.0330     4.9550     2.2480 
  135.7500   -11.5030    85.5710     3.4120     3.9050     4.5490     2.2580 
  135.8750   -11.4690    85.3730     3.1690     3.6740     4.2500     2.2540 
  136.0000   -11.5730    86.0870     2.9970     3.4840     4.0250     2.2300 
  136.1250   -11.7220    86.6330     3.0010     3.5190     3.9510     2.1940 
  136.2500   -11.9520    86.3510     3.2420     3.8500     4.3450     2.1660 
  136.3750   -12.2850    83.9180     3.7500     4.5080     5.6150     2.1480 
  136.5000   -12.6460    81.5420     4.4780     5.4440     7.0980     2.1380 
  136.6250   -12.9280    78.4580     5.4500     6.5920     7.6850     2.1390 
  136.7500   -13.1160    75.9730     6.4090     7.7190     8.1000     2.1570 
  136.8750   -13.2880    73.6730     7.2450     8.6660     9.9870     2.1940 
  137.0000   -13.4670    72.4020     7.8910     9.3820    12.4370     2.2410 
  137.1250   -13.6700    71.7860     8.2830     9.7850    13.1960     2.2650 
  137.2500   -13.8460    71.7090     8.3860     9.8550    12.7200     2.2450 
  137.3750   -14.0370    71.5200     8.1720     9.5610    12.0890     2.1920 
  137.5000   -14.1570    72.5830     7.7150     9.0290    11.0790     2.1560 
  137.6250   -14.2250    74.6360     7.2460     8.5170     9.5870     2.1520 
  137.7500   -14.2810    77.6800     6.9710     8.2260     8.2670     2.1660 
  137.8750   -14.2840    78.5620     6.8820     8.1700     8.3840     2.1730 
  138.0000   -14.3030    77.9980     6.8970     8.2420     9.3750     2.1750 
  138.1250   -14.3370    76.4380     6.9580     8.3330     9.6630     2.1740 
  138.2500   -14.3830    75.1350     7.0060     8.3480     9.3530     2.1780 
  138.3750   -14.3850    75.2670     6.9810     8.2600     8.7740     2.1850 
  138.5000   -14.3520    74.9760     6.8500     8.0770     8.3930     2.1860 
  138.6250   -14.2260    74.9270     6.6680     7.8420     8.5760     2.1760 
  138.7500   -14.0790    74.8480     6.5180     7.6410     8.6380     2.1660 
  138.8750   -13.9260    75.1260     6.4680     7.5620     8.1190     2.1680 
  139.0000   -13.8810    75.2810     6.5670     7.6620     8.1160     2.1830 
  139.1250   -13.9770    75.0720     6.8550     7.9600     9.2190     2.1940 
  139.2500   -14.1550    75.7280     7.2640     8.3200    10.2510     2.2000 
  139.3750   -14.4290    76.0680     7.4970     8.5300    10.8690     2.1880 
  139.5000   -14.6860    75.6560     7.4840     8.4840    10.9010     2.1800 
  139.6250   -14.8130    73.3810     7.2350     8.2000     9.6050     2.1790 
  139.7500   -14.8170    71.4220     6.8960     7.8420     7.8650     2.1850 
  139.8750   -14.8030    70.1770     6.6740     7.5580     7.8600     2.1850 
  140.0000   -14.7720    70.9020     6.5440     7.3650     9.3000     2.1790 
  140.1250   -14.7560    73.7190     6.4330     7.1900     9.6300     2.1750 
  140.2500   -14.7060    76.9720     6.2720     6.9600     8.5180     2.1760 
  140.3750   -14.5970    78.1280     6.0460     6.6750     7.3940     2.1850 
  140.5000   -14.4200    77.8650     5.8200     6.4370     6.8550     2.1930 
  140.6250   -14.1940    77.3060     5.7700     6.4150     6.8280     2.1980 
  140.7500   -14.1270    78.2380     6.0380     6.6740     7.6110     2.2000 
  140.8750   -14.2000    78.6800     6.5470     7.1680     9.0800     2.2060 
  141.0000   -14.4040    78.8450     7.1300     7.7130     9.9070     2.2100 
  141.1250   -14.5390    78.6420     7.5710     8.1100     9.5120     2.2130 
  141.2500   -14.5590    79.4870     7.7510     8.2410     8.8610     2.2110 
  141.3750   -14.4280    79.7130     7.5920     8.0660     8.6840     2.2130 
  141.5000   -14.3100    79.4570     7.2050     7.7170     8.7090     2.2120 
  141.6250   -14.3450    79.2770     6.8240     7.4120     8.3410     2.2020 
  141.7500   -14.4720    79.2150     6.6760     7.3640     7.5390     2.1930 
  141.8750   -14.5170    79.1100     6.9400     7.7110     7.3480     2.1930 
  142.0000   -14.4130    77.7240     7.5130     8.3890     8.2110     2.2030 
  142.1250   -14.3820    75.0930     8.2980     9.2690    11.1250     2.2010 
  142.2500   -14.4120    72.5240     9.1240    10.1750    14.4280     2.1840 
  142.3750   -14.5010    70.9830     9.9480    11.0300    13.7510     2.1670 
  142.5000   -14.5490    71.4540    10.7780    11.9110    11.3930     2.1640 
  142.6250   -14.5520    71.0900    11.7780    13.0450    14.2110     2.1740 
  142.7500   -14.5550    69.6290    13.2200    14.5950    22.8140     2.1830 
  142.8750   -14.6190    68.0850    15.2150    16.4470    29.1900     2.1810 
