~V
VERS. 2.00: Ver 2.00
~W
STRT.M 40.0000:
STOP.M 215.0000:
STEP.M 0.1250:
NULL. -999.2500:
UWI. F10811:
~C
DEPT.M :
SP.MV :
GR.API :
RI. :
RML.OHMM :
RXO.OHMM :
DEN.GM/CC :
~A
# ...
  155.8750   -10.1480    85.1200    19.9640    22.2110    10.9570     2.3080 
  156.0000    -9.9930    86.4590    20.3210    22.3570    11.0690     2.2870 
  156.1250    -9.7930    85.1460    23.6170    25.8970    13.5100     2.2570 
  156.2500    -9.6170    81.6880    30.2380    33.3990    19.8310     2.2280 
  156.3750    -9.5130    77.2300    42.1650    44.9750    24.3600     2.2000 
  156.5000    -9.4740    72.8650    53.2950    55.1500    25.2860     2.1770 
  156.6250    -9.4850    70.4990    57.1890    58.2890    30.4230     2.1650 
  156.7500    -9.5240    71.1100    51.8710    52.8900    36.3450     2.1810 
  156.8750    -9.5640    74.5620    38.5880    40.0030    32.7890     2.2270 
  157.0000    -9.5990    79.4990    26.3800    27.6050    23.1890     2.2870 
  157.1250    -9.6560    82.5510    18.4690    19.4710    15.2510     2.3320 
  157.2500    -9.7510    85.4620    14.3130    15.0860    10.7490     2.3480 
  157.3750    -9.8660    87.2280    12.9650    13.7960     8.9290     2.3320 
  157.5000    -9.9670    89.0990    13.4210    14.5560     8.9250     2.3010 
  157.6250   -10.0510    87.3290    16.0240    17.3180    10.5710     2.2690 
  157.7500   -10.1560    84.5930    20.2510    21.8370    12.6750     2.2490 
  157.8750   -10.3030    81.4480    25.7350    27.8200    13.3570     2.2390 
  158.0000   -10.4740    79.3090    31.9050    34.2900    13.6490     2.2290 
  158.1250   -10.6550    76.0800    38.2420    40.3780    16.9600     2.2080 
  158.2500   -10.8600    73.1860    42.8540    44.4510    22.1880     2.1840 
  158.3750   -11.0950    71.9350    42.1640    43.4850    23.6230     2.1700 
  158.5000   -11.3360    72.7030    36.6770    37.9990    20.7990     2.1810 
  158.6250   -11.5630    75.1770    29.1240    30.6100    16.6300     2.2150 
  158.7500   -11.7940    78.6230    22.5940    25.1380    12.1600     2.2460 
  158.8750   -12.0670    80.9450    22.3160    25.5850    10.1030     2.2420 
  159.0000   -12.4110    79.0480    28.8640    34.5260    12.1770     2.2050 
  159.1250   -12.8360    73.0780    48.2130    63.9580    15.7210     2.1590 
  159.2500   -13.2870    67.2710   101.5580   128.8990    17.9460     2.1290 
  159.3750   -13.6670    64.6840   179.7860   211.3220    20.2190     2.1210 
  159.5000   -13.9240    63.9310   252.7380   278.5970    23.2320     2.1230 
  159.6250   -14.0530    61.3160   308.9330   328.6260    25.1490     2.1280 
  159.7500   -14.0980    58.3380   329.5020   352.0710    26.0980     2.1320 
  159.8750   -14.0750    56.6850   335.8830   360.7920    25.8410     2.1350 
  160.0000   -14.0040    56.9690   340.6500   367.1470    23.9940     2.1270 
  160.1250   -13.8830    57.3190   342.0640   368.4690    24.2390     2.1030 
  160.2500   -13.7050    58.1560   331.5150   358.5460    27.0640     2.0720 
  160.3750   -13.4720    60.6310   309.4330   336.8850    27.9760     2.0620 
  160.5000   -13.2190    61.9830   283.3270   310.3170    26.9840     2.0710 
  160.6250   -12.9630    62.0940   258.3530   287.3830    24.8570     2.0910 
  160.7500   -12.7060    61.1930   249.0880   277.5380    22.0240     2.1090 
  160.8750   -12.4390    61.6390   252.6610   280.1040    21.0460     2.1440 
  161.0000   -12.1500    61.4320   261.3620   286.6310    22.7590     2.2020 
  161.1250   -11.8400    60.3830   267.6630   289.8420    25.1830     2.2660 
  161.2500   -11.5370    59.2730   264.9800   282.7890    26.7890     2.2890 
  161.3750   -11.2870    60.7710   243.7330   262.6000    33.5510     2.2530 
  161.5000   -11.1290    62.2680   210.9050   229.2160    54.4650     2.2050 
  161.6250   -11.0670    64.3330   172.3020   186.3830   110.0500     2.1860 
  161.7500   -11.0530    65.7090   138.4310   148.9080   191.4610     2.1860 
  161.8750   -11.0580    69.5400   115.6110   123.3570   248.3030     2.1860 
  162.0000   -11.0940    73.6020   102.1310   108.2260   233.1080     2.1780 
  162.1250   -11.1830    77.2760    95.9650   101.3640   149.0100     2.1780 
  162.2500   -11.3070    77.3830    94.4130    99.5980    78.0350     2.1840 
  162.3750   -11.4430    75.7000    96.8460   101.5950    51.0900     2.1860 
  162.5000   -11.5780    72.2720   100.3170   104.5230    35.1450     2.1740 
  162.6250   -11.7080    68.9780   102.4030   106.0030    25.0350     2.1530 
  162.7500   -11.8260    65.7850   102.1590   105.1400    21.5970     2.1410 
  162.8750   -11.9430    64.8040    99.1860   101.9740    19.8150     2.1370 
  163.0000   -12.0810    66.7270    95.3050    98.0730    16.7830     2.1370 
  163.1250   -12.2240    69.6330    91.9830    94.9670    13.5110     2.1450 
  163.2500   -12.3240    71.6640    90.4520    93.4530    11.7380     2.1620 
  163.3750   -12.3520    72.5780    89.8740    92.7410    12.0130     2.1690 
  163.5000   -12.3490    73.5760    88.1300    90.8900    13.5020     2.1590 
  163.6250   -12.3750    75.2500    83.8410    86.4730    15.0900     2.1400 
  163.7500   -12.4570    75.5770    77.2190    79.7820    16.5210     2.1350 
  163.8750   -12.5930    74.3240    70.0170    72.4830    17.7400     2.1500 
  164.0000   -12.7690    72.7680    64.3220    66.8200    18.7100     2.1700 
  164.1250   -12.9700    72.1080    62.1320    64.7410    19.8640     2.1790 
  164.2500   -13.1530    71.9760    63.8410    66.7720    21.4040     2.1750 
  164.3750   -13.2730    71.2710    69.7290    72.7260    24.3580     2.1680 
  164.5000   -13.3360    70.2480    77.1200    80.2620    28.9180     2.1690 
  164.6250   -13.3550    69.5030    83.9540    87.0380    33.4030     2.1810 
  164.7500   -13.3210    69.1420    87.7290    90.7730    35.9290     2.2020 
  164.8750   -13.2020    69.9710    86.9280    90.2800    48.8940     2.2190 
  165.0000   -12.9980    70.9820    83.3880    86.7440    98.3060     2.2270 
  165.1250   -12.7120    72.4540    77.0530    80.6560   140.4080     2.2260 
  165.2500   -12.3840    72.5180    70.0770    73.9200   113.5620     2.2220 
  165.3750   -12.0990    71.6390    64.6010    68.8160    66.2250     2.2150 
  165.5000   -11.9280    70.0510    61.9050    67.0450    48.8330     2.2080 
  165.6250   -11.8810    69.0870    65.3510    71.3620    53.5750     2.2030 
  165.7500   -11.8870    69.1590    74.5670    82.3440    77.0290     2.2160 
  165.8750   -11.8740    69.0680    91.4310    99.3760   112.1160     2.2680 
  166.0000   -11.7890    67.5520   113.8420   119.8210   131.2850     2.3450 
  166.1250   -11.5910    65.1960   131.6860   136.9540   134.0080     2.4190 
  166.2500   -11.2610    63.7130   140.1600   144.1510   159.9650     2.4710 
  166.3750   -10.7950    63.8540   135.1860   138.9120   186.8720     2.5090 
  166.5000   -10.2720    64.1560   122.2270   125.9980   167.6350     2.5310 
  166.6250    -9.8040    63.7900   107.0740   111.3830   125.9880     2.5390 
  166.7500    -9.4420    63.4730    93.9930    98.9380    88.5960     2.5490 
  166.8750    -9.1750    62.8240    84.8480    90.9440    62.1660     2.5790 
  167.0000    -8.9580    62.8370    81.9120    88.8980    54.1550     2.6170 
  167.1250    -8.7410    61.6700    85.3530    94.1960    58.6870     2.6410 
  167.2500    -8.4750    62.3730    95.7780   107.5210    70.0880     2.6420 
  167.3750    -8.1270    63.3730   114.1150   133.1180    91.7660     2.6210 
  167.5000    -7.7060    64.7510   148.0650   179.6970   132.7500     2.5930 
  167.6250    -7.2380    63.3230   211.6700   243.1270   224.4410     2.5890 
  167.7500    -6.7600    60.7910   258.5950   269.8090   412.5090     2.6180 
  167.8750    -6.2820    58.2460   224.7680   232.6040   666.4540     2.6650 
  168.0000    -5.8120    57.6120   160.3850   154.0500   770.3700     2.6960 
  168.1250    -5.3540    59.5750    61.9590    66.6140   563.6030     2.6530 
  168.2500    -4.8910    65.3340    16.0740    21.8990   247.1000     2.5190 
  168.3750    -4.4250    74.4610     8.9370    11.0130    63.2700     2.3320 
  168.5000    -4.0000    82.8690     6.0290     7.3540    11.4350     2.1900 
  168.6250    -3.6530    87.9470     4.9660     6.2220     6.5370     2.1470 
