~V
VERS. 2.00: Ver 2.00
~W
STRT.M 40.0000:
STOP.M 215.0000:
STEP.M 0.1250:
NULL. -999.2500:
UWI. F10811:
~C
DEPT.M :
SP.MV :
GR.API :
RI. :
RML.OHMM :
RXO.OHMM :
DEN.GM/CC :
~A
# ...
   65.7500   -30.0700    63.8850     5.3220     8.3840     9.6380     2.1400 
   65.8750   -29.9300    62.2850     5.3390     8.2900     9.7170     2.1080 
   66.0000   -29.7520    61.5720     5.3390     8.2470     9.7370     2.0650 
   66.1250   -29.5810    62.6290     5.3140     8.3250     9.7610     2.0550 
   66.2500   -29.4330    64.3820     5.2540     8.4360     9.9140     2.0700 
   66.3750   -29.3070    66.1610     5.1580     8.4540     9.9500     2.0790 
   66.5000   -29.2050    66.1450     5.0630     8.4110     9.8620     2.0720 
   66.6250   -29.1370    64.6450     4.9800     8.2800     9.7050     2.0700 
   66.7500   -29.1080    63.1320     4.9090     8.0930     9.4490     2.0740 
   66.8750   -29.1550    62.3050     4.8380     7.7980     9.3690     2.0750 
   67.0000   -29.2960    61.2780     4.7800     7.4300     9.5450     2.0610 
   67.1250   -29.5230    61.3050     4.7780     7.1470     9.7780     2.0490 
   67.2500   -29.7920    62.2630     4.9080     7.1450     9.8670     2.0480 
   67.3750   -30.0760    63.3440     5.3010     7.7150     9.8130     2.0780 
   67.5000   -30.3530    63.2240     5.8670     8.6940     9.2380     2.1590 
   67.6250   -30.6460    62.8950     6.4810     9.7940     7.8240     2.2970 
   67.7500   -31.0060    64.0540     6.9130    10.6420     7.1380     2.4200 
   67.8750   -31.4590    66.8710     6.9300    10.7130     8.0040     2.4260 
   68.0000   -31.9520    70.1790     6.5300    10.1130     9.0130     2.3190 
   68.1250   -32.4150    71.4270     5.9310     9.2050     9.6680     2.1860 
   68.2500   -32.7980    71.1530     5.3870     8.4610    10.0830     2.1050 
   68.3750   -33.0590    70.5660     5.1240     8.2480    10.2260     2.0790 
   68.5000   -33.2060    70.7600     5.1050     8.3470    10.4070     2.0720 
   68.6250   -33.2760    70.0700     5.1940     8.4930    10.6060     2.0610 
   68.7500   -33.3080    67.6770     5.3290     8.5970    10.7770     2.0540 
   68.8750   -33.2650    65.8050     5.4790     8.6950    10.9730     2.0600 
   69.0000   -33.1110    65.8900     5.5750     8.8690    11.0020     2.0760 
   69.1250   -32.8380    67.1760     5.5760     8.9930    10.8920     2.0860 
   69.2500   -32.4970    68.4900     5.5440     8.9760    10.8870     2.0830 
   69.3750   -32.1290    69.1400     5.5480     8.8110    10.8740     2.0720 
   69.5000   -31.7100    70.3590     5.5860     8.5870    10.7380     2.0680 
   69.6250   -31.1060    70.4160     5.6450     8.4520    10.6370     2.0680 
   69.7500   -30.1970    68.6020     5.7150     8.3910    10.4760     2.0640 
   69.8750   -28.8600    65.9670     5.6780     8.2270    10.1330     2.0560 
   70.0000   -27.0610    65.5770     5.4310     7.8890     9.7490     2.0610 
   70.1250   -24.7480    69.7370     5.0170     7.2970     8.9040     2.0870 
   70.2500   -22.1100    77.8220     4.4390     6.5820     7.1500     2.1210 
   70.3750   -19.5470    87.3480     3.9120     5.9830     5.3820     2.1470 
   70.5000   -17.5370    95.8680     3.5270     5.5590     4.6790     2.1640 
   70.6250   -16.3540   101.7540     3.2870     5.3150     4.5960     2.1810 
   70.7500   -15.7610   106.7130     3.1850     5.1280     4.4650     2.2040 
   70.8750   -15.5420   110.2470     3.1150     4.9480     4.4720     2.2290 
   71.0000   -15.6270   111.3310     3.0640     4.7710     4.6130     2.2510 
   71.1250   -16.1010   108.8800     3.0470     4.6860     4.6820     2.2640 
   71.2500   -16.9410   106.1470     3.1630     4.8480     4.7130     2.2690 
   71.3750   -18.1540   104.2390     3.4600     5.3750     5.0620     2.2570 
   71.5000   -19.6930   101.8100     3.9510     6.2240     6.2260     2.2260 
   71.6250   -21.4430    95.2040     4.5840     7.2950     7.8270     2.1790 
   71.7500   -23.1170    84.6980     5.2720     8.2930     8.6340     2.1410 
   71.8750   -24.4630    74.2700     5.7980     8.9530     8.7000     2.1210 
   72.0000   -25.4630    66.9800     6.1020     9.2890     8.7170     2.1150 
   72.1250   -26.1260    65.4650     6.1170     9.3250     8.4560     2.1050 
   72.2500   -26.4710    65.3310     5.9800     9.2380     7.8280     2.0910 
   72.3750   -26.5000    64.6470     5.7950     9.1390     7.1360     2.0790 
   72.5000   -26.3540    63.0630     5.5790     9.0010     6.7210     2.0760 
   72.6250   -26.1950    61.1940     5.3470     8.7580     6.5510     2.0770 
   72.7500   -26.1290    60.3180     5.0880     8.4200     6.4650     2.0770 
   72.8750   -26.1930    59.4240     4.8540     8.0840     6.5820     2.0780 
   73.0000   -26.4070    59.9330     4.7160     7.8480     6.7500     2.0800 
   73.1250   -26.8680    60.3760     4.7100     7.8190     6.5940     2.0730 
   73.2500   -27.6340    61.0270     4.8240     8.0670     6.4320     2.0560 
   73.3750   -28.6850    61.8710     5.0490     8.6560     7.1130     2.0430 
   73.5000   -29.7870    62.4600     5.3210     9.2420     8.5130     2.0440 
   73.6250   -30.6360    62.7060     5.5320     9.4770     8.8740     2.0500 
   73.7500   -31.1240    61.9690     5.6450     9.2410     8.7570     2.0540 
   73.8750   -31.3150    62.8500     5.5990     8.5600     8.6610     2.0570 
   74.0000   -31.3900    64.0020     5.5000     7.9250     8.7270     2.0630 
   74.1250   -31.4580    65.6200     5.4470     7.5420     8.9840     2.0720 
   74.2500   -31.5740    66.2720     5.4660     7.3590     9.0940     2.0830 
   74.3750   -31.8170    66.1980     5.5460     7.3200     9.0210     2.0910 
   74.5000   -32.2700    65.2680     5.6740     7.3600     9.0700     2.0900 
   74.6250   -32.9330    62.9660     5.8420     7.4610     9.1500     2.0800 
   74.7500   -33.6270    59.9400     6.0170     7.6070     9.1970     2.0740 
   74.8750   -34.1820    57.3400     6.1620     7.7780     9.3410     2.0740 
   75.0000   -34.5530    56.1770     6.2520     7.8710     9.5830     2.0790 
   75.1250   -34.7270    55.6130     6.2840     7.7370     9.7450     2.0760 
   75.2500   -34.7470    55.6310     6.2650     7.4030     9.6420     2.0700 
   75.3750   -34.6490    56.1710     6.2180     7.0820     9.3020     2.0660 
   75.5000   -34.4740    57.4070     6.1630     6.8850     8.8480     2.0690 
   75.6250   -34.2310    59.0090     6.1230     6.7510     8.5320     2.0750 
   75.7500   -33.9460    59.8300     6.1210     6.7280     8.7010     2.0760 
   75.8750   -33.6720    60.8310     6.1220     6.7250     9.1770     2.0670 
   76.0000   -33.4370    59.7800     6.1070     6.7070     9.3810     2.0560 
   76.1250   -33.2030    59.4370     6.0700     6.6640     9.2760     2.0480 
   76.2500   -32.9040    58.8090     5.9970     6.5930     9.3510     2.0480 
   76.3750   -32.5280    59.3690     5.9320     6.5240     9.5990     2.0600 
   76.5000   -32.1470    58.9370     5.8940     6.4840     9.5350     2.0710 
   76.6250   -31.8120    58.9180     5.8990     6.4880     9.3380     2.0690 
   76.7500   -31.4990    59.9210     5.9360     6.5230     9.9520     2.0560 
   76.8750   -31.1550    61.5840     5.9720     6.5560    11.7680     2.0520 
   77.0000   -30.7530    62.4460     5.9690     6.5380    12.5250     2.0570 
   77.1250   -30.2860    62.9720     5.8520     6.4160    11.0120     2.0660 
   77.2500   -29.7590    64.0300     5.6540     6.2090     9.8080     2.0760 
   77.3750   -29.1900    66.1710     5.4200     5.9650     9.7190     2.0850 
   77.5000   -28.6470    67.4070     5.2270     5.7670     9.6690     2.0890 
   77.6250   -28.1810    68.7630     5.1560     5.6770     9.5080     2.0870 
   77.7500   -27.7230    69.7390     5.1420     5.6590     9.3260     2.0820 
   77.8750   -27.1350    71.0720     5.1770     5.6930     9.1550     2.0790 
   78.0000   -26.3390    70.6300     5.2350     5.7480     8.9380     2.0800 
   78.1250   -25.2990    69.8300     5.2740     5.7800     8.4780     2.0810 
   78.2500   -24.0480    69.4400     5.2370     5.7280     7.5810     2.0820 
   78.3750   -22.5870    71.4560     5.0590     5.5360     7.0270     2.0880 
   78.5000   -20.9100    75.5750     4.7630     5.2140     7.5140     2.1140 
