~V
VERS. 2.00: Ver 2.00
~W
STRT.M 60.0000:
STOP.M 249.0000:
STEP.M 0.1250:
NULL. -999.2500:
UWI. F10851:
~C
DEPT.M :
TVD. :
DX. :
DY. :
SP.MV :
GR.API :
RI. :
RML.OHMM :
RXO.OHMM :
DEN.GM/CC :
~A
# ...
  160.3750   160.3720     0.2120    -0.1900    -7.3090    81.6890     9.3370    10.9100    15.7720     2.3960 
  160.5000   160.4970     0.2110    -0.1900    -7.4160    81.2980    11.7410    14.0230    25.1380     2.3790 
  160.6250   160.6220     0.2100    -0.1900    -7.5720    78.7280    15.4030    18.6680    33.5550     2.3640 
  160.7500   160.7460     0.2090    -0.1900    -7.7770    75.4890    19.3730    23.5590    38.2000     2.3530 
  160.8750   160.8710     0.2070    -0.1890    -8.0210    71.6880    22.6340    27.3910    38.8520     2.3470 
  161.0000   160.9960     0.2060    -0.1890    -8.2660    69.3150    24.7870    29.7730    37.0890     2.3440 
  161.1250   161.1210     0.2050    -0.1890    -8.4640    69.2250    25.7350    30.7050    36.1070     2.3430 
  161.2500   161.2460     0.2040    -0.1890    -8.5610    70.0820    26.5000    31.6620    40.8970     2.3440 
  161.3750   161.3710     0.2030    -0.1890    -8.5030    68.9050    27.6970    33.5000    48.0690     2.3460 
  161.5000   161.4960     0.2010    -0.1890    -8.3000    67.0990    29.0940    35.9420    48.4790     2.3480 
  161.6250   161.6210     0.2000    -0.1890    -7.9850    67.4480    28.6510    36.0380    45.3760     2.3520 
  161.7500   161.7460     0.1990    -0.1890    -7.6320    68.2970    25.5610    32.6080    45.7260     2.3570 
  161.8750   161.8710     0.1980    -0.1890    -7.3150    67.9490    20.2160    25.9060    41.3500     2.3670 
  162.0000   161.9960     0.1960    -0.1890    -7.0710    68.8690    14.1820    18.0660    26.4540     2.3820 
  162.1250   162.1210     0.1950    -0.1890    -6.8960    73.4570    10.1120    12.6430    13.3030     2.3970 
  162.2500   162.2460     0.1940    -0.1890    -6.7480    78.6180     7.8120     9.5950     8.9470     2.4080 
  162.3750   162.3710     0.1930    -0.1890    -6.5730    80.8790     6.8520     8.4280     8.3880     2.4120 
  162.5000   162.4960     0.1920    -0.1890    -6.3210    80.8970     6.6970     8.4020     8.9380     2.4140 
  162.6250   162.6210     0.1900    -0.1890    -5.9690    81.1130     7.0020     8.9410    10.3870     2.4170 
  162.7500   162.7460     0.1890    -0.1890    -5.5410    81.5680     7.2100     9.2430    10.9380     2.4230 
  162.8750   162.8710     0.1880    -0.1890    -5.0580    79.7870     6.9650     8.8400     9.7970     2.4230 
  163.0000   162.9960     0.1870    -0.1890    -4.5510    74.7040     6.2800     7.8350     7.8920     2.4150 
  163.1250   163.1210     0.1860    -0.1890    -4.0520    66.8080     5.4060     6.6120     6.1880     2.3980 
  163.2500   163.2460     0.1840    -0.1900    -3.5910    58.3350     4.6060     5.5340     5.3190     2.3790 
  163.3750   163.3710     0.1830    -0.1900    -3.1990    51.4810     4.1170     4.9070     4.9150     2.3620 
  163.5000   163.4960     0.1820    -0.1900    -2.9000    48.1340     3.9440     4.7100     4.6750     2.3520 
  163.6250   163.6210     0.1810    -0.1900    -2.7240    49.3470     4.0510     4.8790     4.6820     2.3470 
  163.7500   163.7460     0.1800    -0.1900    -2.6720    51.4710     4.2710     5.1970     5.0710     2.3450 
  163.8750   163.8710     0.1780    -0.1900    -2.7570    53.6220     4.4890     5.5000     6.0880     2.3470 
  164.0000   163.9960     0.1770    -0.1900    -2.9470    57.9470     4.6740     5.7300     6.5160     2.3520 
  164.1250   164.1210     0.1760    -0.1900    -3.2040    65.1110     4.7710     5.8090     5.6420     2.3610 
  164.2500   164.2460     0.1750    -0.1910    -3.4680    71.1080     4.8030     5.7820     5.0590     2.3720 
  164.3750   164.3710     0.1740    -0.1910    -3.6770    73.7640     4.8010     5.7290     5.3170     2.3830 
  164.5000   164.4960     0.1730    -0.1910    -3.7750    74.0700     4.7780     5.6730     5.6950     2.3900 
  164.6250   164.6210     0.1710    -0.1910    -3.7250    73.5900     4.7600     5.6630     5.8820     2.3920 
  164.7500   164.7460     0.1700    -0.1910    -3.5670    73.1540     4.7870     5.7040     5.7850     2.3880 
  164.8750   164.8710     0.1690    -0.1910    -3.3670    73.2900     4.8010     5.7300     5.6550     2.3830 
  165.0000   164.9960     0.1680    -0.1910    -3.2180    73.4230     4.7910     5.7230     5.6070     2.3800 
  165.1250   165.1210     0.1670    -0.1920    -3.2150    73.3780     4.7740     5.7040     5.5360     2.3800 
  165.2500   165.2460     0.1660    -0.1920    -3.3770    73.5400     4.7790     5.7080     5.5570     2.3820 
  165.3750   165.3710     0.1640    -0.1920    -3.6840    73.5360     4.7980     5.7190     5.6190     2.3820 
  165.5000   165.4960     0.1630    -0.1920    -4.0610    73.1020     4.7270     5.5960     5.8090     2.3790 
  165.6250   165.6210     0.1620    -0.1920    -4.4220    73.4000     4.6340     5.4410     6.2920     2.3760 
  165.7500   165.7460     0.1610    -0.1920    -4.7040    75.5080     4.6280     5.3900     6.1580     2.3770 
  165.8750   165.8710     0.1600    -0.1920    -4.8900    77.7750     4.7610     5.5160     5.9830     2.3890 
  166.0000   165.9960     0.1590    -0.1930    -5.0040    77.6230     5.0650     5.8960     8.6760     2.4090 
  166.1250   166.1210     0.1570    -0.1930    -5.0650    75.0500     5.4650     6.4220    11.6130     2.4330 
  166.2500   166.2460     0.1560    -0.1930    -5.1130    73.3050     5.8770     6.9510    10.5440     2.4510 
  166.3750   166.3710     0.1550    -0.1930    -5.1780    74.6260     6.0720     7.1720     8.4970     2.4540 
  166.5000   166.4960     0.1540    -0.1930    -5.2610    77.1940     6.0430     7.0930     7.7890     2.4420 
  166.6250   166.6210     0.1530    -0.1930    -5.3660    79.3270     5.8220     6.7740     7.3630     2.4230 
  166.7500   166.7460     0.1520    -0.1940    -5.4980    80.0540     5.8030     6.7350     7.0350     2.4090 
  166.8750   166.8710     0.1510    -0.1940    -5.6590    79.0220     6.3500     7.4430    10.4680     2.4110 
  167.0000   166.9960     0.1490    -0.1940    -5.8420    76.7300     7.3600     8.7390    20.1010     2.4300 
  167.1250   167.1210     0.1480    -0.1940    -6.0390    73.2280     8.7610    10.4660    27.6140     2.4600 
  167.2500   167.2460     0.1470    -0.1940    -6.2320    70.3470    10.4580    12.4420    25.9110     2.4810 
  167.3750   167.3710     0.1460    -0.1950    -6.3820    69.6040    12.1600    14.2560    19.3480     2.4770 
  167.5000   167.4960     0.1450    -0.1950    -6.4350    70.0750    13.8450    16.0080    17.5740     2.4450 
  167.6250   167.6210     0.1440    -0.1950    -6.3140    69.8110    15.4390    17.7100    23.4050     2.3970 
  167.7500   167.7460     0.1420    -0.1950    -6.0010    69.2420    16.7730    19.2360    30.3920     2.3530 
  167.8750   167.8710     0.1410    -0.1960    -5.4960    68.6460    17.5250    20.0690    35.9520     2.3270 
  168.0000   167.9960     0.1400    -0.1960    -4.8680    67.9750    17.1780    19.5840    33.2970     2.3210 
  168.1250   168.1210     0.1390    -0.1960    -4.2240    68.6450    15.9510    18.0050    20.9230     2.3280 
  168.2500   168.2460     0.1380    -0.1970    -3.6900    71.0690    14.0310    15.6680    14.2660     2.3370 
  168.3750   168.3710     0.1360    -0.1970    -3.3380    73.1240    12.3330    13.7330    15.7560     2.3420 
  168.5000   168.4960     0.1350    -0.1970    -3.1380    73.2060    11.0140    12.2520    15.9150     2.3420 
  168.6250   168.6210     0.1340    -0.1970    -3.0500    72.1000    10.0390    11.1550    12.9520     2.3350 
  168.7500   168.7460     0.1330    -0.1980    -2.9860    71.1330     9.4590    10.4360    10.5850     2.3220 
  168.8750   168.8710     0.1320    -0.1980    -2.8580    70.1740     9.2030    10.0530    10.2110     2.3030 
  169.0000   168.9960     0.1300    -0.1980    -2.6520    68.2700     9.4340    10.2470    11.4080     2.2830 
  169.1250   169.1210     0.1290    -0.1990    -2.4110    65.1370    10.5380    11.5070    14.4660     2.2720 
  169.2500   169.2460     0.1280    -0.1990    -2.1790    62.0970    12.4630    13.7210    19.8970     2.2750 
  169.3750   169.3710     0.1270    -0.1990    -2.0030    60.6500    14.2920    15.7450    28.3100     2.2940 
