~V
VERS. 2.00: Ver 2.00
~W
STRT.M 40.0000:
STOP.M 213.0000:
STEP.M 0.1250:
NULL. -999.2500:
UWI. F10805:
~C
DEPT.M :
SP.MV :
GR.API :
RI. :
RML.OHMM :
RXO.OHMM :
DEN.GM/CC :
~A
# ...
  104.3750    -5.5790   104.6310     2.8980     3.1010     3.4910     2.2130 
  104.5000    -5.5140   104.8010     2.7420     2.9410     3.2000     2.2290 
  104.6250    -5.5360   104.6620     2.5700     2.7640     2.9290     2.2440 
  104.7500    -5.7600   103.4290     2.4670     2.6630     2.8120     2.2530 
  104.8750    -6.2010   100.9730     2.4960     2.7090     2.9270     2.2450 
  105.0000    -6.9600    98.2170     2.6660     2.9070     3.5050     2.2240 
  105.1250    -7.9970    95.9220     3.0080     3.2960     4.4460     2.2040 
  105.2500    -9.0780    91.0620     3.6140     3.9730     6.3990     2.2000 
  105.3750    -9.9740    85.1040     4.6550     5.1710     9.4560     2.2260 
  105.5000   -10.5990    78.8210     6.3780     7.1470    14.0720     2.2920 
  105.6250   -11.0750    74.3970     8.9070    10.1210    27.3520     2.4040 
  105.7500   -11.4150    69.2230    12.2810    13.6170    43.0100     2.5080 
  105.8750   -11.7110    64.7450    14.9160    16.2070    41.0570     2.5090 
  106.0000   -11.9050    62.5800    15.5790    16.8080    27.0540     2.3850 
  106.1250   -12.0440    64.0770    14.4060    15.3190    19.2330     2.2030 
  106.2500   -12.1480    66.0990    11.9540    12.8080    16.2920     2.0860 
  106.3750   -12.3100    66.8700    10.1350    10.8230    13.7390     2.0590 
  106.5000   -12.4730    67.5960     9.1330     9.8090    13.8150     2.0700 
  106.6250   -12.6670    69.0390     8.8120     9.5020    13.4030     2.0750 
  106.7500   -12.9090    70.2580     8.8180     9.4310    11.0530     2.0740 
  106.8750   -13.0690    70.1830     8.8040     9.3450    10.8070     2.0650 
  107.0000   -13.1380    69.9700     8.3300     8.8670    12.0310     2.0510 
  107.1250   -13.0580    71.0930     7.5850     8.1520    11.1060     2.0470 
  107.2500   -12.8690    73.0680     6.8810     7.4690     8.3310     2.0650 
  107.3750   -12.4920    75.3420     6.4760     7.0420     7.2060     2.0920 
  107.5000   -12.0680    76.1420     6.3520     6.9060     8.2690     2.1020 
  107.6250   -11.5650    76.7230     6.2260     6.8070     8.8260     2.0910 
  107.7500   -11.1410    78.4830     5.9370     6.5160     9.0720     2.0830 
  107.8750   -10.7650    82.4930     5.4210     5.9180     8.3050     2.1100 
  108.0000   -10.3220    86.2100     4.7150     5.0890     5.6570     2.1490 
  108.1250    -9.9200    89.6490     3.9290     4.2290     4.2370     2.1850 
  108.2500    -9.5210    93.0090     3.3820     3.6200     4.2430     2.1990 
  108.3750    -9.2350    98.6330     3.1050     3.3290     4.0180     2.2150 
  108.5000    -9.0350   103.4860     3.0280     3.2510     3.7780     2.2370 
  108.6250    -8.9120   106.9560     3.0580     3.2920     3.8210     2.2620 
  108.7500    -8.9450   107.0710     3.1200     3.3720     4.0530     2.2720 
  108.8750    -9.2280   106.6030     3.1860     3.4460     4.0900     2.2640 
  109.0000    -9.5920   104.4910     3.2150     3.4730     3.8270     2.2470 
  109.1250    -9.9030   103.1120     3.1850     3.4180     3.6800     2.2330 
  109.2500   -10.1090   100.8950     3.0810     3.2920     3.5970     2.2270 
  109.3750   -10.1340   102.0880     2.9750     3.1760     3.3890     2.2280 
  109.5000   -10.0840   103.3050     2.9760     3.1870     3.3070     2.2260 
  109.6250   -10.0230   104.4770     3.1660     3.4230     3.6320     2.2180 
  109.7500   -10.1710    99.3480     3.5540     3.9190     4.6790     2.2060 
  109.8750   -10.5490    91.4990     4.1620     4.6650     5.8700     2.1960 
  110.0000   -11.0450    83.5480     4.7810     5.4170     6.4530     2.1780 
  110.1250   -11.5020    80.2510     5.1450     5.8550     6.9730     2.1510 
  110.2500   -11.8850    80.0050     5.1280     5.8310     6.9960     2.1270 
  110.3750   -12.1550    81.0330     4.7520     5.3990     5.9470     2.1230 
  110.5000   -12.3620    82.2750     4.3120     4.9110     4.9670     2.1380 
  110.6250   -12.5880    83.7370     4.1700     4.7520     4.5820     2.1710 
  110.7500   -12.8050    84.5120     4.3830     5.0600     4.9970     2.2240 
  110.8750   -13.1060    82.6650     5.0110     5.8890     6.7080     2.2900 
  111.0000   -13.4200    80.2230     5.9560     7.0390     9.0650     2.3250 
  111.1250   -13.8030    79.0270     6.8730     8.1080    10.5360     2.2850 
  111.2500   -14.1690    79.2440     7.4580     8.7790    10.4290     2.1880 
  111.3750   -14.4820    79.3840     7.6690     8.9690     9.7240     2.1000 
  111.5000   -14.6220    78.0020     7.5720     8.8320     9.4280     2.0530 
  111.6250   -14.6550    76.2280     7.3810     8.5760    10.0700     2.0470 
  111.7500   -14.7360    73.6340     7.2130     8.3570    11.0730     2.0510 
  111.8750   -14.8710    72.3610     7.0660     8.1710    10.7160     2.0570 
  112.0000   -15.0230    72.2600     6.9760     8.0220     9.2890     2.0610 
  112.1250   -15.1260    73.8570     6.9950     7.9850     8.4380     2.0660 
  112.2500   -15.1810    75.5770     7.1370     8.1180     8.9520     2.0710 
  112.3750   -15.1470    76.8110     7.5080     8.4780    10.4760     2.0750 
  112.5000   -15.0650    77.1730     8.0820     8.9840    11.4420     2.0710 
  112.6250   -14.8830    76.3970     8.6250     9.4900    11.5990     2.0630 
  112.7500   -14.6230    75.1900     9.0040     9.9020    12.0280     2.0540 
  112.8750   -14.2390    74.0670     9.2730    10.2030    11.6350     2.0580 
  113.0000   -13.7770    73.5490     9.4070    10.3660     9.6690     2.0650 
  113.1250   -13.2630    74.1550     9.0970    10.0000     8.9910     2.0820 
  113.2500   -12.6500    76.9930     8.0670     8.9630    11.7360     2.1040 
  113.3750   -12.0070    81.4430     6.5270     7.3860    12.4340     2.1390 
  113.5000   -11.3640    87.0330     5.0040     5.7710     7.6500     2.1770 
  113.6250   -10.7820    91.2350     4.0670     4.7070     3.8710     2.2150 
  113.7500   -10.3320    93.7380     3.8170     4.4460     3.6960     2.2590 
  113.8750   -10.2310    91.2290     4.3360     5.1070     6.4770     2.3220 
  114.0000   -10.3370    83.5780     5.6120     6.5000    11.9690     2.4010 
  114.1250   -10.5030    72.4800     7.4090     8.3110    15.7160     2.4790 
  114.2500   -10.5940    63.4780     9.2270    10.0190    14.4060     2.5220 
  114.3750   -10.6810    58.9330    10.5220    11.0840    10.2910     2.5150 
  114.5000   -10.8300    58.0510    10.8380    11.2180     9.8480     2.4910 
  114.6250   -11.0040    57.6460     9.9900    10.3610    15.8960     2.4850 
  114.7500   -11.2120    56.6090     8.5460     8.9550    20.5610     2.4980 
  114.8750   -11.3520    56.0450     6.9920     7.5340    15.7620     2.4900 
  115.0000   -11.5020    58.6650     6.0370     6.6100     7.7180     2.4480 
  115.1250   -11.6980    62.0100     5.8650     6.5990     9.4720     2.4030 
  115.2500   -11.9660    63.2120     6.4710     7.6510    17.7220     2.4050 
  115.3750   -12.1750    58.9740     8.5740     9.9730    21.4180     2.4580 
  115.5000   -12.3410    53.8960    11.6560    13.1410    20.9560     2.5210 
  115.6250   -12.4300    49.2090    15.0170    16.2220    20.7960     2.5500 
  115.7500   -12.4210    47.4480    17.5020    18.3720    23.5730     2.5540 
  115.8750   -12.4170    46.2960    18.2140    19.1370    26.0290     2.5480 
  116.0000   -12.4330    45.5140    17.7190    18.7600    25.4440     2.5460 
  116.1250   -12.4120    44.2360    16.3540    17.4550    21.7550     2.5310 
  116.2500   -12.3170    44.0750    14.9790    16.0580    16.6980     2.5010 
  116.3750   -12.1970    44.2510    14.0340    15.1680    14.7450     2.4740 
  116.5000   -12.0990    44.2730    13.7300    14.9760    15.8630     2.4720 
  116.6250   -12.0640    44.3620    14.1340    15.4540    18.5810     2.4940 
  116.7500   -12.0570    44.3260    14.8370    16.1990    20.6320     2.5180 
  116.8750   -12.1000    44.8270    15.3770    16.7470    19.6250     2.5290 
  117.0000   -12.1710    45.2470    15.4370    16.8310    17.4020     2.5230 
  117.1250   -12.1850    46.7450    15.0530    16.4340    16.3140     2.4910 
