~V
VERS. 2.00: Ver 2.00
~W
STRT.M 60.0000:
STOP.M 249.0000:
STEP.M 0.1250:
NULL. -999.2500:
UWI. F10851:
~C
DEPT.M :
TVD. :
DX. :
DY. :
SP.MV :
GR.API :
RI. :
RML.OHMM :
RXO.OHMM :
DEN.GM/CC :
~A
# ...
  196.8750   196.8690    -0.1320    -0.3580   -10.0960    66.1460    17.4620    17.3960    18.0560     2.2140 
  197.0000   196.9940    -0.1330    -0.3580    -9.4380    70.0810    16.2330    16.1980    15.5170     2.2290 
  197.1250   197.1190    -0.1340    -0.3590    -8.8870    72.4500    15.3760    15.3630    15.4560     2.2460 
  197.2500   197.2440    -0.1350    -0.3600    -8.4710    71.9270    14.8720    14.8500    17.3390     2.2620 
  197.3750   197.3690    -0.1360    -0.3600    -8.2120    70.0440    14.7310    14.6750    17.8270     2.2750 
  197.5000   197.4940    -0.1370    -0.3610    -8.0730    69.1160    15.0100    14.9010    17.1210     2.2830 
  197.6250   197.6190    -0.1380    -0.3620    -8.0370    68.7350    15.6830    15.5350    17.7610     2.2880 
  197.7500   197.7440    -0.1390    -0.3620    -8.0990    67.6550    16.6600    16.4840    21.6570     2.2890 
  197.8750   197.8690    -0.1400    -0.3630    -8.2870    65.5790    17.9040    17.7510    24.5950     2.2870 
  198.0000   197.9940    -0.1410    -0.3630    -8.5910    63.3150    19.3550    19.2480    23.5400     2.2810 
  198.1250   198.1190    -0.1420    -0.3640    -9.0070    60.7130    20.4840    20.3900    23.3710     2.2700 
  198.2500   198.2440    -0.1440    -0.3650    -9.4990    59.7550    20.9480    20.8710    25.3050     2.2590 
  198.3750   198.3690    -0.1450    -0.3650   -10.0110    61.7340    20.5280    20.4320    26.2920     2.2480 
  198.5000   198.4940    -0.1460    -0.3660   -10.4810    64.2020    19.5770    19.4820    25.8660     2.2390 
  198.6250   198.6190    -0.1470    -0.3670   -10.8580    65.3340    18.4880    18.4000    23.1510     2.2300 
  198.7500   198.7440    -0.1480    -0.3670   -11.1290    64.9920    17.5120    17.4560    19.7320     2.2220 
  198.8750   198.8690    -0.1490    -0.3680   -11.2920    63.8080    16.9090    16.8830    19.1630     2.2200 
  199.0000   198.9940    -0.1500    -0.3680   -11.3910    62.6620    16.8550    16.9100    19.5630     2.2240 
  199.1250   199.1190    -0.1510    -0.3690   -11.4540    61.7170    17.4660    17.6000    19.6030     2.2350 
  199.2500   199.2440    -0.1520    -0.3700   -11.4910    60.9300    18.6200    18.8460    20.3210     2.2480 
  199.3750   199.3690    -0.1530    -0.3700   -11.4980    60.3700    20.0930    20.4300    20.4640     2.2600 
  199.5000   199.4940    -0.1540    -0.3710   -11.4550    60.0110    21.4590    21.8880    19.9230     2.2720 
  199.6250   199.6190    -0.1550    -0.3710   -11.3320    59.5850    22.3810    22.8670    21.0620     2.2850 
  199.7500   199.7440    -0.1560    -0.3720   -11.1330    58.3700    22.4710    22.9700    23.9310     2.2980 
  199.8750   199.8690    -0.1580    -0.3720   -10.8870    57.8620    22.0390    22.5480    25.1460     2.3060 
  200.0000   199.9940    -0.1590    -0.3730   -10.6550    58.6600    21.2890    21.8120    22.9420     2.3050 
  200.1250   200.1190    -0.1600    -0.3730   -10.5000    59.1950    20.6460    21.2080    20.0750     2.2890 
  200.2500   200.2440    -0.1610    -0.3740   -10.4370    58.9240    20.3240    20.9220    19.0910     2.2630 
  200.3750   200.3690    -0.1620    -0.3740   -10.4360    57.1150    20.6390    21.2640    20.3140     2.2350 
  200.5000   200.4940    -0.1630    -0.3750   -10.4240    55.1710    21.6290    22.2840    23.3260     2.2140 
  200.6250   200.6190    -0.1640    -0.3750   -10.3010    53.9290    23.7840    24.6390    30.6640     2.2120 
  200.7500   200.7440    -0.1650    -0.3760    -9.9860    53.1800    27.6090    29.0950    39.5500     2.2350 
  200.8750   200.8690    -0.1660    -0.3760    -9.4200    52.0470    34.6430    38.0090    49.0190     2.2920 
  201.0000   200.9940    -0.1670    -0.3770    -8.6470    50.5330    44.0220    49.9270    57.7290     2.3760 
  201.1250   201.1190    -0.1680    -0.3770    -7.7100    49.4460    43.7780    50.0210    56.8260     2.4710 
  201.2500   201.2440    -0.1690    -0.3780    -6.6940    49.2910    35.9540    41.3730    66.5090     2.5550 
  201.3750   201.3690    -0.1700    -0.3780    -5.6860    49.4080    22.6420    25.6450    81.5820     2.6090 
  201.5000   201.4940    -0.1710    -0.3780    -4.7590    47.9360     9.4150    10.6280    58.5020     2.6260 
  201.6250   201.6190    -0.1730    -0.3790    -3.9670    43.4020     4.9890     5.6410    18.3100     2.5990 
  201.7500   201.7440    -0.1740    -0.3790    -3.3300    37.2670     3.2830     3.7120     2.8260     2.5370 
  201.8750   201.8690    -0.1750    -0.3800    -2.8770    31.8890     2.7050     3.1000     2.8870     2.4500 
  202.0000   201.9940    -0.1760    -0.3800    -2.5940    28.0170     2.7530     3.2860     6.2640     2.3670 
  202.1250   202.1190    -0.1770    -0.3800    -2.4860    25.3220     3.4550     4.3420    15.7870     2.3220 
  202.2500   202.2440    -0.1780    -0.3810    -2.5240    23.2520     4.6400     6.0120    36.1190     2.3350 
  202.3750   202.3690    -0.1790    -0.3810    -2.6690    21.6320     5.8680     7.6380    62.8930     2.4050 
  202.5000   202.4940    -0.1800    -0.3820    -2.8530    20.4590     6.4390     8.2870    68.2720     2.5000 
  202.6250   202.6190    -0.1810    -0.3820    -3.0020    20.8880     5.9860     7.5280    43.7990     2.5860 
  202.7500   202.7440    -0.1820    -0.3820    -3.0460    22.7170     4.7250     5.7310    17.4720     2.6360 
  202.8750   202.8690    -0.1830    -0.3830    -2.9320    25.9830     3.3300     3.9060     5.5440     2.6320 
  203.0000   202.9940    -0.1850    -0.3830    -2.6810    30.3000     2.3270     2.6700     2.9700     2.5810 
  203.1250   203.1190    -0.1860    -0.3830    -2.3530    34.6220     1.8010     2.1040     2.8180     2.4940 
  203.2500   203.2440    -0.1870    -0.3840    -2.0450    36.7680     1.5780     1.9290     2.5940     2.3990 
  203.3750   203.3690    -0.1880    -0.3840    -1.8470    36.2810     1.5000     1.9200     2.4840     2.3190 
  203.5000   203.4940    -0.1890    -0.3840    -1.7790    35.1900     1.4740     1.9500     2.4560     2.2650 
  203.6250   203.6190    -0.1900    -0.3840    -1.8270    33.7030     1.4680     1.9660     2.4250     2.2360 
  203.7500   203.7440    -0.1910    -0.3850    -1.9290    31.1420     1.4740     1.9750     2.3850     2.2220 
  203.8750   203.8690    -0.1920    -0.3850    -2.0050    28.4200     1.4990     1.9940     2.4160     2.2150 
  204.0000   203.9940    -0.1940    -0.3850    -1.9980    26.9790     1.5330     2.0290     2.7560     2.2110 
  204.1250   204.1190    -0.1950    -0.3860    -1.8970    26.4100     1.5850     2.0860     3.0960     2.2120 
  204.2500   204.2440    -0.1960    -0.3860    -1.7500    26.1210     1.6400     2.1430     2.9240     2.2190 
  204.3750   204.3690    -0.1970    -0.3860    -1.5870    27.5750     1.6930     2.1910     2.7360     2.2330 
  204.5000   204.4940    -0.1980    -0.3860    -1.4490    30.2670     1.7350     2.2370     2.7820     2.2510 
  204.6250   204.6190    -0.1990    -0.3870    -1.3780    31.5990     1.7520     2.2530     2.7670     2.2690 
  204.7500   204.7440    -0.2000    -0.3870    -1.3780    31.3820     1.7600     2.2610     2.7490     2.2870 
  204.8750   204.8690    -0.2010    -0.3870    -1.4450    31.2190     1.7700     2.2820     2.8430     2.3040 
  205.0000   204.9940    -0.2020    -0.3870    -1.5770    31.4370     1.8050     2.3390     3.0000     2.3260 
  205.1250   205.1190    -0.2030    -0.3880    -1.7810    32.0120     1.8510     2.4150     3.0520     2.3580 
  205.2500   205.2440    -0.2040    -0.3880    -2.0390    32.5890     1.8950     2.5010     3.2550     2.4010 
  205.3750   205.3690    -0.2050    -0.3880    -2.3430    32.3470     1.8970     2.5150     3.5090     2.4490 
  205.5000   205.4940    -0.2060    -0.3880    -2.6680    30.2360     1.8630     2.4740     3.2440     2.4870 
  205.6250   205.6190    -0.2070    -0.3890    -2.9670    27.9690     1.8100     2.4040     2.8770     2.4990 
  205.7500   205.7440    -0.2090    -0.3890    -3.1880    27.2380     1.7510     2.3290     2.9980     2.4850 
  205.8750   205.8690    -0.2100    -0.3890    -3.2750    28.0600     1.7260     2.3110     3.6800     2.4620 
