~V
VERS. 2.00: Ver 2.00
~W
STRT.M 62.0000:
STOP.M 256.0000:
STEP.M 0.1250:
NULL. -999.2500:
UWI. F10886:
~C
DEPT.M :
TVD. :
DX. :
DY. :
SP.MV :
GR.API :
RI. :
RML.OHMM :
RXO.OHMM :
DEN.GM/CC :
~A
# ...
   71.1250    71.1240    -0.0490    -0.1030   -13.3210    73.1390     3.9690     4.8740     4.6930     2.2230 
   71.2500    71.2490    -0.0500    -0.1040   -12.6450    78.6770     3.6800     4.5660     4.7280     2.2600 
   71.3750    71.3740    -0.0500    -0.1060   -11.9420    81.8360     3.5420     4.4350     4.8720     2.2770 
   71.5000    71.4990    -0.0510    -0.1070   -11.3250    84.3570     3.5500     4.4800     4.5870     2.2790 
   71.6250    71.6240    -0.0520    -0.1090   -10.8830    84.8510     3.6630     4.6560     4.2730     2.2790 
   71.7500    71.7490    -0.0520    -0.1100   -10.6000    84.9210     3.8120     4.8740     4.3690     2.2850 
   71.8750    71.8740    -0.0530    -0.1120   -10.4200    84.1720     3.9610     5.0660     4.8160     2.2870 
   72.0000    71.9990    -0.0540    -0.1130   -10.2800    84.9080     4.0620     5.1530     5.0850     2.2740 
   72.1250    72.1240    -0.0540    -0.1150   -10.1550    84.5780     4.0570     5.0730     4.9230     2.2490 
   72.2500    72.2490    -0.0550    -0.1160   -10.0590    84.6900     3.9570     4.8750     4.6170     2.2280 
   72.3750    72.3740    -0.0560    -0.1180   -10.0000    85.0540     3.8080     4.6500     4.2820     2.2250 
   72.5000    72.4990    -0.0570    -0.1190    -9.9670    86.8850     3.6880     4.4920     3.9820     2.2340 
   72.6250    72.6240    -0.0570    -0.1210    -9.9560    87.8140     3.6540     4.4600     3.9540     2.2380 
   72.7500    72.7490    -0.0580    -0.1220    -9.9660    87.7330     3.6950     4.5290     4.2030     2.2290 
   72.8750    72.8740    -0.0590    -0.1240   -10.0130    85.3240     3.7780     4.6580     4.4670     2.2150 
   73.0000    72.9990    -0.0590    -0.1250   -10.1020    83.4130     3.8680     4.7990     4.5630     2.2070 
   73.1250    73.1240    -0.0600    -0.1270   -10.2350    82.4030     3.9490     4.9220     4.5440     2.2060 
   73.2500    73.2490    -0.0610    -0.1280   -10.4000    83.1520     4.0320     5.0410     4.5300     2.2040 
   73.3750    73.3740    -0.0610    -0.1300   -10.5910    82.6620     4.1440     5.1960     4.5520     2.1970 
   73.5000    73.4990    -0.0620    -0.1310   -10.8050    79.7730     4.2860     5.3880     4.5980     2.1810 
   73.6250    73.6240    -0.0630    -0.1330   -11.0480    77.6220     4.4320     5.5820     4.6240     2.1600 
   73.7500    73.7490    -0.0640    -0.1340   -11.3130    77.5700     4.5420     5.7270     4.5490     2.1460 
   73.8750    73.8740    -0.0640    -0.1360   -11.5860    80.1810     4.5640     5.7530     4.3710     2.1530 
   74.0000    73.9990    -0.0650    -0.1370   -11.8450    82.4350     4.4940     5.6550     4.2870     2.1850 
   74.1250    74.1240    -0.0660    -0.1390   -12.0770    84.8610     4.3650     5.4760     4.3750     2.2240 
   74.2500    74.2490    -0.0670    -0.1400   -12.2900    85.4430     4.2190     5.2900     4.4160     2.2470 
   74.3750    74.3740    -0.0670    -0.1420   -12.4930    87.7410     4.1060     5.1560     4.3180     2.2470 
   74.5000    74.4990    -0.0680    -0.1430   -12.6930    89.4370     4.0460     5.0950     4.2460     2.2320 
   74.6250    74.6240    -0.0690    -0.1450   -12.8720    92.2850     4.0530     5.0990     4.2900     2.2150 
   74.7500    74.7490    -0.0690    -0.1460   -13.0060    92.1570     4.1320     5.1620     4.4180     2.2030 
   74.8750    74.8740    -0.0700    -0.1480   -13.0760    91.6990     4.2730     5.3060     4.6380     2.2010 
   75.0000    74.9990    -0.0710    -0.1490   -13.0910    90.4380     4.4460     5.5240     4.8990     2.2040 
   75.1250    75.1240    -0.0720    -0.1510   -13.0730    87.1730     4.6230     5.7810     5.1210     2.2040 
   75.2500    75.2490    -0.0720    -0.1520   -13.0480    82.3120     4.7890     6.0290     5.3060     2.1900 
   75.3750    75.3740    -0.0730    -0.1540   -13.0400    77.4580     4.9530     6.2420     5.4060     2.1670 
   75.5000    75.4990    -0.0740    -0.1550   -13.0640    75.3570     5.1110     6.4200     5.3470     2.1480 
   75.6250    75.6240    -0.0750    -0.1570   -13.1240    73.7470     5.2600     6.5860     5.3210     2.1380 
   75.7500    75.7490    -0.0750    -0.1580   -13.2100    72.5320     5.4060     6.7550     5.5120     2.1310 
   75.8750    75.8740    -0.0760    -0.1600   -13.3080    71.2300     5.5600     6.9310     5.8010     2.1230 
   76.0000    75.9990    -0.0770    -0.1610   -13.4170    71.2030     5.7980     7.2080     6.2040     2.1090 
   76.1250    76.1240    -0.0780    -0.1630   -13.5560    69.0150     6.2690     7.7960     6.8260     2.0900 
   76.2500    76.2490    -0.0780    -0.1640   -13.7340    65.8960     7.0590     8.8280     8.0930     2.0840 
   76.3750    76.3740    -0.0790    -0.1660   -13.9430    63.4490     8.1110    10.2300    15.2600     2.1270 
   76.5000    76.4990    -0.0800    -0.1670   -14.1470    63.6550     9.1310    11.5800    31.0600     2.2190 
   76.6250    76.6240    -0.0810    -0.1690   -14.2980    65.4980     9.7210    12.2950    41.8870     2.3130 
   76.7500    76.7490    -0.0810    -0.1700   -14.3710    66.8780     9.6370    12.0620    35.5380     2.3450 
   76.8750    76.8740    -0.0820    -0.1720   -14.3680    67.7640     8.8760    10.9520    20.4200     2.2930 
   77.0000    76.9990    -0.0830    -0.1730   -14.3250    66.2800     7.8010     9.5320    10.3390     2.2070 
   77.1250    77.1240    -0.0840    -0.1750   -14.2720    63.1100     6.8110     8.3650     6.9550     2.1390 
   77.2500    77.2490    -0.0840    -0.1760   -14.2220    60.2600     6.1490     7.6930     6.1120     2.1040 
   77.3750    77.3740    -0.0850    -0.1780   -14.1600    61.2520     5.8290     7.4310     5.9890     2.0910 
   77.5000    77.4990    -0.0860    -0.1790   -14.0710    63.8460     5.6600     7.2740     6.0630     2.0850 
   77.6250    77.6240    -0.0870    -0.1810   -13.9350    66.9590     5.5510     7.0980     6.1060     2.0800 
   77.7500    77.7490    -0.0870    -0.1820   -13.7540    69.0020     5.5620     7.0480     5.9130     2.0760 
   77.8750    77.8740    -0.0880    -0.1840   -13.5350    70.8380     5.9230     7.5060     5.8620     2.0820 
   78.0000    77.9990    -0.0890    -0.1860   -13.2960    71.0180     6.8390     8.7860     7.4700     2.1140 
   78.1250    78.1240    -0.0900    -0.1870   -13.0640    68.7990     8.2180    10.7080    12.4830     2.1940 
   78.2500    78.2490    -0.0900    -0.1890   -12.8570    66.2600     9.3680    12.2160    19.0100     2.3120 
   78.3750    78.3740    -0.0910    -0.1900   -12.6840    66.6800     9.5550    12.2830    22.1670     2.4240 
   78.5000    78.4990    -0.0920    -0.1920   -12.5330    71.1900     8.6700    10.8490    19.1690     2.4780 
   78.6250    78.6240    -0.0930    -0.1930   -12.3830    79.3180     7.0640     8.5500    11.7760     2.4480 
   78.7500    78.7490    -0.0930    -0.1950   -12.2200    87.0390     5.5270     6.5380     6.3250     2.3670 
   78.8750    78.8740    -0.0940    -0.1960   -12.0430    91.6160     4.5230     5.3980     5.0010     2.2790 
   79.0000    78.9990    -0.0950    -0.1980   -11.8550    94.6540     4.0260     4.9720     4.9820     2.2140 
   79.1250    79.1240    -0.0960    -0.2000   -11.6530    95.2400     3.9190     5.0050     4.7710     2.1780 
   79.2500    79.2490    -0.0970    -0.2010   -11.4270    94.8820     3.9620     5.1450     4.3990     2.1640 
   79.3750    79.3740    -0.0970    -0.2030   -11.1640    92.7570     3.9670     5.1570     4.2400     2.1650 
   79.5000    79.4990    -0.0980    -0.2040   -10.8700    92.8940     3.8800     5.0260     4.2680     2.1730 
   79.6250    79.6240    -0.0990    -0.2060   -10.5640    93.3740     3.7600     4.8550     4.2480     2.1860 
   79.7500    79.7490    -0.1000    -0.2070   -10.2750    95.2620     3.6850     4.7460     4.0630     2.2030 
   79.8750    79.8730    -0.1000    -0.2090   -10.0400    96.5730     3.7090     4.7570     3.8660     2.2200 
   80.0000    79.9980    -0.1010    -0.2110    -9.8870    99.2720     3.8290     4.8890     3.9250     2.2350 
   80.1250    80.1230    -0.1020    -0.2120    -9.8410    99.9060     4.0430     5.1540     4.2230     2.2410 
