~V
VERS. 2.00: Ver 2.00
~W
STRT.M 60.0000:
STOP.M 249.0000:
STEP.M 0.1250:
NULL. -999.2500:
UWI. F10851:
~C
DEPT.M :
TVD. :
DX. :
DY. :
SP.MV :
GR.API :
RI. :
RML.OHMM :
RXO.OHMM :
DEN.GM/CC :
~A
# ...
  233.3750   233.3680    -0.4310    -0.3510     1.2790    33.2520     3.1950     3.6860     4.3370     2.3650 
  233.5000   233.4930    -0.4330    -0.3500     1.2740    32.9870     3.2380     3.7380     4.4830     2.3690 
  233.6250   233.6180    -0.4340    -0.3500     1.2340    32.0550     3.2670     3.7890     4.7350     2.3780 
  233.7500   233.7430    -0.4360    -0.3490     1.1690    31.4980     3.2720     3.8160     4.6630     2.3860 
  233.8750   233.8680    -0.4370    -0.3490     1.0900    31.2010     3.2530     3.7910     4.4360     2.3890 
  234.0000   233.9930    -0.4380    -0.3480     1.0090    30.3430     3.2230     3.7590     4.3760     2.3860 
  234.1250   234.1180    -0.4400    -0.3480     0.9330    29.4000     3.1920     3.7230     4.4060     2.3780 
  234.2500   234.2430    -0.4410    -0.3470     0.8680    29.0390     3.1590     3.6910     4.4520     2.3710 
  234.3750   234.3680    -0.4430    -0.3470     0.8180    29.8320     3.1290     3.6660     4.4620     2.3660 
  234.5000   234.4930    -0.4440    -0.3460     0.7810    31.1170     3.0800     3.6140     4.3120     2.3620 
  234.6250   234.6180    -0.4460    -0.3460     0.7550    31.5680     3.0240     3.5420     4.0750     2.3570 
  234.7500   234.7430    -0.4470    -0.3450     0.7370    30.7710     2.9590     3.4650     3.9200     2.3500 
  234.8750   234.8680    -0.4480    -0.3450     0.7240    30.2820     2.9100     3.4120     3.8730     2.3440 
  235.0000   234.9930    -0.4500    -0.3440     0.7120    31.0920     2.8800     3.3840     3.9340     2.3400 
  235.1250   235.1180    -0.4510    -0.3440     0.6990    31.8890     2.8660     3.3520     3.9940     2.3400 
  235.2500   235.2430    -0.4530    -0.3430     0.6870    31.5260     2.8490     3.3390     3.9930     2.3410 
  235.3750   235.3680    -0.4540    -0.3430     0.6750    31.3210     2.8380     3.3170     3.9880     2.3430 
  235.5000   235.4930    -0.4560    -0.3420     0.6630    31.0820     2.8200     3.3040     4.0430     2.3450 
  235.6250   235.6180    -0.4570    -0.3420     0.6500    29.9010     2.8140     3.3060     4.0480     2.3470 
  235.7500   235.7430    -0.4590    -0.3410     0.6380    28.5500     2.8140     3.3060     3.8720     2.3500 
  235.8750   235.8680    -0.4600    -0.3410     0.6260    28.5800     2.8120     3.3080     3.7740     2.3520 
  236.0000   235.9930    -0.4610    -0.3400     0.6140    29.2130     2.8120     3.3050     3.8340     2.3510 
  236.1250   236.1180    -0.4630    -0.3400     0.6020    29.7300     2.8090     3.2980     3.8370     2.3480 
  236.2500   236.2430    -0.4640    -0.3390     0.5890    30.3020     2.8140     3.2930     3.8290     2.3430 
  236.3750   236.3680    -0.4660    -0.3390     0.5770    31.2360     2.8160     3.2910     3.9220     2.3390 
  236.5000   236.4930    -0.4670    -0.3380     0.5650    31.4740     2.8160     3.2940     3.9820     2.3340 
  236.6250   236.6180    -0.4690    -0.3370     0.5530    30.7920     2.8150     3.3030     3.8400     2.3250 
  236.7500   236.7430    -0.4700    -0.3370     0.5410    30.4250     2.8080     3.3060     3.6740     2.3150 
  236.8750   236.8680    -0.4710    -0.3360     0.5280    30.8210     2.8080     3.3080     3.7000     2.3060 
  237.0000   236.9930    -0.4730    -0.3360     0.5160    30.6140     2.8110     3.3110     3.8110     2.3040 
  237.1250   237.1180    -0.4740    -0.3350     0.5040    30.0720     2.8180     3.3130     3.8620     2.3140 
  237.2500   237.2430    -0.4760    -0.3350     0.4920    30.1590     2.8210     3.3160     3.8620     2.3310 
  237.3750   237.3680    -0.4770    -0.3340     0.4790    31.5590     2.8200     3.3190     4.0560     2.3510 
  237.5000   237.4930    -0.4790    -0.3340     0.4670    32.1730     2.8180     3.3240     4.4970     2.3690 
  237.6250   237.6180    -0.4800    -0.3330     0.4550    31.6340     2.8130     3.3320     4.9040     2.3830 
  237.7500   237.7430    -0.4810    -0.3330     0.4430    31.3290     2.8160     3.3370     5.2790     2.3900 
  237.8750   237.8680    -0.4830    -0.3320     0.4310    31.8020     2.8160     3.3370     5.4390     2.3890 
  238.0000   237.9930    -0.4840    -0.3320     0.4180    32.1010     2.8160     3.3390     5.0220     2.3790 
  238.1250   238.1180    -0.4860    -0.3310     0.4060    31.1170     2.8210     3.3480     4.3850     2.3640 
  238.2500   238.2430    -0.4870    -0.3310     0.3940    30.2820     2.8150     3.3570     4.0520     2.3490 
  238.3750   238.3680    -0.4890    -0.3300     0.3820    30.5870     2.8180     3.3620     3.9760     2.3380 
  238.5000   238.4930    -0.4900    -0.3300     0.3690    31.2240     2.8180     3.3660     3.9190     2.3350 
  238.6250   238.6180    -0.4920    -0.3290     0.3570    30.4960     2.8170     3.3700     3.8510     2.3360 
  238.7500   238.7430    -0.4930    -0.3290     0.3450    29.5570     2.8180     3.3770     3.8170     2.3400 
  238.8750   238.8680    -0.4940    -0.3280     0.3330    29.6900     2.8190     3.3870     3.7860     2.3410 
  239.0000   238.9930    -0.4960    -0.3280     0.3210    30.7940     2.8160     3.4000     3.7910     2.3390 
  239.1250   239.1180    -0.4970    -0.3270     0.3080    31.8130     2.8230     3.4080     3.8250     2.3340 
  239.2500   239.2430    -0.4990    -0.3270     0.2960    31.9120     2.8200     3.4170     3.8020     2.3300 
  239.3750   239.3680    -0.5000    -0.3260     0.2840    30.9850     2.8180     3.4220     3.7500     2.3260 
  239.5000   239.4930    -0.5020    -0.3260     0.2720    29.5860     2.8150     3.4290     3.6670     2.3230 
  239.6250   239.6180    -0.5030    -0.3250     0.2600    28.6990     2.8150     3.4440     3.5380     2.3200 
  239.7500   239.7430    -0.5040    -0.3250     0.2470    28.9100     2.8150     3.4570     3.4500     2.3170 
  239.8750   239.8680    -0.5060    -0.3240     0.2350    30.0760     2.8150     3.4760     3.4730     2.3180 
  240.0000   239.9920    -0.5070    -0.3240     0.2230    30.7230     2.8150     3.4870     3.5580     2.3220 
  240.1250   240.1170    -0.5090    -0.3230     0.2110    30.3310     2.8130     3.4990     3.5330     2.3260 
  240.2500   240.2420    -0.5100    -0.3230     0.1980    30.0520     2.8150     3.5150     3.4130     2.3270 
  240.3750   240.3670    -0.5120    -0.3220     0.1860    30.7340     2.8200     3.5290     3.3260     2.3200 
  240.5000   240.4920    -0.5130    -0.3220     0.1740    30.7710     2.8230     3.5520     3.1830     2.3040 
  240.6250   240.6170    -0.5150    -0.3210     0.1620    29.4540     2.8260     3.5800     2.8780     2.2820 
  240.7500   240.7420    -0.5160    -0.3210     0.1500    27.7430     2.8280     3.6120     2.5450     2.2600 
  240.8750   240.8670    -0.5180    -0.3200     0.1370    26.9360     2.8270     3.6480     2.3200     2.2420 
  241.0000   240.9920    -0.5190    -0.3200     0.1250    26.7860     2.8270     3.6860     2.2270     2.2300 
  241.1250   241.1170    -0.5200    -0.3190     0.1130    26.8400     2.8300     3.7370     2.2180     2.2220 
  241.2500   241.2420    -0.5220    -0.3190     0.1010    26.8410     2.8320     3.7990     2.2180     2.2170 
  241.3750   241.3670    -0.5230    -0.3180     0.0880    26.8410     2.8370     3.8830     2.2180     2.2140 
  241.5000   241.4920    -0.5250    -0.3180     0.0760    26.8410     2.8450     3.9890     2.2180     2.2140 
  241.6250   241.6170    -0.5260    -0.3170     0.0640    26.8410     2.8550     4.1400     2.2180     2.2170 
  241.7500   241.7420    -0.5280    -0.3170     0.0520    26.8410     2.8620     4.3260     2.2180     2.2210 
  241.8750   241.8670    -0.5290    -0.3160     0.0400    26.8410     2.8730     4.5230     2.2180     2.2240 
  242.0000   241.9920    -0.5310    -0.3160     0.0270    26.8410     2.8820     4.6840     2.2180     2.2250 
  242.1250   242.1170    -0.5320    -0.3150     0.0150    26.8410     2.8830     4.7850     2.2180     2.2230 
  242.2500   242.2420    -0.5330    -0.3150     0.0030    26.8410     2.8840     4.8150     2.2170     2.2200 
  242.3750   242.3670    -0.5350    -0.3150    -0.0090    26.8410     2.8840     4.8040     2.2170     2.2160 
