~V
VERS. 2.00: Ver 2.00
~W
STRT.M 50.0000:
STOP.M 213.0000:
STEP.M 0.1250:
NULL. -999.2500:
UWI. F10803:
~C
DEPT.M :
SP.MV :
GR.API :
RI. :
RML.OHMM :
RXO.OHMM :
DEN.GM/CC :
~A
# ...
  153.0000    -8.9100    62.0380   148.8710   159.2120    94.4740     2.1540 
  153.1250    -8.6150    62.1000   146.0540   157.8270    88.8290     2.1570 
  153.2500    -8.4760    63.2500   142.1990   154.4610    85.9220     2.1570 
  153.3750    -8.4640    64.7600   133.9160   147.9410    89.9150     2.1570 
  153.5000    -8.4830    65.1060   122.4030   137.9380    97.3600     2.1570 
  153.6250    -8.5660    64.1510   110.2700   125.8450    92.4290     2.1590 
  153.7500    -8.6220    63.7200    98.6610   113.8960    71.3850     2.1590 
  153.8750    -8.6490    63.8780    90.8880   104.1200    73.1790     2.1560 
  154.0000    -8.6320    65.0160    84.8280    96.8420   101.2410     2.1490 
  154.1250    -8.5220    64.9890    80.9530    92.2750   103.7060     2.1430 
  154.2500    -8.5200    64.4360    81.0960    90.9940    89.4160     2.1350 
  154.3750    -8.5380    63.2000    82.8810    91.9730    93.0500     2.1310 
  154.5000    -8.4690    62.8590    80.5980    91.1390   117.0690     2.1340 
  154.6250    -8.3100    62.7200    72.9810    85.1710   140.7210     2.1430 
  154.7500    -8.2490    63.3420    61.6240    74.4740   117.7310     2.1630 
  154.8750    -8.2400    64.5930    48.3760    60.7500    67.4800     2.1970 
  155.0000    -8.1330    66.5650    37.2630    47.4270    41.6450     2.2320 
  155.1250    -8.0260    68.9180    29.7630    37.2220    29.3730     2.2550 
  155.2500    -7.9200    72.2650    24.4060    30.1330    22.5050     2.2580 
  155.3750    -7.9670    76.0340    21.1220    25.5150    24.8470     2.2560 
  155.5000    -7.9980    79.6960    18.8090    22.3490    24.1470     2.2620 
  155.6250    -8.1040    82.4330    16.8780    19.9490    17.9320     2.2760 
  155.7500    -8.2250    84.7130    15.4800    18.0190    14.1560     2.2930 
  155.8750    -8.3280    85.8470    14.5180    16.6260    13.8530     2.3020 
  156.0000    -8.4520    86.2550    14.0440    15.6790    13.2990     2.3040 
  156.1250    -8.5250    86.6130    13.9420    15.3280    13.2300     2.3030 
  156.2500    -8.5910    87.7290    14.2700    15.3940    13.7230     2.3030 
  156.3750    -8.5660    89.3340    14.6110    15.6690    14.0120     2.3070 
  156.5000    -8.5300    89.9600    14.8830    15.9140    14.4000     2.3100 
  156.6250    -8.4670    89.3980    15.0260    16.0560    14.5690     2.3120 
  156.7500    -8.4520    88.6500    15.0800    16.1030    14.1490     2.3130 
  156.8750    -8.4080    88.2300    15.0140    16.0940    13.7250     2.3130 
  157.0000    -8.4490    87.5460    15.0800    16.1540    13.5070     2.3140 
  157.1250    -8.4880    86.2450    15.2280    16.3500    13.3930     2.3130 
  157.2500    -8.5100    85.2810    15.3580    16.6230    14.0370     2.3090 
  157.3750    -8.5080    85.0120    15.5020    16.9470    15.0690     2.3070 
  157.5000    -8.4990    84.6050    15.6040    17.2860    14.8540     2.3090 
  157.6250    -8.4200    85.0460    15.6660    17.5690    14.9480     2.3110 
  157.7500    -8.3130    85.1850    15.5500    17.6980    16.2300     2.3090 
  157.8750    -8.2040    85.6900    15.3550    17.6670    16.7200     2.3040 
  158.0000    -8.1540    85.4640    15.3340    17.7170    16.0740     2.3030 
  158.1250    -8.1840    84.5410    15.9810    18.2710    15.8750     2.3060 
  158.2500    -8.2150    81.9250    17.4450    19.6450    20.1370     2.2990 
  158.3750    -8.2840    79.8670    20.1500    22.4120    29.7820     2.2800 
  158.5000    -8.3710    79.3030    25.0890    27.3500    37.1970     2.2550 
  158.6250    -8.4620    78.8640    32.9350    35.2490    52.2770     2.2380 
  158.7500    -8.5270    76.3950    42.3140    45.0290    77.0220     2.2220 
  158.8750    -8.6550    72.8290    50.6930    54.1970    85.5110     2.2060 
  159.0000    -8.8350    70.5540    55.4490    59.5790    81.3890     2.2000 
  159.1250    -9.0370    71.2390    52.6580    58.1180    70.3380     2.2120 
  159.2500    -9.3000    72.0700    44.6110    50.6600    49.7540     2.2340 
  159.3750    -9.4710    74.3570    33.7980    39.8160    33.8120     2.2610 
  159.5000    -9.6080    78.0240    24.0290    29.3190    24.0640     2.2870 
  159.6250    -9.6760    83.1710    18.6900    22.1960    17.9300     2.3070 
  159.7500    -9.7610    86.5920    16.6780    18.8820    15.6890     2.3170 
  159.8750    -9.8740    87.6760    18.1170    19.3540    18.7990     2.3090 
  160.0000    -9.9980    85.6240    22.6980    23.6970    38.2830     2.2830 
  160.1250   -10.2120    82.0640    34.7590    35.5280    85.1410     2.2360 
  160.2500   -10.4190    76.1240    61.3030    60.9890   128.7070     2.1870 
  160.3750   -10.5930    69.9340   108.7080   106.6220   155.8100     2.1500 
  160.5000   -10.7410    64.7620   167.8780   167.6480   200.5300     2.1310 
  160.6250   -10.8040    60.9140   230.3180   237.7280   248.1580     2.1200 
  160.7500   -10.8430    58.3090   295.3020   308.9890   277.5420     2.1190 
  160.8750   -10.9260    56.7540   337.4620   364.1110   276.5290     2.1230 
  161.0000   -10.8930    55.9650   340.4310   384.3050   259.9750     2.1310 
  161.1250   -10.8220    56.2580   302.4800   357.8320   262.0900     2.1330 
  161.2500   -10.6630    57.1250   236.3840   297.3400   237.3410     2.1320 
  161.3750   -10.4830    59.9100   177.5950   228.9010   168.8360     2.1370 
  161.5000   -10.2360    62.2530   143.7940   177.9700   113.3330     2.1460 
  161.6250    -9.9930    63.6040   128.5920   151.3040    92.1580     2.1570 
  161.7500    -9.7710    63.6810   128.5590   142.7200    97.0880     2.1630 
  161.8750    -9.4710    64.5370   140.3740   148.9740   128.9030     2.1600 
  162.0000    -9.1200    65.1360   161.0070   163.8260   166.0720     2.1500 
  162.1250    -8.8330    64.4220   174.9740   177.7100   173.2370     2.1390 
  162.2500    -8.6150    63.0520   168.6250   180.0500   153.9160     2.1360 
  162.3750    -8.3840    63.0350   146.2840   164.9340   129.7430     2.1480 
  162.5000    -8.1810    64.5460   112.8210   135.5160    99.8730     2.1750 
  162.6250    -7.9350    66.6110    88.3870   104.8580    68.6690     2.2030 
  162.7500    -7.7500    68.0840    75.1170    84.9480    55.7940     2.2240 
  162.8750    -7.5200    69.5140    70.4320    76.2320    56.4470     2.2260 
  163.0000    -7.3470    70.6790    71.5360    74.6100    64.6920     2.2170 
  163.1250    -7.2750    71.0510    75.2210    77.0560    79.6740     2.2030 
  163.2500    -7.2820    69.3440    77.0670    79.2640    80.8740     2.1950 
  163.3750    -7.3750    67.2160    74.6350    78.0630    76.6890     2.1960 
  163.5000    -7.5740    65.5480    68.5480    73.4630    72.8000     2.1960 
  163.6250    -7.8230    65.7130    63.6230    68.3010    54.9860     2.1890 
  163.7500    -8.1640    66.4970    62.9630    66.9340    52.2870     2.1780 
  163.8750    -8.3810    66.1410    73.2930    75.0290   114.8340     2.1580 
  164.0000    -8.3200    63.8930    96.8200    98.8830   219.0910     2.1350 
  164.1250    -8.0880    60.3020   157.1860   154.7740   272.7330     2.1120 
  164.2500    -7.8890    56.3960   255.6620   240.4340   271.4590     2.1060 
  164.3750    -7.8870    53.5080   329.2840   320.2140   261.0730     2.1100 
  164.5000    -7.7940    52.5210   374.4240   372.8270   239.7100     2.1180 
  164.6250    -7.5380    53.2680   363.6080   388.2400   205.8410     2.1230 
  164.7500    -7.1430    54.4700   337.1670   373.5680   184.4790     2.1200 
  164.8750    -6.9410    54.6550   333.8270   363.6010   197.7480     2.1110 
  165.0000    -7.0040    53.7920   333.6740   359.8820   220.2710     2.1030 
  165.1250    -7.2860    52.7460   328.1220   352.1210   233.0130     2.1030 
  165.2500    -7.4820    53.3820   309.7730   337.1700   224.8520     2.1080 
  165.3750    -7.4600    55.2110   275.5880   309.5980   183.3660     2.1150 
  165.5000    -7.5090    56.6370   242.5830   275.9250   151.9360     2.1210 
  165.6250    -7.8430    56.6720   217.8150   248.5430   145.2640     2.1250 
  165.7500    -8.3570    56.8780   204.0150   230.5980   139.7850     2.1240 
