~V
VERS. 2.00: Ver 2.00
~W
STRT.M 63.0000:
STOP.M 269.0000:
STEP.M 0.1250:
NULL. -999.2500:
UWI. F10891:
~C
DEPT.M :
TVD. :
DX. :
DY. :
SP.MV :
GR.API :
RI. :
RML.OHMM :
RXO.OHMM :
DEN.GM/CC :
~A
# ...
  227.2500   227.2380    -0.8730    -1.7490   -12.5650    59.4550    61.1450    63.4100    57.7900     2.1520 
  227.3750   227.3630    -0.8730    -1.7510   -12.5320    58.5990    54.8900    56.6800    50.6130     2.1690 
  227.5000   227.4880    -0.8740    -1.7530   -12.4800    60.0640    49.4380    50.8460    46.3100     2.1920 
  227.6250   227.6130    -0.8740    -1.7550   -12.4050    64.1290    44.5780    45.6930    44.7470     2.2210 
  227.7500   227.7380    -0.8750    -1.7570   -12.3050    68.7560    40.1260    41.0980    45.5800     2.2490 
  227.8750   227.8630    -0.8750    -1.7590   -12.1850    71.5910    36.2450    37.2590    44.2600     2.2670 
  228.0000   227.9880    -0.8760    -1.7610   -12.0560    71.4950    33.6440    34.9310    38.3400     2.2710 
  228.1250   228.1130    -0.8760    -1.7630   -11.9270    71.7910    32.8430    34.6550    34.5110     2.2700 
  228.2500   228.2380    -0.8770    -1.7650   -11.8040    72.9290    34.4070    37.1170    40.3210     2.2720 
  228.3750   228.3630    -0.8770    -1.7660   -11.6850    74.8160    38.2700    42.2780    55.0530     2.2690 
  228.5000   228.4880    -0.8780    -1.7680   -11.5660    73.2670    44.1460    49.5580    74.2180     2.2450 
  228.6250   228.6130    -0.8780    -1.7700   -11.4500    70.6960    50.8150    57.2210    86.4550     2.2020 
  228.7500   228.7380    -0.8790    -1.7720   -11.3360    67.7150    57.0540    64.1010    80.7280     2.1660 
  228.8750   228.8630    -0.8790    -1.7740   -11.2250    66.5590    62.1610    70.0070    65.2290     2.1550 
  229.0000   228.9880    -0.8800    -1.7760   -11.1160    64.4850    66.0540    74.9440    52.9280     2.1760 
  229.1250   229.1130    -0.8800    -1.7780   -11.0120    62.7080    69.2960    79.2900    54.2950     2.2290 
  229.2500   229.2380    -0.8810    -1.7800   -10.9270    62.8040    72.0160    82.9980    73.9530     2.3150 
  229.3750   229.3630    -0.8810    -1.7820   -10.8670    66.0350    73.6470    85.2100    94.5940     2.4130 
  229.5000   229.4880    -0.8820    -1.7840   -10.8350    70.4190    72.9660    84.3590    93.9410     2.4860 
  229.6250   229.6130    -0.8820    -1.7860   -10.8190    71.5690    69.6340    80.1440    74.3710     2.5160 
  229.7500   229.7380    -0.8830    -1.7880   -10.8110    70.6720    64.1180    73.2990    54.9750     2.5150 
  229.8750   229.8620    -0.8830    -1.7900   -10.8020    69.2400    57.9940    65.7900    49.0860     2.5080 
  230.0000   229.9870    -0.8840    -1.7920   -10.7800    69.9950    52.5390    59.0350    53.9490     2.5100 
  230.1250   230.1120    -0.8840    -1.7940   -10.7440    70.2460    47.9400    53.1480    57.4990     2.5170 
  230.2500   230.2370    -0.8850    -1.7960   -10.6920    70.0620    43.6060    47.5130    53.7790     2.5180 
  230.3750   230.3620    -0.8850    -1.7980   -10.6320    67.5880    38.9820    41.7050    47.8240     2.5120 
  230.5000   230.4870    -0.8860    -1.8000   -10.5640    64.3940    34.1860    36.0510    43.0210     2.5140 
  230.6250   230.6120    -0.8860    -1.8020   -10.4820    62.5430    29.9610    31.3930    36.0290     2.5290 
  230.7500   230.7370    -0.8870    -1.8040   -10.3800    64.1480    27.3380    28.8040    27.1880     2.5400 
  230.8750   230.8620    -0.8870    -1.8060   -10.2520    67.5320    26.5100    28.3190    21.3610     2.5150 
  231.0000   230.9870    -0.8880    -1.8080   -10.1030    68.6030    26.5960    28.7980    20.6660     2.4510 
  231.1250   231.1120    -0.8880    -1.8100    -9.9510    65.7900    25.7670    28.1070    27.2590     2.3850 
  231.2500   231.2370    -0.8890    -1.8120    -9.8120    60.8860    22.6880    24.7480    44.6270     2.3520 
  231.3750   231.3620    -0.8890    -1.8140    -9.6990    55.8390    17.7970    19.2980    59.4220     2.3500 
  231.5000   231.4870    -0.8900    -1.8160    -9.6200    51.6290    12.4740    13.4060    51.1970     2.3520 
  231.6250   231.6120    -0.8910    -1.8180    -9.5840    47.0050     8.2340     8.7910    27.5740     2.3410 
  231.7500   231.7370    -0.8910    -1.8200    -9.6100    42.0410     5.6950     6.0990    10.1970     2.3230 
  231.8750   231.8620    -0.8920    -1.8220    -9.7010    37.6450     4.3860     4.7680     4.4650     2.3070 
  232.0000   231.9870    -0.8920    -1.8240    -9.8670    35.3560     3.9370     4.3770     3.8840     2.2980 
  232.1250   232.1120    -0.8930    -1.8260   -10.0960    34.6060     3.9970     4.5330     3.9290     2.3040 
  232.2500   232.2370    -0.8930    -1.8280   -10.3900    36.9220     4.4090     5.0600     4.2960     2.3230 
  232.3750   232.3620    -0.8940    -1.8300   -10.7330    44.3000     5.0430     5.8180     5.1620     2.3400 
  232.5000   232.4870    -0.8950    -1.8320   -11.1080    58.4290     5.8460     6.7480     6.5230     2.3320 
  232.6250   232.6120    -0.8950    -1.8340   -11.4850    75.5880     6.7160     7.7370     7.6640     2.3050 
  232.7500   232.7370    -0.8960    -1.8360   -11.8350    89.5050     7.5070     8.6150     7.9890     2.2800 
  232.8750   232.8620    -0.8960    -1.8380   -12.1400    94.4010     8.0570     9.2060     8.0380     2.2740 
  233.0000   232.9870    -0.8970    -1.8400   -12.3860    91.1560     8.2190     9.3570     8.5210     2.2860 
  233.1250   233.1120    -0.8980    -1.8420   -12.5690    86.4670     8.0090     9.1050     9.1500     2.3020 
  233.2500   233.2370    -0.8980    -1.8440   -12.6880    85.5070     7.5140     8.5670     9.0000     2.3090 
  233.3750   233.3620    -0.8990    -1.8460   -12.7560    85.9570     6.9300     7.9700     8.0640     2.3030 
  233.5000   233.4870    -0.9000    -1.8480   -12.7710    84.5750     6.4050     7.4750     7.0180     2.2860 
  233.6250   233.6120    -0.9000    -1.8500   -12.7360    82.0360     5.9960     7.1250     6.3190     2.2690 
  233.7500   233.7370    -0.9010    -1.8520   -12.6390    78.9710     5.6970     6.8880     6.2700     2.2620 
  233.8750   233.8620    -0.9020    -1.8540   -12.4890    76.6990     5.4560     6.6890     6.6290     2.2680 
  234.0000   233.9870    -0.9020    -1.8560   -12.2990    73.9060     5.2440     6.4820     6.5040     2.2790 
  234.1250   234.1120    -0.9030    -1.8580   -12.0920    72.2890     5.0430     6.2590     5.6470     2.2830 
  234.2500   234.2370    -0.9030    -1.8600   -11.8880    71.6350     4.8510     6.0330     4.8550     2.2750 
  234.3750   234.3620    -0.9040    -1.8620   -11.7010    72.1240     4.6770     5.8280     4.6120     2.2650 
  234.5000   234.4870    -0.9050    -1.8650   -11.5480    71.3270     4.5350     5.6650     4.6150     2.2640 
  234.6250   234.6120    -0.9050    -1.8670   -11.4450    68.2650     4.4280     5.5480     4.5960     2.2770 
  234.7500   234.7370    -0.9060    -1.8690   -11.4000    62.5980     4.3460     5.4660     4.5750     2.2970 
  234.8750   234.8620    -0.9070    -1.8710   -11.4100    56.6720     4.2700     5.3980     4.5600     2.3140 
  235.0000   234.9870    -0.9080    -1.8730   -11.4710    52.4220     4.1960     5.3390     4.6430     2.3220 
  235.1250   235.1120    -0.9080    -1.8750   -11.5700    51.6220     4.1310     5.2830     4.7970     2.3240 
  235.2500   235.2370    -0.9090    -1.8770   -11.7020    52.7460     4.0860     5.2370     4.8070     2.3250 
  235.3750   235.3620    -0.9100    -1.8790   -11.8560    53.1190     4.0820     5.2310     4.6480     2.3260 
  235.5000   235.4870    -0.9100    -1.8810   -12.0240    51.7020     4.1660     5.3390     4.4850     2.3260 
  235.6250   235.6120    -0.9110    -1.8830   -12.2020    50.8860     4.3790     5.6230     4.4800     2.3200 
  235.7500   235.7370    -0.9120    -1.8850   -12.3980    53.7040     4.7650     6.1490     4.8230     2.3050 
  235.8750   235.8620    -0.9120    -1.8870   -12.6190    59.8420     5.3160     6.9070     5.6280     2.2830 
  236.0000   235.9870    -0.9130    -1.8890   -12.8660    68.3010     6.0020     7.8450     6.7410     2.2590 
  236.1250   236.1120    -0.9140    -1.8920   -13.1170    78.1980     6.7020     8.7820     7.6610     2.2400 
  236.2500   236.2370    -0.9140    -1.8940   -13.3380    87.1300     7.2450     9.4820     8.3220     2.2300 
