~V
VERS. 2.00: Ver 2.00
~W
STRT.M 65.0000:
STOP.M 239.0000:
STEP.M 0.1250:
NULL. -999.2500:
UWI. F10876:
~C
DEPT.M :
TVD. :
DX. :
DY. :
SP.MV :
GR.API :
RI. :
RML.OHMM :
RXO.OHMM :
DEN.GM/CC :
~A
   65.0000    65.0000     0.0000     0.0000    45.8500    52.3360     0.0510     0.0250     0.5470     1.8000 
   65.1250    65.1250    -0.0010     0.0000    43.3060    51.9970     0.0490     0.0350     1.1050     1.7770 
   65.2500    65.2500    -0.0030    -0.0010    39.4170    49.3000     0.0870     0.0820     2.3960     1.7760 
   65.3750    65.3750    -0.0050    -0.0010    34.9980    45.1940     0.2180     0.2360     4.2200     1.7900 
   65.5000    65.5000    -0.0060    -0.0020    30.7270    42.4770     0.5770     0.7400     5.9620     1.8220 
   65.6250    65.6250    -0.0080    -0.0020    27.0720    43.6260     1.4060     2.5080     7.0130     1.8640 
   65.7500    65.7500    -0.0090    -0.0030    24.3240    46.4070     2.6860     5.8310     7.4970     1.9000 
   65.8750    65.8750    -0.0110    -0.0030    22.3820    47.4000     3.8170     7.9510     7.8370     1.9150 
   66.0000    66.0000    -0.0120    -0.0030    20.8460    47.1000     4.5010     8.5470     7.7040     1.9080 
   66.1250    66.1250    -0.0140    -0.0040    18.0330    46.7130     4.6250     7.5760     6.8730     1.8840 
   66.2500    66.2500    -0.0160    -0.0040    11.3780    44.1650     4.5100     5.6430     5.7760     1.8540 
   66.3750    66.3750    -0.0170    -0.0050     2.7640    42.5040     4.6370     4.9480     4.8560     1.8370 
   66.5000    66.5000    -0.0190    -0.0050    -2.9430    46.4580     5.0300     5.0680     4.0690     1.8540 
   66.6250    66.6250    -0.0200    -0.0050    -5.1310    52.2170     5.6590     5.5730     3.5750     1.9090 
   66.7500    66.7500    -0.0220    -0.0060    -5.8630    56.9160     6.4520     6.3370     4.2170     1.9850 
   66.8750    66.8750    -0.0240    -0.0060    -6.3740    59.9440     7.1700     7.0620     5.9670     2.0570 
   67.0000    67.0000    -0.0250    -0.0070    -6.9010    62.9590     7.5140     7.4110     7.2600     2.1110 
   67.1250    67.1250    -0.0270    -0.0070    -7.5650    64.5950     7.3460     7.2380     7.0200     2.1460 
   67.2500    67.2500    -0.0290    -0.0070    -8.3750    65.2010     6.7500     6.6310     5.9760     2.1660 
   67.3750    67.3750    -0.0310    -0.0080    -9.1960    68.1660     6.0510     5.9300     5.2130     2.1820 
   67.5000    67.5000    -0.0320    -0.0080    -9.8430    73.1220     5.6020     5.5240     4.9720     2.2130 
   67.6250    67.6250    -0.0340    -0.0090   -10.2200    78.3010     5.7380     5.7180     5.3410     2.2740 
   67.7500    67.7500    -0.0360    -0.0090   -10.2980    80.5120     6.7590     6.7120     7.7170     2.3650 
   67.8750    67.8750    -0.0370    -0.0090   -10.1600    79.3350     8.6160     8.6270    14.3540     2.4490 
   68.0000    68.0000    -0.0390    -0.0100    -9.8670    77.7400    11.1130    11.3230    24.2050     2.4730 
   68.1250    68.1250    -0.0410    -0.0100    -9.4720    76.0930    13.4560    14.0130    29.7450     2.4180 
   68.2500    68.2500    -0.0430    -0.0110    -8.9660    70.9640    14.8300    15.7010    25.9540     2.3000 
   68.3750    68.3750    -0.0440    -0.0110    -8.3470    62.0630    14.9560    15.8500    17.9300     2.1760 
   68.5000    68.5000    -0.0460    -0.0120    -7.6410    54.2830    14.0060    14.7480    12.2450     2.0890 
   68.6250    68.6250    -0.0480    -0.0120    -6.9500    53.1450    12.8410    13.3980    10.7350     2.0430 
   68.7500    68.7500    -0.0490    -0.0120    -6.4110    57.3010    12.0230    12.5280    11.9260     2.0300 
   68.8750    68.8750    -0.0510    -0.0130    -6.1080    60.1750    11.5720    12.1090    13.1660     2.0320 
   69.0000    69.0000    -0.0530    -0.0130    -6.0870    60.1790    11.1580    11.7110    12.6410     2.0450 
   69.1250    69.1250    -0.0550    -0.0140    -6.3090    57.1480    10.4770    10.9820    10.4560     2.0640 
   69.2500    69.2500    -0.0560    -0.0140    -6.7670    54.8530     9.4850     9.8870     8.4880     2.0870 
   69.3750    69.3750    -0.0580    -0.0150    -7.3870    57.5720     8.4530     8.7250     7.6310     2.1110 
   69.5000    69.5000    -0.0600    -0.0150    -8.0550    64.8540     7.6680     7.8440     6.9780     2.1300 
   69.6250    69.6250    -0.0610    -0.0150    -8.6060    70.8870     7.2620     7.4550     6.2390     2.1430 
   69.7500    69.7500    -0.0630    -0.0160    -8.8990    73.1990     7.3330     7.6090     6.1550     2.1430 
   69.8750    69.8750    -0.0650    -0.0160    -8.9140    74.3640     7.7990     8.1560     6.9460     2.1310 
   70.0000    70.0000    -0.0660    -0.0160    -8.6590    73.9900     8.5520     8.9710     8.0680     2.1110 
   70.1250    70.1250    -0.0680    -0.0170    -8.2300    69.8820     9.4260     9.8820     8.8500     2.0900 
   70.2500    70.2500    -0.0690    -0.0170    -7.7360    64.1410    10.1140    10.6030     8.9260     2.0780 
   70.3750    70.3750    -0.0710    -0.0170    -7.2990    62.4180    10.3420    10.8680     8.6600     2.0810 
   70.5000    70.4990    -0.0730    -0.0180    -7.0000    66.9510     9.9970    10.5050     8.5560     2.1040 
   70.6250    70.6240    -0.0740    -0.0180    -6.8450    73.9550     9.2430     9.6860     8.2150     2.1400 
   70.7500    70.7490    -0.0760    -0.0180    -6.8080    79.3380     8.3320     8.6980     7.2300     2.1730 
   70.8750    70.8740    -0.0780    -0.0190    -6.7980    82.0060     7.5310     7.8540     6.3940     2.1880 
   71.0000    70.9990    -0.0790    -0.0190    -6.6640    81.6990     7.0550     7.4180     6.2720     2.1780 
   71.1250    71.1240    -0.0810    -0.0190    -6.2900    78.4280     6.9720     7.4670     6.7010     2.1500 
   71.2500    71.2490    -0.0820    -0.0200    -5.6560    74.5000     7.4130     8.1030     7.8850     2.1160 
   71.3750    71.3740    -0.0840    -0.0200    -4.8940    72.2930     8.3750     9.2910     9.7230     2.0870 
   71.5000    71.4990    -0.0850    -0.0200    -4.1250    70.3570     9.6800    10.9110    11.6810     2.0700 
   71.6250    71.6240    -0.0870    -0.0210    -3.4270    66.8470    11.0580    12.6700    13.1750     2.0630 
   71.7500    71.7490    -0.0890    -0.0210    -2.8730    62.2040    12.1870    14.1750    13.7580     2.0600 
   71.8750    71.8740    -0.0900    -0.0210    -2.4920    58.6240    12.8940    15.1450    13.7690     2.0560 
   72.0000    71.9990    -0.0920    -0.0210    -2.2780    58.0950    13.2300    14.7980    13.9550     2.0520 
   72.1250    72.1240    -0.0930    -0.0220    -2.1460    58.0650    13.3880    14.1870    14.2590     2.0510 
   72.2500    72.2490    -0.0950    -0.0220    -2.0380    55.5640    13.5130    14.3500    14.1610     2.0530 
   72.3750    72.3740    -0.0970    -0.0220    -1.9580    52.8800    13.6440    14.5180    13.9750     2.0520 
   72.5000    72.4990    -0.0980    -0.0230    -1.9810    52.5550    13.7310    14.5490    14.1580     2.0480 
   72.6250    72.6240    -0.1000    -0.0230    -2.1590    52.9930    13.7360    14.4450    14.3530     2.0440 
   72.7500    72.7490    -0.1010    -0.0230    -2.5080    52.1300    13.6530    14.2920    14.0780     2.0470 
   72.8750    72.8740    -0.1030    -0.0230    -2.9920    52.1260    13.5370    14.1520    13.7230     2.0550 
   73.0000    72.9990    -0.1050    -0.0240    -3.6110    54.1240    13.4270    14.0510    13.9730     2.0650 
   73.1250    73.1240    -0.1060    -0.0240    -4.3530    55.2780    13.3820    14.0010    14.6120     2.0750 
   73.2500    73.2490    -0.1080    -0.0240    -5.2150    54.6970    13.6410    14.2090    14.8170     2.0990 
   73.3750    73.3740    -0.1100    -0.0240    -6.1730    54.8970    14.2840    14.8000    14.7880     2.1530 
   73.5000    73.4990    -0.1110    -0.0250    -7.2210    55.1370    14.7570    15.2750    17.5330     2.2360 
   73.6250    73.6240    -0.1130    -0.0250    -8.3510    53.8960    14.1900    14.9310    23.6450     2.3140 
   73.7500    73.7490    -0.1150    -0.0250    -9.5760    53.4500    12.3460    13.2400    26.0300     2.3500 
   73.8750    73.8740    -0.1160    -0.0260   -10.8560    57.2200     9.7220    10.6200    19.9790     2.3410 
   74.0000    73.9990    -0.1180    -0.0260   -12.0760    68.7400     7.2460     8.0130    10.8340     2.3100 
