~V
VERS. 2.00: Ver 2.00
~W
STRT.M 60.0000:
STOP.M 249.0000:
STEP.M 0.1250:
NULL. -999.2500:
UWI. F10851:
~C
DEPT.M :
TVD. :
DX. :
DY. :
SP.MV :
GR.API :
RI. :
RML.OHMM :
RXO.OHMM :
DEN.GM/CC :
~A
# ...
  133.0000   132.9980     0.3830    -0.3420    -6.1280    60.6100    11.5720    13.8470    11.2800     2.1600 
  133.1250   133.1230     0.3820    -0.3430    -5.7630    62.2610    11.5180    13.6420    11.9100     2.1750 
  133.2500   133.2480     0.3810    -0.3430    -5.5460    62.0380    12.0680    14.2260    12.0770     2.1890 
  133.3750   133.3730     0.3800    -0.3430    -5.5030    59.4140    12.9910    15.2980    11.8580     2.2000 
  133.5000   133.4980     0.3790    -0.3430    -5.5900    56.7710    13.9140    16.3890    11.7280     2.2060 
  133.6250   133.6230     0.3780    -0.3430    -5.7530    56.7210    14.4890    17.0530    11.0770     2.2070 
  133.7500   133.7480     0.3770    -0.3430    -5.9130    58.5380    14.2230    16.6540     9.8760     2.2040 
  133.8750   133.8730     0.3760    -0.3430    -6.0300    60.8820    12.8650    14.8890     8.8190     2.2020 
  134.0000   133.9980     0.3750    -0.3430    -6.1160    64.6350    10.8490    12.3860     8.0660     2.2040 
  134.1250   134.1230     0.3730    -0.3420    -6.1870    70.9620     8.6640     9.7150     7.2090     2.2170 
  134.2500   134.2480     0.3720    -0.3420    -6.2640    77.4580     6.9370     7.6760     6.1970     2.2410 
  134.3750   134.3730     0.3710    -0.3420    -6.3720    81.4970     5.9400     6.5430     5.6990     2.2680 
  134.5000   134.4980     0.3700    -0.3420    -6.5120    83.3740     5.4890     6.0490     5.7430     2.2910 
  134.6250   134.6220     0.3690    -0.3410    -6.6710    83.9770     5.4470     6.0420     6.1900     2.3090 
  134.7500   134.7470     0.3680    -0.3410    -6.8350    84.7820     5.8400     6.5210     6.8240     2.3230 
  134.8750   134.8720     0.3670    -0.3410    -7.0000    85.8100     6.5320     7.3050     8.5880     2.3340 
  135.0000   134.9970     0.3660    -0.3400    -7.1630    84.1420     7.2030     8.0080    12.3090     2.3370 
  135.1250   135.1220     0.3650    -0.3400    -7.3360    78.9250     7.7980     8.6000    13.5190     2.3310 
  135.2500   135.2470     0.3640    -0.3390    -7.5240    74.5410     8.4590     9.2550    10.0970     2.3170 
  135.3750   135.3720     0.3630    -0.3380    -7.7130    74.7770     9.1620     9.9650     8.1630     2.2960 
  135.5000   135.4970     0.3620    -0.3380    -7.8760    75.7190    10.0860    11.0380    12.3150     2.2720 
  135.6250   135.6220     0.3620    -0.3370    -7.9700    72.8250    11.3610    12.6110    17.5650     2.2470 
  135.7500   135.7470     0.3610    -0.3360    -7.9510    68.2400    12.7190    14.3240    17.9500     2.2250 
  135.8750   135.8720     0.3600    -0.3350    -7.7920    65.1680    13.2490    15.0250    17.1980     2.2110 
  136.0000   135.9970     0.3590    -0.3350    -7.5310    64.1450    13.0280    14.7670    16.4860     2.2080 
  136.1250   136.1220     0.3580    -0.3340    -7.2230    65.3470    11.9920    13.4820    12.9310     2.2230 
  136.2500   136.2470     0.3580    -0.3330    -6.9450    67.4970    11.1130    12.4000    10.5420     2.2540 
  136.3750   136.3720     0.3570    -0.3320    -6.7660    69.2010    11.3740    12.7160    12.1840     2.3000 
  136.5000   136.4970     0.3560    -0.3310    -6.6910    69.2750    12.9040    14.6290    20.7140     2.3520 
  136.6250   136.6220     0.3560    -0.3300    -6.6900    67.0060    15.8350    18.2930    36.1540     2.3980 
  136.7500   136.7470     0.3550    -0.3290    -6.7050    62.6150    19.5860    22.9460    40.8960     2.4250 
  136.8750   136.8720     0.3550    -0.3280    -6.6710    58.4550    22.9260    26.9260    29.3600     2.4170 
  137.0000   136.9970     0.3540    -0.3270    -6.5530    56.5270    24.5250    28.6860    19.7000     2.3750 
  137.1250   137.1220     0.3530    -0.3260    -6.3600    57.0810    24.1780    28.0690    16.9690     2.3100 
  137.2500   137.2470     0.3530    -0.3250    -6.1470    59.0940    22.8350    26.3210    15.7910     2.2440 
  137.3750   137.3720     0.3520    -0.3240    -5.9610    60.8220    21.8600    25.1970    15.6110     2.1960 
  137.5000   137.4970     0.3520    -0.3230    -5.8460    60.4260    21.9960    25.5000    16.4960     2.1680 
  137.6250   137.6220     0.3510    -0.3230    -5.8420    58.0950    23.0640    26.9430    19.8120     2.1580 
  137.7500   137.7470     0.3500    -0.3220    -5.9390    57.1840    24.4600    28.7880    24.0390     2.1570 
  137.8750   137.8720     0.3500    -0.3210    -6.1270    57.7390    25.7810    30.4720    24.5680     2.1660 
  138.0000   137.9970     0.3490    -0.3200    -6.3820    58.1170    26.1820    30.9250    24.4500     2.1880 
  138.1250   138.1220     0.3490    -0.3190    -6.6860    58.1020    25.7550    30.3220    33.0290     2.2340 
  138.2500   138.2470     0.3480    -0.3180    -7.0220    58.0370    25.2410    29.5460    38.8830     2.3050 
  138.3750   138.3720     0.3470    -0.3170    -7.3900    57.8600    25.3550    29.5550    31.8050     2.3920 
  138.5000   138.4970     0.3470    -0.3160    -7.7720    57.0580    26.9260    31.4760    30.8760     2.4760 
  138.6250   138.6220     0.3460    -0.3150    -8.1380    55.3810    29.5510    34.8210    40.0780     2.5390 
  138.7500   138.7470     0.3460    -0.3140    -8.4540    54.2560    29.8510    35.2470    47.9780     2.5780 
  138.8750   138.8720     0.3450    -0.3130    -8.6690    53.8350    26.3000    31.0310    50.9050     2.5940 
  139.0000   138.9970     0.3440    -0.3120    -8.7500    54.1970    20.2420    23.5840    40.0880     2.5900 
  139.1250   139.1220     0.3440    -0.3110    -8.6830    57.3230    13.1410    14.9710    18.6500     2.5690 
  139.2500   139.2470     0.3430    -0.3100    -8.5160    65.0880     8.7080     9.6380     7.4010     2.5330 
  139.3750   139.3720     0.3430    -0.3090    -8.3150    74.5620     6.6800     7.2410     6.4670     2.4880 
  139.5000   139.4970     0.3420    -0.3080    -8.1580    79.2520     6.1000     6.6010     6.6160     2.4370 
  139.6250   139.6220     0.3420    -0.3070    -8.1020    78.5340     6.5190     7.1340     8.8240     2.3820 
  139.7500   139.7470     0.3410    -0.3060    -8.1390    77.4200     7.6580     8.4360    11.2340     2.3260 
  139.8750   139.8720     0.3400    -0.3050    -8.2410    77.3800     9.1790    10.0260    11.9600     2.2750 
  140.0000   139.9970     0.3400    -0.3040    -8.3470    76.1290    10.6710    11.4690    11.6110     2.2380 
  140.1250   140.1220     0.3390    -0.3030    -8.3900    74.2800    11.8560    12.5130    12.1270     2.2190 
  140.2500   140.2470     0.3390    -0.3020    -8.3470    72.3620    12.6940    13.2190    14.2840     2.2170 
  140.3750   140.3720     0.3380    -0.3010    -8.2310    71.1850    13.3460    13.8030    16.2140     2.2210 
  140.5000   140.4970     0.3380    -0.3000    -8.0610    70.9930    13.8780    14.3220    16.7970     2.2210 
  140.6250   140.6220     0.3370    -0.2990    -7.8350    71.8270    14.2280    14.7450    16.5350     2.2100 
  140.7500   140.7470     0.3360    -0.2980    -7.5810    71.8940    14.2250    14.8750    15.0990     2.1970 
  140.8750   140.8720     0.3360    -0.2970    -7.3170    70.4380    13.6480    14.5070    14.4800     2.1910 
  141.0000   140.9970     0.3350    -0.2960    -7.0490    68.8430    12.8750    13.9640    18.8440     2.1950 
  141.1250   141.1220     0.3350    -0.2950    -6.8100    68.1360    11.5310    12.6940    22.5630     2.2090 
  141.2500   141.2470     0.3340    -0.2940    -6.6550    68.5680    10.1060    11.1900    19.8060     2.2280 
  141.3750   141.3720     0.3340    -0.2930    -6.6330    69.9870     8.9460     9.8600    14.5630     2.2520 
  141.5000   141.4970     0.3330    -0.2930    -6.7380    71.4700     8.3670     9.1590     9.8810     2.2840 
  141.6250   141.6220     0.3320    -0.2920    -6.9690    71.4680     8.6950     9.5370    12.2890     2.3290 
  141.7500   141.7470     0.3320    -0.2910    -7.2740    68.7780     9.9680    11.1280    19.9690     2.3810 
  141.8750   141.8720     0.3310    -0.2900    -7.5840    64.0130    12.4410    14.1670    22.7050     2.4290 
  142.0000   141.9970     0.3310    -0.2890    -7.8260    59.4490    15.0620    17.2410    21.8530     2.4580 
