~V
VERS. 2.00: Ver 2.00
~W
STRT.M 60.0000:
STOP.M 249.0000:
STEP.M 0.1250:
NULL. -999.2500:
UWI. F10851:
~C
DEPT.M :
TVD. :
DX. :
DY. :
SP.MV :
GR.API :
RI. :
RML.OHMM :
RXO.OHMM :
DEN.GM/CC :
~A
# ...
  206.0000   205.9940    -0.2110    -0.3890    -3.2110    28.7450     1.7100     2.3170     3.9460     2.4470 
  206.1250   206.1190    -0.2120    -0.3890    -2.9890    29.1800     1.7190     2.3590     3.3070     2.4460 
  206.2500   206.2440    -0.2130    -0.3900    -2.6660    29.4910     1.7110     2.3460     2.9070     2.4480 
  206.3750   206.3690    -0.2140    -0.3900    -2.3140    29.1760     1.6830     2.2910     2.9220     2.4400 
  206.5000   206.4940    -0.2150    -0.3900    -2.0200    28.5380     1.6770     2.2490     2.9270     2.4200 
  206.6250   206.6190    -0.2160    -0.3900    -1.8480    28.3600     1.7440     2.3250     3.0270     2.3990 
  206.7500   206.7440    -0.2170    -0.3900    -1.7860    28.5200     1.8830     2.5190     3.7010     2.3890 
  206.8750   206.8690    -0.2180    -0.3900    -1.8030    28.0500     2.0370     2.7500     4.8090     2.3960 
  207.0000   206.9940    -0.2190    -0.3910    -1.8300    27.5480     2.1330     2.9130     4.7580     2.4110 
  207.1250   207.1190    -0.2200    -0.3910    -1.7920    28.3330     2.1130     2.9030     3.4920     2.4200 
  207.2500   207.2440    -0.2210    -0.3910    -1.6550    29.4310     1.9720     2.6910     2.6790     2.4130 
  207.3750   207.3690    -0.2220    -0.3910    -1.4370    28.9440     1.7730     2.4030     2.5140     2.3870 
  207.5000   207.4940    -0.2230    -0.3910    -1.1950    27.0810     1.5770     2.1270     2.4210     2.3520 
  207.6250   207.6190    -0.2240    -0.3910    -0.9790    26.1730     1.4650     1.9670     2.3730     2.3230 
  207.7500   207.7440    -0.2250    -0.3910    -0.8370    26.7060     1.4370     1.9320     2.4020     2.3080 
  207.8750   207.8690    -0.2250    -0.3920    -0.8020    27.3450     1.4530     1.9730     2.4280     2.3090 
  208.0000   207.9940    -0.2260    -0.3920    -0.8520    28.0800     1.4790     2.0140     2.4350     2.3180 
  208.1250   208.1190    -0.2270    -0.3920    -0.9630    29.2480     1.5190     2.0540     2.4820     2.3230 
  208.2500   208.2440    -0.2280    -0.3920    -1.1080    29.9250     1.5720     2.1180     2.5720     2.3210 
  208.3750   208.3690    -0.2290    -0.3920    -1.2710    29.3470     1.6370     2.1960     2.7360     2.3110 
  208.5000   208.4940    -0.2300    -0.3920    -1.4560    28.6820     1.7180     2.2950     2.9240     2.3000 
  208.6250   208.6190    -0.2310    -0.3930    -1.6800    29.3820     1.7990     2.4080     3.1280     2.2940 
  208.7500   208.7440    -0.2320    -0.3930    -1.9340    30.7470     1.8580     2.4770     3.3110     2.2960 
  208.8750   208.8690    -0.2330    -0.3930    -2.1980    31.9640     1.8850     2.5030     3.2940     2.3060 
  209.0000   208.9940    -0.2340    -0.3930    -2.4340    32.5190     1.8660     2.4740     3.1740     2.3200 
  209.1250   209.1190    -0.2350    -0.3930    -2.5720    32.7700     1.8330     2.4290     3.0950     2.3340 
  209.2500   209.2440    -0.2360    -0.3930    -2.5720    33.1560     1.8260     2.4190     3.0610     2.3430 
  209.3750   209.3690    -0.2370    -0.3930    -2.4230    33.7940     1.8600     2.4900     3.1390     2.3460 
  209.5000   209.4940    -0.2380    -0.3930    -2.1770    34.1030     1.9190     2.5740     3.5440     2.3460 
  209.6250   209.6190    -0.2390    -0.3940    -1.9060    33.3990     1.9770     2.6790     3.9110     2.3460 
  209.7500   209.7440    -0.2400    -0.3940    -1.6930    32.0050     2.0090     2.7320     3.6380     2.3480 
  209.8750   209.8690    -0.2410    -0.3940    -1.5890    31.4440     1.9960     2.7260     3.1930     2.3480 
  210.0000   209.9940    -0.2420    -0.3940    -1.5860    31.8220     1.9730     2.7170     3.1160     2.3450 
  210.1250   210.1190    -0.2430    -0.3940    -1.6590    32.3900     1.9320     2.6490     3.2020     2.3370 
  210.2500   210.2440    -0.2440    -0.3940    -1.7440    32.3460     1.9060     2.6450     3.1940     2.3280 
  210.3750   210.3690    -0.2450    -0.3940    -1.7820    32.1580     1.9380     2.7030     3.1320     2.3200 
  210.5000   210.4940    -0.2460    -0.3940    -1.7670    31.9330     2.0210     2.8240     3.3410     2.3140 
  210.6250   210.6190    -0.2470    -0.3950    -1.7240    31.7150     2.1450     3.0350     4.1650     2.3170 
  210.7500   210.7440    -0.2480    -0.3950    -1.6750    31.4420     2.2900     3.2600     5.0170     2.3310 
  210.8750   210.8690    -0.2490    -0.3950    -1.6490    31.3680     2.4380     3.5060     4.9950     2.3550 
  211.0000   210.9940    -0.2500    -0.3950    -1.6640    31.7530     2.5020     3.6340     4.6200     2.3800 
  211.1250   211.1190    -0.2510    -0.3950    -1.7170    32.0100     2.4520     3.5740     4.4340     2.3910 
  211.2500   211.2440    -0.2520    -0.3950    -1.7800    31.1870     2.2810     3.3160     3.8760     2.3860 
  211.3750   211.3690    -0.2530    -0.3950    -1.8440    29.7490     2.0420     2.9560     3.0540     2.3660 
  211.5000   211.4940    -0.2540    -0.3950    -1.9030    28.8950     1.8200     2.6120     2.5790     2.3430 
  211.6250   211.6190    -0.2550    -0.3960    -1.9620    28.7900     1.6600     2.3850     2.4210     2.3220 
  211.7500   211.7440    -0.2560    -0.3960    -2.0390    28.4880     1.5530     2.2700     2.3820     2.3070 
  211.8750   211.8690    -0.2570    -0.3960    -2.1450    27.5140     1.5160     2.2590     2.3930     2.3000 
  212.0000   211.9940    -0.2580    -0.3960    -2.2650    26.6850     1.5200     2.2990     2.4070     2.2990 
  212.1250   212.1190    -0.2590    -0.3960    -2.3700    26.5430     1.5560     2.3400     2.4110     2.3000 
  212.2500   212.2440    -0.2600    -0.3960    -2.4210    27.6750     1.5940     2.3650     2.4100     2.3020 
  212.3750   212.3690    -0.2610    -0.3960    -2.3610    28.8450     1.6300     2.3900     2.4370     2.3040 
  212.5000   212.4940    -0.2620    -0.3960    -2.1850    28.9160     1.6550     2.3950     2.4980     2.3070 
  212.6250   212.6190    -0.2630    -0.3960    -1.9150    28.2130     1.6650     2.3970     2.5390     2.3120 
  212.7500   212.7440    -0.2640    -0.3960    -1.6170    27.3400     1.6690     2.4050     2.5380     2.3170 
  212.8750   212.8690    -0.2650    -0.3960    -1.3740    26.7470     1.6650     2.3920     2.5130     2.3210 
  213.0000   212.9940    -0.2660    -0.3960    -1.2420    26.6070     1.6580     2.3900     2.5100     2.3230 
  213.1250   213.1190    -0.2680    -0.3960    -1.2340    26.7300     1.6560     2.3910     2.5520     2.3220 
  213.2500   213.2440    -0.2690    -0.3970    -1.3080    26.6710     1.6730     2.4110     2.5920     2.3190 
  213.3750   213.3690    -0.2700    -0.3970    -1.4050    26.0400     1.7030     2.4450     2.6040     2.3160 
  213.5000   213.4940    -0.2710    -0.3970    -1.4530    26.0950     1.7410     2.4770     2.6130     2.3150 
  213.6250   213.6190    -0.2720    -0.3970    -1.4040    27.2220     1.7690     2.5000     2.6080     2.3150 
  213.7500   213.7440    -0.2730    -0.3970    -1.2830    28.0200     1.7820     2.4980     2.5960     2.3130 
  213.8750   213.8690    -0.2740    -0.3970    -1.1260    27.5960     1.7760     2.4710     2.6130     2.3100 
  214.0000   213.9940    -0.2750    -0.3970    -0.9710    26.7820     1.7650     2.4360     2.6520     2.3090 
  214.1250   214.1190    -0.2760    -0.3970    -0.8580    26.7580     1.7660     2.4180     2.7070     2.3100 
  214.2500   214.2440    -0.2770    -0.3970    -0.8050    27.1620     1.7900     2.4580     2.7890     2.3100 
  214.3750   214.3690    -0.2780    -0.3970    -0.8070    27.6070     1.8560     2.5610     2.9420     2.3080 
  214.5000   214.4940    -0.2790    -0.3970    -0.8450    28.1710     1.9450     2.7100     3.1590     2.3060 
  214.6250   214.6190    -0.2800    -0.3970    -0.9170    28.7160     2.0440     2.8510     3.3220     2.3070 
  214.7500   214.7440    -0.2810    -0.3970    -1.0230    28.5560     2.1350     2.9610     3.3750     2.3130 
  214.8750   214.8690    -0.2820    -0.3970    -1.1720    28.2150     2.1820     3.0050     3.3510     2.3230 
  215.0000   214.9940    -0.2830    -0.3970    -1.3700    28.1690     2.1870     2.9840     3.3150     2.3320 
