~V
VERS. 2.00: Ver 2.00
~W
STRT.M 62.0000:
STOP.M 256.0000:
STEP.M 0.1250:
NULL. -999.2500:
UWI. F10886:
~C
DEPT.M :
TVD. :
DX. :
DY. :
SP.MV :
GR.API :
RI. :
RML.OHMM :
RXO.OHMM :
DEN.GM/CC :
~A
# ...
  144.1250   144.1170    -0.5830    -0.9420   -26.5050    56.5100    13.4600    15.7990    15.9680     2.1050 
  144.2500   144.2420    -0.5840    -0.9440   -26.2710    56.0290    13.7020    16.0880    15.7080     2.1050 
  144.3750   144.3670    -0.5850    -0.9450   -26.1160    56.2050    14.1160    16.5650    15.8850     2.1060 
  144.5000   144.4920    -0.5860    -0.9460   -26.0460    57.5510    14.5860    17.0950    16.5330     2.1080 
  144.6250   144.6170    -0.5870    -0.9480   -26.0330    58.1370    15.0090    17.5570    17.3580     2.1140 
  144.7500   144.7420    -0.5880    -0.9490   -26.0230    57.4380    15.2560    17.7940    18.1350     2.1220 
  144.8750   144.8670    -0.5890    -0.9500   -25.9620    56.9460    15.2010    17.6590    18.9090     2.1320 
  145.0000   144.9920    -0.5900    -0.9520   -25.8140    57.2140    14.8420    17.1680    20.0250     2.1420 
  145.1250   145.1170    -0.5910    -0.9530   -25.5480    59.0550    14.2040    16.3790    20.4560     2.1490 
  145.2500   145.2420    -0.5920    -0.9540   -25.1670    61.4190    13.4840    15.5430    18.9880     2.1510 
  145.3750   145.3670    -0.5930    -0.9560   -24.6700    64.5130    12.9530    14.9930    16.7500     2.1430 
  145.5000   145.4920    -0.5940    -0.9570   -24.0960    67.3520    12.8370    14.9870    15.5670     2.1300 
  145.6250   145.6170    -0.5950    -0.9590   -23.4970    68.6140    13.3070    15.7160    15.8100     2.1130 
  145.7500   145.7420    -0.5960    -0.9600   -22.9470    67.5640    14.2500    16.9990    17.0930     2.0990 
  145.8750   145.8670    -0.5970    -0.9610   -22.5320    65.3480    15.4100    18.4610    18.6670     2.0900 
  146.0000   145.9920    -0.5980    -0.9630   -22.2950    64.0370    16.3890    19.5800    19.1910     2.0830 
  146.1250   146.1170    -0.5990    -0.9640   -22.2650    64.1610    16.8500    19.9440    18.3750     2.0730 
  146.2500   146.2420    -0.6000    -0.9650   -22.4070    64.6070    16.7360    19.5350    17.3960     2.0580 
  146.3750   146.3670    -0.6010    -0.9670   -22.6820    64.9670    16.1600    18.5530    17.1470     2.0420 
  146.5000   146.4920    -0.6020    -0.9680   -23.0010    67.0610    15.4610    17.4380    17.3370     2.0350 
  146.6250   146.6170    -0.6030    -0.9690   -23.2530    69.7200    14.9230    16.5320    17.0510     2.0410 
  146.7500   146.7420    -0.6040    -0.9710   -23.3340    71.4720    14.6360    15.9440    16.4350     2.0540 
  146.8750   146.8670    -0.6050    -0.9720   -23.1570    69.9430    14.5570    15.6360    15.8420     2.0650 
  147.0000   146.9920    -0.6060    -0.9730   -22.7210    66.2050    14.5330    15.4470    15.3250     2.0710 
  147.1250   147.1170    -0.6070    -0.9750   -22.0740    62.8970    14.3590    15.1520    14.8260     2.0730 
  147.2500   147.2420    -0.6080    -0.9760   -21.3200    62.1940    13.8580    14.5270    14.2060     2.0810 
  147.3750   147.3670    -0.6090    -0.9770   -20.5760    65.1260    12.8860    13.4600    13.4120     2.1020 
  147.5000   147.4920    -0.6100    -0.9790   -19.9300    69.9570    11.5120    11.9640    12.0040     2.1380 
  147.6250   147.6170    -0.6110    -0.9800   -19.4170    74.3800     9.8720    10.1490     9.9970     2.1820 
  147.7500   147.7420    -0.6120    -0.9810   -18.9940    77.7250     8.2300     8.3950     8.4250     2.2230 
  147.8750   147.8670    -0.6130    -0.9830   -18.6170    80.6560     6.8580     7.0000     7.2230     2.2510 
  148.0000   147.9920    -0.6140    -0.9840   -18.2780    82.9410     5.8690     6.0310     6.1240     2.2660 
  148.1250   148.1170    -0.6150    -0.9850   -18.0240    83.5190     5.3560     5.5570     5.4730     2.2730 
  148.2500   148.2420    -0.6160    -0.9870   -17.9030    82.1150     5.3010     5.5620     5.4150     2.2790 
  148.3750   148.3670    -0.6160    -0.9880   -17.9330    79.6040     5.8180     6.1880     5.8490     2.2920 
  148.5000   148.4920    -0.6170    -0.9890   -18.0600    74.6020     7.0420     7.6020     6.9550     2.3090 
  148.6250   148.6170    -0.6180    -0.9910   -18.2250    67.0720     9.2210    10.0630     9.5560     2.3240 
  148.7500   148.7420    -0.6190    -0.9920   -18.3810    58.3970    12.3890    13.5530    12.5810     2.3360 
  148.8750   148.8670    -0.6200    -0.9930   -18.5200    52.9060    16.5500    18.0120    15.4530     2.3520 
  149.0000   148.9920    -0.6210    -0.9940   -18.6530    50.7640    21.1080    22.7920    20.8900     2.3780 
  149.1250   149.1170    -0.6220    -0.9960   -18.7950    49.2020    25.3640    27.2160    27.9780     2.4200 
  149.2500   149.2420    -0.6230    -0.9970   -18.9490    47.5990    28.9060    30.9200    33.9320     2.4700 
  149.3750   149.3670    -0.6240    -0.9980   -19.1080    47.2960    31.3720    33.5310    38.3900     2.5150 
  149.5000   149.4920    -0.6250    -0.9990   -19.2630    48.1320    32.7550    34.9970    39.1130     2.5440 
  149.6250   149.6170    -0.6260    -1.0010   -19.4100    49.1920    32.9640    35.2210    37.2340     2.5530 
  149.7500   149.7420    -0.6270    -1.0020   -19.5450    49.2140    32.3120    34.5820    35.1280     2.5520 
  149.8750   149.8670    -0.6280    -1.0030   -19.6520    48.8120    31.5350    33.9160    33.2610     2.5490 
  150.0000   149.9920    -0.6280    -1.0040   -19.7240    48.2340    31.4080    34.0220    31.7180     2.5480 
  150.1250   150.1170    -0.6290    -1.0050   -19.7580    46.8670    32.1300    34.9910    32.1780     2.5500 
  150.2500   150.2420    -0.6300    -1.0070   -19.7700    44.8280    32.9950    35.9420    36.5350     2.5590 
  150.3750   150.3670    -0.6310    -1.0080   -19.7750    43.8100    32.7940    35.5300    42.8740     2.5710 
  150.5000   150.4920    -0.6320    -1.0090   -19.7840    43.1320    30.9730    33.2680    45.3470     2.5750 
  150.6250   150.6170    -0.6330    -1.0100   -19.7980    42.9820    27.9030    29.6300    40.6580     2.5550 
  150.7500   150.7420    -0.6340    -1.0110   -19.8190    43.0180    24.5910    25.8050    31.8090     2.5120 
  150.8750   150.8670    -0.6350    -1.0130   -19.8540    44.3900    21.9700    22.9330    23.5180     2.4640 
  151.0000   150.9920    -0.6360    -1.0140   -19.9160    46.6490    20.3430    21.2470    19.8310     2.4320 
  151.1250   151.1170    -0.6360    -1.0150   -20.0230    48.1940    19.7040    20.6480    21.1240     2.4240 
  151.2500   151.2420    -0.6370    -1.0160   -20.1680    48.9920    19.9180    20.9480    22.6950     2.4310 
  151.3750   151.3670    -0.6380    -1.0170   -20.3290    47.9640    20.8840    21.9920    22.5210     2.4480 
  151.5000   151.4920    -0.6390    -1.0190   -20.4720    47.3730    22.2320    23.3740    23.4520     2.4740 
  151.6250   151.6170    -0.6400    -1.0200   -20.5670    47.4410    23.6530    24.7730    26.5910     2.5050 
  151.7500   151.7420    -0.6410    -1.0210   -20.6170    47.9040    24.9070    25.9640    29.7290     2.5370 
  151.8750   151.8670    -0.6420    -1.0220   -20.6340    48.0280    25.8110    26.7750    31.2670     2.5630 
  152.0000   151.9920    -0.6430    -1.0230   -20.6360    47.4040    26.2680    27.1180    30.5130     2.5780 
  152.1250   152.1170    -0.6430    -1.0240   -20.6220    47.3680    26.2050    26.9530    27.9300     2.5800 
  152.2500   152.2420    -0.6440    -1.0250   -20.5840    47.7310    25.7800    26.4710    26.4860     2.5780 
  152.3750   152.3670    -0.6450    -1.0270   -20.5110    48.5680    25.0810    25.7570    27.1960     2.5760 
  152.5000   152.4920    -0.6460    -1.0280   -20.4120    50.1930    24.1800    24.8580    27.5670     2.5720 
  152.6250   152.6170    -0.6470    -1.0290   -20.2930    51.5250    23.0340    23.6980    25.7440     2.5630 
  152.7500   152.7420    -0.6480    -1.0300   -20.1640    51.8250    21.6230    22.2380    22.5000     2.5500 
  152.8750   152.8670    -0.6490    -1.0310   -20.0430    50.4790    20.0360    20.5800    19.3640     2.5370 
  153.0000   152.9920    -0.6490    -1.0320   -19.9630    50.0870    18.4960    18.9810    17.4340     2.5220 
  153.1250   153.1170    -0.6500    -1.0330   -19.9680    49.9270    17.2460    17.7090    17.3440     2.5020 
