~V
VERS. 2.00: Ver 2.00
~W
STRT.M 40.0000:
STOP.M 213.0000:
STEP.M 0.1250:
NULL. -999.2500:
UWI. F10805:
~C
DEPT.M :
SP.MV :
GR.API :
RI. :
RML.OHMM :
RXO.OHMM :
DEN.GM/CC :
~A
# ...
  117.2500   -12.1800    47.3320    14.4400    15.8240    16.2050     2.4400 
  117.3750   -12.1150    47.4460    13.9310    15.2520    15.9440     2.3910 
  117.5000   -12.0560    47.0770    13.6010    14.7930    15.3730     2.3630 
  117.6250   -11.9850    47.7630    13.2430    14.3770    15.5480     2.3700 
  117.7500   -11.9090    49.1020    12.8470    13.9250    15.9290     2.3980 
  117.8750   -11.8210    51.3510    12.3530    13.4200    14.5210     2.4210 
  118.0000   -11.7520    53.0630    11.8530    12.9000    12.1170     2.4110 
  118.1250   -11.6820    53.1980    11.4040    12.4260    10.9380     2.3810 
  118.2500   -11.6250    51.3980    11.0580    12.0560    10.7310     2.3560 
  118.3750   -11.5010    50.0510    10.8950    11.8320    10.7270     2.3670 
  118.5000   -11.3190    48.4440    10.8530    11.7200    11.2380     2.4030 
  118.6250   -11.2180    46.8300    10.8600    11.6540    11.9840     2.4530 
  118.7500   -11.1480    44.8280    10.8420    11.5770    12.4350     2.4980 
  118.8750   -11.1950    44.4680    10.8040    11.4840    12.5890     2.5160 
  119.0000   -11.3370    45.6540    10.7300    11.3790    12.9870     2.5120 
  119.1250   -11.5420    47.5290    10.6240    11.2690    13.6140     2.4960 
  119.2500   -11.7050    49.3720    10.5420    11.1880    13.0180     2.4870 
  119.3750   -11.8100    50.5000    10.4830    11.1150    11.6470     2.4840 
  119.5000   -11.8840    50.9450    10.3730    11.0050    11.7700     2.4800 
  119.6250   -11.9190    50.6520    10.2520    10.8740    12.4910     2.4750 
  119.7500   -11.9670    50.2710    10.1120    10.7300    11.6370     2.4770 
  119.8750   -12.0380    50.5360    10.0000    10.6210    10.3250     2.4850 
  120.0000   -12.0980    50.4370    10.0070    10.6490    10.3100     2.4890 
  120.1250   -12.1280    50.0570    10.2460    10.8980    10.8130     2.4910 
  120.2500   -12.1650    49.1260    10.6460    11.3480    11.5570     2.4880 
  120.3750   -12.2100    48.7400    11.2510    11.9990    14.0100     2.4840 
  120.5000   -12.2860    48.8930    11.9110    12.7050    16.6330     2.4810 
  120.6250   -12.3700    49.3810    12.4150    13.2420    16.7350     2.4770 
  120.7500   -12.4310    50.1640    12.6760    13.5310    15.7130     2.4610 
  120.8750   -12.4590    50.2870    12.7280    13.5270    15.2980     2.4370 
  121.0000   -12.4500    49.9890    12.4700    13.2410    14.7290     2.4110 
  121.1250   -12.3780    50.2050    12.1020    12.8910    14.7810     2.4030 
  121.2500   -12.2620    51.8100    11.9360    12.7520    14.7630     2.4060 
  121.3750   -12.2210    53.0010    12.0150    12.8550    13.0870     2.4190 
  121.5000   -12.2130    52.0750    12.1710    13.0910    13.6400     2.4250 
  121.6250   -12.2090    49.7940    12.4970    13.4920    17.5920     2.4320 
  121.7500   -12.1480    48.3640    12.9660    14.0000    18.5870     2.4370 
  121.8750   -12.0230    48.5690    13.3740    14.4400    16.4610     2.4420 
  122.0000   -11.9090    47.7990    13.6640    14.7510    17.2130     2.4380 
  122.1250   -11.8580    47.8320    13.7950    14.8700    19.4250     2.4370 
  122.2500   -11.8670    48.0430    13.7150    14.8370    18.5680     2.4360 
  122.3750   -11.9820    49.1270    13.6870    14.8100    16.4050     2.4320 
  122.5000   -12.1850    48.2360    13.6590    14.7710    15.4220     2.4250 
  122.6250   -12.3490    46.4900    13.5290    14.6530    14.9730     2.4190 
  122.7500   -12.5260    45.2460    13.3030    14.4540    16.3010     2.4210 
  122.8750   -12.6910    45.4890    13.0450    14.1840    17.5810     2.4210 
  123.0000   -12.8500    46.2570    12.7000    13.8050    15.5090     2.4220 
  123.1250   -12.9190    46.4510    12.2630    13.3280    12.4930     2.4260 
  123.2500   -12.9340    45.9710    11.8850    12.8760    11.6530     2.4390 
  123.3750   -12.9150    45.6500    11.5820    12.5380    13.2490     2.4470 
  123.5000   -12.8750    46.1200    11.4190    12.3660    14.5920     2.4480 
  123.6250   -12.8520    46.9430    11.4710    12.4140    14.1920     2.4340 
  123.7500   -12.8940    48.0710    11.6550    12.6230    13.7080     2.4160 
  123.8750   -12.9700    48.7880    11.9330    12.9260    13.6080     2.4070 
  124.0000   -12.9910    49.9240    12.2000    13.2070    14.0350     2.4120 
  124.1250   -13.0110    50.4780    12.2700    13.2650    14.7060     2.4280 
  124.2500   -12.9830    51.0740    12.0620    12.9810    15.1670     2.4410 
  124.3750   -12.9550    50.6980    11.4720    12.3180    14.8060     2.4450 
  124.5000   -12.9040    50.5470    10.7330    11.5100    12.8880     2.4480 
  124.6250   -12.8440    50.1090    10.1620    10.8840    11.1240     2.4520 
  124.7500   -12.7640    50.2380     9.8820    10.6310    10.1940     2.4560 
  124.8750   -12.6290    49.8420    10.0160    10.8260    10.8820     2.4480 
  125.0000   -12.5350    49.7410    10.4200    11.2790    12.9790     2.4360 
  125.1250   -12.4650    48.9260    10.8010    11.6890    14.5230     2.4340 
  125.2500   -12.4290    47.8000    10.9790    11.8270    14.8610     2.4410 
  125.3750   -12.3610    46.4590    10.8040    11.5740    13.2660     2.4440 
  125.5000   -12.3700    45.2090    10.3700    11.0670    11.2820     2.4320 
  125.6250   -12.3700    44.4500     9.9230    10.5540    10.5720     2.4140 
  125.7500   -12.3790    42.7860     9.6040    10.2230    10.1850     2.4010 
  125.8750   -12.3480    41.3820     9.5560    10.2130    10.4220     2.4000 
  126.0000   -12.2560    40.4460     9.7910    10.4980    11.4130     2.4020 
  126.1250   -12.2030    41.0370    10.1750    10.9500    11.3980     2.4050 
  126.2500   -12.1870    43.1970    10.5610    11.4000    11.4340     2.4090 
  126.3750   -12.1460    45.9310    10.8130    11.6960    12.2990     2.4170 
  126.5000   -12.0640    47.7880    10.8450    11.7000    12.4040     2.4260 
  126.6250   -12.0340    48.0440    10.5220    11.3220    11.8400     2.4370 
  126.7500   -12.0110    48.6840    10.0080    10.7370    10.8240     2.4440 
  126.8750   -12.0350    50.4010     9.5520    10.2430     9.6960     2.4410 
  127.0000   -12.1120    52.4760     9.4490    10.1240     9.3900     2.4340 
  127.1250   -12.2980    54.2920     9.9580    10.5420    10.3330     2.4320 
  127.2500   -12.4530    55.4590    10.9320    11.5400    12.8520     2.4430 
  127.3750   -12.5490    55.4450    12.0520    12.7490    16.7920     2.4590 
  127.5000   -12.6150    53.6200    12.9330    13.6320    18.7440     2.4710 
  127.6250   -12.6280    51.4400    13.1190    13.7310    16.1110     2.4610 
  127.7500   -12.6310    49.4930    12.5480    13.0580    12.6080     2.4300 
  127.8750   -12.6320    48.8340    11.4740    11.9230    11.2020     2.3980 
  128.0000   -12.6670    49.4130    10.3840    10.7910    11.1570     2.3840 
  128.1250   -12.6930    49.9270     9.5450     9.9690    10.9970     2.3950 
  128.2500   -12.7260    50.5420     9.0210     9.4730    10.1280     2.4070 
  128.3750   -12.7000    49.7410     8.7280     9.2480    10.1910     2.4170 
  128.5000   -12.7250    50.5260     8.6590     9.2810    10.9510     2.4190 
  128.6250   -12.7770    52.6340     8.8910     9.5940    10.9090     2.4260 
  128.7500   -12.9410    56.8300     9.2830    10.0850    11.0720     2.4280 
  128.8750   -13.1880    61.2120     9.7870    10.6520    12.3000     2.4270 
  129.0000   -13.4110    64.8890    10.2730    11.1780    13.1910     2.4190 
  129.1250   -13.6480    66.9320    10.6890    11.5900    12.9400     2.4140 
  129.2500   -13.8580    68.5110    11.0160    11.9290    12.7370     2.4120 
  129.3750   -14.0540    69.2870    11.3510    12.2860    13.2580     2.4140 
  129.5000   -14.2060    68.9720    11.7070    12.7210    13.9400     2.4190 
  129.6250   -14.3220    67.9940    12.1330    13.1850    14.7650     2.4270 
  129.7500   -14.3840    67.0980    12.3310    13.4150    15.6510     2.4370 
  129.8750   -14.3970    68.4430    12.1280    13.1750    15.6790     2.4390 
  130.0000   -14.4200    70.4700    11.5040    12.4990    14.3900     2.4270 
