~V
VERS. 2.00: Ver 2.00
~W
STRT.M 63.0000:
STOP.M 236.0000:
STEP.M 0.1250:
NULL. -999.2500:
UWI. F10859:
~C
DEPT.M :
TVD. :
DX. :
DY. :
SP.MV :
GR.API :
RI. :
RML.OHMM :
RXO.OHMM :
DEN.GM/CC :
~A
# ...
   81.2500    81.2480    -0.2570     0.1100   -19.3530    84.5110     6.0820     7.3150     6.1770     2.2480 
   81.3750    81.3730    -0.2590     0.1110   -18.7280    82.9130     6.3270     7.6680     6.5550     2.2440 
   81.5000    81.4980    -0.2610     0.1120   -18.2350    79.1560     6.4940     7.8170     6.6050     2.2400 
   81.6250    81.6230    -0.2630     0.1130   -17.8690    76.7540     6.4840     7.6700     6.3340     2.2400 
   81.7500    81.7480    -0.2640     0.1140   -17.5920    78.6400     6.3390     7.3270     6.0080     2.2470 
   81.8750    81.8730    -0.2660     0.1150   -17.3450    81.9490     6.2030     7.0110     5.8670     2.2570 
   82.0000    81.9980    -0.2680     0.1150   -17.0920    83.8380     6.2070     6.8990     6.0190     2.2590 
   82.1250    82.1230    -0.2690     0.1160   -16.8380    82.6190     6.3910     7.0290     6.4310     2.2460 
   82.2500    82.2480    -0.2710     0.1170   -16.5850    79.8730     6.7350     7.3740     6.9720     2.2220 
   82.3750    82.3730    -0.2730     0.1180   -16.3430    77.9170     7.1730     7.8520     7.3400     2.2020 
   82.5000    82.4980    -0.2750     0.1190   -16.1080    77.9050     7.6360     8.4000     7.3460     2.1930 
   82.6250    82.6230    -0.2760     0.1200   -15.8820    78.5580     7.9860     8.8570     7.2970     2.1900 
   82.7500    82.7480    -0.2780     0.1210   -15.6700    78.1710     7.9970     8.9530     7.6350     2.1850 
   82.8750    82.8730    -0.2800     0.1220   -15.4730    76.0930     7.5710     8.5500     8.1940     2.1820 
   83.0000    82.9980    -0.2820     0.1230   -15.3000    74.9320     6.7490     7.6670     8.1560     2.1930 
   83.1250    83.1230    -0.2830     0.1240   -15.1520    74.3360     5.8030     6.6170     7.0530     2.2210 
   83.2500    83.2480    -0.2850     0.1250   -15.0500    75.6970     5.0360     5.7680     5.4150     2.2550 
   83.3750    83.3730    -0.2870     0.1260   -15.0060    77.7470     4.6290     5.3650     4.3220     2.2770 
   83.5000    83.4980    -0.2890     0.1270   -15.0370    80.5500     4.7300     5.6220     4.2100     2.2720 
   83.6250    83.6230    -0.2900     0.1270   -15.1470    81.7840     5.3870     6.6130     4.9230     2.2530 
   83.7500    83.7480    -0.2920     0.1280   -15.3440    79.5310     6.7250     8.4950     6.7480     2.2440 
   83.8750    83.8730    -0.2940     0.1290   -15.6180    75.2650     8.7500    11.2380     9.9300     2.2610 
   84.0000    83.9980    -0.2960     0.1300   -15.9710    71.4740    11.5030    14.8410    14.4570     2.2900 
   84.1250    84.1220    -0.2970     0.1310   -16.3890    70.0810    14.7140    18.9220    18.7180     2.3110 
   84.2500    84.2470    -0.2990     0.1320   -16.8690    69.9730    17.9120    22.8650    21.2210     2.3220 
   84.3750    84.3720    -0.3010     0.1330   -17.3970    69.4740    20.5280    25.9820    23.3440     2.3240 
   84.5000    84.4970    -0.3020     0.1340   -17.9630    67.5220    22.0680    27.7120    25.5550     2.3030 
   84.6250    84.6220    -0.3040     0.1350   -18.5530    65.6610    22.5620    28.1720    25.6350     2.2490 
   84.7500    84.7470    -0.3060     0.1360   -19.1530    63.7970    22.2600    27.7680    23.3510     2.1750 
   84.8750    84.8720    -0.3080     0.1370   -19.7480    61.4330    21.6990    27.2120    21.5410     2.1100 
   85.0000    84.9970    -0.3100     0.1370   -20.3160    58.5910    21.3050    27.0330    21.5120     2.0720 
   85.1250    85.1220    -0.3110     0.1380   -20.8380    56.9740    21.2830    27.3700    22.4050     2.0560 
   85.2500    85.2470    -0.3130     0.1390   -21.2860    56.8070    21.6090    28.0290    23.5270     2.0550 
   85.3750    85.3720    -0.3150     0.1400   -21.6440    58.1380    22.0320    28.5900    24.7580     2.0650 
   85.5000    85.4970    -0.3170     0.1410   -21.8860    59.4440    22.3150    28.7270    26.1160     2.0800 
   85.6250    85.6220    -0.3180     0.1420   -22.0070    60.4770    22.3320    28.3630    26.7720     2.0900 
   85.7500    85.7470    -0.3200     0.1430   -21.9880    59.0150    21.9700    27.4310    25.5540     2.0920 
   85.8750    85.8720    -0.3220     0.1440   -21.8370    58.0250    21.2370    26.0160    23.2430     2.0890 
   86.0000    85.9970    -0.3240     0.1440   -21.5490    58.1640    20.2440    24.3210    21.4330     2.0880 
   86.1250    86.1220    -0.3250     0.1450   -21.1460    60.2520    19.2870    22.7540    20.0160     2.0930 
   86.2500    86.2470    -0.3270     0.1460   -20.6450    62.3100    18.6410    21.6830    17.9800     2.1020 
   86.3750    86.3720    -0.3290     0.1470   -20.0790    63.9960    18.2660    21.0330    16.3220     2.1090 
   86.5000    86.4970    -0.3310     0.1480   -19.4770    64.5890    17.7550    20.2790    16.8800     2.1180 
   86.6250    86.6220    -0.3320     0.1490   -18.8720    63.9210    16.6380    18.8390    18.6760     2.1360 
   86.7500    86.7470    -0.3340     0.1500   -18.2990    63.5010    14.7190    16.4950    18.9380     2.1690 
   86.8750    86.8720    -0.3360     0.1510   -17.7920    66.1830    12.3950    13.7310    16.1270     2.2060 
   87.0000    86.9970    -0.3380     0.1510   -17.4050    71.3290    10.2820    11.2990    11.4470     2.2270 
   87.1250    87.1220    -0.3390     0.1520   -17.1740    76.7700     8.8720     9.7700     8.0370     2.2240 
   87.2500    87.2470    -0.3410     0.1530   -17.1430    79.9260     8.4070     9.4050     7.2710     2.2030 
   87.3750    87.3720    -0.3430     0.1540   -17.2970    80.7150     8.6660     9.8850     8.1750     2.1850 
   87.5000    87.4970    -0.3450     0.1550   -17.6050    79.2300     9.3640    10.7980     9.6330     2.1820 
   87.6250    87.6220    -0.3460     0.1560   -18.0120    75.7710    10.1200    11.6640    10.6870     2.1880 
   87.7500    87.7470    -0.3480     0.1570   -18.4820    72.1710    10.6910    12.2060    11.0260     2.1890 
   87.8750    87.8720    -0.3500     0.1580   -18.9720    70.2760    11.0620    12.4690    10.7090     2.1760 
   88.0000    87.9970    -0.3520     0.1590   -19.4730    70.6290    11.3690    12.6690    10.2080     2.1540 
   88.1250    88.1220    -0.3530     0.1590   -19.9040    71.8180    11.7890    13.0330    10.7080     2.1330 
   88.2500    88.2470    -0.3550     0.1600   -20.2530    72.6080    12.4280    13.6760    12.3710     2.1220 
   88.3750    88.3720    -0.3570     0.1610   -20.4790    72.4040    13.2310    14.5260    13.6350     2.1210 
   88.5000    88.4970    -0.3590     0.1620   -20.5900    69.6510    14.0090    15.4070    13.6290     2.1280 
   88.6250    88.6220    -0.3600     0.1630   -20.6350    65.9730    14.4420    16.0000    13.3070     2.1420 
   88.7500    88.7470    -0.3620     0.1640   -20.6380    63.0160    14.1410    15.8550    13.4990     2.1580 
   88.8750    88.8720    -0.3640     0.1650   -20.6350    62.6330    13.0300    14.7740    13.5580     2.1750 
   89.0000    88.9970    -0.3660     0.1650   -20.6010    65.1720    11.2250    12.7730    12.3140     2.1930 
   89.1250    89.1220    -0.3670     0.1660   -20.5120    69.9280     9.1530    10.3340     9.8890     2.2160 
   89.2500    89.2470    -0.3690     0.1670   -20.3510    75.3840     7.2530     8.0370     7.3780     2.2420 
   89.3750    89.3720    -0.3710     0.1680   -20.1560    79.7070     5.8440     6.3630     5.6040     2.2590 
   89.5000    89.4970    -0.3720     0.1690   -20.0090    82.8420     5.2110     5.6890     4.7040     2.2570 
   89.6250    89.6220    -0.3740     0.1700   -20.0100    84.7940     5.4500     6.1160     4.8280     2.2400 
   89.7500    89.7470    -0.3760     0.1700   -20.1920    85.4850     6.6770     7.7510     6.8300     2.2130 
   89.8750    89.8720    -0.3780     0.1710   -20.5500    84.2900     8.5770    10.1450    10.7180     2.1860 
   90.0000    89.9970    -0.3790     0.1720   -20.9650    80.9900    10.4970    12.4160    15.2940     2.1630 
   90.1250    90.1220    -0.3810     0.1730   -21.3590    76.2520    11.6180    13.5800    18.5050     2.1510 
   90.2500    90.2470    -0.3830     0.1740   -21.7220    73.0570    11.3770    13.0390    18.0720     2.1550 
