~V
VERS. 2.00: Ver 2.00
~W
STRT.M 40.0000:
STOP.M 215.0000:
STEP.M 0.1250:
NULL. -999.2500:
UWI. F10811:
~C
DEPT.M :
SP.MV :
GR.API :
RI. :
RML.OHMM :
RXO.OHMM :
DEN.GM/CC :
~A
# ...
   78.6250   -18.9790    80.7220     4.3680     4.7920     7.9180     2.1600 
   78.7500   -16.9080    87.4000     3.9370     4.3350     6.9080     2.2070 
   78.8750   -14.9930    94.5280     3.5500     3.9210     4.9490     2.2330 
   79.0000   -13.5580   101.5220     3.2650     3.6240     3.6400     2.2450 
   79.1250   -12.7580   104.8900     3.1720     3.5100     3.2710     2.2600 
   79.2500   -12.4140   105.3060     3.2090     3.5460     3.2250     2.2710 
   79.3750   -12.4090   105.3170     3.3630     3.7190     3.3040     2.2590 
   79.5000   -12.6380   106.3640     3.6400     4.0050     3.4160     2.2310 
   79.6250   -13.0590   106.4620     3.9530     4.3420     3.6940     2.2070 
   79.7500   -13.6030   105.5150     4.2600     4.6640     4.1920     2.1960 
   79.8750   -14.1790   103.8830     4.4790     4.8980     4.5800     2.1960 
   80.0000   -14.6560   103.1140     4.5710     5.0130     4.6580     2.1970 
   80.1250   -14.9400   101.7420     4.5980     5.0520     4.7210     2.1900 
   80.2500   -15.0680   100.0790     4.6200     5.0950     4.7820     2.1700 
   80.3750   -15.1300    98.2250     4.7420     5.2350     4.7420     2.1460 
   80.5000   -15.2190    97.0830     4.9890     5.5060     4.9550     2.1250 
   80.6250   -15.3760    96.0030     5.3560     5.8880     6.8990     2.1140 
   80.7500   -15.5970    92.9650     5.7330     6.2750    12.0160     2.1040 
   80.8750   -15.8600    89.5100     5.9770     6.5380    17.1240     2.0950 
   81.0000   -16.0880    86.6030     6.0630     6.6230    16.9160     2.0870 
   81.1250   -16.1850    86.5250     5.9440     6.5180    12.2960     2.0800 
   81.2500   -16.1570    86.1150     5.7530     6.3220     8.3290     2.0740 
   81.3750   -16.0800    83.8240     5.5640     6.1340     6.8190     2.0730 
   81.5000   -16.0080    81.5070     5.4810     6.0330     6.6250     2.0710 
   81.6250   -15.9150    80.3530     5.4670     6.0170     6.6780     2.0670 
   81.7500   -15.7880    82.3310     5.4990     6.0420     6.6340     2.0650 
   81.8750   -15.6620    83.6280     5.5290     6.0740     6.4570     2.0710 
   82.0000   -15.5930    85.7530     5.5500     6.1010     6.1560     2.0810 
   82.1250   -15.6330    86.6880     5.5730     6.1120     6.0350     2.0870 
   82.2500   -15.7680    87.9260     5.5310     6.0780     6.2360     2.0870 
   82.3750   -15.9260    87.9200     5.4830     6.0330     6.4830     2.0850 
   82.5000   -16.0380    87.9250     5.4740     6.0140     6.5750     2.0860 
   82.6250   -16.1400    87.1110     5.4680     6.0160     6.5140     2.0860 
   82.7500   -16.3310    85.5350     5.4930     6.0310     6.4090     2.0850 
   82.8750   -16.6800    83.8460     5.4880     6.0420     6.3830     2.0830 
   83.0000   -17.1700    84.2320     5.5350     6.0960     6.4520     2.0800 
   83.1250   -17.7910    85.1570     5.6560     6.2210     6.6690     2.0760 
   83.2500   -18.4970    84.1680     5.8110     6.3910     7.1840     2.0720 
   83.3750   -19.2180    80.6970     5.9870     6.5650     7.8480     2.0690 
   83.5000   -19.8510    77.8560     6.0890     6.6940     8.3500     2.0640 
   83.6250   -20.3280    77.5480     6.1990     6.8050     8.8330     2.0620 
   83.7500   -20.6640    78.2550     6.2750     6.8800     9.1750     2.0610 
   83.8750   -20.8930    78.8390     6.2730     6.8900     9.0930     2.0630 
   84.0000   -21.0710    78.0980     6.2520     6.8690     9.0300     2.0640 
   84.1250   -21.2300    76.5590     6.2250     6.8400     9.1760     2.0650 
   84.2500   -21.3880    74.7920     6.2010     6.8240     9.1790     2.0660 
   84.3750   -21.5700    74.0820     6.2350     6.8600     9.0540     2.0630 
   84.5000   -21.7780    74.3970     6.3070     6.9400     9.0610     2.0580 
   84.6250   -21.9830    74.2180     6.4260     7.0670     9.2110     2.0550 
   84.7500   -22.1630    73.7590     6.5750     7.2240     9.4210     2.0590 
   84.8750   -22.3100    72.8670     6.7330     7.4060     9.6570     2.0670 
   85.0000   -22.4210    73.2030     6.9390     7.6090     9.8130     2.0780 
   85.1250   -22.4980    74.0160     7.0600     7.7540     9.8170     2.0850 
   85.2500   -22.5630    75.3280     7.1610     7.8360     9.7540     2.0900 
   85.3750   -22.6360    75.1100     7.1140     7.8160     9.8090     2.0910 
   85.5000   -22.7150    73.3430     7.0490     7.7640    10.0300     2.0920 
   85.6250   -22.7960    70.4040     7.0570     7.7350    10.2250     2.0960 
   85.7500   -22.8820    68.7570     6.9840     7.6720    10.2630     2.1050 
   85.8750   -22.9730    68.3790     6.9180     7.5930    10.2870     2.1150 
   86.0000   -23.0490    68.1600     6.8210     7.4840    10.4460     2.1180 
   86.1250   -23.1060    66.8650     6.6880     7.3590    10.4110     2.1100 
   86.2500   -23.1690    66.2980     6.6300     7.2710     9.7750     2.0980 
   86.3750   -23.2710    66.8490     6.5420     7.1980     9.3920     2.0940 
   86.5000   -23.4210    68.5830     6.5090     7.1650    10.3120     2.0970 
   86.6250   -23.6190    69.1190     6.5390     7.1890    11.4960     2.1030 
   86.7500   -23.8650    69.0270     6.5900     7.2420    11.4900     2.1040 
   86.8750   -24.1620    67.0820     6.6390     7.2880    10.8100     2.1020 
   87.0000   -24.4900    65.1030     6.6700     7.3070    10.4930     2.0950 
   87.1250   -24.8110    63.0300     6.6270     7.2590    10.3310     2.0860 
   87.2500   -25.0720    62.4140     6.4850     7.1300    10.0550     2.0790 
   87.3750   -25.2430    62.1410     6.3890     7.0350     9.8680     2.0790 
   87.5000   -25.3450    62.7800     6.4210     7.0690     9.7940     2.0840 
   87.6250   -25.3720    63.0050     6.5790     7.2330     9.8230     2.0850 
   87.7500   -25.3310    64.0710     6.7520     7.3670     9.8660     2.0810 
   87.8750   -25.2250    64.6650     6.6550     7.2850     9.7080     2.0760 
   88.0000   -25.0640    65.4560     6.4330     7.0740     9.4940     2.0770 
   88.1250   -24.8440    64.1680     6.2490     6.8960     9.5070     2.0830 
   88.2500   -24.5550    63.7360     6.2160     6.8480     9.6260     2.0860 
   88.3750   -24.1650    62.9000     6.2740     6.8790     9.6820     2.0800 
   88.5000   -23.6760    61.7910     6.2570     6.8570     9.6800     2.0710 
   88.6250   -23.1120    60.9960     6.1520     6.7620     9.6200     2.0670 
   88.7500   -22.5060    61.6050     6.0580     6.6590     9.4700     2.0710 
   88.8750   -21.8680    64.3270     5.9740     6.5700     9.2800     2.0780 
   89.0000   -21.2110    66.9780     5.9130     6.5000     9.2180     2.0850 
   89.1250   -20.5520    69.0110     5.8660     6.4540     9.5990     2.0890 
   89.2500   -19.8980    71.5760     5.8720     6.4580     9.9160     2.0910 
   89.3750   -19.2410    74.8310     5.9200     6.4790     9.1310     2.0910 
   89.5000   -18.5860    76.7770     5.8290     6.3920     7.9160     2.0900 
   89.6250   -17.9360    75.5550     5.6380     6.1630     7.2170     2.0870 
   89.7500   -17.3020    72.3690     5.2840     5.8110     6.8300     2.0850 
   89.8750   -16.7350    70.3980     4.9500     5.4750     6.5930     2.0860 
   90.0000   -16.2830    70.1540     4.7900     5.2850     6.2580     2.0910 
   90.1250   -15.9960    71.2090     4.7510     5.2390     6.0640     2.0950 
   90.2500   -15.8800    72.3690     4.8080     5.3010     6.5050     2.0990 
   90.3750   -15.9130    73.5350     4.9620     5.4620     7.0660     2.1020 
   90.5000   -16.0040    75.1000     5.1610     5.6720     7.3130     2.0990 
   90.6250   -16.1090    75.0530     5.3580     5.8830     7.4680     2.0890 
   90.7500   -16.2440    74.0270     5.5260     6.0580     7.7740     2.0790 
   90.8750   -16.4360    71.6420     5.6110     6.1570     8.1920     2.0820 
   91.0000   -16.6470    71.0660     5.6450     6.1960     8.3030     2.0910 
   91.1250   -16.8440    71.5370     5.6310     6.1780     8.0700     2.0950 
   91.2500   -17.0510    73.3900     5.5610     6.1100     7.8330     2.0940 
   91.3750   -17.2900    73.4990     5.4760     6.0210     7.7020     2.0920 
