~V
VERS. 2.00: Ver 2.00
~W
STRT.M 40.0000:
STOP.M 216.0000:
STEP.M 0.1250:
NULL. -999.2500:
UWI. F10813:
~C
DEPT.M :
SP.MV :
GR.API :
RI. :
RML.OHMM :
RXO.OHMM :
DEN.GM/CC :
~A
# ...
  155.8750   -29.6530    64.2620   167.1230   183.2040   224.6430     2.1430 
  156.0000   -29.2250    64.1600   176.2520   192.1250   216.0420     2.1370 
  156.1250   -28.6770    64.5760   176.5680   191.9710   183.1970     2.1320 
  156.2500   -28.0340    65.4510   169.8930   184.3960   146.8090     2.1330 
  156.3750   -27.4040    67.3650   159.3510   172.6630   128.8440     2.1370 
  156.5000   -26.8970    68.5310   147.8870   160.0840   116.9230     2.1470 
  156.6250   -26.4830    67.6000   137.5520   148.9840   111.4720     2.1580 
  156.7500   -26.1600    64.7670   129.8570   140.8010   109.3890     2.1680 
  156.8750   -25.9100    62.6280   125.4350   136.3510   102.6850     2.1730 
  157.0000   -25.7250    61.6510   124.2570   135.6470   100.4550     2.1710 
  157.1250   -25.4850    62.6560   127.5500   139.6820   108.7330     2.1680 
  157.2500   -25.2490    62.6780   134.8470   147.9170   118.8960     2.1660 
  157.3750   -25.0110    62.2780   145.4050   160.3780   132.7870     2.1670 
  157.5000   -24.6880    60.5360   157.0070   169.4350   142.2570     2.1680 
  157.6250   -24.3760    59.5550   165.5480   176.6020   141.4230     2.1670 
  157.7500   -24.1450    59.0980   169.0840   182.0160   141.3530     2.1650 
  157.8750   -23.9560    58.8950   168.6570   187.4010   137.4470     2.1640 
  158.0000   -23.8040    59.5030   168.0250   189.4320   127.2960     2.1590 
  158.1250   -23.7190    60.2800   169.8940   188.0350   128.3550     2.1510 
  158.2500   -23.6070    59.9770   171.2590   184.9320   147.5760     2.1390 
  158.3750   -23.4480    58.4280   167.9680   178.5950   157.6090     2.1380 
  158.5000   -23.2260    57.4260   155.3540   165.8370   143.4810     2.1450 
  158.6250   -23.0120    59.4460   134.3820   147.1010   108.2200     2.1610 
  158.7500   -22.8260    62.1350   108.9820   116.3970    67.2030     2.1780 
  158.8750   -22.6630    65.4510    79.3230    84.0660    55.9060     2.1980 
  159.0000   -22.5470    67.8040    53.2480    55.2970    62.3360     2.2250 
  159.1250   -22.4570    71.9050    32.9760    34.8950    51.5130     2.2600 
  159.2500   -22.4720    76.4280    20.6920    22.9740    29.0660     2.2960 
  159.3750   -22.6020    80.8250    16.7990    18.4530    13.1920     2.3160 
  159.5000   -22.8870    82.5180    16.8880    18.4940     9.5790     2.3210 
  159.6250   -23.2370    81.5630    20.8030    22.7620    15.8920     2.3160 
  159.7500   -23.5940    79.3910    28.1720    30.6270    27.3020     2.3100 
  159.8750   -23.9490    77.8510    38.1020    40.7970    39.9290     2.2990 
  160.0000   -24.2460    75.9000    47.5640    50.8910    55.9850     2.2830 
  160.1250   -24.4390    73.0180    54.9750    59.2330    68.2090     2.2680 
  160.2500   -24.5500    68.4660    60.6720    64.8750    59.3920     2.2550 
  160.3750   -24.6410    65.9840    65.5610    70.1260    49.2970     2.2320 
  160.5000   -24.7300    65.1310    73.5670    81.6420    75.9100     2.2010 
  160.6250   -24.8150    65.7830    89.8240   103.9160   118.2690     2.1670 
  160.7500   -24.7850    64.7840   114.7040   133.6180   127.8700     2.1450 
  160.8750   -24.6320    62.4030   141.0250   161.7820   122.8260     2.1340 
  161.0000   -24.3960    59.9650   165.2610   185.4970   147.7260     2.1280 
  161.1250   -24.1640    58.4310   186.6260   207.2870   189.3950     2.1340 
  161.2500   -23.9090    58.7090   211.4960   237.3470   217.1490     2.1570 
  161.3750   -23.7520    59.2820   238.0710   268.3990   220.0940     2.1780 
  161.5000   -23.6820    59.7550   260.1150   292.3310   207.2580     2.1750 
  161.6250   -23.5980    58.5240   271.4320   304.4800   203.3070     2.1420 
  161.7500   -23.4660    57.7820   274.0590   308.1140   185.0330     2.1140 
  161.8750   -23.2910    58.7760   274.5910   308.6650   142.1310     2.1070 
  162.0000   -23.1750    60.5320   274.7890   309.2690   135.5420     2.1160 
  162.1250   -23.1550    60.9840   276.4380   311.4650   170.8190     2.1270 
  162.2500   -23.2080    59.2280   280.0840   315.3200   216.8920     2.1350 
  162.3750   -23.2070    56.8620   284.4730   319.0220   247.6520     2.1420 
  162.5000   -23.2180    56.3400   286.9120   319.2800   213.4060     2.1370 
  162.6250   -23.2070    57.6930   284.0460   313.7520   141.8530     2.1250 
  162.7500   -23.2070    60.0120   278.1360   304.5460    92.3680     2.1190 
  162.8750   -23.2410    62.4580   271.6420   295.4650    65.4850     2.1290 
  163.0000   -23.2770    63.9310   268.8970   290.1510    57.6040     2.1450 
  163.1250   -23.1840    62.4250   269.1960   286.6810    75.5570     2.1590 
  163.2500   -23.0840    58.0130   263.4100   276.6110    99.7600     2.2000 
  163.3750   -23.0120    54.7650   242.4580   253.0130    96.5190     2.2830 
  163.5000   -22.8770    55.0250   210.3030   219.5000    72.5420     2.3650 
  163.6250   -22.8300    58.7390   175.6530   184.5940    50.1130     2.3810 
  163.7500   -22.9230    62.6860   148.2070   157.1910    32.8770     2.3460 
  163.8750   -23.1620    65.9120   132.4920   140.8520    21.9890     2.3120 
  164.0000   -23.3700    66.5560   123.5250   131.4560    20.7320     2.3130 
  164.1250   -23.4480    65.8790   117.2020   125.2450    26.6010     2.3390 
  164.2500   -23.3290    64.7920   111.9440   120.0820    32.0830     2.3650 
  164.3750   -23.1300    65.7830   108.1010   115.8750    32.5710     2.3780 
  164.5000   -22.9350    67.5510   105.9620   113.4510    27.5120     2.3680 
  164.6250   -22.8080    68.6890   107.1330   114.5910    21.6230     2.3400 
  164.7500   -22.8970    67.7200   112.5840   119.7630    25.0240     2.3140 
  164.8750   -23.1200    67.4470   120.5960   127.6340    47.3840     2.3110 
  165.0000   -23.3570    68.5100   128.6200   134.4580    75.3550     2.3310 
  165.1250   -23.6150    71.3880   130.8910   134.7690    86.3850     2.3630 
  165.2500   -23.8070    72.3740   123.2200   125.8140    97.0490     2.3920 
  165.3750   -23.8520    72.8950   105.9220   108.2150   111.8140     2.4180 
  165.5000   -23.7920    72.4800    85.4390    88.1480   103.6480     2.4370 
  165.6250   -23.6180    73.3560    68.6620    71.4210    77.9660     2.4560 
  165.7500   -23.4550    73.9040    57.0470    59.7490    51.6990     2.4790 
  165.8750   -23.2640    73.0340    50.8490    53.2070    34.7310     2.5050 
  166.0000   -23.0130    70.4230    47.6050    50.4970    33.1080     2.5200 
  166.1250   -22.2100    67.6330    48.0660    51.9220    39.1940     2.5160 
  166.2500   -21.6030    65.4320    52.6810    57.1330    43.4580     2.5080 
  166.3750   -21.3710    65.3550    59.8160    64.7440    52.4200     2.5160 
  166.5000   -21.0360    65.4100    67.3820    72.0460    75.7220     2.5410 
  166.6250   -20.5770    65.2150    72.6920    76.5380    95.1610     2.5690 
  166.7500   -20.0000    64.2360    75.2690    79.0980    95.0110     2.5890 
  166.8750   -19.2990    64.1370    76.6180    81.0580    89.8460     2.6020 
  167.0000   -18.4980    64.9990    78.8550    83.0850    83.4180     2.6050 
  167.1250   -17.6170    66.1170    83.0100    87.7220    82.9400     2.6120 
  167.2500   -16.7010    66.5050    89.7250    94.0900   107.3200     2.6270 
  167.3750   -15.7950    65.9360    93.5030    96.9380   127.3410     2.6530 
  167.5000   -14.9480    64.9440    89.4080    92.8060   122.2500     2.6710 
  167.6250   -14.2120    65.5610    71.1860    76.0710   105.8140     2.6590 
  167.7500   -13.6140    67.8960    47.9460    51.2010    74.3160     2.6110 
  167.8750   -13.1840    71.7710    26.6170    29.4730    38.7890     2.5280 
  168.0000   -12.9120    74.1910    13.8560    16.2750    18.6730     2.4340 
  168.1250   -12.7980    75.4980     9.8970    10.9840    10.3670     2.3530 
  168.2500   -12.8060    74.2930     8.0560     9.1460     7.2520     2.3030 
  168.3750   -12.9140    70.6620     8.7160     9.7560    17.5160     2.3110 
  168.5000   -13.0840    66.3810    10.9050    12.3600    42.7000     2.3650 
  168.6250   -13.2900    62.9790    15.1460    17.0860    56.3480     2.4390 
