~V
VERS. 2.00: Ver 2.00
~W
STRT.M 50.0000:
STOP.M 213.0000:
STEP.M 0.1250:
NULL. -999.2500:
UWI. F10803:
~C
DEPT.M :
SP.MV :
GR.API :
RI. :
RML.OHMM :
RXO.OHMM :
DEN.GM/CC :
~A
# ...
  127.2500   -13.7490    47.9850    13.9950    15.0480    19.3840     2.4600 
  127.3750   -13.7600    51.2450    13.4110    14.5910    16.4040     2.4610 
  127.5000   -13.7420    54.1240    12.6930    13.8710    13.1680     2.4470 
  127.6250   -13.6470    56.5270    12.3140    13.3330    12.2790     2.4300 
  127.7500   -13.5860    57.5860    12.4270    13.2600    13.2620     2.4190 
  127.8750   -13.5210    58.7120    12.8230    13.6490    16.3910     2.4230 
  128.0000   -13.4910    58.7360    13.3720    14.2760    21.4060     2.4370 
  128.1250   -13.4030    58.7980    13.8820    14.8710    22.0200     2.4510 
  128.2500   -13.3620    57.7150    13.8160    15.0460    18.3780     2.4520 
  128.3750   -13.3210    56.5340    13.1710    14.5730    18.1780     2.4440 
  128.5000   -13.2260    54.9750    12.2230    13.6620    18.7530     2.4390 
  128.6250   -13.2130    53.6040    11.1470    12.5830    15.2730     2.4330 
  128.7500   -13.2500    52.8470    10.4190    11.6800    12.3810     2.4180 
  128.8750   -13.3110    52.9350    10.0810    11.1650    12.1940     2.4020 
  129.0000   -13.3790    53.0010     9.8850    10.9280    12.1870     2.4000 
  129.1250   -13.5160    52.8770     9.8790    10.9100    13.3820     2.4040 
  129.2500   -13.5990    52.2300    10.0900    11.0920    14.4830     2.4130 
  129.3750   -13.6690    51.2580    10.3500    11.3820    12.9550     2.4260 
  129.5000   -13.7010    49.1950    10.5060    11.6250    12.1850     2.4450 
  129.6250   -13.7640    47.2320    10.5840    11.7900    13.4930     2.4590 
  129.7500   -13.7450    45.5290    10.6390    11.9250    13.9890     2.4680 
  129.8750   -13.6650    45.5940    10.6790    12.0640    12.9890     2.4720 
  130.0000   -13.4910    48.4020    10.7630    12.2380    12.5280     2.4710 
  130.1250   -13.3520    53.9450    10.8520    12.4000    13.3990     2.4720 
  130.2500   -13.2600    59.1830    10.7120    12.3900    13.5900     2.4750 
  130.3750   -13.1740    61.7920    10.3490    12.0770    12.8590     2.4850 
  130.5000   -13.0940    61.6150     9.8140    11.5010    11.5140     2.4870 
  130.6250   -13.0520    59.9920     9.1440    10.7300     9.6420     2.4840 
  130.7500   -13.0570    58.4190     8.5490     9.9570     9.1950     2.4690 
  130.8750   -13.0820    57.0280     8.2080     9.4420    10.3690     2.4600 
  131.0000   -13.1960    56.9230     8.1920     9.3010    11.0830     2.4480 
  131.1250   -13.3140    57.1620     8.6080     9.6440    10.7540     2.4400 
  131.2500   -13.3960    57.7660     9.3900    10.4210    11.3830     2.4330 
  131.3750   -13.3990    56.9490    10.1370    11.3020    13.3430     2.4460 
  131.5000   -13.3720    55.3950    10.2260    11.6930    15.3800     2.4700 
  131.6250   -13.2770    55.8860     9.4100    11.1470    16.2170     2.4780 
  131.7500   -13.1040    58.9870     8.0340     9.8230    13.2760     2.4420 
  131.8750   -12.9520    64.4880     6.5650     8.1530     8.3640     2.3680 
  132.0000   -12.7920    68.9990     5.5790     6.7680     6.4220     2.2900 
  132.1250   -12.5630    73.2000     5.2660     6.1460     6.7040     2.2410 
  132.2500   -12.2360    74.8740     5.7500     6.4410     7.4940     2.2170 
  132.3750   -11.9510    76.2330     7.1590     7.8790    10.7470     2.1980 
  132.5000   -11.7170    74.1180     9.5530    10.3280    17.1950     2.1810 
  132.6250   -11.5290    70.7570    12.0330    13.1460    23.3580     2.1630 
  132.7500   -11.2830    66.2480    13.5030    15.2090    25.8540     2.1550 
  132.8750   -10.9920    65.6200    13.6940    15.7540    23.6860     2.1620 
  133.0000   -10.7310    66.9280    12.6400    14.9350    17.6160     2.1790 
  133.1250   -10.5240    69.2700    11.3490    13.4280    13.1420     2.1970 
  133.2500   -10.5070    69.3580    10.4050    12.1330    13.4780     2.1990 
  133.3750   -10.5420    68.6270     9.9720    11.4750    14.9840     2.1920 
  133.5000   -10.5810    68.3380    10.0930    11.4430    15.1410     2.1900 
  133.6250   -10.5340    68.6260    10.4430    11.8120    14.1150     2.2070 
  133.7500   -10.3470    68.2140    10.4900    12.0750    15.0960     2.2320 
  133.8750   -10.1640    67.4810     9.9700    11.8120    17.7440     2.2490 
  134.0000   -10.0290    68.3840     9.0430    10.9920    15.1820     2.2480 
  134.1250    -9.9540    71.4280     7.9530     9.7950     9.8640     2.2320 
  134.2500    -9.8250    75.6130     7.0360     8.5840     8.0720     2.2210 
  134.3750    -9.7470    79.5430     6.4580     7.6910     8.0110     2.2170 
  134.5000    -9.6960    81.9560     6.4680     7.4230     7.9750     2.2210 
  134.6250    -9.6410    81.0310     7.5040     8.2320     8.8010     2.2220 
  134.7500    -9.5440    77.5370     9.5200    10.1690    15.0800     2.2200 
  134.8750    -9.5180    73.0920    12.1060    12.8890    27.9470     2.2060 
  135.0000    -9.5910    69.5520    14.1320    15.3720    36.5230     2.1820 
  135.1250    -9.7070    67.8090    14.7750    16.4930    32.0400     2.1630 
  135.2500    -9.8050    68.2160    13.6400    15.8140    19.5920     2.1660 
  135.3750    -9.8520    70.0320    11.2480    13.5320    11.4900     2.1860 
  135.5000    -9.7710    71.3470     8.7380    10.7520    10.4050     2.2040 
  135.6250    -9.5340    73.1740     6.7220     8.3440     9.5570     2.2140 
  135.7500    -9.2450    75.7540     5.4730     6.6380     7.1450     2.2220 
  135.8750    -8.9350    79.2950     4.7070     5.5910     5.5680     2.2330 
  136.0000    -8.7030    82.8800     4.1770     4.8950     5.2120     2.2410 
  136.1250    -8.5890    85.4080     3.9350     4.5300     5.2270     2.2500 
  136.2500    -8.6280    86.5410     4.1980     4.6330     5.2860     2.2630 
  136.3750    -8.5980    84.6070     5.0840     5.4380     6.0420     2.2710 
  136.5000    -8.4620    81.3180     6.6860     7.0720    11.8460     2.2560 
  136.6250    -8.4450    76.7810     9.4570     9.8440    23.8080     2.2120 
  136.7500    -8.5770    73.0550    13.2570    13.6130    31.1740     2.1710 
  136.8750    -8.7080    70.3340    16.8910    17.5780    28.9150     2.1540 
  137.0000    -8.7400    68.9220    19.1980    20.5360    27.4050     2.1550 
  137.1250    -8.6710    68.0000    19.4770    21.6390    29.6040     2.1590 
  137.2500    -8.4180    69.0250    18.4240    21.0930    28.3080     2.1630 
  137.3750    -8.0980    69.8120    16.1990    19.1720    24.3200     2.1690 
  137.5000    -7.7810    71.0300    13.4170    16.3990    22.1450     2.1760 
  137.6250    -7.5300    70.6650    10.6380    13.3150    18.4650     2.1780 
  137.7500    -7.2550    71.2370     8.3130    10.6100    12.1980     2.1790 
  137.8750    -7.0970    71.6810     7.4420     9.0710    10.7700     2.1830 
  138.0000    -7.1670    72.7900     7.4810     8.8140    13.5720     2.1920 
  138.1250    -7.4350    73.1370     8.3700     9.6280    14.2360     2.1940 
  138.2500    -7.7030    71.5600     9.4780    10.9100    13.0910     2.1850 
  138.3750    -7.8080    69.3400    10.3700    12.0260    11.6070     2.1750 
  138.5000    -7.8420    67.9490    10.7350    12.5250     8.9890     2.1710 
  138.6250    -7.8040    69.4360    10.3710    12.2500     6.8050     2.1760 
  138.7500    -7.7600    71.8180    10.0640    11.7190     7.9490     2.1790 
  138.8750    -7.7870    73.5660    10.0800    11.4870    10.6290     2.1860 
  139.0000    -7.9090    73.0080    10.4330    11.7050    12.1220     2.1880 
  139.1250    -8.1130    71.7440    11.0670    12.3050    12.6510     2.1860 
  139.2500    -8.2280    70.6530    11.5850    12.9610    14.1000     2.1720 
  139.3750    -8.2890    70.4500    11.6960    13.2950    16.1490     2.1530 
  139.5000    -8.2620    70.7620    11.3570    13.1470    15.2760     2.1330 
  139.6250    -8.2300    72.0070    10.6070    12.4970    12.3920     2.1320 
  139.7500    -8.1370    75.3090     9.6730    11.5330    11.3850     2.1460 
  139.8750    -8.1030    79.8410     8.7230    10.4800    11.5850     2.1670 
  140.0000    -8.1400    84.0120     8.0730     9.6230    10.5460     2.1750 
