~V
VERS. 2.00: Ver 2.00
~W
STRT.M 40.0000:
STOP.M 205.0000:
STEP.M 0.1250:
NULL. -999.2500:
UWI. F10807:
~C
DEPT.M :
SP.MV :
GR.API :
RI. :
RML.OHMM :
RXO.OHMM :
DEN.GM/CC :
~A
# ...
  104.3750   -12.4370    76.6320     3.9120     4.2040     6.1110     2.1610 
  104.5000   -12.1710    74.8790     3.9990     4.2670     7.0110     2.1640 
  104.6250   -11.8570    74.4720     4.1280     4.3590     7.7900     2.1580 
  104.7500   -11.2620    75.5350     4.1510     4.3640     7.8660     2.1580 
  104.8750   -10.1060    78.2610     3.9850     4.1950     6.7050     2.1740 
  105.0000    -8.6410    82.6140     3.6390     3.8720     5.2000     2.2000 
  105.1250    -7.1670    88.4300     3.2080     3.4760     4.1200     2.2230 
  105.2500    -6.0200    93.5310     2.8320     3.1090     3.7880     2.2360 
  105.3750    -5.3700    96.5280     2.5390     2.8200     3.8700     2.2390 
  105.5000    -5.0970    98.0600     2.3290     2.5960     3.6890     2.2470 
  105.6250    -5.1010    99.5760     2.1810     2.4540     3.4760     2.2620 
  105.7500    -5.2160    99.7270     2.1620     2.4690     3.3970     2.2810 
  105.8750    -5.6620    97.4070     2.4120     2.8680     3.4750     2.3010 
  106.0000    -6.4300    93.3130     3.1860     3.9950     8.1780     2.3420 
  106.1250    -7.6180    86.2560     4.9570     6.5920    25.7100     2.4180 
  106.2500    -9.0740    79.0200     9.0560    11.0120    45.8010     2.5120 
  106.3750   -10.5420    71.6140    15.4560    16.5630    52.1250     2.5770 
  106.5000   -11.9360    66.4730    20.7950    21.2380    50.2670     2.5840 
  106.6250   -13.3110    63.3010    23.4530    23.2840    43.8090     2.5030 
  106.7500   -14.6380    61.5190    22.5090    22.5700    33.5870     2.3570 
  106.8750   -15.7520    60.5990    19.3000    20.0890    28.1350     2.2210 
  107.0000   -16.6760    59.4110    16.9910    17.7010    26.4720     2.1650 
  107.1250   -17.3460    59.5270    15.6420    16.2970    25.6410     2.1690 
  107.2500   -17.8760    60.6450    15.0450    15.7310    25.7770     2.1630 
  107.3750   -18.2760    61.6680    15.0670    15.7680    29.5130     2.1240 
  107.5000   -18.6460    61.1660    15.3280    16.1060    39.6370     2.1090 
  107.6250   -18.9320    60.3500    15.7250    16.5680    41.1710     2.1410 
  107.7500   -19.2220    59.3760    16.1380    16.9890    30.4680     2.1750 
  107.8750   -19.5140    57.9960    16.3880    17.2050    25.6090     2.1680 
  108.0000   -19.8770    56.7150    16.3870    17.1430    28.0580     2.1190 
  108.1250   -20.2310    56.0630    16.0870    16.8310    30.0350     2.0750 
  108.2500   -20.4900    55.4930    15.7180    16.4420    29.3690     2.0500 
  108.3750   -20.7230    55.4590    15.4670    16.1310    26.7440     2.0490 
  108.5000   -20.8770    55.7610    15.3500    15.9180    25.8930     2.0530 
  108.6250   -21.0140    56.7950    15.2390    15.7460    27.1760     2.0620 
  108.7500   -21.0800    57.9150    15.0730    15.5640    27.3260     2.0650 
  108.8750   -21.1750    59.4160    14.9040    15.3870    24.8260     2.0580 
  109.0000   -21.2430    61.4440    14.7290    15.2480    21.9980     2.0420 
  109.1250   -21.2490    62.8320    14.6580    15.1370    21.3940     2.0330 
  109.2500   -21.1240    63.6210    14.4610    14.9440    21.2030     2.0400 
  109.3750   -20.8730    62.6570    14.0590    14.4550    22.1450     2.0640 
  109.5000   -20.6490    62.9890    13.1540    13.5220    23.1810     2.0950 
  109.6250   -20.5350    64.7080    11.6850    12.1870    23.4770     2.1110 
  109.7500   -20.6590    68.0250    10.2300    10.8360    22.2920     2.1060 
  109.8750   -20.9800    69.6470     9.1930     9.9470    15.0690     2.0910 
  110.0000   -21.5070    69.8440     8.9940     9.7680    10.8100     2.0870 
  110.1250   -21.9870    68.8100     9.5470    10.3220    17.5970     2.1100 
  110.2500   -22.3140    67.6420    10.6880    11.3150    26.5920     2.1490 
  110.3750   -22.3810    66.1850    11.9050    12.3740    25.4640     2.1690 
  110.5000   -22.2900    63.9940    12.6520    13.0110    17.2430     2.1540 
  110.6250   -22.1020    61.6510    12.5330    12.8690    13.1370     2.1130 
  110.7500   -21.8010    61.2330    11.6700    12.1270    12.6540     2.0870 
  110.8750   -21.3320    63.7590    10.6140    11.1860    12.0590     2.0800 
  111.0000   -20.6960    67.1800     9.8240    10.4380    11.0890     2.0850 
  111.1250   -19.9110    69.7960     9.4550    10.0870    10.7350     2.0960 
  111.2500   -18.9500    70.1790     9.4590    10.1510    11.5810     2.1330 
  111.3750   -17.7470    68.4440     9.8920    10.6060    13.5530     2.2080 
  111.5000   -16.2840    64.6720    10.5770    11.1930    17.5070     2.3140 
  111.6250   -14.6900    60.4970    11.1760    11.6110    21.5030     2.4180 
  111.7500   -13.1580    57.9540    11.4230    11.7170    20.6740     2.4860 
  111.8750   -11.9400    56.8210    11.0670    11.4240    16.1950     2.5020 
  112.0000   -11.0420    56.1740    10.4030    10.8430    13.7790     2.4890 
  112.1250   -10.4260    54.5220     9.7030    10.1520    13.4280     2.4660 
  112.2500   -10.0280    53.0690     9.0680     9.5090    13.4700     2.4560 
  112.3750    -9.8120    52.5060     8.4700     8.9470    14.6410     2.4510 
  112.5000    -9.7660    53.5670     7.8470     8.3060    14.0540     2.4300 
  112.6250    -9.7490    56.0000     7.2350     7.7270    10.1960     2.3830 
  112.7500    -9.7660    58.7340     6.8980     7.4110     7.3830     2.3370 
  112.8750    -9.8440    60.6850     6.9850     7.5450     7.8570     2.3360 
  113.0000    -9.9460    60.9460     7.5820     8.1530    11.6460     2.3840 
  113.1250    -9.9950    59.8680     8.6460     9.0740    17.3460     2.4560 
  113.2500   -10.0000    58.7250     9.6670     9.8470    20.6530     2.5110 
  113.3750   -10.0410    57.0360     9.8820     9.9890    19.2980     2.5190 
  113.5000   -10.0710    56.9750     9.2260     9.3760    14.7120     2.4810 
  113.6250   -10.1520    58.8870     7.8280     8.1520     9.5330     2.4070 
  113.7500   -10.1970    64.8750     6.4120     6.8200     6.4490     2.3290 
  113.8750   -10.2420    70.7800     5.3940     5.7490     6.3840     2.2770 
  114.0000   -10.2400    75.3060     4.6520     4.9720     6.9160     2.2570 
  114.1250   -10.2230    78.8820     4.1330     4.4190     6.0340     2.2540 
  114.2500   -10.2230    83.0480     3.7450     3.9950     4.9330     2.2490 
  114.3750   -10.3780    87.5860     3.4510     3.7090     4.5380     2.2430 
  114.5000   -10.7350    90.2130     3.3520     3.6380     4.3410     2.2380 
  114.6250   -11.3220    91.4730     3.5790     3.9470     4.4900     2.2320 
  114.7500   -12.0980    89.4750     4.2280     4.7630     7.3330     2.2180 
  114.8750   -12.9660    85.3590     5.5320     6.2440    12.1590     2.1890 
  115.0000   -13.7970    78.2290     7.4720     8.2040    14.4520     2.1450 
  115.1250   -14.3360    71.9680     9.6550    10.0500    15.0050     2.0960 
  115.2500   -14.6040    67.2300    10.8040    11.0020    15.3720     2.0660 
  115.3750   -14.5480    65.6070    10.4080    10.5590    15.2170     2.0690 
  115.5000   -14.3190    66.8000     8.7760     9.1120    13.6680     2.1020 
  115.6250   -13.9460    68.9230     6.8700     7.4200     9.3370     2.1520 
  115.7500   -13.6140    71.2000     5.6730     6.2240     6.0630     2.2100 
  115.8750   -13.4130    70.5500     5.2730     5.9310     7.3120     2.2860 
  116.0000   -13.2710    67.4480     5.6840     6.6040    10.9880     2.3740 
  116.1250   -13.2010    61.9830     7.1870     8.3390    15.1430     2.4550 
  116.2500   -13.1080    56.0980     9.6340    10.7240    19.3230     2.5110 
  116.3750   -13.0470    51.2750    12.0520    12.8840    22.6890     2.5370 
  116.5000   -13.0000    48.4190    13.2550    13.9630    24.1890     2.5480 
  116.6250   -12.9930    47.2860    13.0120    13.6370    21.7130     2.5370 
  116.7500   -13.0400    47.2790    11.7620    12.5360    16.2690     2.5040 
  116.8750   -13.1520    48.3330    10.6760    11.5550    13.4630     2.4730 
  117.0000   -13.2300    50.0420    10.3780    11.3350    16.2250     2.4680 
  117.1250   -13.2700    50.8960    11.0210    12.0650    20.7020     2.4920 
