~V
VERS. 2.00: Ver 2.00
~W
STRT.M 63.0000:
STOP.M 269.0000:
STEP.M 0.1250:
NULL. -999.2500:
UWI. F10891:
~C
DEPT.M :
TVD. :
DX. :
DY. :
SP.MV :
GR.API :
RI. :
RML.OHMM :
RXO.OHMM :
DEN.GM/CC :
~A
# ...
  209.0000   208.9900    -0.8100    -1.4730   -12.4670    72.1090     7.4860     8.8400     7.1490     2.3130 
  209.1250   209.1150    -0.8100    -1.4740   -12.5680    71.0750     8.1750     9.7330     8.0330     2.3190 
  209.2500   209.2400    -0.8110    -1.4760   -12.6280    68.7200     9.6270    11.5910    10.5380     2.3220 
  209.3750   209.3650    -0.8110    -1.4780   -12.6720    65.8970    12.0210    14.6050    14.6330     2.3140 
  209.5000   209.4900    -0.8120    -1.4800   -12.7210    62.7190    15.3230    18.6870    19.7250     2.2860 
  209.6250   209.6150    -0.8120    -1.4810   -12.7800    61.0490    18.8380    22.9290    25.2440     2.2470 
  209.7500   209.7400    -0.8120    -1.4830   -12.8400    61.8350    21.5690    26.0620    30.2250     2.2160 
  209.8750   209.8650    -0.8130    -1.4850   -12.8850    64.0100    22.8080    27.2580    33.1180     2.2080 
  210.0000   209.9900    -0.8130    -1.4870   -12.8980    64.9430    22.3060    26.3160    31.8220     2.2200 
  210.1250   210.1150    -0.8140    -1.4890   -12.8760    64.2630    20.7260    24.1730    26.4680     2.2320 
  210.2500   210.2400    -0.8140    -1.4900   -12.8160    62.6070    18.8140    21.8270    20.6340     2.2290 
  210.3750   210.3650    -0.8150    -1.4920   -12.7250    61.5960    17.2030    20.0070    17.5450     2.2170 
  210.5000   210.4900    -0.8150    -1.4940   -12.6080    61.4460    16.1580    18.9480    16.8640     2.2080 
  210.6250   210.6150    -0.8160    -1.4960   -12.4720    60.9120    15.4950    18.3230    16.8760     2.2090 
  210.7500   210.7400    -0.8160    -1.4980   -12.3240    62.2630    14.9420    17.7520    16.5740     2.2170 
  210.8750   210.8650    -0.8160    -1.4990   -12.1780    64.7190    14.3570    17.0800    15.7230     2.2270 
  211.0000   210.9900    -0.8170    -1.5010   -12.0430    66.8100    13.8720    16.5090    14.3770     2.2330 
  211.1250   211.1150    -0.8170    -1.5030   -11.9220    67.4990    13.7770    16.4340    12.9520     2.2310 
  211.2500   211.2400    -0.8180    -1.5050   -11.8180    68.4010    14.4870    17.3850    13.3720     2.2170 
  211.3750   211.3650    -0.8180    -1.5070   -11.7250    68.9220    16.2060    19.6050    17.1580     2.1980 
  211.5000   211.4900    -0.8190    -1.5080   -11.6430    68.3110    18.9670    23.0830    23.1520     2.1820 
  211.6250   211.6150    -0.8190    -1.5100   -11.5790    64.8910    22.2550    27.0860    28.0680     2.1770 
  211.7500   211.7400    -0.8200    -1.5120   -11.5410    61.4080    25.4120    30.7060    30.2520     2.1810 
  211.8750   211.8650    -0.8200    -1.5140   -11.5280    59.5160    27.9320    33.3530    31.0250     2.1850 
  212.0000   211.9900    -0.8210    -1.5160   -11.5350    59.9980    29.6530    34.9610    32.3040     2.1840 
  212.1250   212.1150    -0.8210    -1.5170   -11.5450    61.1920    30.8950    36.1070    34.7450     2.1840 
  212.2500   212.2400    -0.8210    -1.5190   -11.5480    62.1410    32.0050    37.3790    37.2730     2.1920 
  212.3750   212.3650    -0.8220    -1.5210   -11.5420    61.4030    33.2140    39.0930    37.2230     2.2130 
  212.5000   212.4900    -0.8220    -1.5230   -11.5290    60.5620    34.3460    40.9260    33.2450     2.2560 
  212.6250   212.6150    -0.8230    -1.5250   -11.5090    59.1070    34.5630    41.5320    29.3740     2.3260 
  212.7500   212.7400    -0.8230    -1.5270   -11.4740    58.3430    32.4230    38.8760    30.2290     2.4260 
  212.8750   212.8650    -0.8240    -1.5280   -11.4070    56.3230    27.5430    32.5710    33.8160     2.5320 
  213.0000   212.9900    -0.8240    -1.5300   -11.2910    52.9140    20.6470    23.8040    33.4310     2.6050 
  213.1250   213.1150    -0.8250    -1.5320   -11.1280    50.1390    13.6960    15.2490    26.1630     2.6210 
  213.2500   213.2400    -0.8250    -1.5340   -10.9250    51.5960     8.4170     9.0450    15.4890     2.5720 
  213.3750   213.3650    -0.8250    -1.5360   -10.7010    57.2200     5.1480     5.3760     7.3110     2.4730 
  213.5000   213.4900    -0.8260    -1.5380   -10.4660    64.4360     3.5350     3.6500     3.8190     2.3510 
  213.6250   213.6150    -0.8260    -1.5400   -10.2330    69.6270     2.8820     3.0010     3.0530     2.2500 
  213.7500   213.7400    -0.8270    -1.5410   -10.0260    73.3230     2.9100     3.1010     3.5620     2.2100 
  213.8750   213.8640    -0.8270    -1.5430    -9.8780    75.7320     3.3850     3.6700     4.4920     2.2280 
  214.0000   213.9890    -0.8280    -1.5450    -9.8380    78.2830     4.1420     4.4970     5.3060     2.2800 
  214.1250   214.1140    -0.8280    -1.5470    -9.9140    80.5890     4.9150     5.2760     5.9540     2.3290 
  214.2500   214.2390    -0.8280    -1.5490   -10.1020    82.4170     5.4610     5.7480     6.4070     2.3540 
  214.3750   214.3640    -0.8290    -1.5510   -10.3520    84.2620     5.6990     5.8680     6.4800     2.3550 
  214.5000   214.4890    -0.8290    -1.5530   -10.6220    88.0360     5.6830     5.7410     6.1300     2.3400 
  214.6250   214.6140    -0.8300    -1.5540   -10.8800    94.4870     5.5860     5.5740     5.8150     2.3270 
  214.7500   214.7390    -0.8300    -1.5560   -11.1230    98.8490     5.5210     5.4930     5.7100     2.3260 
  214.8750   214.8640    -0.8310    -1.5580   -11.3710   100.9980     5.5150     5.5160     5.6320     2.3360 
  215.0000   214.9890    -0.8310    -1.5600   -11.6520   103.3200     5.5640     5.6460     5.6570     2.3440 
  215.1250   215.1140    -0.8320    -1.5620   -11.9800   106.7090     5.6590     5.8710     5.8420     2.3430 
  215.2500   215.2390    -0.8320    -1.5640   -12.3530   110.4920     5.8040     6.1900     6.1120     2.3330 
  215.3750   215.3640    -0.8320    -1.5660   -12.7490   110.3210     6.0040     6.5810     6.4470     2.3220 
  215.5000   215.4890    -0.8330    -1.5680   -13.1460   109.4920     6.2650     7.0240     6.9140     2.3150 
  215.6250   215.6140    -0.8330    -1.5700   -13.5210   107.2300     6.5880     7.5060     7.4570     2.3120 
  215.7500   215.7390    -0.8340    -1.5720   -13.8550   105.7070     7.0120     8.0750     8.0050     2.3080 
  215.8750   215.8640    -0.8340    -1.5730   -14.1300   102.6250     7.5860     8.8080     8.6200     2.3030 
  216.0000   215.9890    -0.8350    -1.5750   -14.3260    99.4810     8.3840     9.7980     9.3370     2.2960 
  216.1250   216.1140    -0.8350    -1.5770   -14.4430    97.3300     9.3880    11.0260    10.1190     2.2870 
  216.2500   216.2390    -0.8360    -1.5790   -14.4790    96.0080    10.5350    12.4060    10.9430     2.2760 
  216.3750   216.3640    -0.8360    -1.5810   -14.4540    94.4870    11.7040    13.7900    11.7480     2.2650 
  216.5000   216.4890    -0.8360    -1.5830   -14.3840    91.3870    12.7880    15.0570    12.6580     2.2570 
  216.6250   216.6140    -0.8370    -1.5850   -14.2920    87.4490    13.7410    16.1680    13.9870     2.2510 
  216.7500   216.7390    -0.8370    -1.5870   -14.1900    83.4290    14.5650    17.1440    15.5190     2.2490 
  216.8750   216.8640    -0.8380    -1.5890   -14.0760    79.3820    15.3170    18.0570    16.5050     2.2500 
  217.0000   216.9890    -0.8380    -1.5910   -13.9490    77.1530    16.0460    18.9580    16.6310     2.2540 
  217.1250   217.1140    -0.8390    -1.5920   -13.8150    76.7640    16.8000    19.8960    16.5840     2.2570 
  217.2500   217.2390    -0.8390    -1.5940   -13.6890    76.9730    17.6880    21.0080    17.3970     2.2540 
  217.3750   217.3640    -0.8400    -1.5960   -13.5850    76.2120    18.8540    22.4710    19.4110     2.2460 
  217.5000   217.4890    -0.8400    -1.5980   -13.5070    74.7180    20.4990    24.5080    21.8720     2.2400 
  217.6250   217.6140    -0.8400    -1.6000   -13.4460    74.0450    22.7200    27.2230    24.5650     2.2360 
  217.7500   217.7390    -0.8410    -1.6020   -13.3950    72.5520    25.6360    30.7840    27.9280     2.2350 
  217.8750   217.8640    -0.8410    -1.6040   -13.3520    70.1670    29.1640    35.1180    31.2570     2.2310 
  218.0000   217.9890    -0.8420    -1.6060   -13.3240    66.8660    33.2340    40.1310    36.1250     2.2200 
