~V
VERS. 2.00: Ver 2.00
~W
STRT.M 40.0000:
STOP.M 216.0000:
STEP.M 0.1250:
NULL. -999.2500:
UWI. F10813:
~C
DEPT.M :
SP.MV :
GR.API :
RI. :
RML.OHMM :
RXO.OHMM :
DEN.GM/CC :
~A
# ...
   65.7500   -26.6880    67.4110     5.6130     8.6710     7.9770     2.0730 
   65.8750   -26.9180    67.4620     5.5950     8.5050     7.5710     2.0600 
   66.0000   -27.1520    67.3370     5.5760     8.3450     7.2940     2.0560 
   66.1250   -27.4170    66.6150     5.5620     8.2270     7.5810     2.0620 
   66.2500   -27.6080    65.0690     5.5620     8.1440     7.9500     2.0650 
   66.3750   -27.8260    63.6880     5.5630     8.0620     7.9550     2.0590 
   66.5000   -27.9530    63.4410     5.5600     7.9570     7.8980     2.0490 
   66.6250   -27.9960    62.8550     5.5370     7.8460     8.1500     2.0470 
   66.7500   -27.9620    62.6170     5.5160     7.7680     8.6270     2.0540 
   66.8750   -27.8750    63.8280     5.4870     7.7430     8.6380     2.0620 
   67.0000   -27.6830    66.5000     5.4260     7.7520     8.0090     2.0630 
   67.1250   -27.3310    67.2200     5.3510     7.7680     7.5150     2.0620 
   67.2500   -26.8920    66.4040     5.2680     7.7620     7.4110     2.0650 
   67.3750   -26.3280    65.8290     5.2080     7.7040     7.5650     2.0760 
   67.5000   -25.7100    66.3330     5.1540     7.5600     7.7700     2.0850 
   67.6250   -25.0540    66.6170     5.0920     7.3840     7.9240     2.0790 
   67.7500   -24.4240    66.5750     5.1810     7.4620     8.8340     2.0600 
   67.8750   -23.7720    68.0880     5.7430     8.2480     9.4890     2.0690 
   68.0000   -23.0970    70.2060     6.8830    10.0450     8.8240     2.1510 
   68.1250   -22.4520    72.9570     8.9630    13.2630    17.9230     2.3110 
   68.2500   -21.8890    74.0680    11.8580    17.2890    45.5090     2.4840 
   68.3750   -21.6030    74.5390    13.9700    19.9710    84.8330     2.6020 
   68.5000   -21.6980    74.0860    13.9260    19.7910   105.4630     2.6280 
   68.6250   -22.1580    75.5990    12.0910    16.8090    85.4240     2.5430 
   68.7500   -22.8190    77.4510     9.0560    12.6040    48.7600     2.3800 
   68.8750   -23.6360    78.1980     6.8200     9.4340    19.6670     2.2130 
   69.0000   -24.3170    76.8130     5.7330     7.8890     8.0310     2.1040 
   69.1250   -24.6350    75.1350     5.1590     7.3380     8.4490     2.0670 
   69.2500   -24.7260    74.5290     4.9920     7.2750     8.7410     2.0620 
   69.3750   -24.7350    73.7460     5.0150     7.3940     8.9020     2.0670 
   69.5000   -24.7350    72.9100     5.0770     7.5220     9.1300     2.0750 
   69.6250   -24.8800    71.1530     5.2080     7.6870     9.1620     2.0860 
   69.7500   -25.3130    70.1050     5.3970     7.9290     9.4600     2.0990 
   69.8750   -25.9230    67.7550     5.6500     8.2800     9.8640     2.1160 
   70.0000   -26.6310    65.4010     5.8880     8.6530     9.9560     2.1260 
   70.1250   -27.3120    63.1810     6.0410     8.9390    10.1670     2.1220 
   70.2500   -27.8950    62.6550     6.1020     9.0800    10.6650     2.1120 
   70.3750   -28.1980    63.3110     6.0670     9.0470    10.8740     2.1070 
   70.5000   -28.3480    64.6440     5.9800     8.9150    10.5620     2.1020 
   70.6250   -28.3190    65.1260     5.8930     8.7820    10.2470     2.0950 
   70.7500   -28.2010    63.9470     5.8490     8.7110    10.1400     2.0870 
   70.8750   -28.0790    61.9760     5.8660     8.7210    10.1520     2.0860 
   71.0000   -27.9900    60.2520     5.9450     8.8090     9.9610     2.0920 
   71.1250   -27.8810    61.2850     6.0630     8.9540     9.5350     2.1020 
   71.2500   -27.7010    63.4150     6.1740     9.0980     9.6600     2.1100 
   71.3750   -27.4420    65.6860     6.2330     9.2000    10.0040     2.1120 
   71.5000   -27.1370    66.9770     6.2270     9.2290     9.6750     2.1100 
   71.6250   -26.8830    66.6930     6.1520     9.1580     9.1830     2.1060 
   71.7500   -26.7760    66.1360     6.0040     8.9910     9.2770     2.1000 
   71.8750   -26.9230    64.4730     5.8180     8.7270     9.5030     2.0940 
   72.0000   -27.1410    62.8220     5.6010     8.3390     8.9160     2.0860 
   72.1250   -27.2070    60.9000     5.3670     7.8220     8.0950     2.0790 
   72.2500   -26.9030    60.2800     5.1840     7.3340     7.8540     2.0600 
   72.3750   -26.0800    59.9920     5.2360     7.3140     7.5750     2.0210 
   72.5000   -24.9110    59.6680     5.9310     8.2860     6.9750     1.9810 
   72.6250   -23.2740    60.1120     7.6000    10.9990     9.0620     2.0130 
   72.7500   -21.2210    62.9080    10.8720    16.0580    31.2410     2.1550 
   72.8750   -18.6400    66.9740    15.5300    22.4140    77.0770     2.3590 
   73.0000   -15.8420    71.3760    18.2270    26.1590    98.6240     2.5270 
   73.1250   -13.2500    76.2130    17.1880    24.7480    87.7260     2.5890 
   73.2500   -11.0530    82.0340    13.4370    19.1130    67.7240     2.5490 
   73.3750    -9.4350    88.9340     8.2080    12.1410    31.2650     2.4460 
   73.5000    -8.4200    94.9840     5.1370     7.5460     6.1920     2.3440 
   73.6250    -7.9700   101.1240     3.9420     5.6890     3.9430     2.2960 
   73.7500    -7.8660   106.0770     3.5190     5.1120     3.9150     2.2870 
   73.8750    -8.0570   110.7660     3.5050     5.1060     3.8200     2.2830 
   74.0000    -8.4650   113.4580     3.6770     5.2560     3.7690     2.2700 
   74.1250    -9.1390   113.7210     3.9150     5.3770     4.0850     2.2520 
   74.2500    -9.9970   110.6060     4.1010     5.3970     4.5010     2.2340 
   74.3750   -10.9290   106.3980     4.2150     5.3420     4.8430     2.2160 
   74.5000   -11.8170   102.5000     4.2760     5.2680     5.1100     2.2000 
   74.6250   -12.7770   100.4570     4.3430     5.2750     4.9810     2.1940 
   74.7500   -13.8430    98.5080     4.5590     5.4770     5.0920     2.1940 
   74.8750   -15.3290    93.6560     4.9010     5.8870     6.1060     2.2040 
   75.0000   -17.0430    85.1010     5.3070     6.3960     7.0750     2.2350 
   75.1250   -18.5280    74.1440     5.6220     6.8020     6.9050     2.2720 
   75.2500   -19.7510    65.6990     5.6810     6.9330     6.3890     2.2800 
   75.3750   -20.8000    63.2890     5.5190     6.7520     6.8120     2.2220 
   75.5000   -21.8860    64.2200     5.1810     6.3740     7.5900     2.1440 
   75.6250   -22.8520    65.2560     4.8470     5.9920     7.5660     2.0830 
   75.7500   -23.7060    65.7730     4.6200     5.7470     7.2820     2.0610 
   75.8750   -24.2170    66.4650     4.5570     5.6980     7.4400     2.0550 
   76.0000   -24.4370    65.3690     4.6220     5.7960     7.4250     2.0540 
   76.1250   -24.5110    63.8470     4.7660     5.9930     7.2450     2.0470 
   76.2500   -24.4770    62.9870     4.9350     6.2170     7.4180     2.0410 
   76.3750   -24.2780    64.6520     5.0840     6.4030     7.6220     2.0430 
   76.5000   -23.9810    65.9670     5.1550     6.4930     7.6330     2.0490 
   76.6250   -23.6650    68.3060     5.1300     6.4620     7.6060     2.0560 
   76.7500   -23.2160    71.6510     5.0280     6.3440     7.5600     2.0590 
   76.8750   -22.7580    76.3350     4.8950     6.1930     7.5700     2.0620 
   77.0000   -22.3400    78.1900     4.7730     6.0520     7.6620     2.0660 
   77.1250   -22.0470    76.4260     4.6730     5.9340     7.6970     2.0730 
   77.2500   -21.9360    73.2540     4.6180     5.8540     7.6230     2.0790 
   77.3750   -22.1170    71.9560     4.6020     5.8230     7.6000     2.0850 
   77.5000   -22.4910    71.8240     4.6360     5.8500     7.6530     2.0860 
   77.6250   -22.9850    71.8320     4.7120     5.9380     7.6110     2.0880 
   77.7500   -23.5920    72.0870     4.8140     6.0600     7.6370     2.0940 
   77.8750   -24.2170    72.1730     4.9290     6.1910     7.8660     2.0970 
   78.0000   -24.7870    70.2350     5.0290     6.3110     7.9920     2.0950 
   78.1250   -25.1780    66.4210     5.1110     6.3950     8.0660     2.0860 
   78.2500   -25.4510    62.6240     5.1610     6.4370     8.4550     2.0810 
   78.3750   -25.4660    61.0460     5.1760     6.4410     9.0390     2.0810 
   78.5000   -25.2770    61.2790     5.1800     6.4290     9.3400     2.0830 
