~V
VERS. 2.00: Ver 2.00
~W
STRT.M 40.0000:
STOP.M 213.0000:
STEP.M 0.1250:
NULL. -999.2500:
UWI. F10805:
~C
DEPT.M :
SP.MV :
GR.API :
RI. :
RML.OHMM :
RXO.OHMM :
DEN.GM/CC :
~A
# ...
   78.6250   -19.7460    59.8510     4.9440     5.3500     5.5780     2.0000 
   78.7500   -19.7550    61.0630     4.9630     5.3520     5.4570     1.9970 
   78.8750   -19.7020    61.5480     4.9920     5.3760     5.4970     2.0020 
   79.0000   -19.6350    61.1140     5.0130     5.4020     5.6570     2.0130 
   79.1250   -19.6400    60.3790     5.0260     5.4280     5.7640     2.0240 
   79.2500   -19.5830    60.4430     5.0230     5.4500     5.7610     2.0300 
   79.3750   -19.4940    60.6230     5.0030     5.4370     5.7080     2.0270 
   79.5000   -19.3000    60.9300     4.9720     5.3850     5.6510     2.0260 
   79.6250   -19.0730    60.2690     4.9310     5.3280     5.6770     2.0280 
   79.7500   -18.8250    61.2690     4.9000     5.2880     5.7760     2.0370 
   79.8750   -18.5510    63.0650     4.8870     5.2770     5.9530     2.0410 
   80.0000   -18.2470    64.9860     4.8960     5.3020     6.1050     2.0450 
   80.1250   -17.9330    64.5070     4.9310     5.3610     5.9970     2.0450 
   80.2500   -17.6960    63.0750     4.9970     5.4180     5.7700     2.0510 
   80.3750   -17.6010    62.3320     5.0680     5.4600     5.6680     2.0560 
   80.5000   -17.6210    62.0050     5.1240     5.4970     5.5890     2.0600 
   80.6250   -17.5910    60.5740     5.1440     5.5100     5.5230     2.0580 
   80.7500   -17.5280    58.0620     5.1330     5.4880     5.6590     2.0560 
   80.8750   -17.3780    57.0650     5.0790     5.4260     5.9720     2.0540 
   81.0000   -17.2210    57.7250     4.9730     5.3200     6.1290     2.0500 
   81.1250   -16.9830    58.4590     4.8320     5.1840     5.8150     2.0390 
   81.2500   -16.7180    59.2990     4.6900     5.0600     5.1880     2.0240 
   81.3750   -16.3180    58.4810     4.6040     5.0060     4.7820     2.0160 
   81.5000   -15.7170    57.4690     4.6100     5.0800     4.8730     2.0190 
   81.6250   -14.9060    56.4500     4.8070     5.3210     5.1230     2.0300 
   81.7500   -13.9120    58.1580     5.1910     5.6070     5.9520     2.0370 
   81.8750   -12.7500    60.3660     5.4810     5.8360    11.6220     2.0240 
   82.0000   -11.3710    62.6820     5.5310     5.8750    23.8220     2.0010 
   82.1250    -9.9290    65.7270     5.2970     5.6270    27.0490     1.9990 
   82.2500    -8.5480    71.5810     4.8470     5.1910    14.7250     2.0420 
   82.3750    -7.4610    77.9390     4.3680     4.6910     5.5810     2.1060 
   82.5000    -6.7160    82.5020     3.9240     4.2170     5.0760     2.1430 
   82.6250    -6.0930    84.3590     3.5700     3.8340     5.0140     2.1470 
   82.7500    -5.3210    86.0020     3.3200     3.5670     4.1110     2.1550 
   82.8750    -4.5120    88.6850     3.1650     3.4010     3.8080     2.1780 
   83.0000    -3.9200    91.8350     3.0350     3.2760     4.0890     2.1970 
   83.1250    -3.5730    94.3140     2.9240     3.1800     4.0490     2.2020 
   83.2500    -3.4300    96.9640     2.8780     3.1360     3.7180     2.2080 
   83.3750    -3.3630   100.8290     2.8960     3.1490     3.4900     2.2230 
   83.5000    -3.3370   103.9400     2.9300     3.1660     3.4350     2.2380 
   83.6250    -3.4370   105.5650     2.9650     3.1930     3.4090     2.2390 
   83.7500    -3.8520   105.3500     2.9940     3.2130     3.5440     2.2300 
   83.8750    -4.3560   104.7910     2.9860     3.1990     3.7010     2.2240 
   84.0000    -4.7420   103.1690     2.9430     3.1530     3.4850     2.2270 
   84.1250    -5.0300   102.4780     2.8890     3.1160     3.2350     2.2450 
   84.2500    -5.2770   104.0670     2.8890     3.1590     3.4280     2.2650 
   84.3750    -5.6220   105.2860     3.0460     3.3570     3.8620     2.2760 
   84.5000    -6.0490   102.6850     3.3690     3.6910     4.9200     2.2760 
   84.6250    -6.6130    95.9110     3.7710     4.0670     6.3950     2.2780 
   84.7500    -7.1630    90.7400     4.1420     4.3740     6.4820     2.2800 
   84.8750    -7.5620    89.1700     4.2930     4.5020     5.2850     2.2600 
   85.0000    -7.7520    90.2090     4.2040     4.4200     4.5340     2.2110 
   85.1250    -7.7730    92.2730     3.9490     4.1950     4.6890     2.1600 
   85.2500    -7.8280    95.3610     3.6560     3.9740     4.8600     2.1450 
   85.3750    -8.1940    97.8380     3.4880     3.8360     4.4080     2.1640 
   85.5000    -8.9220    97.9390     3.4940     3.8800     3.9790     2.1760 
   85.6250    -9.9410    93.7660     3.7440     4.1550     4.2740     2.1510 
   85.7500   -11.0610    87.2310     4.1530     4.5920     4.8480     2.1240 
   85.8750   -12.0570    81.2970     4.6410     5.0910     4.9350     2.1350 
   86.0000   -12.8030    78.4430     5.0950     5.5430     5.1020     2.1840 
   86.1250   -13.0920    77.8270     5.3310     5.7990     5.8500     2.2200 
   86.2500   -13.0860    77.3200     5.3250     5.7730     6.2950     2.2050 
   86.3750   -12.8940    77.4150     5.1210     5.5690     6.2080     2.1570 
   86.5000   -12.7090    78.3330     4.8910     5.3390     6.0030     2.1160 
   86.6250   -12.6220    79.5800     4.7160     5.1850     5.7930     2.1040 
   86.7500   -12.5990    79.4620     4.6510     5.1230     5.6760     2.1060 
   86.8750   -12.5850    79.4070     4.6180     5.0790     5.6830     2.1100 
   87.0000   -12.6890    81.9540     4.5630     4.9940     5.7070     2.1120 
   87.1250   -13.0680    86.3000     4.4910     4.9250     5.6040     2.1130 
   87.2500   -13.3900    89.8910     4.4130     4.8620     5.5360     2.1130 
   87.3750   -13.6330    88.7510     4.3430     4.7830     5.5480     2.1080 
   87.5000   -13.9040    85.8690     4.3060     4.6970     5.4920     2.1040 
   87.6250   -14.4120    82.4990     4.3030     4.6840     5.4580     2.1000 
   87.7500   -15.0590    81.6310     4.3380     4.7190     5.4900     2.0960 
   87.8750   -15.7720    80.4170     4.4090     4.7990     5.5800     2.0890 
   88.0000   -16.4690    79.1070     4.5300     4.9190     5.6570     2.0780 
   88.1250   -17.1000    76.6650     4.6830     5.0620     5.7060     2.0660 
   88.2500   -17.5800    74.3410     4.8260     5.1890     5.8320     2.0620 
   88.3750   -17.7840    71.6570     4.9250     5.2600     5.8980     2.0630 
   88.5000   -17.8460    69.9800     4.9480     5.2630     5.7650     2.0660 
   88.6250   -17.8520    69.4380     4.9080     5.2060     5.5800     2.0660 
   88.7500   -17.8790    69.4280     4.8350     5.1240     5.4580     2.0680 
   88.8750   -17.9440    69.3150     4.7660     5.0440     5.4540     2.0680 
   89.0000   -18.0340    68.9980     4.7190     4.9860     6.6110     2.0650 
   89.1250   -18.1010    69.5540     4.7030     4.9530     8.3490     2.0610 
   89.2500   -18.1990    69.1540     4.6910     4.9340     7.9350     2.0600 
   89.3750   -18.2610    68.2210     4.6650     4.9200     6.2610     2.0640 
   89.5000   -18.2080    67.6240     4.6350     4.9080     5.6060     2.0680 
   89.6250   -18.1310    69.9000     4.5990     4.8960     5.5990     2.0680 
   89.7500   -18.0540    71.6900     4.5710     4.8860     5.5990     2.0630 
   89.8750   -17.9340    72.3190     4.5570     4.8790     5.5410     2.0570 
   90.0000   -17.7270    71.1230     4.5510     4.8690     5.4960     2.0560 
   90.1250   -17.4860    70.2500     4.5540     4.8540     5.5240     2.0630 
   90.2500   -17.1020    69.1700     4.5750     4.8720     5.6180     2.0700 
   90.3750   -16.6960    68.5070     4.7230     5.0440     5.8010     2.0780 
   90.5000   -16.2670    68.8950     5.0650     5.4250     6.1880     2.0940 
   90.6250   -15.7340    71.1230     5.6040     5.9740     6.5800     2.1250 
   90.7500   -15.1230    75.2250     6.2190     6.6420     6.8670     2.1540 
   90.8750   -14.3740    78.4440     6.7400     7.1960     8.1260     2.1680 
   91.0000   -13.4970    80.7600     6.9530     7.3810     9.9770     2.1750 
   91.1250   -12.5420    82.3760     6.7500     7.1580    10.7330     2.1880 
   91.2500   -11.6280    85.6740     6.3370     6.7610    10.6580     2.2070 
   91.3750   -10.9290    88.8850     5.9640     6.3810     9.6680     2.2230 
