~V
VERS. 2.00: Ver 2.00
~W
STRT.M 40.0000:
STOP.M 213.0000:
STEP.M 0.1250:
NULL. -999.2500:
UWI. F10805:
~C
DEPT.M :
SP.MV :
GR.API :
RI. :
RML.OHMM :
RXO.OHMM :
DEN.GM/CC :
~A
# ...
  181.6250    -5.9730    62.0590     4.5910     6.0440     4.7650     2.3070 
  181.7500    -6.0490    63.0800     4.5600     5.9950     4.5350     2.2960 
  181.8750    -6.0680    64.9290     4.5820     6.0070     4.8040     2.2820 
  182.0000    -6.0460    66.4710     4.6340     6.0540     5.1650     2.2700 
  182.1250    -6.0100    66.5260     4.6710     6.0780     4.8640     2.2650 
  182.2500    -5.9740    66.2500     4.6540     6.0180     4.3440     2.2670 
  182.3750    -5.9570    64.4520     4.5250     5.8490     4.0710     2.2700 
  182.5000    -6.0390    62.5760     4.3480     5.6340     4.1030     2.2660 
  182.6250    -6.0710    60.5400     4.2060     5.4700     4.2550     2.2610 
  182.7500    -6.0860    60.5240     4.1610     5.4260     4.5820     2.2620 
  182.8750    -6.0240    61.8100     4.2470     5.5090     5.0440     2.2650 
  183.0000    -6.0080    64.2620     4.3770     5.6330     4.9120     2.2700 
  183.1250    -6.0130    65.9140     4.4530     5.6940     5.0730     2.2750 
  183.2500    -5.9570    66.2460     4.4370     5.6460     5.3720     2.2800 
  183.3750    -5.8610    63.8160     4.3390     5.5110     4.5100     2.2780 
  183.5000    -5.6790    60.8420     4.2410     5.3830     3.9610     2.2740 
  183.6250    -5.4610    58.7270     4.2300     5.3640     4.7200     2.2730 
  183.7500    -5.2890    59.2180     4.3370     5.4960     5.8320     2.2760 
  183.8750    -5.2960    61.3260     4.5840     5.7650     6.0850     2.2830 
  184.0000    -5.4390    63.7890     4.8650     6.0760     5.3910     2.2860 
  184.1250    -5.7050    64.9150     5.1120     6.3290     4.8340     2.2830 
  184.2500    -5.9910    65.3090     5.2480     6.4660     4.8730     2.2740 
  184.3750    -6.2730    64.4230     5.2590     6.4700     5.0230     2.2610 
  184.5000    -6.5270    63.9080     5.2010     6.3760     4.7910     2.2560 
  184.6250    -6.7510    63.4730     5.0800     6.2220     4.7470     2.2660 
  184.7500    -6.9340    63.3180     4.9660     6.0660     4.9930     2.2850 
  184.8750    -7.0220    63.3090     4.8830     5.9580     4.8740     2.2950 
  185.0000    -7.0260    63.1460     4.8490     5.9340     4.6620     2.2950 
  185.1250    -6.9020    63.6460     4.9010     6.0150     4.7120     2.2890 
  185.2500    -6.7880    63.7730     5.0290     6.1670     5.0690     2.2870 
  185.3750    -6.6980    64.8750     5.1750     6.3150     5.4470     2.2840 
  185.5000    -6.7370    65.9270     5.2570     6.3690     5.3480     2.2830 
  185.6250    -6.7440    66.0830     5.1910     6.2720     4.8950     2.2840 
  185.7500    -6.6800    66.2450     5.0140     6.0900     4.5130     2.2800 
  185.8750    -6.4760    66.1710     4.7990     5.9270     4.2990     2.2770 
  186.0000    -6.3000    66.6570     4.6160     5.8040     4.2040     2.2740 
  186.1250    -6.2100    65.9130     4.5210     5.7190     4.3920     2.2710 
  186.2500    -6.2190    67.0230     4.5390     5.7150     4.5060     2.2650 
  186.3750    -6.2420    67.4680     4.6410     5.8100     4.2970     2.2680 
  186.5000    -6.2120    69.5580     4.8050     5.9600     4.4570     2.2760 
  186.6250    -6.1810    69.6230     4.9630     6.1170     5.0610     2.2850 
  186.7500    -6.1440    70.9670     5.0880     6.2380     5.4220     2.2840 
  186.8750    -6.1980    70.3190     5.1600     6.3000     5.4330     2.2790 
  187.0000    -6.1880    70.5940     5.1670     6.2880     5.0560     2.2750 
  187.1250    -6.1370    70.7380     5.1000     6.1800     4.5150     2.2750 
  187.2500    -5.9980    71.1920     4.9720     6.0230     4.5640     2.2790 
  187.3750    -5.9100    69.8000     4.8680     5.8910     5.0550     2.2830 
  187.5000    -5.7910    67.3340     4.8010     5.8150     5.2520     2.2800 
  187.6250    -5.7710    66.5460     4.7880     5.8100     4.9930     2.2760 
  187.7500    -5.8050    66.9540     4.8160     5.8500     4.8320     2.2710 
  187.8750    -5.8490    66.0630     4.8760     5.9180     4.8120     2.2720 
  188.0000    -5.8900    63.1460     4.9630     6.0010     4.5220     2.2810 
  188.1250    -5.9630    61.2170     5.0640     6.1060     4.5160     2.3080 
  188.2500    -6.1300    62.0680     5.2090     6.2590     5.3790     2.3340 
  188.3750    -6.3880    64.3150     5.3990     6.4770     6.5970     2.3470 
  188.5000    -6.6830    65.8980     5.6250     6.7310     7.0560     2.3480 
  188.6250    -6.8970    64.9510     5.8370     6.9610     6.9370     2.3530 
  188.7500    -7.1000    63.2260     5.9870     7.1250     6.8840     2.3550 
  188.8750    -7.2710    63.4990     6.0630     7.1980     6.5670     2.3490 
  189.0000    -7.4150    66.4530     6.0790     7.1940     6.3240     2.3350 
  189.1250    -7.4380    69.9240     6.0480     7.1470     6.4140     2.3220 
  189.2500    -7.3850    71.0630     6.0020     7.0980     6.4520     2.3180 
  189.3750    -7.3190    70.4270     6.0080     7.1160     6.3710     2.3240 
  189.5000    -7.2760    68.9760     6.1190     7.2640     6.2760     2.3310 
  189.6250    -7.2310    68.5970     6.3990     7.5770     6.3350     2.3280 
  189.7500    -7.1440    69.5530     6.7840     7.9840     7.3430     2.3190 
  189.8750    -7.0120    71.7760     7.1650     8.3380     9.3950     2.3200 
  190.0000    -6.8560    73.8030     7.3650     8.4850     9.3370     2.3390 
  190.1250    -6.7370    74.6750     7.2640     8.3280     6.8000     2.3640 
  190.2500    -6.5710    73.8100     6.9600     7.9460     5.7270     2.3740 
  190.3750    -6.5190    72.4000     6.5420     7.4990     6.2590     2.3650 
  190.5000    -6.4830    70.9870     6.2600     7.1870     7.8360     2.3460 
  190.6250    -6.5190    70.6930     6.2300     7.1440     9.5830     2.3360 
  190.7500    -6.5270    71.9830     6.4460     7.3290     8.8940     2.3450 
  190.8750    -6.5360    73.9800     6.7650     7.6220     7.4620     2.3620 
  191.0000    -6.5880    75.5080     7.0380     7.8600     8.3710     2.3610 
  191.1250    -6.6490    76.3140     7.1500     7.9250     9.7690     2.3410 
  191.2500    -6.6830    75.7210     7.0650     7.7950     8.0590     2.3290 
  191.3750    -6.6100    73.4170     6.8070     7.4970     5.2240     2.3330 
  191.5000    -6.4420    69.7660     6.4490     7.1260     4.2840     2.3340 
  191.6250    -6.1640    65.9920     6.1140     6.7850     4.4100     2.3190 
  191.7500    -5.9340    64.8930     5.8950     6.5490     4.6140     2.3010 
  191.8750    -5.6560    66.1530     5.8300     6.4800     4.8260     2.2950 
  192.0000    -5.5030    69.0840     5.9470     6.6120     6.2590     2.2930 
  192.1250    -5.4420    71.6800     6.3200     7.0100     9.0440     2.2890 
  192.2500    -5.5570    73.8750     6.9730     7.6580    10.7240     2.2860 
  192.3750    -5.8050    75.2750     7.8160     8.4790    11.6670     2.3020 
  192.5000    -6.0730    76.6390     8.6910     9.3000    12.9640     2.3360 
  192.6250    -6.2390    78.1070     9.3400     9.9510    13.0320     2.3660 
  192.7500    -6.2830    80.8630     9.6510    10.3230    12.2430     2.3810 
  192.8750    -6.2520    83.8310     9.6450    10.3480    11.0840     2.3840 
  193.0000    -6.1240    86.6940     9.4510    10.1700     9.3980     2.3900 
  193.1250    -6.0270    88.2820     9.2290     9.9430     9.1250     2.3970 
  193.2500    -5.7910    88.6880     9.0320     9.7290    10.2340     2.4060 
  193.3750    -5.6290    88.0100     8.8040     9.5150    10.5890     2.4120 
  193.5000    -5.4250    86.3110     8.5750     9.3060     9.4690     2.4190 
  193.6250    -5.2490    84.7650     8.4000     9.1450     7.7820     2.4140 
  193.7500    -5.0150    83.1780     8.3240     9.0780     9.4540     2.4030 
  193.8750    -4.7940    81.9250     8.3790     9.1450    16.8600     2.3860 
  194.0000    -4.6280    81.4080     8.5730     9.3160    20.2910     2.3740 
  194.1250    -4.5500    82.8190     8.8230     9.5000    14.2710     2.3640 
  194.2500    -4.4420    84.7590     8.9680     9.5660    10.0680     2.3570 
  194.3750    -4.0760    85.6230     8.8650     9.4290    10.2400     2.3550 
