~V
VERS. 2.00: Ver 2.00
~W
STRT.M 63.0000:
STOP.M 236.0000:
STEP.M 0.1250:
NULL. -999.2500:
UWI. F10859:
~C
DEPT.M :
TVD. :
DX. :
DY. :
SP.MV :
GR.API :
RI. :
RML.OHMM :
RXO.OHMM :
DEN.GM/CC :
~A
# ...
  190.7500   190.7370    -1.7310     0.4780   -38.8490    51.7330    13.4220    14.7110    20.7490     2.1860 
  190.8750   190.8620    -1.7330     0.4780   -38.8940    56.0840    13.8340    15.1220    21.5760     2.1810 
  191.0000   190.9870    -1.7350     0.4790   -38.9090    59.7030    14.1210    15.3880    21.8820     2.1800 
  191.1250   191.1120    -1.7370     0.4790   -38.8950    60.6560    14.2710    15.5010    21.8000     2.1810 
  191.2500   191.2370    -1.7390     0.4790   -38.8580    60.2920    14.3120    15.4890    21.5840     2.1850 
  191.3750   191.3620    -1.7410     0.4790   -38.8120    60.3760    14.3110    15.4320    21.5680     2.1880 
  191.5000   191.4870    -1.7430     0.4800   -38.7700    61.5530    14.3380    15.4140    21.8860     2.1880 
  191.6250   191.6120    -1.7450     0.4800   -38.7430    62.0940    14.4440    15.4930    22.2140     2.1880 
  191.7500   191.7370    -1.7470     0.4800   -38.7420    61.1650    14.6340    15.6720    22.4120     2.1930 
  191.8750   191.8620    -1.7490     0.4800   -38.7600    58.7380    14.8350    15.8600    22.7920     2.2050 
  192.0000   191.9870    -1.7510     0.4810   -38.7710    58.0190    14.9400    15.9390    23.1700     2.2210 
  192.1250   192.1120    -1.7520     0.4810   -38.7530    59.6520    14.8850    15.8390    22.7870     2.2280 
  192.2500   192.2370    -1.7540     0.4810   -38.6900    62.6080    14.6560    15.5530    21.5020     2.2200 
  192.3750   192.3620    -1.7560     0.4810   -38.6030    64.2340    14.3280    15.1670    20.1120     2.2040 
  192.5000   192.4870    -1.7580     0.4820   -38.5280    62.8880    13.9770    14.7700    19.3690     2.1880 
  192.6250   192.6120    -1.7600     0.4820   -38.4930    61.2720    13.6650    14.4260    19.4630     2.1790 
  192.7500   192.7370    -1.7620     0.4820   -38.5030    60.4000    13.4210    14.1620    19.8870     2.1760 
  192.8750   192.8620    -1.7640     0.4820   -38.5250    60.5290    13.2470    13.9750    19.9170     2.1780 
  193.0000   192.9870    -1.7660     0.4830   -38.5240    59.5010    13.1870    13.9090    19.3210     2.1840 
  193.1250   193.1120    -1.7680     0.4830   -38.4780    58.3380    13.3170    14.0520    18.4720     2.1880 
  193.2500   193.2370    -1.7700     0.4830   -38.3830    59.6600    13.7780    14.5670    18.1390     2.1900 
  193.3750   193.3620    -1.7720     0.4830   -38.2560    62.7140    14.6100    15.4960    18.8760     2.1870 
  193.5000   193.4870    -1.7740     0.4840   -38.1080    64.8620    15.7500    16.7600    20.6640     2.1800 
  193.6250   193.6120    -1.7760     0.4840   -37.9560    64.0880    16.9170    18.0360    22.5590     2.1690 
  193.7500   193.7370    -1.7780     0.4840   -37.7990    62.4570    17.7800    18.9570    23.4080     2.1600 
  193.8750   193.8620    -1.7800     0.4850   -37.6410    61.3630    18.2030    19.3900    23.0320     2.1580 
  194.0000   193.9870    -1.7810     0.4850   -37.4780    61.6290    18.2560    19.4340    21.8900     2.1610 
  194.1250   194.1120    -1.7830     0.4850   -37.3150    60.9910    18.2340    19.4270    20.8960     2.1630 
  194.2500   194.2370    -1.7850     0.4850   -37.1530    59.7680    18.4090    19.6670    21.4650     2.1610 
  194.3750   194.3620    -1.7870     0.4860   -36.9820    59.5450    18.8530    20.2040    23.7210     2.1580 
  194.5000   194.4870    -1.7890     0.4860   -36.7890    59.7620    19.4520    20.8800    25.6640     2.1590 
  194.6250   194.6120    -1.7910     0.4860   -36.5610    59.8300    19.9680    21.4190    25.3900     2.1670 
  194.7500   194.7370    -1.7930     0.4870   -36.2910    57.9600    20.1920    21.6010    23.1530     2.1800 
  194.8750   194.8610    -1.7950     0.4870   -35.9810    57.9630    20.1060    21.4370    20.9000     2.1950 
  195.0000   194.9860    -1.7970     0.4870   -35.6370    58.9560    19.7740    21.0170    19.6860     2.2050 
  195.1250   195.1110    -1.7990     0.4880   -35.2710    59.5030    19.3080    20.4670    19.4860     2.2080 
  195.2500   195.2360    -1.8010     0.4880   -34.8980    58.9660    18.7050    19.7720    20.0010     2.2030 
  195.3750   195.3610    -1.8030     0.4880   -34.5350    59.0290    17.8590    18.8040    20.2370     2.1930 
  195.5000   195.4860    -1.8050     0.4890   -34.1960    59.5790    16.6070    17.3900    19.8430     2.1840 
  195.6250   195.6110    -1.8070     0.4890   -33.8710    58.3070    15.0030    15.6120    19.6720     2.1800 
  195.7500   195.7360    -1.8090     0.4900   -33.5430    57.2490    13.2400    13.6960    19.5380     2.1820 
  195.8750   195.8610    -1.8110     0.4900   -33.1880    58.2240    11.6030    11.9560    17.8130     2.1870 
  196.0000   195.9860    -1.8130     0.4900   -32.7910    61.4920    10.3240    10.6360    14.6420     2.1880 
  196.1250   196.1110    -1.8150     0.4910   -32.3600    63.6380     9.4370     9.7480    12.5540     2.1840 
  196.2500   196.2360    -1.8160     0.4910   -31.9130    64.2090     8.9390     9.2710    12.3460     2.1760 
  196.3750   196.3610    -1.8180     0.4910   -31.4820    63.7660     8.7390     9.0920    12.5950     2.1720 
  196.5000   196.4860    -1.8200     0.4920   -31.0830    63.4390     8.7530     9.1150    12.6400     2.1720 
  196.6250   196.6110    -1.8220     0.4920   -30.7080    63.1200     8.8510     9.2090    12.6650     2.1750 
  196.7500   196.7360    -1.8240     0.4930   -30.3380    62.3610     8.9620     9.3090    12.8450     2.1800 
  196.8750   196.8610    -1.8260     0.4930   -29.9460    60.1440     9.0810     9.4210    13.2090     2.1860 
  197.0000   196.9860    -1.8280     0.4930   -29.5150    57.6550     9.2720     9.6170    13.6410     2.1930 
  197.1250   197.1110    -1.8300     0.4940   -29.0330    56.1570     9.6220     9.9920    13.9500     2.2040 
  197.2500   197.2360    -1.8320     0.4940   -28.4740    57.3420    10.2410    10.6680    14.7090     2.2270 
  197.3750   197.3610    -1.8340     0.4950   -27.8170    59.6820    11.1140    11.6240    16.9440     2.2700 
  197.5000   197.4860    -1.8360     0.4950   -27.0360    61.8330    12.1190    12.7260    20.1970     2.3310 
  197.6250   197.6110    -1.8380     0.4950   -26.1540    62.7150    13.0170    13.7060    22.1900     2.3920 
  197.7500   197.7360    -1.8400     0.4960   -25.2160    63.6650    13.5610    14.2970    21.9860     2.4350 
  197.8750   197.8610    -1.8420     0.4960   -24.3060    65.2340    13.7030    14.4620    21.1750     2.4540 
  198.0000   197.9860    -1.8440     0.4960   -23.5140    68.0070    13.5280    14.3130    20.6350     2.4480 
  198.1250   198.1110    -1.8460     0.4970   -22.8890    70.0170    13.2460    14.0820    19.5320     2.4240 
  198.2500   198.2360    -1.8480     0.4970   -22.4690    72.2340    13.0120    13.9240    17.7660     2.3870 
  198.3750   198.3610    -1.8500     0.4980   -22.2140    74.9420    12.8860    13.8780    16.7140     2.3530 
  198.5000   198.4860    -1.8520     0.4980   -22.0810    78.7080    12.8820    13.9490    16.1080     2.3350 
  198.6250   198.6110    -1.8540     0.4990   -21.9920    81.9060    12.9970    14.1430    14.8110     2.3350 
  198.7500   198.7360    -1.8560     0.4990   -21.8840    81.7830    13.2800    14.5330    14.2850     2.3500 
  198.8750   198.8610    -1.8580     0.4990   -21.7180    79.6310    13.7610    15.1590    16.1290     2.3690 
  199.0000   198.9860    -1.8600     0.5000   -21.4690    77.9900    14.4260    15.9840    20.1100     2.3830 
  199.1250   199.1110    -1.8620     0.5000   -21.1500    78.9430    15.0980    16.7720    25.9630     2.3880 
  199.2500   199.2360    -1.8640     0.5010   -20.7770    80.1100    15.5410    17.2380    32.2040     2.3870 
  199.3750   199.3610    -1.8660     0.5010   -20.3770    79.8320    15.6650    17.3140    32.7390     2.3850 
  199.5000   199.4860    -1.8680     0.5020   -19.9530    76.8790    15.5410    17.1410    25.4300     2.3820 
  199.6250   199.6110    -1.8700     0.5020   -19.4940    74.1760    15.4060    17.0210    18.3760     2.3830 
  199.7500   199.7360    -1.8720     0.5030   -18.9870    72.4690    15.4920    17.2120    16.4150     2.3970 
