~V
VERS. 2.00: Ver 2.00
~W
STRT.M 50.0000:
STOP.M 213.0000:
STEP.M 0.1250:
NULL. -999.2500:
UWI. F10803:
~C
DEPT.M :
SP.MV :
GR.API :
RI. :
RML.OHMM :
RXO.OHMM :
DEN.GM/CC :
~A
# ...
  140.1250    -8.3180    85.1840     7.9600     9.2740     8.5630     2.1810 
  140.2500    -8.3910    83.7170     8.3570     9.5440     9.1460     2.1820 
  140.3750    -8.4660    81.7970     9.3340    10.5860    14.2270     2.1800 
  140.5000    -8.6690    79.8090    10.9980    12.3610    18.0500     2.1670 
  140.6250    -8.8960    77.3750    12.6660    14.3480    17.0810     2.1550 
  140.7500    -9.1170    74.2660    13.3300    15.5600    16.2050     2.1460 
  140.8750    -9.1900    73.1570    12.8750    15.3860    15.7600     2.1510 
  141.0000    -9.2080    74.5180    11.6020    14.1690    12.7170     2.1650 
  141.1250    -9.2440    77.0140    10.7180    12.8630    10.0200     2.1830 
  141.2500    -9.4010    77.3440    10.7460    12.4280    10.9700     2.1830 
  141.3750    -9.5730    76.3800    11.6210    13.1350    15.6800     2.1630 
  141.5000    -9.8050    75.8840    13.0350    14.6420    21.4340     2.1410 
  141.6250    -9.9630    75.2990    14.7160    16.5150    22.7390     2.1340 
  141.7500   -10.1070    73.2680    15.9560    18.0550    19.4510     2.1390 
  141.8750   -10.1970    71.4260    16.1090    18.5670    18.2890     2.1430 
  142.0000   -10.1950    71.3710    15.4120    18.0180    19.8260     2.1430 
  142.1250   -10.2360    73.9700    14.2310    16.7100    19.1460     2.1440 
  142.2500   -10.2020    77.1200    13.0100    15.1680    16.2700     2.1520 
  142.3750   -10.1630    79.7970    11.9280    13.7120    13.7880     2.1680 
  142.5000   -10.0020    81.5100    11.0780    12.5100    13.2540     2.1830 
  142.6250    -9.8860    83.1730    10.6080    11.7460    13.6410     2.1920 
  142.7500    -9.8690    84.3720    10.6840    11.5340    13.5860     2.1870 
  142.8750    -9.9510    84.4330    11.2880    11.9410    13.8910     2.1760 
  143.0000   -10.1100    81.5920    12.1870    12.7560    14.5520     2.1630 
  143.1250   -10.2610    78.2200    13.1750    13.7390    14.9440     2.1580 
  143.2500   -10.3440    76.8450    13.9610    14.6110    15.3740     2.1540 
  143.3750   -10.4020    77.6980    14.3590    15.1300    15.6140     2.1520 
  143.5000   -10.3920    78.3050    14.3190    15.2310    14.5900     2.1510 
  143.6250   -10.2240    77.8480    13.9280    14.9560    13.5360     2.1540 
  143.7500   -10.0590    78.7430    13.4860    14.5520    13.2670     2.1600 
  143.8750    -9.8510    79.9470    13.3410    14.3670    12.7250     2.1700 
  144.0000    -9.7130    81.1900    13.8940    14.8090    14.4850     2.1820 
  144.1250    -9.5760    80.4550    15.6730    16.4400    22.8870     2.1900 
  144.2500    -9.3510    79.0220    19.0930    19.6950    35.2250     2.1930 
  144.3750    -9.1930    76.0620    25.0510    25.5490    45.8800     2.1840 
  144.5000    -9.1510    71.8230    34.2560    34.3050    52.1950     2.1680 
  144.6250    -9.3680    68.0520    44.7710    44.9440    55.1640     2.1570 
  144.7500    -9.6180    65.2940    53.7560    54.7080    63.5660     2.1570 
  144.8750    -9.9100    63.7040    58.0840    60.6630    67.9590     2.1660 
  145.0000   -10.2590    62.6280    58.0050    62.1840    56.0390     2.1770 
  145.1250   -10.5140    62.2620    55.7830    60.5080    45.5630     2.1910 
  145.2500   -10.4290    62.7760    52.9840    57.7560    50.8790     2.1990 
  145.3750   -10.3240    63.2690    50.7240    55.1100    60.3590     2.1960 
  145.5000   -10.2860    63.3860    49.3150    53.2730    53.8700     2.1860 
  145.6250   -10.4100    63.2010    49.4630    52.8030    40.3970     2.1850 
  145.7500   -10.4830    63.3400    50.7550    54.6140    43.8040     2.1850 
  145.8750   -10.3370    63.7260    54.0600    57.4550    58.4280     2.1780 
  146.0000   -10.1540    63.1050    58.8410    61.8400    62.9830     2.1620 
  146.1250   -10.0020    61.0590    64.1860    67.1170    59.1500     2.1500 
  146.2500   -10.0220    58.0540    69.6000    72.4380    60.1680     2.1480 
  146.3750   -10.2540    57.5560    73.8480    78.3120    68.5560     2.1490 
  146.5000   -10.8290    58.4810    77.9560    82.7170    79.1800     2.1440 
  146.6250   -11.3090    60.0990    82.8940    87.7360    84.3710     2.1380 
  146.7500   -11.5580    59.6220    89.3620    93.9150    87.3290     2.1310 
  146.8750   -11.8120    57.8620    96.0680   100.8620    94.1970     2.1240 
  147.0000   -12.0560    56.4730   102.3830   107.7390   101.4330     2.1150 
  147.1250   -12.2550    56.2150   108.6810   114.3400   107.1650     2.1130 
  147.2500   -12.5450    56.5870   115.0720   121.1250   112.1760     2.1150 
  147.3750   -12.8210    58.4390   119.7610   126.0920   117.9660     2.1220 
  147.5000   -12.7550    61.0670   120.7360   127.6380   124.8390     2.1300 
  147.6250   -12.6350    63.0290   116.1120   124.2720   126.7360     2.1450 
  147.7500   -12.4870    63.5430   106.5360   115.6810   116.9040     2.1630 
  147.8750   -12.6110    64.3150    96.4030   104.8680    97.6480     2.1750 
  148.0000   -13.1750    66.2450    87.4310    95.0260    81.7670     2.1770 
  148.1250   -13.9040    69.2850    82.5250    88.3800    70.7870     2.1780 
  148.2500   -14.3180    71.5250    80.9180    85.5020    75.6160     2.1800 
  148.3750   -14.2980    73.0360    83.5470    86.6780    93.2100     2.1750 
  148.5000   -14.2130    73.5270    89.1250    91.2370    95.4080     2.1620 
  148.6250   -14.2280    72.8310    97.4960    98.8890    91.4580     2.1500 
  148.7500   -14.3690    70.5020   108.2860   109.1760    98.0990     2.1440 
  148.8750   -14.4790    67.2850   120.9830   121.8450   112.1190     2.1430 
  149.0000   -14.6060    63.5040   133.8450   135.4600   125.2750     2.1430 
  149.1250   -14.5840    60.6290   144.7810   147.8470   138.1240     2.1430 
  149.2500   -14.4910    58.8680   151.3090   156.4700   141.8820     2.1410 
  149.3750   -14.2940    59.3060   149.6520   157.8990   127.0050     2.1440 
  149.5000   -14.1180    60.0680   140.8880   151.8520   122.4660     2.1530 
  149.6250   -14.0420    60.9340   128.7770   140.5090   132.3730     2.1710 
  149.7500   -13.9760    61.8250   116.9730   128.4460   123.6030     2.1880 
  149.8750   -13.9430    63.7450   111.9060   122.4100    95.5820     2.1970 
  150.0000   -13.8230    65.5640   113.0360   121.1280    83.0250     2.1910 
  150.1250   -13.7790    66.5560   120.3310   125.5940    98.1840     2.1780 
  150.2500   -13.7350    65.7680   123.6550   129.8730   116.3960     2.1640 
  150.3750   -13.7330    65.2430   120.7340   128.3760   118.2600     2.1580 
  150.5000   -13.6430    64.6560   110.6740   120.0270    98.1830     2.1640 
  150.6250   -13.5010    65.4590    96.2830   106.6970    72.7410     2.1760 
  150.7500   -13.2640    66.7650    85.6460    93.9540    63.5500     2.1860 
  150.8750   -12.9310    69.2600    78.7890    85.4210    67.6690     2.1890 
  151.0000   -12.6570    70.8460    77.0960    81.7140    77.3320     2.1890 
  151.1250   -12.4800    70.8470    79.7040    83.2850    81.7850     2.1820 
  151.2500   -12.3650    69.0920    87.0220    89.2570    78.1000     2.1700 
  151.3750   -12.2190    67.8780    95.3850    97.8700    78.1910     2.1540 
  151.5000   -12.0560    66.3970   102.3640   106.3060    99.3570     2.1450 
  151.6250   -11.8290    64.5140   107.7460   113.2960   123.6730     2.1540 
  151.7500   -11.5920    62.0700   111.3710   118.4190   109.5130     2.1750 
  151.8750   -11.3040    61.2910   111.9750   120.8000    80.8590     2.1890 
  152.0000   -11.0090    62.0100   110.7540   120.2910    77.5980     2.1840 
  152.1250   -10.7340    62.7360   111.1000   118.9080    84.6580     2.1720 
  152.2500   -10.4900    61.8040   114.2810   120.9860    79.4220     2.1710 
  152.3750   -10.2950    60.9720   121.5880   126.8390    76.0310     2.1770 
  152.5000   -10.0220    61.3370   130.1940   134.9020    85.0730     2.1800 
  152.6250    -9.7150    62.9470   138.6980   144.3050    92.5550     2.1670 
  152.7500    -9.4390    63.6690   145.4880   152.4060    94.8410     2.1560 
  152.8750    -9.1960    63.2160   149.1680   157.5450    96.2740     2.1520 
