~V
VERS. 2.00: Ver 2.00
~W
STRT.M 63.0000:
STOP.M 247.0000:
STEP.M 0.1250:
NULL. -999.2500:
UWI. F10865:
~C
DEPT.M :
TVD. :
DX. :
DY. :
SP.MV :
GR.API :
RI. :
RML.OHMM :
RXO.OHMM :
DEN.GM/CC :
~A
# ...
  108.6250   108.6210    -0.6030    -0.0180  -108.8210    69.6730    19.0970    18.4530    16.1600     2.1870 
  108.7500   108.7460    -0.6040    -0.0180  -109.8290    73.6780    20.8400    20.2670    16.6090     2.2900 
  108.8750   108.8710    -0.6060    -0.0180  -110.8290    73.8360    23.3620    23.1930    16.4740     2.4030 
  109.0000   108.9960    -0.6070    -0.0180  -111.7590    70.9230    25.3520    25.4690    17.5980     2.4880 
  109.1250   109.1210    -0.6080    -0.0180  -112.5680    67.0460    25.0190    25.0600    18.2960     2.5120 
  109.2500   109.2460    -0.6100    -0.0170  -113.1940    63.6530    21.5550    21.7210    16.6310     2.4770 
  109.3750   109.3710    -0.6110    -0.0170  -113.6130    64.3380    16.3150    16.4220    12.8770     2.4030 
  109.5000   109.4960    -0.6120    -0.0170  -113.7800    68.9320    11.1160    11.3890     8.7200     2.3270 
  109.6250   109.6210    -0.6140    -0.0170  -113.7030    77.8890     7.4970     7.8100     6.0110     2.2760 
  109.7500   109.7460    -0.6150    -0.0160  -113.3660    87.7550     5.5830     5.7270     4.7320     2.2540 
  109.8750   109.8710    -0.6170    -0.0160  -112.8190    91.1420     4.7350     4.9370     4.1460     2.2490 
  110.0000   109.9960    -0.6180    -0.0160  -112.1150    87.0180     4.5930     4.9580     4.1820     2.2400 
  110.1250   110.1210    -0.6200    -0.0160  -111.3660    81.9840     5.1870     5.7300     5.9000     2.2130 
  110.2500   110.2460    -0.6210    -0.0160  -110.6990    79.8230     6.4840     7.1030     9.7220     2.1730 
  110.3750   110.3710    -0.6230    -0.0160  -110.2210    78.6370     8.4780     9.2720    13.8360     2.1340 
  110.5000   110.4960    -0.6240    -0.0150  -110.0240    76.8290    10.8870    11.9030    14.8670     2.1080 
  110.6250   110.6210    -0.6260    -0.0150  -110.1030    73.5400    13.1770    14.4320    12.8950     2.0950 
  110.7500   110.7460    -0.6270    -0.0150  -110.4520    69.1260    14.6290    16.0360    11.6830     2.0910 
  110.8750   110.8710    -0.6290    -0.0150  -111.0040    66.0410    14.9010    16.2310    12.5170     2.0950 
  111.0000   110.9960    -0.6300    -0.0150  -111.7200    65.4790    13.9670    15.2270    12.8870     2.1090 
  111.1250   111.1210    -0.6320    -0.0150  -112.5230    67.0470    12.2840    13.4510    11.0940     2.1310 
  111.2500   111.2460    -0.6330    -0.0150  -113.3430    68.7060    10.4600    11.6540     8.8060     2.1550 
  111.3750   111.3710    -0.6350    -0.0150  -114.1110    72.7770     8.8880    10.0330     7.5660     2.1740 
  111.5000   111.4960    -0.6360    -0.0140  -114.7700    78.6500     7.7570     8.8920     7.0320     2.1860 
  111.6250   111.6210    -0.6380    -0.0140  -115.3070    82.3290     7.1070     8.2900     6.8820     2.1950 
  111.7500   111.7460    -0.6400    -0.0140  -115.7150    79.9310     6.7530     7.9250     7.0430     2.2040 
  111.8750   111.8710    -0.6410    -0.0140  -116.0190    75.5050     6.6420     7.7780     7.1970     2.2130 
  112.0000   111.9960    -0.6430    -0.0140  -116.2280    74.9610     6.6700     7.7200     7.1890     2.2190 
  112.1250   112.1210    -0.6440    -0.0140  -116.3690    77.8640     6.7450     7.6890     7.3200     2.2230 
  112.2500   112.2460    -0.6460    -0.0140  -116.4600    78.1160     6.7680     7.5920     7.4020     2.2310 
  112.3750   112.3710    -0.6480    -0.0140  -116.5250    74.5040     6.7320     7.4310     7.1920     2.2460 
  112.5000   112.4960    -0.6490    -0.0140  -116.5850    71.7720     6.6970     7.2670     7.0960     2.2640 
  112.6250   112.6210    -0.6510    -0.0140  -116.6570    73.8650     6.6930     7.1680     7.1600     2.2750 
  112.7500   112.7460    -0.6530    -0.0140  -116.7600    78.0380     6.7660     7.2240     7.2600     2.2700 
  112.8750   112.8710    -0.6540    -0.0130  -116.9070    80.4470     6.9400     7.4040     7.2660     2.2490 
  113.0000   112.9960    -0.6560    -0.0130  -117.1030    79.9060     7.1780     7.6520     7.1340     2.2240 
  113.1250   113.1210    -0.6580    -0.0130  -117.3330    78.4070     7.3820     7.8550     7.0240     2.2100 
  113.2500   113.2460    -0.6590    -0.0130  -117.5750    78.0640     7.4170     7.8390     6.9390     2.2100 
  113.3750   113.3710    -0.6610    -0.0130  -117.8010    77.5100     7.1650     7.5560     6.7950     2.2230 
  113.5000   113.4950    -0.6630    -0.0130  -117.9840    77.1580     6.7620     7.1270     6.5420     2.2400 
  113.6250   113.6200    -0.6640    -0.0130  -118.1100    79.7730     6.3180     6.6440     6.1600     2.2530 
  113.7500   113.7450    -0.6660    -0.0130  -118.1650    84.3640     5.9050     6.1810     5.8150     2.2630 
  113.8750   113.8700    -0.6680    -0.0130  -118.1500    85.0480     5.6680     5.9050     5.6440     2.2750 
  114.0000   113.9950    -0.6700    -0.0130  -118.0620    80.4960     5.6360     5.8610     5.6530     2.2880 
  114.1250   114.1200    -0.6710    -0.0130  -117.9170    79.3690     5.8760     6.2750     6.0030     2.2900 
  114.2500   114.2450    -0.6730    -0.0130  -117.7320    83.5220     6.3850     7.3740     6.6070     2.2720 
  114.3750   114.3700    -0.6750    -0.0130  -117.5360    85.4170     7.1950     8.4120     6.9910     2.2360 
  114.5000   114.4950    -0.6760    -0.0130  -117.3600    81.7870     8.0780     9.4340     7.3140     2.1990 
  114.6250   114.6200    -0.6780    -0.0130  -117.2190    77.3980     8.7010    10.0800     8.0290     2.1760 
  114.7500   114.7450    -0.6800    -0.0130  -117.1180    76.6110     8.9150    10.2560     8.5100     2.1710 
  114.8750   114.8700    -0.6810    -0.0120  -117.0400    76.7520     8.6750     9.9180     8.0940     2.1750 
  115.0000   114.9950    -0.6830    -0.0120  -116.9750    75.6290     8.2900     9.4240     7.3170     2.1790 
  115.1250   115.1200    -0.6850    -0.0120  -116.9200    74.2140     8.0390     9.0690     6.9960     2.1770 
  115.2500   115.2450    -0.6860    -0.0120  -116.8920    73.3050     8.0380     8.9590     7.3530     2.1670 
  115.3750   115.3700    -0.6880    -0.0120  -116.9100    72.1530     8.3720     9.2450     8.2890     2.1570 
  115.5000   115.4950    -0.6900    -0.0120  -116.9970    72.1990     8.8040     9.6410    10.0390     2.1540 
  115.6250   115.6200    -0.6920    -0.0120  -117.1460    73.8030     9.0080     9.8220    13.0730     2.1670 
  115.7500   115.7450    -0.6930    -0.0110  -117.3390    75.7300     8.9010     9.6690    15.2760     2.1960 
  115.8750   115.8700    -0.6950    -0.0110  -117.5350    75.5350     8.4230     9.0990    13.5130     2.2380 
  116.0000   115.9950    -0.6970    -0.0110  -117.6920    76.0210     7.9400     8.5510     9.6520     2.2800 
  116.1250   116.1200    -0.6990    -0.0110  -117.7810    77.1550     7.7670     8.3300     7.5630     2.3160 
  116.2500   116.2450    -0.7000    -0.0110  -117.7760    75.4120     7.9010     8.3860     8.2150     2.3430 
  116.3750   116.3700    -0.7020    -0.0110  -117.6780    71.9000     8.2470     8.6960    10.7710     2.3550 
  116.5000   116.4950    -0.7040    -0.0110  -117.4820    70.0060     8.5240     8.8960    12.4030     2.3440 
  116.6250   116.6200    -0.7060    -0.0110  -117.2040    71.3500     8.4960     8.7900    10.7760     2.3080 
  116.7500   116.7450    -0.7070    -0.0110  -116.8490    72.9690     8.1490     8.3480     7.8440     2.2650 
  116.8750   116.8700    -0.7090    -0.0100  -116.4400    73.7370     7.7300     7.8590     6.0910     2.2280 
  117.0000   116.9950    -0.7110    -0.0100  -116.0020    74.4790     7.4720     7.5950     5.6820     2.2010 
  117.1250   117.1200    -0.7130    -0.0100  -115.5700    75.4850     7.5580     7.7100     6.3620     2.1770 
  117.2500   117.2450    -0.7140    -0.0100  -115.1790    76.6850     8.0990     8.3020     7.5540     2.1520 
  117.3750   117.3700    -0.7160    -0.0100  -114.8460    79.4000     8.9990     9.2120     8.2030     2.1310 
  117.5000   117.4950    -0.7180    -0.0100  -114.5740    81.3300    10.0230    10.2020     8.1770     2.1160 
  117.6250   117.6200    -0.7200    -0.0100  -114.3400    78.1490    10.8840    11.0290     8.4650     2.1080 
