~V
VERS. 2.00: Ver 2.00
~W
STRT.M 50.0000:
STOP.M 213.0000:
STEP.M 0.1250:
NULL. -999.2500:
UWI. F10803:
~C
DEPT.M :
SP.MV :
GR.API :
RI. :
RML.OHMM :
RXO.OHMM :
DEN.GM/CC :
~A
# ...
   88.6250   -20.0590    72.1620     6.1900     6.6100     4.7510     2.0970 
   88.7500   -19.8960    72.1330     6.2330     6.6070     4.7670     2.1000 
   88.8750   -19.5080    72.0140     6.2700     6.6060     4.7170     2.1070 
   89.0000   -18.9470    71.6430     6.3140     6.6190     4.6370     2.1100 
   89.1250   -18.3360    70.7090     6.2860     6.5870     4.5680     2.1050 
   89.2500   -17.6850    69.7390     5.9560     6.3540     4.4840     2.0950 
   89.3750   -17.0260    69.6580     5.3420     5.9420     4.3910     2.0950 
   89.5000   -16.6170    71.8640     4.6570     5.2300     4.1240     2.1110 
   89.6250   -16.5730    74.6910     4.1170     4.5860     3.5750     2.1390 
   89.7500   -16.9160    77.3710     3.9450     4.2510     3.4050     2.1570 
   89.8750   -17.6940    76.9530     4.1920     4.3790     3.8570     2.1490 
   90.0000   -18.6010    74.4590     4.7680     4.9030     4.2580     2.1270 
   90.1250   -19.3500    71.3450     5.4800     5.6770     4.3770     2.1100 
   90.2500   -19.8550    69.7480     6.1150     6.4240     4.3630     2.1060 
   90.3750   -20.2350    70.4160     6.3940     6.8800     4.3130     2.1060 
   90.5000   -20.4490    70.2990     6.3850     6.8400     4.2510     2.1070 
   90.6250   -20.5730    68.7310     6.2580     6.7070     4.2220     2.1070 
   90.7500   -20.6730    65.9590     6.0800     6.5250     4.3680     2.1150 
   90.8750   -20.7200    64.8040     5.9300     6.3530     4.6340     2.1240 
   91.0000   -20.7910    65.4780     6.0170     6.3570     4.9560     2.1270 
   91.1250   -20.9000    66.5650     6.6610     6.8840     5.7580     2.1300 
   91.2500   -20.9740    67.3260     7.9630     8.1480    10.4090     2.1570 
   91.3750   -20.9470    67.6650    10.0790    10.1940    22.5650     2.2410 
   91.5000   -20.9240    67.6070    12.2010    12.3560    34.6630     2.3550 
   91.6250   -20.9590    67.1860    13.1990    13.2760    36.2610     2.4260 
   91.7500   -21.0420    67.4690    12.7310    13.2640    26.2180     2.3990 
   91.8750   -21.1240    68.8390    10.8530    11.8070    12.4050     2.2830 
   92.0000   -21.2080    70.5140     8.6730     9.6530     5.8530     2.1570 
   92.1250   -21.1910    72.0830     7.0550     7.7750     5.2280     2.0900 
   92.2500   -21.0760    72.9190     6.1960     6.8150     4.8450     2.0670 
   92.3750   -20.9050    72.3890     5.8940     6.4430     4.6510     2.0550 
   92.5000   -20.6790    70.1170     5.8710     6.3180     4.6320     2.0410 
   92.6250   -20.5270    66.2800     5.9170     6.3390     4.5980     2.0300 
   92.7500   -20.3980    62.7140     5.9420     6.3590     4.5290     2.0250 
   92.8750   -20.3960    59.8730     5.9500     6.3490     4.5340     2.0270 
   93.0000   -20.4010    59.3420     5.9460     6.3290     4.4870     2.0330 
   93.1250   -20.3880    61.7880     5.9490     6.3180     4.2830     2.0400 
   93.2500   -20.3540    65.6710     5.9470     6.3240     4.1050     2.0460 
   93.3750   -20.3760    68.7490     5.9870     6.3700     4.1780     2.0490 
   93.5000   -20.6150    68.7610     6.1100     6.4840     4.4470     2.0480 
   93.6250   -20.9470    67.6000     6.3000     6.6470     4.6650     2.0420 
   93.7500   -21.2220    66.1200     6.4930     6.7880     4.7060     2.0310 
   93.8750   -21.2350    65.9420     6.6310     6.9160     4.6710     2.0200 
   94.0000   -21.1000    65.9940     6.6580     7.0130     4.7370     2.0120 
   94.1250   -20.8270    66.9490     6.5800     7.0170     4.9260     2.0080 
   94.2500   -20.6520    68.6380     6.4330     6.9320     5.0980     2.0040 
   94.3750   -20.5910    69.8360     6.2800     6.7910     5.1910     1.9990 
   94.5000   -20.6760    70.0920     6.1680     6.6540     5.1830     1.9990 
   94.6250   -20.7640    68.0580     6.1590     6.5880     5.0580     2.0030 
   94.7500   -20.8520    65.4500     6.2050     6.6030     4.9740     2.0080 
   94.8750   -20.9300    62.9250     6.2540     6.6690     5.0090     2.0080 
   95.0000   -20.9300    62.6850     6.2940     6.7500     5.1250     2.0060 
   95.1250   -20.9540    64.2930     6.3170     6.8250     5.2120     2.0070 
   95.2500   -20.8220    66.7040     6.3160     6.8650     5.1250     2.0130 
   95.3750   -20.6710    67.1100     6.2920     6.8530     5.1040     2.0200 
   95.5000   -20.4790    67.0190     6.2520     6.7940     5.2810     2.0240 
   95.6250   -20.3880    65.9860     6.2110     6.7260     5.3770     2.0210 
   95.7500   -20.2760    65.5870     6.1730     6.6820     5.3280     2.0150 
   95.8750   -20.1440    65.3300     6.1470     6.6750     5.3680     2.0090 
   96.0000   -19.9940    66.2170     6.1330     6.6960     5.5650     2.0090 
   96.1250   -19.8010    67.3310     6.1300     6.7260     5.7390     2.0140 
   96.2500   -19.6280    68.8700     6.1350     6.7570     5.8350     2.0170 
   96.3750   -19.5250    69.9180     6.1400     6.7900     5.8970     2.0150 
   96.5000   -19.5710    69.5650     6.1320     6.8110     5.9130     2.0070 
   96.6250   -19.6720    66.8380     6.0950     6.7880     5.8340     1.9990 
   96.7500   -19.9100    64.8520     6.0210     6.7140     5.5320     1.9930 
   96.8750   -20.1320    64.7380     5.9130     6.5940     5.0330     1.9930 
   97.0000   -20.3780    66.0870     5.8010     6.4670     4.6740     2.0010 
   97.1250   -20.5950    66.7220     5.7030     6.3650     4.5950     2.0110 
   97.2500   -20.7640    66.8910     5.6390     6.2890     4.6610     2.0200 
   97.3750   -20.8250    67.4780     5.5990     6.2310     4.8110     2.0230 
   97.5000   -20.7880    68.3450     5.5820     6.1890     5.0010     2.0240 
   97.6250   -20.8230    68.7950     5.5730     6.1730     5.1640     2.0230 
   97.7500   -20.7030    67.5480     5.5410     6.1760     5.2630     2.0220 
   97.8750   -20.4930    64.5830     5.4780     6.1540     5.2670     2.0210 
   98.0000   -20.2450    62.1260     5.3620     6.0580     5.2140     2.0210 
   98.1250   -20.2060    61.9790     5.2030     5.8790     5.1760     2.0190 
   98.2500   -20.3100    64.9570     5.0290     5.6750     5.1300     2.0190 
   98.3750   -20.4280    68.1730     4.8500     5.5020     5.0040     2.0190 
   98.5000   -20.4390    69.8540     4.6900     5.3680     4.7910     2.0230 
   98.6250   -20.2450    70.0130     4.5620     5.2540     4.6010     2.0300 
   98.7500   -19.9470    70.3650     4.4640     5.1510     4.4610     2.0400 
   98.8750   -19.6820    71.3010     4.3990     5.0790     4.2970     2.0540 
   99.0000   -19.6010    71.5710     4.3520     5.0510     4.1660     2.0650 
   99.1250   -19.7030    71.3580     4.3210     5.0540     4.1130     2.0740 
   99.2500   -19.9540    70.9150     4.2980     5.0550     4.0330     2.0820 
   99.3750   -20.1810    70.5260     4.2780     5.0380     3.8510     2.0880 
   99.5000   -20.4120    70.9200     4.2670     5.0080     3.6420     2.0890 
   99.6250   -20.5370    72.4430     4.2510     4.9710     3.5020     2.0860 
   99.7500   -20.5340    74.2880     4.2480     4.9360     3.4450     2.0840 
   99.8750   -20.4130    74.5930     4.2720     4.9270     3.4640     2.0840 
  100.0000   -20.1570    74.2610     4.3300     4.9610     3.5030     2.0890 
  100.1250   -19.8350    72.7100     4.4430     5.0530     3.5360     2.0920 
  100.2500   -19.2150    70.9230     4.5920     5.1960     3.5780     2.0920 
  100.3750   -18.4010    68.8890     4.7620     5.3550     3.6260     2.0870 
  100.5000   -17.5940    67.8590     4.9130     5.5070     3.6660     2.0830 
  100.6250   -16.9870    67.1260     4.9850     5.6000     3.6550     2.0790 
  100.7500   -16.5600    66.5210     4.8990     5.5610     3.5730     2.0790 
  100.8750   -16.3290    68.2400     4.6330     5.3310     3.4860     2.0890 
  101.0000   -16.3020    71.6120     4.2840     4.9520     3.4420     2.1130 
  101.1250   -16.5340    75.5670     3.8970     4.5180     3.4120     2.1510 
  101.2500   -16.6540    78.7640     3.6030     4.1570     3.3890     2.1840 
  101.3750   -16.3950    81.1730     3.4750     3.9770     3.3930     2.1900 
