~V
VERS. 2.00: Ver 2.00
~W
STRT.M 63.0000:
STOP.M 236.0000:
STEP.M 0.1250:
NULL. -999.2500:
UWI. F10859:
~C
DEPT.M :
TVD. :
DX. :
DY. :
SP.MV :
GR.API :
RI. :
RML.OHMM :
RXO.OHMM :
DEN.GM/CC :
~A
# ...
   99.5000    99.4960    -0.5040     0.2370   -32.6410    70.6280    12.1100    13.5010    12.4390     2.1100 
   99.6250    99.6210    -0.5060     0.2380   -33.3600    67.2330    12.5080    13.8090    12.9500     2.1100 
   99.7500    99.7460    -0.5070     0.2390   -34.0160    65.3120    12.9340    14.2260    13.4680     2.1110 
   99.8750    99.8710    -0.5090     0.2400   -34.6080    63.4200    13.5240    14.9070    14.1840     2.1080 
  100.0000    99.9960    -0.5100     0.2410   -35.1370    61.8120    14.3170    15.8790    15.3660     2.1020 
  100.1250   100.1210    -0.5120     0.2420   -35.6020    59.9920    15.2010    16.9770    16.7620     2.0930 
  100.2500   100.2460    -0.5140     0.2420   -35.9720    57.1150    15.9580    17.9100    17.8120     2.0860 
  100.3750   100.3710    -0.5150     0.2430   -36.2090    54.0190    16.3170    18.3350    18.2620     2.0790 
  100.5000   100.4960    -0.5170     0.2440   -36.2530    52.5990    16.0130    17.9320    18.1370     2.0740 
  100.6250   100.6210    -0.5190     0.2450   -36.0930    53.4090    15.1330    16.8330    17.7200     2.0760 
  100.7500   100.7460    -0.5200     0.2460   -35.7280    56.7870    14.0100    15.4740    16.9310     2.0880 
  100.8750   100.8710    -0.5220     0.2460   -35.2120    61.8790    13.1280    14.4630    15.3450     2.1040 
  101.0000   100.9960    -0.5240     0.2470   -34.5860    67.5900    12.8350    14.2290    13.3160     2.1120 
  101.1250   101.1210    -0.5250     0.2480   -33.9030    69.5010    13.0900    14.6850    12.7570     2.1050 
  101.2500   101.2460    -0.5270     0.2490   -33.2100    66.8470    13.7000    15.5330    14.5490     2.0880 
  101.3750   101.3710    -0.5290     0.2500   -32.5430    62.8630    14.3750    16.3860    16.5690     2.0820 
  101.5000   101.4960    -0.5300     0.2500   -31.9080    61.0880    14.9270    17.0160    17.4030     2.0980 
  101.6250   101.6200    -0.5320     0.2510   -31.2670    61.0160    15.3140    17.4340    18.4840     2.1290 
  101.7500   101.7450    -0.5340     0.2520   -30.5660    61.9100    15.6240    17.8050    21.0530     2.1530 
  101.8750   101.8700    -0.5350     0.2530   -29.8100    63.6430    16.0170    18.3280    22.7200     2.1540 
  102.0000   101.9950    -0.5370     0.2540   -29.0510    66.8040    16.5680    19.0660    21.1900     2.1360 
  102.1250   102.1200    -0.5390     0.2540   -28.3740    69.2840    17.1800    19.8710    18.8250     2.1140 
  102.2500   102.2450    -0.5400     0.2550   -27.8480    70.9310    17.7200    20.5680    17.8550     2.0990 
  102.3750   102.3700    -0.5420     0.2560   -27.4800    71.3820    18.1560    21.1230    17.8580     2.0900 
  102.5000   102.4950    -0.5430     0.2570   -27.2820    69.7540    18.5840    21.6640    18.3950     2.0820 
  102.6250   102.6200    -0.5450     0.2580   -27.2240    66.2830    19.1530    22.3680    19.3090     2.0770 
  102.7500   102.7450    -0.5470     0.2580   -27.2910    62.7120    19.9550    23.3220    20.5110     2.0770 
  102.8750   102.8700    -0.5480     0.2590   -27.4270    60.5610    20.9410    24.4300    21.8760     2.0810 
  103.0000   102.9950    -0.5500     0.2600   -27.5770    58.0690    22.0170    25.5400    23.2500     2.0870 
  103.1250   103.1200    -0.5520     0.2610   -27.6930    55.7780    23.0610    26.5300    24.3720     2.0910 
  103.2500   103.2450    -0.5530     0.2610   -27.7280    55.3010    23.9680    27.3470    24.8230     2.0910 
  103.3750   103.3700    -0.5550     0.2620   -27.6490    57.0310    24.6390    27.9530    24.5500     2.0850 
  103.5000   103.4950    -0.5570     0.2630   -27.4040    58.0940    24.8070    28.0650    23.9920     2.0750 
  103.6250   103.6200    -0.5580     0.2640   -26.9740    58.7620    24.1320    27.2420    23.7070     2.0670 
  103.7500   103.7450    -0.5600     0.2640   -26.3540    57.9510    22.2350    25.0080    23.5330     2.0720 
  103.8750   103.8700    -0.5620     0.2650   -25.5850    59.2590    19.3170    21.5980    22.4860     2.0980 
  104.0000   103.9950    -0.5630     0.2660   -24.6980    62.1860    15.8640    17.6040    19.3760     2.1390 
  104.1250   104.1200    -0.5650     0.2670   -23.7350    67.4980    12.5770    13.8520    14.7930     2.1780 
  104.2500   104.2450    -0.5670     0.2670   -22.7460    71.8840     9.9750    10.9310    11.3950     2.2000 
  104.3750   104.3700    -0.5680     0.2680   -21.8180    74.4270     8.1680     8.9400    10.3070     2.2100 
  104.5000   104.4950    -0.5700     0.2690   -21.0700    75.4260     7.2090     7.9160     9.3930     2.2160 
  104.6250   104.6200    -0.5720     0.2700   -20.5790    76.6150     6.9750     7.7070     7.8090     2.2200 
  104.7500   104.7450    -0.5740     0.2700   -20.4040    76.9840     7.4600     8.2970     6.9320     2.2110 
  104.8750   104.8700    -0.5750     0.2710   -20.5060    77.2690     8.5300     9.5430     7.4140     2.1840 
  105.0000   104.9950    -0.5770     0.2720   -20.8580    75.5120    10.0480    11.2810     9.0920     2.1420 
  105.1250   105.1200    -0.5790     0.2720   -21.3680    72.6590    11.6780    13.1120    10.6930     2.1030 
  105.2500   105.2450    -0.5800     0.2730   -21.9770    67.9860    13.0570    14.5970    11.5660     2.0780 
  105.3750   105.3700    -0.5820     0.2740   -22.6200    63.4830    13.9720    15.5110    12.3600     2.0650 
  105.5000   105.4950    -0.5840     0.2750   -23.2670    62.0470    14.3850    15.8560    13.1090     2.0580 
  105.6250   105.6200    -0.5850     0.2750   -23.8780    63.0120    14.4920    15.9120    13.6620     2.0520 
  105.7500   105.7450    -0.5870     0.2760   -24.4300    65.1290    14.4540    15.8980    14.1100     2.0470 
  105.8750   105.8700    -0.5890     0.2770   -24.9030    65.0470    14.3910    15.9480    14.4320     2.0440 
  106.0000   105.9950    -0.5900     0.2770   -25.2810    64.0740    14.3570    16.1030    14.5300     2.0450 
  106.1250   106.1200    -0.5920     0.2780   -25.5930    63.5450    14.3680    16.3480    14.6130     2.0450 
  106.2500   106.2450    -0.5940     0.2790   -25.8140    64.3880    14.4370    16.6640    14.8410     2.0440 
  106.3750   106.3700    -0.5950     0.2790   -25.9800    65.2190    14.5600    17.0280    15.0190     2.0390 
  106.5000   106.4950    -0.5970     0.2800   -26.1080    65.9570    14.7370    17.4180    15.0370     2.0340 
  106.6250   106.6200    -0.5990     0.2810   -26.2020    66.5600    14.9420    17.7920    15.0750     2.0320 
  106.7500   106.7450    -0.6000     0.2810   -26.2610    66.6240    15.1420    18.0950    15.2870     2.0390 
  106.8750   106.8700    -0.6020     0.2820   -26.2860    63.4300    15.3280    18.3270    15.6530     2.0530 
  107.0000   106.9950    -0.6040     0.2830   -26.2900    60.4220    15.5800    18.6120    16.1120     2.0730 
  107.1250   107.1200    -0.6050     0.2830   -26.3130    57.4660    16.1290    19.2680    16.6440     2.1050 
  107.2500   107.2450    -0.6070     0.2840   -26.3460    57.0770    17.4250    20.9100    17.1880     2.1690 
  107.3750   107.3700    -0.6090     0.2850   -26.3570    56.4890    19.7550    23.9650    18.5590     2.2700 
  107.5000   107.4950    -0.6100     0.2850   -26.3020    55.8590    22.9970    28.3100    26.4500     2.3900 
  107.6250   107.6200    -0.6120     0.2860   -26.1460    55.0460    25.9340    32.2670    48.0540     2.4910 
  107.7500   107.7450    -0.6140     0.2870   -25.9370    54.8140    26.7030    33.2660    79.1180     2.5400 
  107.8750   107.8700    -0.6150     0.2870   -25.7180    56.5140    24.5330    30.2860    93.5070     2.5330 
  108.0000   107.9950    -0.6170     0.2880   -25.5180    59.7020    19.9060    24.0760    71.3580     2.4790 
  108.1250   108.1200    -0.6190     0.2890   -25.3330    65.5890    14.7560    17.3300    34.9520     2.4040 
  108.2500   108.2450    -0.6200     0.2890   -25.1300    74.8600    10.7780    12.3260    13.3140     2.3280 
  108.3750   108.3700    -0.6220     0.2900   -24.9340    84.1920     8.4240     9.5350     7.4290     2.2700 
  108.5000   108.4950    -0.6240     0.2910   -24.7610    89.7650     7.4410     8.4860     7.2360     2.2370 
