~V
VERS. 2.00: Ver 2.00
~W
STRT.M 54.0000:
STOP.M 205.0000:
STEP.M 0.1250:
NULL. -999.2500:
UWI. F10812:
~C
DEPT.M :
SP.MV :
GR.API :
RI. :
RML.OHMM :
RXO.OHMM :
DEN.GM/CC :
~A
# ...
  131.2500   -13.9180    63.9810    13.5350    17.2620    15.6540     2.1880 
  131.3750   -14.2280    62.2480    13.0780    16.6380    15.1300     2.1710 
  131.5000   -14.5450    61.2110    12.2550    15.5700    14.1100     2.1600 
  131.6250   -14.8230    61.3370    11.4200    14.5130    12.8980     2.1570 
  131.7500   -15.0150    62.9220    10.7510    13.7020    11.9340     2.1590 
  131.8750   -15.0870    64.2620    10.2670    13.1630    11.0810     2.1690 
  132.0000   -15.0490    66.3220    10.0140    12.9100    10.5830     2.1850 
  132.1250   -14.9130    67.3690    10.0130    12.9480    10.7960     2.2020 
  132.2500   -14.7200    68.2110    10.1750    13.1580    11.3400     2.2080 
  132.3750   -14.4950    67.9930    10.4260    13.4500    11.2740     2.1990 
  132.5000   -14.2460    67.2570    10.7000    13.7220    11.1030     2.1810 
  132.6250   -13.9650    65.8040    10.8810    13.8450    11.4940     2.1670 
  132.7500   -13.6780    65.1750    10.9050    13.7860    11.7730     2.1640 
  132.8750   -13.3880    66.0530    10.7660    13.5590    12.0560     2.1730 
  133.0000   -13.0950    67.8420    10.5570    13.2590    12.2920     2.1830 
  133.1250   -12.8280    68.9570    10.3820    13.0180    11.8280     2.1820 
  133.2500   -12.5810    68.8140    10.3020    12.9160    11.5170     2.1690 
  133.3750   -12.3640    67.3890    10.3540    13.0010    11.7480     2.1540 
  133.5000   -12.2240    67.6870    10.5500    13.2570    12.0880     2.1450 
  133.6250   -12.1740    69.2460    10.8320    13.6160    12.4360     2.1440 
  133.7500   -12.1880    72.5290    11.1280    13.9920    12.4680     2.1410 
  133.8750   -12.2460    74.0070    11.4050    14.3200    12.6490     2.1350 
  134.0000   -12.2890    72.6130    11.6010    14.5460    13.1780     2.1290 
  134.1250   -12.2890    69.1270    11.7420    14.6770    13.2990     2.1290 
  134.2500   -12.2740    66.8150    11.8770    14.7670    13.1040     2.1320 
  134.3750   -12.2810    67.8140    12.0020    14.8260    13.1430     2.1370 
  134.5000   -12.3300    68.8730    12.1080    14.9070    13.7550     2.1440 
  134.6250   -12.4070    68.6750    12.3900    15.2290    14.6580     2.1510 
  134.7500   -12.4720    67.8340    13.0220    15.9640    14.6500     2.1550 
  134.8750   -12.4990    66.6660    13.9950    17.0690    15.7470     2.1550 
  135.0000   -12.4830    66.2850    15.0160    18.2070    20.4740     2.1530 
  135.1250   -12.4370    66.4130    15.7810    18.8990    23.7930     2.1510 
  135.2500   -12.3780    68.6890    15.7990    18.6770    21.1760     2.1490 
  135.3750   -12.2940    70.8440    14.9570    17.4230    16.2010     2.1480 
  135.5000   -12.1740    72.5610    13.5160    15.5620    13.0850     2.1520 
  135.6250   -12.0210    72.7820    11.8830    13.6410    11.3240     2.1570 
  135.7500   -11.8700    72.8060    10.6630    12.2430     9.4100     2.1670 
  135.8750   -11.7570    72.0660    10.0460    11.5770     8.4730     2.1740 
  136.0000   -11.6860    72.0910     9.8640    11.4000     9.2180     2.1810 
  136.1250   -11.6720    72.5170     9.8970    11.4480     9.9360     2.1810 
  136.2500   -11.7040    73.7080     9.9610    11.4730     9.6950     2.1820 
  136.3750   -11.7890    72.3560     9.9000    11.3480     9.2120     2.1820 
  136.5000   -11.9530    69.8230     9.8200    11.2580     8.9200     2.1830 
  136.6250   -12.1990    68.9030    10.1740    11.7430     8.6960     2.1800 
  136.7500   -12.5020    70.7440    11.3050    13.2240     8.8750     2.1760 
  136.8750   -12.8510    71.8550    13.5060    15.9550    11.3580     2.1680 
  137.0000   -13.2030    70.3480    16.3510    19.4120    20.1580     2.1560 
  137.1250   -13.5300    65.9920    19.0350    22.4460    28.0420     2.1430 
  137.2500   -13.7930    62.1430    20.4320    23.7660    24.3310     2.1470 
  137.3750   -13.9280    59.3100    19.6240    22.6690    18.9250     2.1740 
  137.5000   -13.9200    58.4100    17.5770    20.1580    18.2590     2.2170 
  137.6250   -13.7800    58.7580    15.3930    17.7280    16.5290     2.2400 
  137.7500   -13.5790    60.2380    14.3350    16.5980    15.0990     2.2350 
  137.8750   -13.3900    62.2510    14.6010    16.9310    17.2920     2.2110 
  138.0000   -13.2620    63.3150    15.4900    18.0840    24.0800     2.1870 
  138.1250   -13.2040    62.1420    16.8730    19.8270    30.9180     2.1640 
  138.2500   -13.1880    61.0540    18.6790    21.8780    30.0090     2.1440 
  138.3750   -13.2000    62.1320    20.3110    23.7010    21.4030     2.1320 
  138.5000   -13.2220    64.2890    21.4540    24.9520    14.8880     2.1290 
  138.6250   -13.2290    65.3180    22.0220    25.4450    16.1630     2.1300 
  138.7500   -13.2320    65.5210    21.8930    25.2290    17.9480     2.1300 
  138.8750   -13.2490    66.5660    21.2420    24.3980    17.2650     2.1310 
  139.0000   -13.3030    69.3490    20.0570    22.9630    16.8660     2.1340 
  139.1250   -13.4450    70.9360    18.3460    21.0470    15.0330     2.1400 
  139.2500   -13.6800    70.3660    16.6710    19.1980    12.1690     2.1470 
  139.3750   -13.9620    67.0840    15.4650    17.9020    10.4350     2.1540 
  139.5000   -14.2340    65.1760    14.9090    17.3990     9.4890     2.1600 
  139.6250   -14.4260    65.4690    15.1870    17.8780     8.6300     2.1660 
  139.7500   -14.5030    66.4800    16.2190    19.1650     8.4120     2.1710 
  139.8750   -14.4380    66.8410    17.7420    21.0600    10.1830     2.1730 
  140.0000   -14.2540    66.0050    19.7060    23.3490    13.7100     2.1710 
  140.1250   -13.9840    64.7460    21.7550    25.6950    16.3380     2.1680 
  140.2500   -13.6700    63.4260    23.5320    27.7200    18.4250     2.1660 
  140.3750   -13.3910    62.5380    24.7300    29.0000    23.2800     2.1650 
  140.5000   -13.2100    63.0500    25.0750    29.3000    28.1700     2.1620 
  140.6250   -13.1360    63.1160    24.5130    28.5800    28.3950     2.1570 
  140.7500   -13.1380    63.5450    23.3120    27.1170    25.0850     2.1480 
  140.8750   -13.1810    63.7860    21.6010    25.1530    21.1800     2.1480 
  141.0000   -13.2180    64.9810    19.8050    23.0900    19.3080     2.1590 
  141.1250   -13.2480    64.9470    18.2070    21.2420    19.8520     2.1880 
  141.2500   -13.3090    64.2040    17.0260    19.8640    19.6760     2.2270 
  141.3750   -13.4010    65.7200    16.5300    19.2390    17.0120     2.2740 
  141.5000   -13.4970    68.3720    16.6620    19.3710    14.0950     2.3140 
  141.6250   -13.5700    71.5750    17.5050    20.2550    14.9430     2.3220 
  141.7500   -13.5810    71.5160    18.7430    21.5350    20.9310     2.2880 
  141.8750   -13.5020    70.5330    20.0870    22.7980    27.2480     2.2380 
  142.0000   -13.3630    68.3120    21.1420    23.6060    28.2460     2.2100 
  142.1250   -13.2290    67.1160    21.3670    23.5520    24.9860     2.2080 
  142.2500   -13.1650    67.3240    20.9400    22.7620    23.1570     2.2040 
  142.3750   -13.2300    68.5610    19.8620    21.3610    23.1930     2.1850 
  142.5000   -13.4380    72.0020    18.4720    19.7080    21.0670     2.1670 
  142.6250   -13.7560    75.9310    17.1000    18.0960    18.3650     2.1710 
  142.7500   -14.1190    81.2270    15.8000    16.6570    17.1870     2.1910 
  142.8750   -14.4800    84.9980    14.8610    15.6680    16.8380     2.2160 
  143.0000   -14.8210    86.9810    14.4070    15.1690    17.5640     2.2360 
  143.1250   -15.1370    87.3310    14.2340    14.9490    17.5400     2.2480 
  143.2500   -15.4190    86.7300    14.0660    14.7090    15.7660     2.2530 
  143.3750   -15.6680    85.7120    13.7330    14.3020    14.7330     2.2570 
  143.5000   -15.8810    84.0500    13.3170    13.8570    14.8060     2.2630 
  143.6250   -16.0640    83.0720    13.1950    13.8100    14.0480     2.2740 
  143.7500   -16.2610    82.7030    13.7910    14.6020    13.3900     2.2790 
  143.8750   -16.5110    83.2850    15.2150    16.4400    14.4200     2.2720 
  144.0000   -16.8490    82.7790    17.7410    19.3210    16.7540     2.2500 
