~V
VERS. 2.00: Ver 2.00
~W
STRT.M 40.0000:
STOP.M 215.0000:
STEP.M 0.1250:
NULL. -999.2500:
UWI. F10811:
~C
DEPT.M :
SP.MV :
GR.API :
RI. :
RML.OHMM :
RXO.OHMM :
DEN.GM/CC :
~A
# ...
   91.5000   -17.5400    72.0440     5.4050     5.9510     7.5930     2.0910 
   91.6250   -17.7770    68.8700     5.3920     5.9380     7.3540     2.0880 
   91.7500   -18.0150    67.6260     5.4420     5.9890     7.2900     2.0860 
   91.8750   -18.2960    67.9150     5.5420     6.0950     7.7170     2.0840 
   92.0000   -18.6110    68.0550     5.6700     6.2330     8.2470     2.0900 
   92.1250   -18.8890    66.3470     5.8110     6.3760     8.6120     2.0990 
   92.2500   -19.0910    64.6120     5.9020     6.4780     8.8100     2.1050 
   92.3750   -19.2540    63.8350     5.9500     6.5320     8.6930     2.0990 
   92.5000   -19.4630    63.2690     5.9680     6.5550     8.4520     2.0850 
   92.6250   -19.7820    64.1720     5.9740     6.5680     8.4850     2.0720 
   92.7500   -20.1970    64.6100     5.9950     6.5930     8.6820     2.0600 
   92.8750   -20.6560    65.8550     6.0460     6.6500     8.8720     2.0500 
   93.0000   -21.1130    67.4570     6.1310     6.7460     9.0630     2.0440 
   93.1250   -21.5670    69.1830     6.2650     6.8880     9.1520     2.0500 
   93.2500   -22.0190    69.3210     6.4180     7.0480     9.1530     2.0610 
   93.3750   -22.4340    66.8130     6.5420     7.1810     9.3350     2.0690 
   93.5000   -22.7600    64.1800     6.6240     7.2630     9.7650     2.0680 
   93.6250   -22.9210    62.3600     6.6130     7.2340     9.9280     2.0600 
   93.7500   -22.8670    62.2400     6.4290     7.0480     9.7630     2.0510 
   93.8750   -22.5640    60.9770     6.1410     6.7470     9.7270     2.0540 
   94.0000   -22.1170    61.6670     5.8430     6.4370     9.3470     2.0700 
   94.1250   -21.6990    63.6470     5.6360     6.2280     8.1460     2.0890 
   94.2500   -21.4880    67.7880     5.6060     6.1950     7.5880     2.0970 
   94.3750   -21.5850    70.0700     5.7630     6.3470     8.5060     2.0870 
   94.5000   -21.8630    70.1730     5.9990     6.5940     9.3110     2.0680 
   94.6250   -22.1460    67.7660     6.2430     6.8470     9.3560     2.0500 
   94.7500   -22.3390    65.4190     6.4110     7.0190     9.3580     2.0380 
   94.8750   -22.4100    63.9200     6.4350     7.0580     9.4780     2.0350 
   95.0000   -22.3580    62.4380     6.3900     7.0200     9.5560     2.0390 
   95.1250   -22.1780    61.4580     6.3330     6.9600     9.5640     2.0450 
   95.2500   -21.9150    61.3190     6.2790     6.9080     9.5060     2.0510 
   95.3750   -21.6220    61.9210     6.2650     6.8900     9.4530     2.0540 
   95.5000   -21.3500    61.2890     6.2770     6.9030     9.4990     2.0560 
   95.6250   -21.1330    61.4500     6.3170     6.9420     9.5940     2.0600 
   95.7500   -20.9680    64.0860     6.3580     6.9840     9.6700     2.0650 
   95.8750   -20.7980    67.6290     6.3850     7.0150     9.7910     2.0640 
   96.0000   -20.5860    69.1760     6.4050     7.0350     9.9160     2.0590 
   96.1250   -20.3520    68.4350     6.4060     7.0400     9.8200     2.0550 
   96.2500   -20.1190    67.8180     6.4090     7.0480     9.5540     2.0540 
   96.3750   -19.8850    67.6020     6.4340     7.0640     9.3960     2.0570 
   96.5000   -19.6470    68.8400     6.4280     7.0540     9.3860     2.0650 
   96.6250   -19.4380    70.6540     6.3690     7.0020     9.3850     2.0740 
   96.7500   -19.2990    71.9080     6.3110     6.9330     9.3110     2.0760 
   96.8750   -19.2640    70.1830     6.2330     6.8300     9.0920     2.0710 
   97.0000   -19.3290    67.0320     6.0750     6.6790     8.8890     2.0660 
   97.1250   -19.4860    65.2990     5.9200     6.5240     8.9300     2.0650 
   97.2500   -19.6600    65.8630     5.8410     6.4150     9.0800     2.0650 
   97.3750   -19.7480    67.1820     5.7950     6.3770     9.1900     2.0650 
   97.5000   -19.7500    67.4080     5.8200     6.4020     9.2000     2.0640 
   97.6250   -19.7580    66.0900     5.8460     6.4190     9.1880     2.0640 
   97.7500   -19.8700    64.9310     5.8240     6.4090     9.3250     2.0690 
   97.8750   -20.1150    64.9370     5.8570     6.4560     9.5800     2.0770 
   98.0000   -20.4000    66.8570     5.9940     6.5890     9.7070     2.0820 
   98.1250   -20.6090    68.8810     6.1310     6.7240     9.5840     2.0780 
   98.2500   -20.6860    69.3520     6.2010     6.7950     9.4880     2.0700 
   98.3750   -20.6580    67.7680     6.1680     6.7710     9.6600     2.0660 
   98.5000   -20.6000    66.6340     6.0920     6.7050     9.8390     2.0680 
   98.6250   -20.5300    66.2750     6.0820     6.6930     9.7850     2.0760 
   98.7500   -20.4310    66.2450     6.1340     6.7370     9.7780     2.0790 
   98.8750   -20.2980    65.3600     6.1770     6.7840    10.0210     2.0780 
   99.0000   -20.1530    63.7070     6.2020     6.8100    10.3280     2.0770 
   99.1250   -20.0260    62.0940     6.1980     6.7970    10.3270     2.0790 
   99.2500   -19.9340    61.4510     6.1180     6.7170     9.8290     2.0780 
   99.3750   -19.8920    62.5340     5.9980     6.5740     9.0200     2.0730 
   99.5000   -19.9210    65.0680     5.7990     6.3820     8.4660     2.0690 
   99.6250   -20.0750    67.4070     5.6500     6.2490     8.5450     2.0670 
   99.7500   -20.3350    69.1730     5.7080     6.2920     8.9310     2.0680 
   99.8750   -20.5900    70.4870     5.9030     6.5030     9.2070     2.0700 
  100.0000   -20.7240    72.0190     6.1860     6.7850     9.2990     2.0740 
  100.1250   -20.7090    72.6610     6.3840     6.9770     9.5680     2.0790 
  100.2500   -20.5970    71.9870     6.3860     6.9880     9.9140     2.0860 
  100.3750   -20.4140    70.9570     6.2390     6.8520     9.7590     2.0930 
  100.5000   -20.1950    71.0870     6.0740     6.6830     8.8990     2.0970 
  100.6250   -19.9680    71.2830     5.9520     6.5580     7.9110     2.0940 
  100.7500   -19.7530    71.9310     5.9230     6.5210     7.9360     2.0870 
  100.8750   -19.5820    71.8060     5.9670     6.5500     8.8210     2.0770 
  101.0000   -19.4630    72.0750     5.9810     6.5660     9.3670     2.0700 
  101.1250   -19.3290    70.0550     5.9540     6.5290     9.1880     2.0690 
  101.2500   -19.1190    67.6540     5.8540     6.4240     8.6310     2.0730 
  101.3750   -18.8400    66.4840     5.7080     6.2810     8.0880     2.0770 
  101.5000   -18.5150    67.1170     5.6040     6.1760     7.9950     2.0770 
  101.6250   -18.0790    67.8490     5.5980     6.1820     8.2470     2.0750 
  101.7500   -17.4300    68.0320     5.7420     6.3750     8.3390     2.0740 
  101.8750   -16.4440    67.7830     6.2280     6.8780     8.6470     2.0820 
  102.0000   -15.1280    67.8770     6.8920     7.5080     9.9630     2.1160 
  102.1250   -13.5130    68.0040     7.1870     7.8020    14.9740     2.1980 
  102.2500   -11.7140    68.4650     6.9530     7.5520    24.0230     2.2950 
  102.3750    -9.9060    70.5120     6.2270     6.8280    25.4960     2.3510 
  102.5000    -8.3450    76.3650     5.4250     6.0540    14.8820     2.3440 
  102.6250    -7.2610    84.5900     5.0850     5.6440     6.2110     2.3200 
  102.7500    -6.6210    91.9110     5.0420     5.5530     6.1630     2.3400 
  102.8750    -6.3080    94.2010     5.0980     5.6260    10.2960     2.3990 
  103.0000    -6.1520    94.3120     5.2910     5.8230    12.3860     2.4290 
  103.1250    -6.0530    93.1030     5.5380     6.0210     9.1360     2.3830 
  103.2500    -5.9650    93.6880     5.4320     5.9410     5.2850     2.2990 
  103.3750    -5.9430    94.5920     5.1200     5.6000     4.0550     2.2350 
  103.5000    -6.0370    95.8730     4.6790     5.1730     3.9200     2.2080 
  103.6250    -6.2170    96.8120     4.4120     4.9230     4.0450     2.2010 
  103.7500    -6.3800    98.5370     4.5240     4.9400     4.1250     2.1950 
  103.8750    -6.4530   100.2780     4.5110     4.9290     4.1440     2.1900 
  104.0000    -6.4270   100.8640     4.3510     4.7520     4.4000     2.1890 
  104.1250    -6.3190   100.3840     4.0390     4.4550     4.6370     2.1960 
  104.2500    -6.2090   100.9730     3.8350     4.2390     4.5400     2.2130 
