~V
VERS. 2.00: Ver 2.00
~W
STRT.M 1.0000:
STOP.M 205.0000:
STEP.M 0.1250:
NULL. -999.2500:
UWI. F10806:
~C
DEPT.M :
SP.MV :
GR.API :
RI. :
RML.OHMM :
RXO.OHMM :
DEN.GM/CC :
~A
# ...
  142.6250    -8.9610    80.7570     5.3820     5.9710     6.9900     2.2140 
  142.7500    -8.9610    80.0310     5.8250     6.4540     6.7610     2.1950 
  142.8750    -8.9210    78.2090     6.2580     6.8680     6.9990     2.1860 
  143.0000    -8.8230    75.2310     6.4830     7.0530     7.0700     2.1870 
  143.1250    -8.7320    74.8540     6.5130     7.0230     7.1190     2.1920 
  143.2500    -8.7080    74.7730     6.3760     6.8130     7.0940     2.1910 
  143.3750    -8.7210    74.7540     6.1080     6.4980     6.5160     2.1880 
  143.5000    -8.7650    73.5970     5.8050     6.1650     5.9110     2.1890 
  143.6250    -8.8590    74.1530     5.5630     5.9180     5.5550     2.1960 
  143.7500    -9.0100    76.2610     5.4350     5.7910     5.4510     2.1990 
  143.8750    -9.1660    79.5380     5.3680     5.7470     5.8620     2.1970 
  144.0000    -9.2730    80.3220     5.3670     5.7790     6.3480     2.1970 
  144.1250    -9.3380    79.7600     5.4330     5.8860     6.4380     2.2050 
  144.2500    -9.3570    78.6410     5.6090     6.0960     6.2560     2.2140 
  144.3750    -9.2710    78.1890     5.8550     6.3790     6.5230     2.2190 
  144.5000    -9.0800    78.8750     6.1530     6.7180     7.7310     2.2140 
  144.6250    -8.8560    79.0120     6.4800     7.0750     8.6650     2.2020 
  144.7500    -8.6350    78.1420     6.7950     7.4360     8.2620     2.1890 
  144.8750    -8.4650    75.1760     7.1300     7.8070     7.5590     2.1780 
  145.0000    -8.4040    72.7760     7.4070     8.1020     7.9590     2.1660 
  145.1250    -8.4670    72.5180     7.5100     8.2490     9.3830     2.1560 
  145.2500    -8.6060    73.6760     7.4960     8.2590    10.1430     2.1520 
  145.3750    -8.7940    74.3030     7.4270     8.1190     9.0250     2.1590 
  145.5000    -9.0480    75.8410     7.3270     7.9170     7.6620     2.1740 
  145.6250    -9.3450    77.0180     7.3280     7.9220     7.9780     2.1870 
  145.7500    -9.6470    77.9510     7.5670     8.2430     9.1540     2.1930 
  145.8750    -9.9170    77.5770     8.1970     8.9980    10.1130     2.1900 
  146.0000   -10.1180    76.6500     9.3080    10.2960    10.7180     2.1830 
  146.1250   -10.2790    76.0080    10.8910    12.1030    11.8900     2.1730 
  146.2500   -10.4680    73.5190    12.9090    14.3770    16.7290     2.1590 
  146.3750   -10.7010    70.6740    15.2180    16.8630    23.0930     2.1490 
  146.5000   -10.9550    66.8280    17.3020    18.9710    25.1200     2.1490 
  146.6250   -11.1580    65.4220    18.4750    20.1120    23.3870     2.1560 
  146.7500   -11.2790    66.5050    18.5790    20.0670    20.1000     2.1580 
  146.8750   -11.3340    68.5350    17.8290    19.2390    17.3220     2.1500 
  147.0000   -11.3660    68.0640    16.8850    18.3020    17.5580     2.1420 
  147.1250   -11.4430    65.3920    16.4130    17.8780    19.2030     2.1400 
  147.2500   -11.5740    62.6460    16.6540    18.2700    19.3230     2.1470 
  147.3750   -11.7030    62.7850    17.5950    19.4110    19.3300     2.1500 
  147.5000   -11.8200    63.5560    19.1380    21.1910    22.8470     2.1430 
  147.6250   -11.9950    63.2820    21.0600    23.3720    27.2430     2.1270 
  147.7500   -12.2490    61.8680    23.1570    25.6100    28.5330     2.1140 
  147.8750   -12.5560    61.1990    24.8200    27.3880    28.6280     2.1110 
  148.0000   -12.8710    61.2820    25.7990    28.2920    29.6080     2.1250 
  148.1250   -13.1040    61.4170    25.7650    28.1250    29.5560     2.1420 
  148.2500   -13.1450    61.7530    24.7110    26.9890    27.5310     2.1550 
  148.3750   -13.0100    62.2490    23.3540    25.4430    25.4550     2.1520 
  148.5000   -12.7880    62.8730    21.8330    23.7190    22.9600     2.1410 
  148.6250   -12.5500    62.4730    20.5190    22.4010    21.0930     2.1290 
  148.7500   -12.3230    61.9550    19.6570    21.5800    21.0740     2.1270 
  148.8750   -12.1350    61.1610    19.2290    21.0580    20.7590     2.1350 
  149.0000   -12.0050    62.1840    19.1500    20.8170    19.5710     2.1470 
  149.1250   -11.9210    63.3820    19.2040    20.6730    19.1850     2.1580 
  149.2500   -11.8880    63.8720    19.1430    20.5300    19.9620     2.1610 
  149.3750   -11.8700    63.0080    18.9240    20.3300    19.6980     2.1600 
  149.5000   -11.8220    62.9390    18.7070    20.0710    18.6790     2.1560 
  149.6250   -11.7400    64.4180    18.5940    19.8490    19.0900     2.1570 
  149.7500   -11.7160    66.6590    18.5640    19.7150    19.9940     2.1560 
  149.8750   -11.7790    67.1860    18.5870    19.6450    19.4630     2.1550 
  150.0000   -11.8140    66.2560    18.4410    19.2770    17.3090     2.1560 
  150.1250   -11.7690    65.0240    17.6430    18.2300    15.4420     2.1600 
  150.2500   -11.6830    66.3340    15.9700    16.4120    14.3230     2.1770 
  150.3750   -11.5950    70.5130    13.7590    14.1430    12.3640     2.2070 
  150.5000   -11.5010    77.2740    11.3900    11.8480     9.8060     2.2490 
  150.6250   -11.4170    84.7100     9.4830     9.9250     7.7550     2.2940 
  150.7500   -11.3560    89.9560     8.1890     8.5930     6.9200     2.3320 
  150.8750   -11.3230    92.6190     7.3570     7.8510     6.9420     2.3510 
  151.0000   -11.3540    92.7620     7.2020     7.8530     6.9840     2.3460 
  151.1250   -11.5030    91.3830     7.8290     8.7070     7.1170     2.3270 
  151.2500   -11.8370    87.8710     9.3930    10.8020     8.7990     2.3000 
  151.3750   -12.3560    82.7390    12.3290    14.5610    16.7830     2.2640 
  151.5000   -13.0780    76.5280    17.7290    20.5890    34.2650     2.2260 
  151.6250   -13.9560    70.7880    25.5170    28.2750    49.2270     2.1950 
  151.7500   -14.9180    66.5670    34.1930    36.0800    50.8410     2.1820 
  151.8750   -15.8390    64.7950    41.0210    42.2700    48.2650     2.1750 
  152.0000   -16.6470    65.1450    44.9500    45.9510    51.8960     2.1740 
  152.1250   -17.3820    66.0920    46.4220    48.2670    57.0200     2.1780 
  152.2500   -18.0700    65.9290    48.0090    50.7940    56.6200     2.1870 
  152.3750   -18.6670    66.2740    50.7200    54.4220    57.1730     2.1970 
  152.5000   -19.1820    65.6260    54.9180    59.3170    64.5360     2.1990 
  152.6250   -19.6880    64.3220    59.8280    64.7430    73.2050     2.1950 
  152.7500   -20.1800    61.8170    64.5160    69.4990    79.1600     2.1810 
  152.8750   -20.6170    59.3820    67.6970    72.3860    80.1670     2.1710 
  153.0000   -20.9560    58.2390    67.8490    72.4860    72.0370     2.1760 
  153.1250   -21.1800    58.1680    65.7700    70.3650    64.0410     2.1980 
  153.2500   -21.2660    58.9840    62.5030    67.1530    60.2820     2.2190 
  153.3750   -21.2890    59.7370    59.7400    64.2850    55.1590     2.2200 
  153.5000   -21.3380    59.9550    58.3700    62.7630    55.7170     2.2060 
  153.6250   -21.4560    60.1730    58.6230    62.8150    60.8400     2.1870 
  153.7500   -21.6250    60.5820    60.5710    64.4160    60.6490     2.1780 
  153.8750   -21.7570    60.3610    63.4870    67.1500    61.0330     2.1720 
  154.0000   -21.7740    59.4580    66.7380    70.4180    70.0370     2.1640 
  154.1250   -21.6790    57.4100    68.9170    72.5770    77.3640     2.1570 
  154.2500   -21.5310    56.2760    68.8240    71.7790    76.1010     2.1520 
  154.3750   -21.3710    55.7770    65.4760    67.8130    68.6960     2.1590 
  154.5000   -21.1800    58.1600    58.8740    61.1630    57.7010     2.1640 
  154.6250   -21.0010    61.7510    51.0700    53.5190    47.6560     2.1710 
  154.7500   -20.9270    65.3630    44.0210    46.6730    38.5550     2.1810 
  154.8750   -20.9320    66.8980    39.2730    41.7400    33.1310     2.2000 
  155.0000   -20.9270    68.0690    36.8160    39.1320    33.7130     2.2130 
  155.1250   -20.8890    68.2210    36.1160    38.3840    35.6230     2.2130 
  155.2500   -20.8220    68.4880    37.0150    39.2560    36.1760     2.1990 
  155.3750   -20.7250    68.4490    39.0670    41.2830    36.1810     2.1810 
