~V
VERS. 2.00: Ver 2.00
~W
STRT.M 63.0000:
STOP.M 236.0000:
STEP.M 0.1250:
NULL. -999.2500:
UWI. F10859:
~C
DEPT.M :
TVD. :
DX. :
DY. :
SP.MV :
GR.API :
RI. :
RML.OHMM :
RXO.OHMM :
DEN.GM/CC :
~A
# ...
  172.5000   172.4890    -1.4680     0.4420   -25.8850    58.7670    15.0020    16.2120    21.6570     2.2050 
  172.6250   172.6140    -1.4700     0.4420   -26.0150    58.8890    16.1080    17.5050    22.6680     2.2030 
  172.7500   172.7390    -1.4710     0.4420   -26.1970    58.2580    16.9010    18.4180    23.3400     2.2090 
  172.8750   172.8640    -1.4730     0.4430   -26.3840    56.0590    17.2220    18.7840    23.7900     2.2310 
  173.0000   172.9890    -1.4740     0.4430   -26.5240    55.1280    17.0070    18.5590    24.0360     2.2780 
  173.1250   173.1140    -1.4760     0.4430   -26.5980    54.9650    16.4170    17.9440    23.6180     2.3340 
  173.2500   173.2390    -1.4770     0.4440   -26.6080    55.2160    15.5930    17.1080    21.8280     2.3700 
  173.3750   173.3640    -1.4790     0.4440   -26.5760    54.3650    14.6780    16.2170    19.0880     2.3740 
  173.5000   173.4890    -1.4810     0.4440   -26.5160    53.0180    13.7530    15.3590    16.7020     2.3610 
  173.6250   173.6140    -1.4820     0.4440   -26.4340    52.5830    12.8400    14.5200    15.3760     2.3490 
  173.7500   173.7390    -1.4840     0.4450   -26.3380    54.6930    11.8740    13.5670    14.8030     2.3410 
  173.8750   173.8640    -1.4850     0.4450   -26.2440    58.1420    10.7620    12.3550    14.1590     2.3320 
  174.0000   173.9890    -1.4870     0.4450   -26.1750    59.5800     9.4770    10.8540    13.0550     2.3240 
  174.1250   174.1140    -1.4880     0.4450   -26.1400    59.7860     8.1740     9.2900    11.5990     2.3260 
  174.2500   174.2390    -1.4900     0.4460   -26.1320    61.5580     7.0880     7.9920     9.6650     2.3390 
  174.3750   174.3640    -1.4910     0.4460   -26.1350    65.7630     6.3650     7.1550     8.0460     2.3520 
  174.5000   174.4890    -1.4930     0.4460   -26.1310    69.5410     6.0570     6.8410     7.9880     2.3550 
  174.6250   174.6140    -1.4950     0.4470   -26.1120    70.3790     6.0460     6.8730     8.7170     2.3470 
  174.7500   174.7390    -1.4960     0.4470   -26.0700    68.0790     6.2100     7.0710     8.9800     2.3330 
  174.8750   174.8640    -1.4980     0.4470   -26.0070    64.8260     6.4100     7.2530     8.7680     2.3180 
  175.0000   174.9890    -1.4990     0.4470   -25.9330    63.2630     6.5680     7.3430     8.4540     2.3020 
  175.1250   175.1140    -1.5010     0.4480   -25.8620    63.6370     6.6890     7.3840     8.2810     2.2860 
  175.2500   175.2390    -1.5020     0.4480   -25.8060    64.5000     6.8220     7.4670     8.6760     2.2730 
  175.3750   175.3640    -1.5040     0.4480   -25.7700    64.3360     6.9890     7.6250     9.6610     2.2640 
  175.5000   175.4890    -1.5060     0.4490   -25.7710    63.9050     7.1520     7.8010    10.4020     2.2590 
  175.6250   175.6140    -1.5070     0.4490   -25.8230    64.8550     7.2250     7.8820    10.3810     2.2570 
  175.7500   175.7390    -1.5090     0.4490   -25.9350    66.0500     7.1080     7.7520    10.0890     2.2590 
  175.8750   175.8640    -1.5100     0.4490   -26.0990    66.8240     6.7860     7.3950     9.9470     2.2630 
  176.0000   175.9890    -1.5120     0.4500   -26.2960    67.1340     6.3010     6.8670     9.4760     2.2690 
  176.1250   176.1140    -1.5140     0.4500   -26.5030    67.5140     5.7730     6.3010     8.2580     2.2720 
  176.2500   176.2390    -1.5150     0.4500   -26.7010    67.9830     5.3180     5.8200     6.8710     2.2730 
  176.3750   176.3640    -1.5170     0.4500   -26.8780    69.4540     5.0120     5.5080     6.2640     2.2710 
  176.5000   176.4890    -1.5190     0.4510   -27.0230    71.3340     4.9290     5.4550     6.5340     2.2670 
  176.6250   176.6140    -1.5200     0.4510   -27.1270    72.2240     5.0890     5.6920     7.0200     2.2600 
  176.7500   176.7390    -1.5220     0.4510   -27.1730    70.8670     5.5140     6.2430     7.6130     2.2520 
  176.8750   176.8640    -1.5240     0.4520   -27.1560    68.2890     6.1400     7.0270     8.7300     2.2440 
  177.0000   176.9890    -1.5250     0.4520   -27.0660    65.2190     6.9030     7.9540    10.4180     2.2380 
  177.1250   177.1140    -1.5270     0.4520   -26.9180    62.4820     7.6950     8.8830    12.0000     2.2330 
  177.2500   177.2390    -1.5290     0.4520   -26.7260    61.0020     8.3970     9.6600    12.6970     2.2280 
  177.3750   177.3640    -1.5300     0.4530   -26.5210    61.2420     8.9220    10.1940    12.6300     2.2230 
  177.5000   177.4890    -1.5320     0.4530   -26.3300    60.7890     9.2120    10.4420    12.6310     2.2260 
  177.6250   177.6140    -1.5340     0.4530   -26.1760    59.9740     9.3060    10.4790    13.1050     2.2400 
  177.7500   177.7380    -1.5350     0.4540   -26.0710    58.6740     9.2380    10.3620    13.6100     2.2600 
  177.8750   177.8630    -1.5370     0.4540   -26.0030    59.1030     9.0500    10.1350    13.2560     2.2730 
  178.0000   177.9880    -1.5390     0.4540   -25.9610    59.9400     8.7580     9.8070    11.8480     2.2690 
  178.1250   178.1130    -1.5400     0.4540   -25.9320    62.8030     8.4140     9.4390    10.6290     2.2550 
  178.2500   178.2380    -1.5420     0.4550   -25.9130    65.8010     8.0950     9.1200    10.3880     2.2420 
  178.3750   178.3630    -1.5440     0.4550   -25.8970    67.7360     7.8670     8.9240    10.5750     2.2370 
  178.5000   178.4880    -1.5460     0.4550   -25.8750    66.6540     7.7600     8.8700    10.5910     2.2420 
  178.6250   178.6130    -1.5470     0.4550   -25.8390    63.9040     7.7370     8.8940    10.3850     2.2510 
  178.7500   178.7380    -1.5490     0.4560   -25.7930    61.8600     7.7640     8.9390    10.1830     2.2560 
  178.8750   178.8630    -1.5510     0.4560   -25.7430    61.7420     7.8270     8.9940    10.0460     2.2530 
  179.0000   178.9880    -1.5520     0.4560   -25.6940    62.8890     7.9600     9.1080    10.0130     2.2410 
  179.1250   179.1130    -1.5540     0.4570   -25.6330    64.1070     8.1940     9.3350    10.4120     2.2260 
  179.2500   179.2380    -1.5560     0.4570   -25.5510    64.4270     8.5640     9.7240    11.5550     2.2140 
  179.3750   179.3630    -1.5580     0.4570   -25.4430    63.1370     9.0540    10.2580    13.0450     2.2080 
  179.5000   179.4880    -1.5590     0.4570   -25.3130    60.7320     9.6110    10.8700    14.1500     2.2090 
  179.6250   179.6130    -1.5610     0.4580   -25.1750    58.2970    10.1300    11.4280    14.6720     2.2170 
  179.7500   179.7380    -1.5630     0.4580   -25.0380    57.2170    10.4750    11.7760    15.1180     2.2280 
  179.8750   179.8630    -1.5650     0.4580   -24.9030    56.2750    10.5690    11.8240    15.7450     2.2380 
  180.0000   179.9880    -1.5670     0.4580   -24.7570    55.0070    10.3750    11.5410    15.9270     2.2430 
  180.1250   180.1130    -1.5680     0.4590   -24.5880    55.7510     9.9910    11.0530    15.1410     2.2440 
  180.2500   180.2380    -1.5700     0.4590   -24.3880    58.6290     9.5540    10.5280    13.5060     2.2400 
  180.3750   180.3630    -1.5720     0.4590   -24.1620    61.2770     9.2200    10.1480    11.8280     2.2320 
  180.5000   180.4880    -1.5740     0.4590   -23.9150    61.9010     9.1020    10.0410    10.8410     2.2250 
  180.6250   180.6130    -1.5750     0.4600   -23.6470    60.5840     9.1880    10.1780    10.4970     2.2220 
  180.7500   180.7380    -1.5770     0.4600   -23.3590    59.1050     9.4250    10.4740    10.5270     2.2270 
  180.8750   180.8630    -1.5790     0.4600   -23.0530    57.6950     9.7120    10.8000    11.0120     2.2340 
  181.0000   180.9880    -1.5810     0.4610   -22.7400    57.4480     9.9790    11.0610    11.9990     2.2370 
  181.1250   181.1130    -1.5830     0.4610   -22.4370    56.9950    10.1890    11.2170    12.9980     2.2340 
  181.2500   181.2380    -1.5840     0.4610   -22.1570    57.6420    10.3520    11.2870    13.8860     2.2280 
  181.3750   181.3630    -1.5860     0.4610   -21.9090    58.2730    10.5390    11.3740    14.8180     2.2270 
  181.5000   181.4880    -1.5880     0.4620   -21.6950    59.7190    10.8620    11.6250    15.5500     2.2350 
