~V
VERS. 2.00: Ver 2.00
~W
STRT.M 65.0000:
STOP.M 239.0000:
STEP.M 0.1250:
NULL. -999.2500:
UWI. F10876:
~C
DEPT.M :
TVD. :
DX. :
DY. :
SP.MV :
GR.API :
RI. :
RML.OHMM :
RXO.OHMM :
DEN.GM/CC :
~A
# ...
  138.0000   137.9900    -1.1800    -0.1700     3.8930    51.5660    15.9920    17.7700    22.6870     2.1340 
  138.1250   138.1150    -1.1830    -0.1700     2.9360    54.8520    13.6260    14.9780    17.6630     2.1690 
  138.2500   138.2400    -1.1850    -0.1700     2.0960    60.0800    12.2170    13.5400    15.2290     2.1800 
  138.3750   138.3650    -1.1870    -0.1700     1.5980    65.4160    11.9720    13.4980    17.2760     2.1610 
  138.5000   138.4900    -1.1900    -0.1700     1.6120    65.3980    13.2670    15.1470    22.7260     2.1300 
  138.6250   138.6150    -1.1920    -0.1700     2.0330    59.4760    15.8770    18.2740    28.5230     2.1140 
  138.7500   138.7400    -1.1940    -0.1700     2.6090    53.0890    19.2220    22.1100    30.4650     2.1240 
  138.8750   138.8650    -1.1960    -0.1700     3.0490    50.6640    22.1730    25.3310    28.2050     2.1440 
  139.0000   138.9900    -1.1990    -0.1710     3.2130    50.8040    23.8600    27.0180    25.2010     2.1540 
  139.1250   139.1150    -1.2010    -0.1710     3.1330    50.0120    24.1630    27.1230    23.4950     2.1490 
  139.2500   139.2400    -1.2030    -0.1710     2.8260    48.8040    23.3280    26.0010    23.5120     2.1340 
  139.3750   139.3650    -1.2050    -0.1710     2.3050    49.2630    21.9180    24.3010    24.9580     2.1170 
  139.5000   139.4900    -1.2080    -0.1710     1.5370    52.2770    20.1070    22.2050    24.7110     2.1010 
  139.6250   139.6150    -1.2100    -0.1710     0.6080    54.9570    18.1460    20.0010    21.1660     2.0870 
  139.7500   139.7400    -1.2120    -0.1710    -0.2920    55.3180    16.2790    17.9650    17.6550     2.0790 
  139.8750   139.8650    -1.2140    -0.1720    -0.9670    56.4410    14.7080    16.2680    16.3500     2.0810 
  140.0000   139.9900    -1.2170    -0.1720    -1.2930    61.5400    13.5760    15.0650    15.7650     2.0910 
  140.1250   140.1150    -1.2190    -0.1720    -1.2850    67.9420    13.0520    14.5550    14.8280     2.1070 
  140.2500   140.2400    -1.2210    -0.1720    -0.9240    70.5860    13.3450    14.9790    14.5550     2.1250 
  140.3750   140.3650    -1.2230    -0.1720    -0.2500    70.6450    14.3230    16.2110    18.5740     2.1380 
  140.5000   140.4900    -1.2250    -0.1720     0.6730    68.3190    15.8410    18.0910    30.6490     2.1360 
  140.6250   140.6150    -1.2280    -0.1720     1.6720    64.2150    17.6110    20.2560    41.0790     2.1220 
  140.7500   140.7400    -1.2300    -0.1720     2.5670    61.2810    19.2960    22.2420    36.8840     2.1040 
  140.8750   140.8650    -1.2320    -0.1730     3.2550    60.5890    20.5920    23.6770    25.7420     2.0910 
  141.0000   140.9900    -1.2340    -0.1730     3.7440    60.1160    21.3940    24.4730    18.9250     2.0890 
  141.1250   141.1150    -1.2370    -0.1730     4.1480    58.1730    21.8340    24.8460    16.0580     2.0940 
  141.2500   141.2400    -1.2390    -0.1730     4.5520    55.9440    22.1580    25.1310    14.9570     2.1020 
  141.3750   141.3650    -1.2410    -0.1730     4.9810    54.1630    22.6010    25.5690    14.7860     2.1100 
  141.5000   141.4900    -1.2430    -0.1730     5.3660    52.9790    23.0740    26.0190    16.1580     2.1150 
  141.6250   141.6140    -1.2460    -0.1730     5.6210    54.6950    23.4660    26.3630    20.0390     2.1120 
  141.7500   141.7390    -1.2480    -0.1730     5.7220    56.8330    23.8230    26.6650    25.4680     2.1010 
  141.8750   141.8640    -1.2500    -0.1740     5.7460    56.2210    24.1630    26.9540    29.5550     2.0880 
  142.0000   141.9890    -1.2520    -0.1740     5.7600    54.4190    24.4190    27.1560    30.5270     2.0790 
  142.1250   142.1140    -1.2550    -0.1740     5.7490    55.2380    24.5110    27.1790    29.5870     2.0750 
  142.2500   142.2390    -1.2570    -0.1740     5.6310    58.2840    24.3640    26.9460    27.9830     2.0760 
  142.3750   142.3640    -1.2590    -0.1740     5.3470    58.0240    24.0530    26.5690    26.4100     2.0780 
  142.5000   142.4890    -1.2610    -0.1740     4.8580    54.9750    23.6910    26.1740    26.0720     2.0830 
  142.6250   142.6140    -1.2640    -0.1740     4.1980    51.4520    23.3330    25.7940    26.8150     2.0910 
  142.7500   142.7390    -1.2660    -0.1750     3.4160    48.9170    22.9430    25.3560    26.8420     2.1030 
  142.8750   142.8640    -1.2680    -0.1750     2.7390    49.6930    22.5340    24.8780    25.5220     2.1240 
  143.0000   142.9890    -1.2710    -0.1750     2.5230    55.4830    22.5260    24.8840    23.8240     2.1630 
  143.1250   143.1140    -1.2730    -0.1750     2.5640    61.5410    23.4200    25.9770    22.6280     2.2310 
  143.2500   143.2390    -1.2750    -0.1750     2.3000    62.8360    25.5900    28.5910    22.0220     2.3260 
  143.3750   143.3640    -1.2780    -0.1750     1.7060    61.6540    29.0230    32.6850    26.0180     2.4240 
  143.5000   143.4890    -1.2800    -0.1760     1.0660    60.9390    33.0850    37.4260    41.6240     2.4910 
  143.6250   143.6140    -1.2820    -0.1760     0.5010    60.3670    36.1670    40.8320    62.2580     2.5130 
  143.7500   143.7390    -1.2840    -0.1760     0.0200    58.1220    36.4500    40.8620    71.7000     2.4980 
  143.8750   143.8640    -1.2870    -0.1760    -0.3850    53.4870    33.9190    37.6640    61.2780     2.4680 
  144.0000   143.9890    -1.2890    -0.1760    -0.7440    49.2620    29.7310    32.7390    38.1140     2.4430 
  144.1250   144.1140    -1.2910    -0.1760    -1.1180    46.4540    26.1570    28.7710    20.9750     2.4330 
  144.2500   144.2390    -1.2940    -0.1760    -1.5410    45.4060    24.9670    27.6490    16.7390     2.4500 
  144.3750   144.3640    -1.2960    -0.1770    -2.0460    45.7490    25.9990    29.0470    19.1330     2.4880 
  144.5000   144.4890    -1.2980    -0.1770    -2.7160    47.9830    28.7170    32.2540    24.5590     2.5300 
  144.6250   144.6140    -1.3010    -0.1770    -3.4270    48.3990    31.9850    35.8680    30.1390     2.5490 
  144.7500   144.7390    -1.3030    -0.1770    -3.8590    46.6460    34.2260    38.1350    34.0840     2.5260 
  144.8750   144.8640    -1.3050    -0.1770    -4.0950    46.3690    34.7660    38.4220    36.2770     2.4770 
  145.0000   144.9890    -1.3070    -0.1770    -4.5250    47.1330    33.8080    37.0600    33.9700     2.4370 
  145.1250   145.1140    -1.3100    -0.1770    -5.2070    47.4240    32.2170    35.1220    27.4600     2.4310 
  145.2500   145.2390    -1.3120    -0.1770    -5.9980    48.0580    31.1820    33.9430    22.9120     2.4610 
  145.3750   145.3640    -1.3140    -0.1780    -6.7640    50.8520    31.3130    34.1720    23.5110     2.5070 
  145.5000   145.4890    -1.3160    -0.1780    -7.3570    52.1970    32.4870    35.5930    27.2930     2.5440 
  145.6250   145.6140    -1.3180    -0.1780    -7.6920    50.4520    33.5700    36.8380    32.2820     2.5520 
  145.7500   145.7390    -1.3210    -0.1780    -7.7750    47.7160    33.4000    36.5820    37.4870     2.5230 
  145.8750   145.8640    -1.3230    -0.1780    -7.7120    45.7970    31.3980    34.2240    39.0260     2.4710 
  146.0000   145.9890    -1.3250    -0.1780    -7.5380    46.3550    28.1600    30.5350    32.8290     2.4240 
  146.1250   146.1140    -1.3270    -0.1780    -7.2830    49.6070    25.0660    27.0890    23.4290     2.4010 
  146.2500   146.2390    -1.3290    -0.1780    -6.9990    53.0110    22.9210    24.7790    18.0030     2.4080 
  146.3750   146.3640    -1.3310    -0.1780    -6.7640    53.3070    22.0710    23.9610    17.1470     2.4310 
  146.5000   146.4890    -1.3340    -0.1780    -6.6720    51.5970    22.6570    24.7400    18.8990     2.4590 
  146.6250   146.6140    -1.3360    -0.1780    -6.7780    50.7510    24.2370    26.5690    23.3160     2.4850 
  146.7500   146.7390    -1.3380    -0.1780    -7.0810    50.1500    26.3180    28.8840    30.2380     2.5060 
  146.8750   146.8640    -1.3400    -0.1780    -7.4820    48.6070    28.2470    30.9790    34.9580     2.5240 
  147.0000   146.9890    -1.3420    -0.1780    -7.8890    47.3910    29.5120    32.2950    33.9850     2.5420 
