~V
VERS. 2.00: Ver 2.00
~W
STRT.M 40.0000:
STOP.M 215.0000:
STEP.M 0.1250:
NULL. -999.2500:
UWI. F10811:
~C
DEPT.M :
SP.MV :
GR.API :
RI. :
RML.OHMM :
RXO.OHMM :
DEN.GM/CC :
~A
# ...
  143.0000   -20.4000    61.0160    74.5180    78.2850    74.8780     2.1530 
  143.1250   -20.5180    62.3100    74.2270    78.1570    69.0590     2.1480 
  143.2500   -20.6740    62.9250    74.9400    79.0390    66.9460     2.1420 
  143.3750   -20.8370    62.8150    76.3030    80.5340    69.1000     2.1320 
  143.5000   -20.9920    60.9250    77.5020    81.9430    65.7620     2.1170 
  143.6250   -21.1390    59.1810    78.3560    83.0410    68.7940     2.1170 
  143.7500   -21.2820    57.9930    78.8980    83.8550    72.3120     2.1350 
  143.8750   -21.4250    59.4830    79.0600    84.0270    67.3350     2.1590 
  144.0000   -21.5620    61.4470    79.0100    82.4300    64.9560     2.1690 
  144.1250   -21.6760    63.5670    78.3670    80.9310    68.7200     2.1610 
  144.2500   -21.7590    62.8240    77.4890    80.3070    73.4690     2.1460 
  144.3750   -21.8120    60.9310    77.4890    80.7710    71.9610     2.1350 
  144.5000   -21.8330    59.3060    79.5160    83.2100    65.2910     2.1330 
  144.6250   -21.8210    60.0530    83.6790    87.9650    61.7100     2.1360 
  144.7500   -21.7930    61.4760    89.5830    94.7690    65.7070     2.1420 
  144.8750   -21.7440    61.3370    97.6440   103.4850    73.6670     2.1450 
  145.0000   -21.6550    59.6710   106.4670   112.7370    76.0120     2.1440 
  145.1250   -21.5220    57.7400   114.4290   120.9120    71.1390     2.1350 
  145.2500   -21.3800    57.1380   120.7380   127.0250    65.0290     2.1210 
  145.3750   -21.2610    57.9770   124.1390   129.9090    66.4390     2.1090 
  145.5000   -21.1780    59.1580   124.2920   129.2590    75.6290     2.0940 
  145.6250   -21.1310    60.5330   120.1200   126.7210    83.3160     2.0810 
  145.7500   -21.0920    61.6580   112.6110   120.6320    84.2130     2.0780 
  145.8750   -21.0390    62.6650   103.5550   110.4320    76.4330     2.1030 
  146.0000   -20.9630    62.9030    95.1560   100.7950    63.8340     2.1450 
  146.1250   -20.8440    62.0440    88.1020    92.8220    69.3170     2.1770 
  146.2500   -20.6610    61.4910    82.4840    86.9460    99.2560     2.1770 
  146.3750   -20.3990    61.6330    78.5570    84.3490   118.4770     2.1600 
  146.5000   -20.1130    62.0840    77.2570    83.4860   102.4170     2.1540 
  146.6250   -19.8650    63.2760    80.7120    86.3280    76.4800     2.1680 
  146.7500   -19.6630    64.2610    87.7670    93.4470    69.2820     2.1810 
  146.8750   -19.4980    65.4950    97.7990   102.8320    74.2250     2.1740 
  147.0000   -19.3680    64.5130   104.7600   107.7470   116.2830     2.1430 
  147.1250   -19.2880    63.0590   100.1920   102.5200   206.9430     2.1040 
  147.2500   -19.2330    61.4080    89.0140    90.1660   230.8790     2.0900 
  147.3750   -19.1870    63.0550    74.3050    75.8260   145.4790     2.1110 
  147.5000   -19.1740    64.7980    64.4530    66.3070    78.5500     2.1380 
  147.6250   -19.2450    67.2190    61.5400    64.3470    76.2790     2.1370 
  147.7500   -19.4070    65.9840    64.6420    68.7140   110.5350     2.1110 
  147.8750   -19.6260    64.1290    72.9630    78.0970   126.9630     2.0930 
  148.0000   -19.8240    61.6070    83.2910    89.6120   107.6650     2.1020 
  148.1250   -19.9450    61.5210    94.3200   100.5250    84.7620     2.1350 
  148.2500   -19.9900    61.7230   104.9130   111.2690    73.5730     2.1590 
  148.3750   -19.9900    61.4400   121.4910   130.6020    84.1880     2.1520 
  148.5000   -19.9790    60.5280   147.6890   163.4060   103.8520     2.1210 
  148.6250   -19.9750    59.8880   194.0950   211.2190   111.4660     2.0910 
  148.7500   -19.9820    59.1560   239.0960   255.4880   115.4850     2.0710 
  148.8750   -19.9960    57.5290   263.7100   278.6510   116.0540     2.0620 
  149.0000   -19.9780    56.0590   263.9350   276.9250   111.0620     2.0640 
  149.1250   -19.8560    55.0550   241.2910   256.2120   108.7710     2.0760 
  149.2500   -19.6200    55.9720   220.7110   234.9540    95.3450     2.0910 
  149.3750   -19.3250    57.6290   201.2300   214.4520    71.7910     2.0990 
  149.5000   -19.0610    61.2650   179.3330   190.8300    62.6770     2.1020 
  149.6250   -18.8770    63.4870   155.7710   165.2040    64.9020     2.1040 
  149.7500   -18.7510    64.8390   133.8190   142.2820    65.9610     2.1120 
  149.8750   -18.6490    65.1370   121.5550   128.9630    58.8760     2.1150 
  150.0000   -18.5530    67.1840   119.2910   126.1440    44.8580     2.1070 
  150.1250   -18.4830    70.2040   125.0130   133.1400    36.7540     2.0880 
  150.2500   -18.4670    71.2150   140.2150   149.4000    34.5810     2.0810 
  150.3750   -18.5140    69.9440   163.5020   171.7290    31.6420     2.0930 
  150.5000   -18.5700    68.9340   183.4000   190.6090    28.1540     2.1120 
  150.6250   -18.5780    70.2440   192.8370   197.8130    25.6200     2.1200 
  150.7500   -18.5260    72.7840   186.9110   190.9530    23.9520     2.1220 
  150.8750   -18.4180    72.8110   168.6040   174.1730    22.8420     2.1300 
  151.0000   -18.2760    72.1830   150.7030   157.5980    22.4530     2.1440 
  151.1250   -18.1340    72.2130   139.1890   147.8240    22.7600     2.1570 
  151.2500   -17.9970    74.1570   135.7580   146.0020    23.2280     2.1610 
  151.3750   -17.8360    74.9740   139.4520   148.1530    24.1130     2.1610 
  151.5000   -17.6550    74.5760   146.4770   153.4510    26.2020     2.1630 
  151.6250   -17.5140    73.6690   154.0980   161.3040    29.8650     2.1650 
  151.7500   -17.4440    72.4380   158.0560   165.9610    33.9410     2.1640 
  151.8750   -17.3960    71.0550   158.8430   167.2530    36.7140     2.1570 
  152.0000   -17.3090    69.1160   158.4150   168.4410    38.9710     2.1460 
  152.1250   -17.1590    68.9520   162.7280   174.8030    44.0610     2.1330 
  152.2500   -16.9340    69.4030   174.5630   190.0800    51.7370     2.1220 
  152.3750   -16.6220    70.0130   198.6220   216.6860    58.1780     2.1210 
  152.5000   -16.2610    69.1620   228.4100   249.8370   122.7460     2.1200 
  152.6250   -15.8760    68.5580   261.2200   284.4450   432.2740     2.1030 
  152.7500   -15.4820    67.1120   287.7990   311.7690   679.3100     2.0670 
  152.8750   -15.0690    64.4310   298.9020   321.0890   422.0780     2.0410 
  153.0000   -14.6180    62.8670   288.0720   308.3270    92.9710     2.0400 
  153.1250   -14.1570    64.0540   256.5500   275.3660    17.3160     2.0610 
  153.2500   -13.7580    66.5140   216.8940   234.1220    14.0750     2.0860 
  153.3750   -13.4980    67.6170   178.9510   196.7180    14.0600     2.1140 
  153.5000   -13.3800    66.3400   155.2630   172.6250    13.4300     2.1360 
  153.6250   -13.3500    64.3780   146.0280   164.6530    12.2850     2.1380 
  153.7500   -13.3000    62.0940   149.6580   170.8780    11.4820     2.1170 
  153.8750   -13.1550    60.9420   166.8460   194.0450    11.5500     2.0920 
  154.0000   -12.9230    61.1590   203.3770   235.7370    12.0600     2.0780 
  154.1250   -12.6390    61.8130   251.6620   287.0050    12.1550     2.0800 
  154.2500   -12.3560    61.4750   293.8940   328.9380    11.5120     2.0900 
  154.3750   -12.1130    62.0110   315.2840   344.0200    11.2410     2.1130 
  154.5000   -11.9100    63.8040   303.0060   327.1680    11.7090     2.1290 
  154.6250   -11.7290    65.1640   272.4210   291.8830    11.2320     2.1020 
  154.7500   -11.5550    62.8400   241.7250   256.7950    10.1590     2.0300 
  154.8750   -11.3710    58.7020   217.6680   234.5320    10.5400     1.9660 
  155.0000   -11.1590    57.4230   198.5270   219.4560    12.3820     1.9730 
  155.1250   -10.9200    60.1090   165.2210   182.6590    14.8200     2.0570 
  155.2500   -10.6960    63.7660   123.7630   134.9890    17.5780     2.1690 
  155.3750   -10.5240    66.7470    79.8200    88.0840    19.5290     2.2660 
  155.5000   -10.4000    70.5040    46.3630    51.8920    18.4020     2.3250 
  155.6250   -10.3130    75.6320    29.9380    33.7900    14.5520     2.3390 
  155.7500   -10.2430    81.2710    22.5810    25.4210    11.6580     2.3270 
