~V
VERS. 2.00: Ver 2.00
~W
STRT.M 62.0000:
STOP.M 256.0000:
STEP.M 0.1250:
NULL. -999.2500:
UWI. F10886:
~C
DEPT.M :
TVD. :
DX. :
DY. :
SP.MV :
GR.API :
RI. :
RML.OHMM :
RXO.OHMM :
DEN.GM/CC :
~A
# ...
  135.0000   134.9930    -0.5060    -0.8550   -23.1110    53.0640    13.0080    15.3070    16.0090     2.1450 
  135.1250   135.1180    -0.5070    -0.8560   -23.1640    53.2350    12.8460    15.0000    15.6300     2.1430 
  135.2500   135.2430    -0.5080    -0.8570   -23.0570    53.5620    12.2550    14.1800    14.1160     2.1400 
  135.3750   135.3680    -0.5090    -0.8580   -22.7350    56.1750    11.3360    13.0050    12.6620     2.1370 
  135.5000   135.4930    -0.5100    -0.8590   -22.2080    60.1530    10.3420    11.7940    11.7890     2.1360 
  135.6250   135.6180    -0.5110    -0.8600   -21.5150    63.9190     9.4610    10.7770    11.0960     2.1350 
  135.7500   135.7430    -0.5120    -0.8610   -20.7660    65.4120     8.7880    10.0460    10.3820     2.1300 
  135.8750   135.8680    -0.5130    -0.8620   -20.0720    63.9580     8.3550     9.6070     9.7580     2.1240 
  136.0000   135.9930    -0.5150    -0.8630   -19.5120    62.6170     8.0770     9.3340     9.1940     2.1190 
  136.1250   136.1180    -0.5160    -0.8640   -19.1340    61.9400     7.8880     9.1390     8.7000     2.1160 
  136.2500   136.2430    -0.5170    -0.8650   -18.9420    62.9680     7.7620     8.9960     8.4440     2.1170 
  136.3750   136.3680    -0.5180    -0.8670   -18.9730    64.8390     7.7650     8.9960     8.6160     2.1190 
  136.5000   136.4930    -0.5190    -0.8680   -19.2450    66.4580     7.9620     9.2260     9.1300     2.1280 
  136.6250   136.6180    -0.5200    -0.8690   -19.8160    66.8290     8.4540     9.8210     9.8730     2.1490 
  136.7500   136.7430    -0.5210    -0.8700   -20.6750    65.0510     9.2680    10.8250    10.7700     2.1770 
  136.8750   136.8680    -0.5220    -0.8710   -21.8200    62.5030    10.3840    12.2060    11.7530     2.1970 
  137.0000   136.9930    -0.5230    -0.8720   -23.1770    59.7830    11.6760    13.7880    13.2050     2.1950 
  137.1250   137.1180    -0.5240    -0.8730   -24.6780    58.6890    12.9650    15.3510    15.2760     2.1710 
  137.2500   137.2430    -0.5250    -0.8740   -26.2040    57.9170    14.0990    16.7140    16.8320     2.1440 
  137.3750   137.3680    -0.5260    -0.8750   -27.6280    57.3270    14.9520    17.7430    17.5390     2.1290 
  137.5000   137.4930    -0.5270    -0.8760   -28.8550    56.7460    15.5010    18.4280    18.2810     2.1260 
  137.6250   137.6180    -0.5280    -0.8770   -29.8220    57.0360    15.7470    18.7710    19.2500     2.1260 
  137.7500   137.7430    -0.5290    -0.8790   -30.5740    56.8130    15.7630    18.8570    19.7440     2.1230 
  137.8750   137.8680    -0.5300    -0.8800   -31.1640    57.1400    15.6310    18.7790    19.2050     2.1170 
  138.0000   137.9930    -0.5310    -0.8810   -31.6620    56.4640    15.4530    18.6450    18.2770     2.1140 
  138.1250   138.1180    -0.5320    -0.8820   -32.1020    56.3530    15.2940    18.5170    17.9600     2.1130 
  138.2500   138.2430    -0.5330    -0.8830   -32.5020    56.6140    15.2090    18.4580    18.5050     2.1110 
  138.3750   138.3680    -0.5340    -0.8840   -32.8580    57.5580    15.2640    18.5400    19.5720     2.1050 
  138.5000   138.4930    -0.5350    -0.8850   -33.1660    58.0880    15.4620    18.7550    20.3350     2.0990 
  138.6250   138.6180    -0.5360    -0.8870   -33.4070    57.5690    15.7860    19.0810    20.0480     2.0950 
  138.7500   138.7430    -0.5370    -0.8880   -33.5730    56.5510    16.2110    19.4960    19.2530     2.0930 
  138.8750   138.8680    -0.5380    -0.8890   -33.6500    56.6050    16.7070    19.9730    19.1120     2.0910 
  139.0000   138.9930    -0.5400    -0.8900   -33.6320    57.7030    17.1850    20.4290    19.9550     2.0890 
  139.1250   139.1180    -0.5410    -0.8910   -33.4930    59.0440    17.5240    20.7430    21.1990     2.0900 
  139.2500   139.2430    -0.5420    -0.8920   -33.2160    59.7410    17.6120    20.7900    21.7250     2.0920 
  139.3750   139.3680    -0.5430    -0.8940   -32.7710    59.4760    17.2510    20.3170    21.1230     2.0920 
  139.5000   139.4930    -0.5440    -0.8950   -32.1700    59.3230    16.3630    19.2170    20.2890     2.0880 
  139.6250   139.6180    -0.5450    -0.8960   -31.4190    60.7780    15.0170    17.5710    19.3680     2.0860 
  139.7500   139.7430    -0.5460    -0.8970   -30.5630    64.1610    13.4690    15.6820    17.8360     2.0930 
  139.8750   139.8680    -0.5470    -0.8980   -29.6410    68.6250    12.0020    13.8970    15.5230     2.1190 
  140.0000   139.9930    -0.5480    -0.9000   -28.7330    72.3080    10.8830    12.5490    13.1630     2.1570 
  140.1250   140.1180    -0.5490    -0.9010   -27.9520    73.3120    10.3150    11.8810    11.7130     2.1910 
  140.2500   140.2430    -0.5500    -0.9020   -27.4060    71.7060    10.2980    11.8900    11.4870     2.2070 
  140.3750   140.3680    -0.5510    -0.9030   -27.1910    67.8840    10.8240    12.5580    12.2030     2.1990 
  140.5000   140.4930    -0.5520    -0.9040   -27.2770    65.7000    11.7390    13.6850    13.2790     2.1750 
  140.6250   140.6180    -0.5540    -0.9060   -27.6050    66.5760    12.8770    15.0480    14.4420     2.1460 
  140.7500   140.7430    -0.5550    -0.9070   -28.0510    69.1690    13.9860    16.3370    15.5610     2.1200 
  140.8750   140.8680    -0.5560    -0.9080   -28.5310    68.9040    14.8090    17.2490    16.6590     2.1030 
  141.0000   140.9930    -0.5570    -0.9090   -28.9830    66.3340    15.1790    17.6150    17.4840     2.0980 
  141.1250   141.1180    -0.5580    -0.9110   -29.3570    62.8820    15.0860    17.4670    17.6410     2.0990 
  141.2500   141.2430    -0.5590    -0.9120   -29.6140    62.1990    14.7890    17.1360    17.2610     2.0980 
  141.3750   141.3680    -0.5600    -0.9130   -29.7060    61.7340    14.4770    16.8430    16.7090     2.0960 
  141.5000   141.4930    -0.5610    -0.9140   -29.6390    60.9950    14.2620    16.7070    16.2310     2.0950 
  141.6250   141.6180    -0.5620    -0.9160   -29.4270    59.7460    14.2220    16.8000    16.1070     2.0960 
  141.7500   141.7430    -0.5630    -0.9170   -29.1340    59.0260    14.3360    17.0700    16.2810     2.0960 
  141.8750   141.8680    -0.5640    -0.9180   -28.8170    58.9040    14.5380    17.4280    16.5120     2.0930 
  142.0000   141.9930    -0.5650    -0.9200   -28.5250    58.6100    14.7180    17.7390    16.6160     2.0890 
  142.1250   142.1180    -0.5670    -0.9210   -28.2910    59.0710    14.7860    17.8820    17.1710     2.0900 
  142.2500   142.2420    -0.5680    -0.9220   -28.1100    60.4590    14.7270    17.8370    19.4890     2.0930 
  142.3750   142.3670    -0.5690    -0.9230   -27.9640    61.8860    14.5850    17.6570    22.9800     2.0970 
  142.5000   142.4920    -0.5700    -0.9250   -27.8190    62.5450    14.4490    17.4710    23.7930     2.0990 
  142.6250   142.6170    -0.5710    -0.9260   -27.6530    62.0950    14.4160    17.4070    20.9250     2.0970 
  142.7500   142.7420    -0.5720    -0.9270   -27.4700    61.8080    14.5530    17.5350    18.4550     2.0930 
  142.8750   142.8670    -0.5730    -0.9290   -27.2990    62.3620    14.8810    17.8720    18.1680     2.0940 
  143.0000   142.9920    -0.5740    -0.9300   -27.1700    63.7150    15.3190    18.3260    18.5920     2.1000 
  143.1250   143.1170    -0.5750    -0.9310   -27.1000    66.1110    15.7490    18.7700    18.7240     2.1080 
  143.2500   143.2420    -0.5760    -0.9330   -27.0790    68.6480    16.0360    19.0560    18.5230     2.1140 
  143.3750   143.3670    -0.5770    -0.9340   -27.0910    69.1040    16.0480    19.0240    18.3030     2.1140 
  143.5000   143.4920    -0.5780    -0.9350   -27.1160    68.4310    15.7420    18.6120    18.1200     2.1100 
  143.6250   143.6170    -0.5790    -0.9370   -27.1290    65.9900    15.1470    17.8560    17.8520     2.1040 
  143.7500   143.7420    -0.5800    -0.9380   -27.0930    63.9770    14.4400    16.9740    17.5070     2.1010 
  143.8750   143.8670    -0.5810    -0.9390   -26.9690    60.5920    13.8340    16.2340    16.9890     2.1020 
  144.0000   143.9920    -0.5820    -0.9410   -26.7610    58.3890    13.4840    15.8180    16.4050     2.1040 
