~V
VERS. 2.00: Ver 2.00
~W
STRT.M 40.0000:
STOP.M 215.0000:
STEP.M 0.1250:
NULL. -999.2500:
UWI. F10811:
~C
DEPT.M :
SP.MV :
GR.API :
RI. :
RML.OHMM :
RXO.OHMM :
DEN.GM/CC :
~A
# ...
  130.1250    -7.0540    51.3550    15.6570    18.5370    15.9690     2.5230 
  130.2500    -7.1660    47.9400    15.9190    18.8150    14.7660     2.5150 
  130.3750    -7.3660    45.2010    15.6800    18.4590    14.9030     2.5010 
  130.5000    -7.6250    44.9780    15.0670    17.6820    15.3890     2.4770 
  130.6250    -7.9100    48.2540    14.3190    16.8170    14.6010     2.4270 
  130.7500    -8.1840    54.1250    13.7880    16.1890    13.7980     2.3520 
  130.8750    -8.4150    60.2940    13.5050    15.8930    13.9260     2.2720 
  131.0000    -8.5920    65.1120    13.4800    15.9660    14.2690     2.2130 
  131.1250    -8.7000    67.8410    13.9040    16.5750    14.7410     2.1900 
  131.2500    -8.7270    69.2770    14.8130    17.7120    15.6470     2.1860 
  131.3750    -8.6590    68.7480    16.0770    19.2320    17.1840     2.1790 
  131.5000    -8.5550    68.1740    17.4890    20.8090    19.2870     2.1670 
  131.6250    -8.5000    67.3070    18.6900    22.0660    20.9750     2.1560 
  131.7500    -8.5360    66.8120    19.4920    22.7960    21.5260     2.1510 
  131.8750    -8.6690    65.5710    19.8570    22.9810    21.2690     2.1500 
  132.0000    -8.8690    64.3060    19.9130    22.8490    20.7720     2.1520 
  132.1250    -9.0740    64.4130    19.8580    22.6550    20.2800     2.1540 
  132.2500    -9.2180    65.4300    19.8430    22.5700    19.6060     2.1560 
  132.3750    -9.2810    65.9490    19.7120    22.3240    18.7730     2.1580 
  132.5000    -9.3050    64.9010    18.8920    21.3560    18.3560     2.1580 
  132.6250    -9.3300    63.9190    17.1380    19.3560    18.1810     2.1580 
  132.7500    -9.3740    64.7240    14.7580    16.6720    17.0330     2.1620 
  132.8750    -9.4490    69.3830    12.4130    14.0080    13.9400     2.1750 
  133.0000    -9.5720    75.4850    10.6530    11.9980    10.6610     2.1930 
  133.1250    -9.7520    79.9910     9.6980    10.9130     9.5270     2.2080 
  133.2500    -9.9680    81.1510     9.4540    10.7190     9.8040     2.2170 
  133.3750   -10.1970    79.3240    10.1940    11.7540    10.2660     2.2170 
  133.5000   -10.4210    76.6970    12.3430    14.4520    11.7870     2.2160 
  133.6250   -10.6120    72.6960    17.0390    20.1070    18.3520     2.2100 
  133.7500   -10.7500    67.8880    23.8240    28.4050    34.1780     2.1930 
  133.8750   -10.8060    63.5230    30.5370    35.4090    52.1840     2.1660 
  134.0000   -10.7890    60.0370    31.7820    36.7060    58.6000     2.1420 
  134.1250   -10.7220    59.3430    27.4500    31.2100    54.3210     2.1290 
  134.2500   -10.6290    60.6390    19.7010    22.0070    47.2030     2.1320 
  134.3750   -10.5130    65.8260    12.6340    14.2460    31.4570     2.1510 
  134.5000   -10.3900    72.1110     9.3510    10.3180    14.0720     2.1860 
  134.6250   -10.3070    77.7240     8.3780     9.4330     7.3780     2.2230 
  134.7500   -10.2920    81.0270     9.2140    10.5910     8.2600     2.2420 
  134.8750   -10.3360    80.1830    11.3200    13.3200    12.7800     2.2310 
  135.0000   -10.4130    76.9400    14.4600    16.9900    18.4320     2.2050 
  135.1250   -10.5190    72.8880    17.7640    20.5090    22.6690     2.1820 
  135.2500   -10.6460    69.9000    19.7760    22.6160    25.4710     2.1730 
  135.3750   -10.8080    67.0050    20.0830    22.6770    27.2970     2.1690 
  135.5000   -11.0050    65.4250    18.6510    21.0080    25.5450     2.1660 
  135.6250   -11.2080    65.4090    16.6590    18.6350    19.5310     2.1680 
  135.7500   -11.3660    67.8750    14.8690    16.6120    14.5970     2.1740 
  135.8750   -11.4240    71.1440    13.8710    15.5960    13.5060     2.1790 
  136.0000   -11.3770    74.4250    13.7290    15.5820    13.8740     2.1790 
  136.1250   -11.2810    75.9370    14.0580    16.1810    14.1630     2.1760 
  136.2500   -11.2010    75.7450    14.4660    16.7960    15.4380     2.1720 
  136.3750   -11.1620    74.8850    14.4680    16.8840    17.5280     2.1600 
  136.5000   -11.1570    74.6800    13.9390    16.3090    17.3030     2.1430 
  136.6250   -11.1750    76.2170    13.0770    15.2550    14.5200     2.1290 
  136.7500   -11.1900    78.0150    12.1170    14.0880    12.0410     2.1270 
  136.8750   -11.1530    80.0100    11.3780    13.1830    10.8770     2.1320 
  137.0000   -11.0390    81.4360    11.0330    12.7760    10.7140     2.1380 
  137.1250   -10.8620    83.3020    11.2170    12.9880    11.3520     2.1510 
  137.2500   -10.6760    83.9170    11.8260    13.6620    12.4080     2.1700 
  137.3750   -10.5390    83.4760    12.6710    14.5750    13.4970     2.1860 
  137.5000   -10.4840    81.1480    13.4620    15.4720    14.3210     2.1880 
  137.6250   -10.5300    78.2390    14.0920    16.0580    14.8240     2.1790 
  137.7500   -10.6750    75.2620    14.0100    15.9460    14.5990     2.1720 
  137.8750   -10.9300    74.2950    13.3710    15.1590    13.7500     2.1810 
  138.0000   -11.2450    76.2090    12.4700    14.0480    12.5640     2.2090 
  138.1250   -11.5570    80.1610    11.5320    12.9550    10.6210     2.2460 
  138.2500   -11.8300    84.6050    10.9310    12.1870     9.6560     2.2780 
  138.3750   -12.0690    87.6620    10.5740    11.7880    10.6310     2.2950 
  138.5000   -12.2980    89.7840    10.5490    11.7530    11.7200     2.3020 
  138.6250   -12.5360    91.1220    10.8340    12.0350    12.0790     2.3070 
  138.7500   -12.7910    92.8990    11.2480    12.4420    11.9530     2.3060 
  138.8750   -13.0860    94.4270    11.7030    12.8420    12.3020     2.3010 
  139.0000   -13.4050    95.4290    12.0690    13.1540    13.1800     2.2910 
  139.1250   -13.6870    95.0290    12.3290    13.3010    13.3050     2.2900 
  139.2500   -13.8930    92.7670    12.3290    13.1770    13.3270     2.2940 
  139.3750   -14.0220    88.5720    12.0150    12.7430    13.3910     2.3000 
  139.5000   -14.1160    85.2530    11.4980    12.1300    12.1790     2.3080 
  139.6250   -14.2050    85.4850    10.9960    11.5910    10.6090     2.3190 
  139.7500   -14.3050    89.3190    10.7670    11.3830    10.2380     2.3260 
  139.8750   -14.4160    91.0950    10.9830    11.7310    10.6430     2.3210 
  140.0000   -14.5500    92.1420    11.7800    12.6680    10.8300     2.3070 
  140.1250   -14.7220    90.7020    12.9590    13.9460    11.6940     2.2930 
  140.2500   -14.9030    89.4410    14.1030    15.2350    15.2800     2.2840 
  140.3750   -15.0630    85.8400    15.4790    16.6630    20.1170     2.2770 
  140.5000   -15.2070    81.9940    17.2230    18.5100    21.1510     2.2720 
  140.6250   -15.3930    79.1760    20.1680    21.6330    19.4510     2.2690 
  140.7500   -15.6710    77.7330    24.6300    26.8580    27.2190     2.2580 
  140.8750   -16.0410    75.9990    32.1530    35.9210    53.0700     2.2340 
  141.0000   -16.4340    73.1380    45.3130    49.1470    79.1720     2.2040 
  141.1250   -16.7930    67.9630    58.8960    62.5450    82.7440     2.1810 
  141.2500   -17.1020    63.6710    69.2500    72.1050    77.1740     2.1670 
  141.3750   -17.3630    61.5510    72.9580    75.6440    80.2130     2.1610 
  141.5000   -17.5870    62.0000    68.6100    72.0160    76.6960     2.1640 
  141.6250   -17.7970    62.1660    60.0650    62.6800    62.7600     2.1740 
  141.7500   -18.0280    62.7920    50.4140    52.2350    53.0470     2.1880 
  141.8750   -18.2940    64.3190    41.6300    43.2640    42.9260     2.2020 
  142.0000   -18.5920    67.2620    36.1590    37.9200    30.6940     2.2140 
  142.1250   -18.9330    68.7630    35.5120    37.6460    30.7140     2.2160 
  142.2500   -19.3020    68.8880    38.9970    41.7350    49.6230     2.2030 
  142.3750   -19.6530    67.1580    46.3230    50.1120    75.1950     2.1790 
  142.5000   -19.9420    64.3880    57.1420    61.0880    87.4690     2.1580 
  142.6250   -20.1370    61.2020    67.0290    70.8940    83.1720     2.1540 
  142.7500   -20.2530    59.7850    73.5680    77.0580    74.6330     2.1570 
  142.8750   -20.3240    60.1870    75.3020    78.7740    73.1720     2.1590 
