~V
VERS. 2.00: Ver 2.00
~W
STRT.M 52.0000:
STOP.M 269.0000:
STEP.M 0.1250:
NULL. -999.2500:
UWI. F11071:
~C
DEPT.M :
GR.API :
RML.OHMM :
RI. :
RXO.OHMM :
CALI.CM :
DEN.GM/CC :
SP.MV :
~A
   52.0000  -999.2500  -999.2500  -999.2500  -999.2500  -999.2500  -999.2500   212.5310 
   52.1250  -999.2500  -999.2500  -999.2500  -999.2500  -999.2500  -999.2500   211.3500 
   52.2500  -999.2500  -999.2500  -999.2500  -999.2500  -999.2500  -999.2500   210.0810 
   52.3750  -999.2500  -999.2500  -999.2500  -999.2500  -999.2500  -999.2500   208.8480 
   52.5000  -999.2500  -999.2500  -999.2500  -999.2500  -999.2500  -999.2500   207.6970 
   52.6250  -999.2500  -999.2500  -999.2500  -999.2500  -999.2500  -999.2500   206.6890 
   52.7500  -999.2500  -999.2500  -999.2500  -999.2500  -999.2500  -999.2500   205.8600 
   52.8750  -999.2500  -999.2500  -999.2500  -999.2500  -999.2500  -999.2500   205.1920 
   53.0000  -999.2500  -999.2500  -999.2500  -999.2500  -999.2500  -999.2500   204.6210 
   53.1250  -999.2500  -999.2500  -999.2500  -999.2500  -999.2500  -999.2500   204.1510 
   53.2500  -999.2500  -999.2500  -999.2500  -999.2500  -999.2500     0.0000   203.6990 
   53.3750  -999.2500  -999.2500  -999.2500  -999.2500  -999.2500     0.0000   203.0780 
   53.5000  -999.2500  -999.2500  -999.2500  -999.2500  -999.2500     0.0000   202.0940 
   53.6250  -999.2500  -999.2500  -999.2500  -999.2500  -999.2500     0.0000   200.5940 
   53.7500  -999.2500  -999.2500  -999.2500  -999.2500  -999.2500     0.9280   198.7250 
   53.8750  -999.2500  -999.2500  -999.2500  -999.2500  -999.2500     1.8620   196.5450 
   54.0000  -999.2500  -999.2500  -999.2500  -999.2500  -999.2500     1.8730   193.9640 
   54.1250  -999.2500  -999.2500  -999.2500  -999.2500  -999.2500     1.8850   190.7340 
   54.2500  -999.2500  -999.2500  -999.2500  -999.2500  -999.2500     1.8940   187.0460 
   54.3750  -999.2500  -999.2500  -999.2500  -999.2500  -999.2500     1.9020   183.1790 
   54.5000  -999.2500  -999.2500  -999.2500  -999.2500  -999.2500     1.9070   179.4690 
   54.6250  -999.2500  -999.2500  -999.2500  -999.2500  -999.2500     1.9020   176.1380 
   54.7500    46.9610     0.7660     0.3000     0.4410    25.7890     1.8800   172.9960 
   54.8750    46.9610     0.7660     0.3000     0.4410    25.7890     1.8440   169.9090 
   55.0000    47.4160     0.7610     0.2960     0.4100    25.8070     1.8020   166.9990 
   55.1250    45.9020     0.7190     0.2980     0.1680    25.8000     1.7750   164.5100 
   55.2500    46.4990     0.6990     0.2940     0.2750    25.8390     1.7730   162.0920 
   55.3750    46.9180     0.7390     0.2980     0.4090    25.8030     1.7980   159.2200 
   55.5000    45.7580     0.8260     0.3040     0.4510    25.7770     1.8430   155.4630 
   55.6250    44.5880     0.9230     0.3080     0.4550    25.8050     1.8910   150.0890 
   55.7500    43.7920     0.9860     0.3120     0.4700    25.8510     1.9300   143.0310 
   55.8750    43.1400     0.9920     0.3150     0.4900    25.8720     1.9550   134.5300 
   56.0000    42.0160     0.9490     0.3170     0.5070    25.8740     1.9670   124.9400 
   56.1250    40.4570     0.8920     0.3160     0.5440    25.8720     1.9720   114.2510 
   56.2500    40.5070     0.8670     0.3100     0.5450    25.8730     1.9810   103.1230 
   56.3750    42.4570     0.8850     0.3000     0.5480    25.8720     2.0030    92.3660 
   56.5000    44.4680     0.9130     0.2800     0.5500    25.8740     2.0450    82.5020 
   56.6250    44.0120     0.8620     0.2440     0.5500    25.8750     2.1170    74.2900 
   56.7500    42.5550     0.6860     0.1950     0.5560    25.8750     2.2160    67.8840 
   56.8750    42.2420     0.4150     0.1460     0.5670    25.8750     2.3310    63.0670 
   57.0000    42.5610     0.1350     0.1060     0.5750    25.8750     2.4380    59.3580 
   57.1250    43.1090    -0.0570     0.0830     0.6000    25.8720     2.4940    56.3470 
   57.2500    44.0960    -0.1470     0.0740     0.6350    25.8360     2.4910    53.2150 
   57.3750    45.8000    -0.1530     0.0770     0.5940    25.6600     2.4480    49.2670 
   57.5000    47.6950    -0.0950     0.0980     0.5930    25.2670     2.4030    44.1660 
   57.6250    49.6280     0.0340     0.1660     0.9400    24.7230     2.3780    37.7160 
   57.7500    52.9820     0.2520     0.3240     1.9410    24.4630     2.3540    30.3140 
   57.8750    57.0700     0.6220     0.6440     3.5330    24.5270     2.2980    22.2810 
   58.0000    59.1230     1.2210     1.2050     4.7800    24.9220     2.2080    14.0270 
   58.1250    56.5260     2.0990     2.0770     4.9440    25.6570     2.1180     6.1990 
   58.2500    53.9130     3.0730     3.1070     4.7530    26.3270     2.0710    -0.6790 
   58.3750    55.2930     3.9470     4.1200     4.8250    26.5000     2.0750    -6.2760 
   58.5000    59.3440     4.5910     4.9760     5.0890    26.1900     2.1090   -10.5030 
   58.6250    60.7710     4.9850     5.5880     5.4820    26.1340     2.1390   -13.2630 
   58.7500    60.4480     5.2590     6.0190     5.4240    26.8830     2.1530   -14.9680 
   58.8750    60.8020     5.4570     6.3050     5.2410    27.7640     2.1530   -15.8620 
   59.0000    61.4990     5.5730     6.4760     5.2890    28.0170     2.1350   -16.2520 
   59.1250    61.1520     5.5790     6.5400     5.1910    27.7090     2.0750   -16.3520 
   59.2500    60.0300     5.5200     6.5320     4.8690    27.8280     1.9680   -16.3930 
   59.3750    58.5480     5.4620     6.4760     4.8910    28.6740     1.8290   -16.4610 
   59.5000    57.2600     5.4790     6.4010     4.8690    30.1540     1.7070   -16.5760 
   59.6250    57.6890     5.6640     6.3640     4.3340    31.6900     1.6700   -16.6960 
   59.7500    60.3670     6.0210     6.4100     3.9810    31.6590     1.7290   -16.8230 
   59.8750    65.1020     6.5230     6.5720     4.5640    29.0120     1.8550   -17.0090 
   60.0000    70.5950     7.1000     6.8580     5.6600    25.9670     1.9970   -17.3270 
   60.1250    74.0680     7.6430     7.2450     6.8610    24.5530     2.0970   -17.8260 
   60.2500    74.4640     8.0680     7.6310     7.4380    24.2250     2.1440   -18.3700 
   60.3750    71.8910     8.3550     7.9200     7.8670    24.2750     2.1490   -18.9150 
   60.5000    66.9830     8.5370     8.0330     8.3810    24.6100     2.1360   -19.4320 
   60.6250    62.8320     8.6580     7.9340     9.0810    25.1040     2.1250   -19.9980 
   60.7500    62.9180     8.7380     7.7370     9.4640    25.5070     2.1250   -20.6500 
   60.8750    65.7930     8.7470     7.5330     9.5150    25.6860     2.1310   -21.3240 
   61.0000    67.3090     8.6760     7.3970     9.4280    25.7690     2.1340   -21.9410 
   61.1250    65.4300     8.5870     7.3790     9.3550    25.9050     2.1230   -22.4020 
   61.2500    61.9320     8.5850     7.4450     9.3030    26.2380     2.0990   -22.7530 
   61.3750    59.1390     8.7310     7.5520     9.3760    26.5810     2.0680   -23.0390 
   61.5000    59.8500     9.0160     7.6550     9.8000    26.4330     2.0430   -23.3200 
   61.6250    65.0240     9.3780     7.7150    10.3640    25.7970     2.0390   -23.5230 
   61.7500    69.4650     9.7340     7.7210    10.2280    25.3900     2.0580   -23.6350 
   61.8750    70.4880    10.0640     7.6750     9.8810    25.1690     2.0930   -23.7000 
   62.0000    71.1720    10.3640     7.5930     9.8680    25.0840     2.1300   -23.7230 
   62.1250    73.2190    10.5670     7.4940     9.8900    24.9970     2.1520   -23.7440 
   62.2500    73.0470    10.5880     7.3930     9.8200    24.9780     2.1560   -23.7960 
   62.3750    70.5560    10.3750     7.2890     9.8810    25.1310     2.1530   -23.8440 
   62.5000    69.5760     9.9670     7.1750    10.0520    25.3500     2.1560   -23.8700 
   62.6250    71.0520     9.5320     7.0660     9.9950    25.3600     2.1750   -23.9180 
   62.7500    70.8480     9.2890     7.0210     9.7060    25.2520     2.1940   -23.9820 
   62.8750    69.2670     9.3480     7.1120     9.4620    25.2030     2.1960   -24.0600 
   63.0000    68.6110     9.6940     7.3790     9.0760    25.0200     2.1710   -24.1630 
   63.1250    68.9630    10.1880     7.8120     9.6520    24.7230     2.1240   -24.2890 
