~V
VERS. 2.00: Ver 2.00
~W
STRT.M 53.0000:
STOP.M 279.0000:
STEP.M 0.1250:
NULL. -999.2500:
UWI. F11068:
~C
DEPT.M :
GR.API :
RML.OHMM :
RI. :
RXO.OHMM :
CALI.CM :
SP.MV :
DEN.GM/CC :
~A
# ...
   98.0000    85.5940     7.1390     5.6370     6.5680    23.1520    -8.4000     2.2110 
   98.1250    82.6700     7.1230     5.5380     6.7590    23.3350    -8.5440     2.1880 
   98.2500    81.0140     7.1210     5.4560     6.4490    23.5050    -8.6990     2.1720 
   98.3750    80.3270     7.1490     5.4110     5.8470    23.5180    -8.9140     2.1660 
   98.5000    78.2840     7.2270     5.4150     5.5970    23.3860    -9.2050     2.1690 
   98.6250    77.7410     7.3640     5.4770     5.6750    23.1640    -9.6620     2.1780 
   98.7500    79.8090     7.5240     5.5690     5.6760    23.0260   -10.1380     2.1880 
   98.8750    81.4730     7.6630     5.6640     5.7250    23.1170   -10.7240     2.1960 
   99.0000    80.6230     7.7390     5.7350     5.8580    23.3140   -11.3640     2.2000 
   99.1250    80.6130     7.7210     5.7640     5.9800    23.4540   -12.0230     2.2010 
   99.2500    82.4970     7.6530     5.7710     5.9420    23.5130   -12.5480     2.1990 
   99.3750    83.7350     7.5830     5.7800     6.0060    23.5390   -12.8530     2.1950 
   99.5000    85.0650     7.5530     5.8040     6.3650    23.5970   -12.8890     2.1900 
   99.6250    87.3450     7.5790     5.8350     6.8170    23.7260   -12.5140     2.1930 
   99.7500    87.6000     7.6100     5.8440     6.9540    23.8220   -11.8080     2.2140 
   99.8750    84.6030     7.5830     5.7970     6.6910    23.8240   -10.7600     2.2560 
  100.0000    82.5800     7.4430     5.6670     6.5500    23.8770    -9.4950     2.3120 
  100.1250    86.3080     7.1370     5.4310     6.4010    24.0960    -8.1960     2.3640 
  100.2500    91.8440     6.7280     5.1240     5.9450    24.3530    -7.0040     2.3970 
  100.3750    94.9830     6.3020     4.7910     5.5010    24.5950    -5.9680     2.4080 
  100.5000    95.5750     5.9780     4.5020     5.3670    24.7990    -5.1420     2.4060 
  100.6250    95.5330     5.9040     4.3590     5.1640    24.8590    -4.6270     2.4020 
  100.7500    95.6200     6.0810     4.3870     5.0470    24.8490    -4.3840     2.4050 
  100.8750    95.5430     6.4570     4.5810     5.6610    24.8300    -4.3800     2.4120 
  101.0000    94.1250     6.9170     4.8970     7.9160    24.8310    -4.5610     2.4170 
  101.1250    88.8490     7.2960     5.2390    11.2370    24.7890    -4.8690     2.4080 
  101.2500    82.7550     7.5080     5.5000    10.4780    24.6610    -5.2010     2.3850 
  101.3750    79.1850     7.5560     5.6400     7.5070    24.5000    -5.6110     2.3480 
  101.5000    76.4810     7.5090     5.6870     6.1190    24.2790    -5.9940     2.3070 
  101.6250    71.5190     7.4540     5.6970     6.2320    24.0370    -6.4420     2.2750 
  101.7500    68.9010     7.4250     5.7090     6.3550    23.8900    -6.9240     2.2630 
  101.8750    71.9770     7.3890     5.7110     6.5120    23.7630    -7.4060     2.2740 
  102.0000    77.6800     7.2980     5.6600     6.7350    23.7220    -7.8120     2.3000 
  102.1250    81.2240     7.1240     5.5210     6.6860    23.8870    -8.0590     2.3290 
  102.2500    82.0560     6.9290     5.3450     6.3140    24.1620    -8.1590     2.3430 
  102.3750    81.1610     6.7880     5.1900     5.9000    24.3980    -8.1310     2.3370 
  102.5000    80.0430     6.7560     5.1000     5.8200    24.4950    -8.0550     2.3190 
  102.6250    81.3200     6.8410     5.0950     6.1530    24.4190    -7.9300     2.2990 
  102.7500    84.3180     6.9510     5.1380     6.4750    24.3090    -7.7190     2.2880 
  102.8750    85.3780     7.0060     5.1870     6.3350    24.2930    -7.4160     2.2860 
  103.0000    83.4990     6.9680     5.2010     6.0350    24.4760    -7.0650     2.2910 
  103.1250    83.7490     6.8830     5.1670     6.0920    24.6520    -6.8080     2.3000 
  103.2500    88.4580     6.8730     5.1450     6.0480    24.7500    -6.6560     2.3140 
  103.3750    92.6880     7.0260     5.2110     5.8540    24.7910    -6.5300     2.3410 
  103.5000    90.9540     7.3650     5.4150     5.9160    24.8010    -6.4410     2.3860 
  103.6250    85.2010     7.8230     5.7620     6.3280    24.8000    -6.3510     2.4400 
  103.7500    81.2220     8.2250     6.1380     7.3040    24.7390    -6.2610     2.4810 
  103.8750    80.2970     8.4240     6.4170     9.0230    24.6370    -6.2210     2.4870 
  104.0000    81.4760     8.3380     6.4800     9.6190    24.5760    -6.2390     2.4560 
  104.1250    84.7770     7.9670     6.2700     7.9650    24.4830    -6.2080     2.3990 
  104.2500    88.3410     7.5060     5.9330     6.6100    24.2370    -6.0830     2.3470 
  104.3750    90.3030     7.1060     5.5960     6.0800    23.9560    -5.9210     2.3120 
  104.5000    90.6350     6.8690     5.3590     5.9930    23.7790    -5.6460     2.2970 
  104.6250    88.7210     6.8500     5.2910     6.0960    23.7370    -5.2920     2.2940 
  104.7500    85.6330     6.9710     5.3560     6.0650    23.7270    -4.9560     2.2960 
  104.8750    83.9000     7.1650     5.5080     6.0870    23.7020    -4.6380     2.3030 
  105.0000    84.3630     7.3570     5.6970     6.4420    23.6430    -4.3690     2.3170 
  105.1250    82.7490     7.4570     5.8540     6.7160    23.6280    -4.1780     2.3410 
  105.2500    79.2420     7.4340     5.9260     7.2330    23.7840    -4.0600     2.3680 
  105.3750    78.8160     7.2950     5.8930     7.8430    24.1390    -4.0110     2.3890 
  105.5000    82.0050     7.0980     5.7710     7.8610    24.6000    -4.0870     2.3920 
  105.6250    84.2590     6.9400     5.6170     6.5430    24.9940    -4.2440     2.3730 
  105.7500    86.6020     6.8790     5.5000     6.1500    25.2470    -4.4560     2.3430 
  105.8750    89.9480     6.9080     5.4450     6.1720    25.3320    -4.7140     2.3130 
  106.0000    90.1550     6.9700     5.4460     6.3970    25.3000    -4.9770     2.2930 
  106.1250    84.2050     6.9790     5.4660     6.5560    25.1530    -5.2420     2.2880 
  106.2500    79.5190     6.8950     5.4530     6.5790    25.0170    -5.4800     2.2900 
  106.3750    80.0280     6.7230     5.3770     6.3550    24.9180    -5.6720     2.2900 
  106.5000    82.8920     6.5010     5.2360     6.0280    24.8410    -5.8120     2.2870 
  106.6250    83.0630     6.2920     5.0560     5.8130    24.7650    -5.9520     2.2820 
  106.7500    82.4070     6.1700     4.8980     5.7410    24.7130    -6.0830     2.2840 
  106.8750    84.7210     6.2080     4.8260     5.7600    24.6700    -6.2330     2.2970 
  107.0000    89.4750     6.4730     4.9070     5.7840    24.5640    -6.4220     2.3170 
  107.1250    89.2560     7.0360     5.2250     6.1190    24.3140    -6.6980     2.3260 
  107.2500    82.6140     7.8010     5.7460     7.3400    24.0730    -7.1230     2.3130 
  107.3750    74.2050     8.6290     6.4030    10.2900    24.0260    -7.7040     2.2750 
  107.5000    69.6660     9.3330     7.0580    15.2110    23.9380    -8.4350     2.2220 
  107.6250    70.9370     9.6830     7.4890    14.2910    23.7050    -9.1350     2.1760 
  107.7500    74.6180     9.6820     7.6260     9.9510    23.4560    -9.8200     2.1520 
  107.8750    77.6380     9.4470     7.5210     8.1250    23.2980   -10.3760     2.1500 
  108.0000    77.3830     9.1860     7.3260     7.8850    23.2400   -10.8260     2.1630 
  108.1250    74.3690     9.1720     7.2630     8.6290    23.2260   -11.1050     2.1850 
  108.2500    71.2220     9.4970     7.4440     9.1580    23.2240   -11.2680     2.2170 
  108.3750    69.8840    10.1140     7.8790     9.3060    23.3360   -11.3030     2.2670 
  108.5000    68.9670    10.8360     8.4690     9.5150    23.6040   -11.3190     2.3310 
  108.6250    66.7240    11.3200     8.9830    12.0620    23.6900   -11.4790     2.3850 
  108.7500    63.8660    11.3520     9.1880    17.4250    23.6340   -11.7370     2.4020 
  108.8750    60.9000    10.9140     8.9840    17.1360    23.5980   -12.1500     2.3730 
  109.0000    60.1710    10.1840     8.4500    11.2500    23.5910   -12.6790     2.3120 
  109.1250    62.3020     9.4910     7.8200     8.0280    23.5780   -13.2680     2.2530 
