~V
VERS. 2.00: Ver 2.00
~W
STRT.M 52.0000:
STOP.M 235.0000:
STEP.M 0.1250:
NULL. -999.2500:
UWI. F11014:
~C
DEPT.M :
DEN.GM/CC :
GR.API :
RML.OHMM :
RI. :
RXO.OHMM :
CALI.CM :
SP.MV :
~A
# ...
  164.5000     2.2980    76.7090    50.8550    49.9600    51.5110    24.7460   -10.9590 
  164.6250     2.2950    75.6300    52.9710    52.4210    59.1540    24.7220   -11.0430 
  164.7500     2.2950    73.8430    52.3930    51.9250    55.7810    24.6830   -11.0520 
  164.8750     2.2970    72.7460    49.7250    48.9840    44.9720    24.6750   -11.0350 
  165.0000     2.2940    74.3330    46.7000    45.3130    38.6060    24.6980   -11.0800 
  165.1250     2.2830    77.3560    45.2060    42.7160    36.0730    24.7340   -11.1150 
  165.2500     2.2730    79.1570    46.7460    42.5130    33.8060    24.7480   -11.1140 
  165.3750     2.2680    79.0400    53.0830    46.2690    40.4650    24.7080   -11.1470 
  165.5000     2.2630    77.8850    64.9300    54.8240    65.3800    24.6580   -11.1400 
  165.6250     2.2510    75.3940    81.9750    68.2170   101.6990    24.6370   -11.1030 
  165.7500     2.2340    71.1410   102.7540    85.4300   127.0200    24.6380   -11.1320 
  165.8750     2.2220    67.7550   123.0870   103.1540   132.1250    24.6420   -11.1740 
  166.0000     2.2160    67.3130   137.8730   117.1120   131.6480    24.6410   -11.1390 
  166.1250     2.2140    68.6180   144.9450   125.1940   132.6560    24.6350   -11.1020 
  166.2500     2.2150    70.0320   146.2310   128.5040   131.7490    24.6310   -11.0630 
  166.3750     2.2170    70.8250   145.1590   129.5060   129.2120    24.6320   -10.9770 
  166.5000     2.2190    70.4160   142.9850   129.3150   128.8190    24.6310   -10.9370 
  166.6250     2.2200    69.0780   137.8520   126.5640   131.5850    24.6250   -10.9080 
  166.7500     2.2220    68.5160   126.9440   118.7660   130.2550    24.6130   -10.7950 
  166.8750     2.2300    70.1690   109.1840   104.3470   116.7260    24.5840   -10.6760 
  167.0000     2.2460    72.6440    88.0110    85.7720    90.3610    24.5340   -10.6520 
  167.1250     2.2710    75.0340    68.1070    67.2920    59.2640    24.5080   -10.6460 
  167.2500     2.3040    77.9340    52.0730    51.7900    35.9690    24.5470   -10.6560 
  167.3750     2.3360    80.2600    40.8260    40.6540    25.8040    24.5540   -10.7590 
  167.5000     2.3610    81.2510    33.5490    33.3550    22.1300    24.4140   -10.8620 
  167.6250     2.3740    82.3160    29.2590    28.9270    20.4720    24.1870   -10.9620 
  167.7500     2.3780    84.7930    27.6810    26.9630    20.7210    24.0340   -11.1710 
  167.8750     2.3680    87.0800    29.4070    27.8370    20.9110    24.0300   -11.4810 
  168.0000     2.3380    86.6870    35.2170    32.2870    19.7810    24.1600   -11.7790 
  168.1250     2.2910    83.2520    46.1450    41.6070    23.4610    24.3920   -12.1010 
  168.2500     2.2380    77.5800    63.4340    57.5340    47.6440    24.6840   -12.4750 
  168.3750     2.2050    70.3450    88.0490    81.5010   107.8390    24.8940   -12.8180 
  168.5000     2.1980    63.7450   116.9320   110.1760   162.7360    25.0070   -13.2090 
  168.6250     2.2100    60.5150   142.8590   135.6410   171.4540    25.0720   -13.6580 
  168.7500     2.2270    60.4840   158.5960   150.3190   174.2550    25.0900   -14.0430 
  168.8750     2.2420    62.3920   162.3540   152.1790   184.2520    25.0570   -14.3720 
  169.0000     2.2510    65.4220   161.2430   147.9940   173.2780    25.0250   -14.7390 
  169.1250     2.2530    67.8630   163.4750   145.7690   144.5550    25.0290   -15.0940 
  169.2500     2.2450    67.0910   173.6720   150.1000   124.5280    25.0640   -15.4380 
  169.3750     2.2260    63.1450   194.6650   163.6950   166.3680    25.0780   -15.8250 
  169.5000     2.2040    59.3460   224.6330   185.0130   264.3330    25.0640   -16.1660 
  169.6250     2.1860    57.0540   257.7160   209.3430   361.5990    25.0720   -16.4830 
  169.7500     2.1760    55.9700   286.2110   230.9780   385.1690    25.1020   -16.8900 
  169.8750     2.1750    57.0320   302.9280   244.5990   323.5060    25.1140   -17.3500 
  170.0000     2.1760    59.4800   309.1540   250.6890   259.7760    25.0810   -17.7570 
  170.1250     2.1780    61.3290   310.9560   253.4720   253.4000    24.9990   -18.1680 
  170.2500     2.1770    61.7450   311.7180   255.8360   300.3160    24.9010   -18.5830 
  170.3750     2.1770    61.1540   310.1230   257.3140   343.3910    24.8520   -18.9260 
  170.5000     2.1780    59.7240   303.3800   255.5920   330.5430    24.8610   -19.2820 
  170.6250     2.1800    57.9770   290.4410   249.2110   280.5970    24.8660   -19.6580 
  170.7500     2.1830    56.7770   272.0990   238.3050   236.6150    24.7820   -19.9320 
  170.8750     2.1850    55.8630   249.5370   223.6900   228.7590    24.5950   -20.0930 
  171.0000     2.1870    54.9180   223.9920   206.3580   245.0590    24.4210   -20.2590 
  171.1250     2.1900    55.0310   196.6030   171.1350   238.7940    24.3300   -20.3780 
  171.2500     2.1930    57.1690   164.4070   136.4240   191.0800    24.2810   -20.4350 
  171.3750     2.2000    59.8180   136.7720   115.9210   135.9800    24.2000   -20.4600 
  171.5000     2.2110    61.1640   116.8180   101.1720   100.8580    24.0810   -20.3670 
  171.6250     2.2280    61.9390   101.6470    89.4490    83.1650    24.0080   -20.1870 
  171.7500     2.2460    63.2470    91.1740    81.1120    77.1020    24.0780   -20.0440 
  171.8750     2.2590    64.7710    85.1270    76.2030    75.5530    24.2650   -19.8980 
  172.0000     2.2610    65.5490    82.2380    73.8280    74.8800    24.4680   -19.6730 
  172.1250     2.2520    65.6500    80.7380    72.5640    75.0150    24.6610   -19.4740 
  172.2500     2.2380    65.7320    79.1020    71.0750    76.3610    24.8560   -19.2870 
  172.3750     2.2250    66.0180    76.5410    68.5610    79.6670    24.9880   -19.1280 
  172.5000     2.2160    65.8380    73.9920    65.7080    76.8170    25.0100   -19.1250 
  172.6250     2.2080    64.6540    73.6780    64.3550    62.2820    24.9690   -19.2250 
  172.7500     2.2020    62.6160    78.3430    67.0580    46.4340    24.8950   -19.3060 
  172.8750     2.1960    60.9290    92.3060    78.3090    58.7990    24.7890   -19.4280 
  173.0000     2.1830    61.5490   119.2740   101.7880   133.0770    24.6570   -19.6770 
  173.1250     2.1670    64.2780   162.7580   139.5520   291.8760    24.5370   -19.9430 
  173.2500     2.1590    66.0220   224.9580   222.4490   401.0580    24.4580   -20.2200 
  173.3750     2.1650    63.6510   298.5740   306.1110   424.7630    24.3940   -20.5350 
  173.5000     2.1740    58.4380   361.9730   358.7080   412.6980    24.3740   -20.7190 
  173.6250     2.1800    54.1000   399.5320   386.6190   392.8210    24.4130   -20.7230 
  173.7500     2.1810    52.4990   417.0100   397.2380   412.1900    24.4460   -20.6740 
  173.8750     2.1810    53.1810   428.9550   403.2140   462.8510    24.3880   -20.5540 
  174.0000     2.1800    54.9320   441.4730   409.9580   515.9180    24.2590   -20.2320 
  174.1250     2.1770    57.1250   452.1470   415.9320   539.9220    24.1400   -19.7900 
  174.2500     2.1720    58.9670   456.9500   418.1510   512.6010    24.0800   -19.2650 
  174.3750     2.1670    58.5000   453.4060   414.5920   468.8720    24.0750   -18.6120 
  174.5000     2.1630    56.3790   443.4910   406.3820   432.0740    24.0650   -18.0110 
  174.6250     2.1590    55.6840   430.5540   395.7900   397.9350    24.0270   -17.5470 
  174.7500     2.1590    57.5060   416.1280   383.9170   384.5340    23.9590   -17.0870 
  174.8750     2.1630    59.3640   399.5670   370.1380   390.6920    23.9040   -16.6530 
  175.0000     2.1730    59.8910   380.1190   353.5850   394.9340    23.9140   -16.3650 
  175.1250     2.1860    59.8230   359.2030   335.0870   380.7530    24.0300   -16.1310 
  175.2500     2.2000    59.0660   340.6410   317.7530   338.8520    24.2750   -15.9530 
  175.3750     2.2090    57.2080   330.2900   307.0420   288.9760    24.5930   -15.9230 
  175.5000     2.2130    55.6260   331.6200   306.6970   259.0040    24.8200   -15.8650 
  175.6250     2.2200    54.7820   345.3530   317.7680   261.5640    24.8780   -15.6820 
