~V
VERS. 2.00: Ver 2.00
~W
STRT.M 62.0000:
STOP.M 218.0000:
STEP.M 0.1250:
NULL. -999.2500:
UWI. F11008:
~C
DEPT.M :
DEN.GM/CC :
GR.API :
RML.OHMM :
RI. :
RXO.OHMM :
CALI.CM :
SP.MV :
~A
# ...
  118.2500     2.2220    76.5470     9.1450     7.8210    10.2810    24.2320   -25.1350 
  118.3750     2.2190    76.5380     9.0520     7.7110    10.2430    24.3130   -25.1060 
  118.5000     2.2110    76.3210     8.9600     7.5640    10.0190    24.4030   -25.0370 
  118.6250     2.2020    75.9510     8.9230     7.4430     9.7240    24.5210   -24.9030 
  118.7500     2.1990    76.9210     8.9650     7.4010     9.4280    24.5860   -24.7600 
  118.8750     2.2040    77.9940     9.0790     7.4610     9.1870    24.4750   -24.6530 
  119.0000     2.2140    76.8100     9.2330     7.6110     9.3330    24.1020   -24.5430 
  119.1250     2.2200    75.5370     9.3790     7.8120     9.6790    23.8990   -24.3520 
  119.2500     2.2150    76.8220     9.4960     8.0060     9.6920    23.9690   -24.1250 
  119.3750     2.2000    78.1330     9.6140     8.1750     9.6240    24.2040   -23.8610 
  119.5000     2.1820    76.9590     9.8040     8.3490     9.4830    24.4810   -23.4930 
  119.6250     2.1730    75.6490    10.1890     8.6310     9.4220    24.7100   -22.9220 
  119.7500     2.1850    74.2130    10.7590     9.0850     9.6170    24.8940   -22.1350 
  119.8750     2.2280    70.7430    11.3850     9.6860     9.8900    25.0850   -21.1600 
  120.0000     2.3040    67.2320    11.8050    10.2460    10.7750    25.3130   -20.0260 
  120.1250     2.3970    67.4600    11.5890    10.3320    14.6130    25.5520   -18.7740 
  120.2500     2.4650    70.7630    10.6810     9.7420    18.4980    25.7430   -17.4900 
  120.3750     2.4700    74.9350     9.2470     8.5510    18.3310    25.9130   -16.2760 
  120.5000     2.4000    79.7060     7.6700     7.1020    14.9480    26.1340   -15.2170 
  120.6250     2.2800    86.4120     6.4700     5.8820     7.8770    26.5140   -14.4350 
  120.7500     2.1760    93.9430     5.8880     5.1400     4.4520    26.7520   -13.9590 
  120.8750     2.1280    98.2550     5.9810     4.9610     4.0510    26.5380   -13.7950 
  121.0000     2.1430    96.0170     6.6590     5.3460     5.3250    26.0590   -13.9230 
  121.1250     2.2090    88.6500     7.7130     6.2800     7.9230    25.7280   -14.2010 
  121.2500     2.2920    81.7360     8.7000     7.4140    10.0340    25.7110   -14.4290 
  121.3750     2.3740    76.2780     9.2670     8.3530    11.4610    25.8970   -14.5710 
  121.5000     2.4380    72.0580     9.1960     8.7160    12.3630    26.1830   -14.6490 
  121.6250     2.4630    73.1600     8.4490     8.2640    11.2800    26.4730   -14.5870 
  121.7500     2.4510    82.7230     7.4320     7.3730     7.5900    26.6800   -14.3380 
  121.8750     2.4120    95.7010     6.4600     6.4040     5.5740    26.8230   -13.9430 
  122.0000     2.3670   103.1370     5.7410     5.6160     4.8220    27.0050   -13.5140 
  122.1250     2.3320   101.7650     5.3730     5.1400     4.7420    27.0840   -13.2150 
  122.2500     2.3100    98.1480     5.2360     4.8850     5.3480    27.0600   -13.0290 
  122.3750     2.2950    96.6440     5.2610     4.7760     6.2820    27.0250   -12.9110 
  122.5000     2.2780    99.7810     5.4410     4.7740     6.2740    27.0380   -12.8670 
  122.6250     2.2600   105.3170     5.9130     4.9590     5.7560    27.0900   -12.9510 
  122.7500     2.2550   103.0430     6.7930     5.4500     5.6500    27.1000   -13.0930 
  122.8750     2.2840    90.2850     8.1620     6.4040     7.0730    27.0680   -13.1840 
  123.0000     2.3570    75.6820     9.9230     7.8990    11.0470    26.9690   -13.1840 
  123.1250     2.4590    68.5000    11.6320     9.7610    20.1700    26.9020   -13.1060 
  123.2500     2.5390    65.5520    12.6650    11.2940    33.2010    26.8800   -12.9770 
  123.3750     2.5590    64.9010    12.6310    11.8530    31.6780    26.9020   -12.8060 
  123.5000     2.5140    68.0740    11.5770    11.1940    13.5720    26.9790   -12.6040 
  123.6250     2.4270    74.3250     9.9890     9.6220     8.1150    27.0820   -12.4320 
  123.7500     2.3470    80.5260     8.5600     7.9720     7.4690    27.1000   -12.3150 
  123.8750     2.2960    85.5980     7.5340     6.6400     5.8330    27.0290   -12.2240 
  124.0000     2.2750    88.8750     6.9140     5.7290     5.7840    26.9610   -12.1410 
  124.1250     2.2800    90.8170     6.7090     5.2620     5.6630    26.9610   -12.0630 
  124.2500     2.2970    92.6760     6.8910     5.1440     5.1980    26.9510   -12.0250 
  124.3750     2.3210    93.2400     7.5260     5.4000     5.0800    26.9660   -12.0230 
  124.5000     2.3470    89.9980     8.6570     6.0960     5.5320    27.0750   -12.0310 
  124.6250     2.3720    82.8140    10.3170     7.3660     7.5600    27.1490   -11.9860 
  124.7500     2.3920    75.5460    12.2150     9.0500    11.8320    27.0420   -11.9270 
  124.8750     2.4080    70.8090    14.0300    10.8880    16.2230    26.9020   -11.8900 
  125.0000     2.4230    69.1170    15.4400    12.5010    17.9200    26.9640   -11.8350 
  125.1250     2.4420    68.4710    16.1970    13.4760    15.9440    27.1960   -11.7190 
  125.2500     2.4640    65.5130    16.5260    13.9130    15.2820    27.4050   -11.6160 
  125.3750     2.4840    61.2670    16.6860    14.0650    16.1860    27.5230   -11.5620 
  125.5000     2.4970    58.4670    16.8750    14.1940    17.3120    27.5610   -11.5180 
  125.6250     2.5000    58.4910    17.0940    14.4010    18.2020    27.5880   -11.4460 
  125.7500     2.4970    59.6360    17.1470    14.5390    17.6710    27.6400   -11.3650 
  125.8750     2.4900    61.5880    16.8480    14.4150    18.2680    27.6860   -11.3070 
  126.0000     2.4800    64.0230    16.1410    13.9200    19.4310    27.7430   -11.2800 
  126.1250     2.4660    67.8320    15.1450    13.1020    18.5130    27.7940   -11.2740 
  126.2500     2.4530    72.9590    14.1860    12.2640    14.6470    27.8360   -11.2800 
  126.3750     2.4510    77.4530    13.4690    11.6240    11.5960    27.8290   -11.3040 
  126.5000     2.4690    80.0100    13.0480    11.2810    10.7650    27.7870   -11.3350 
  126.6250     2.5020    79.6580    12.7960    11.1810    10.0380    27.8530   -11.3550 
  126.7500     2.5300    76.5310    12.4240    11.0410    12.4630    27.9280   -11.3720 
  126.8750     2.5320    71.8370    11.7510    10.6240    16.9880    27.9610   -11.4250 
  127.0000     2.5020    69.7670    10.7390     9.8210    16.0010    27.9470   -11.5120 
  127.1250     2.4440    76.5150     9.5170     8.7000    12.1150    27.9350   -11.5960 
  127.2500     2.3850    86.9040     8.3610     7.5590     8.6980    27.9700   -11.6370 
  127.3750     2.3410    92.4580     7.4370     6.5880     6.5790    27.9770   -11.6690 
  127.5000     2.3150    90.6630     6.8050     5.8730     5.5400    27.9430   -11.7260 
  127.6250     2.2970    89.5180     6.4770     5.4360     5.3250    27.9250   -11.7970 
  127.7500     2.2780    93.3750     6.3640     5.1910     5.2190    27.9900   -11.8870 
  127.8750     2.2600    98.6180     6.4770     5.1280     5.1870    28.0640   -12.0190 
  128.0000     2.2520   102.5370     6.8920     5.2910     5.3010    28.0770   -12.2690 
  128.1250     2.2610   103.8780     7.8150     5.8450     5.7370    27.9910   -12.7220 
  128.2500     2.2780    99.1020     9.2720     6.8680     7.5850    27.9800   -13.3030 
  128.3750     2.2870    89.5630    11.2080     8.4310    12.3440    28.0690   -13.9440 
  128.5000     2.2790    82.7520    13.3650    10.4480    17.5270    28.2300   -14.6610 
  128.6250     2.2520    81.3520    15.1880    12.4930    18.7020    28.4210   -15.4330 
  128.7500     2.2200    79.5460    16.2520    13.9400    19.5090    28.4890   -16.1440 
  128.8750     2.1940    75.0850    16.4390    14.4490    19.9050    28.4880   -16.7370 
  129.0000     2.1810    72.2140    15.9930    14.1270    19.6750    28.3770   -17.1940 
  129.1250     2.1810    72.8220    15.4360    13.4680    16.6270    28.3430   -17.4830 
  129.2500     2.1850    73.8070    15.2290    13.0480    12.9720    28.3650   -17.6250 
  129.3750     2.1860    75.8560    15.4690    13.0560    11.9550    28.4390   -17.6340 
