~V
VERS. 2.00: Ver 2.00
~W
STRT.M 49.0000:
STOP.M 284.0000:
STEP.M 0.1250:
NULL. -999.2500:
UWI. F11034:
~C
DEPT.M :
GR.API :
RML.OHMM :
RI. :
RXO.OHMM :
CALI.CM :
DEN.GM/CC :
SP.MV :
~A
# ...
  150.2500    64.0210    16.4620    16.1700    20.3450    24.7190     2.5420    -9.6260 
  150.3750    60.4230    15.6720    15.5840    18.4880    24.7820     2.5350    -9.7280 
  150.5000    56.5970    14.9540    15.0130    16.8480    24.8910     2.5190    -9.8060 
  150.6250    56.3130    14.3550    14.5100    15.8850    24.9690     2.4970    -9.9010 
  150.7500    58.7380    13.8340    14.0510    15.2700    25.0270     2.4730   -10.0430 
  150.8750    61.4060    13.2860    13.5500    14.6110    25.1240     2.4490   -10.2160 
  151.0000    64.7090    12.5720    12.8700    14.0370    25.2220     2.4250   -10.3610 
  151.1250    67.9310    11.6720    11.9880    13.3260    25.2470     2.3990   -10.4730 
  151.2500    71.3800    10.6740    10.9770    12.2950    25.2030     2.3710   -10.5790 
  151.3750    76.0590     9.7330     9.9870    10.9280    25.1150     2.3420   -10.7110 
  151.5000    79.6960     9.0720     9.2290     9.5830    25.0060     2.3180   -10.8820 
  151.6250    79.2570     8.7900     8.8070     8.9000    24.9090     2.3030   -11.0500 
  151.7500    75.2430     8.9090     8.7620     9.0360    24.8850     2.2940   -11.1790 
  151.8750    71.5040     9.4020     9.0830     9.7090    24.9410     2.2900   -11.2740 
  152.0000    71.0880    10.2440     9.7720    10.6930    25.0210     2.2860   -11.3770 
  152.1250    72.1820    11.3470    10.7460    11.9990    25.0890     2.2810   -11.5050 
  152.2500    73.3540    12.6730    11.9590    13.7340    25.1560     2.2740   -11.6370 
  152.3750    73.1850    14.2180    13.3960    16.0360    25.2070     2.2670   -11.7440 
  152.5000    70.0470    16.0220    15.0830    19.0790    25.2310     2.2560   -11.8410 
  152.6250    65.1290    18.0600    16.9970    22.6470    25.2350     2.2440   -11.9670 
  152.7500    61.1790    20.2890    19.1080    26.3290    25.2330     2.2340   -12.1300 
  152.8750    60.4700    22.6420    21.3530    29.6010    25.2220     2.2280   -12.3090 
  153.0000    63.1550    24.9640    23.5900    32.3570    25.2330     2.2260   -12.5010 
  153.1250    65.0990    27.0210    25.5870    35.2410    25.2410     2.2280   -12.7080 
  153.2500    63.9040    28.5340    27.0740    37.9210    25.2320     2.2330   -12.9500 
  153.3750    60.9720    29.2580    27.8030    38.4680    25.2070     2.2400   -13.2380 
  153.5000    58.7640    29.0180    27.5750    37.0680    25.1820     2.2490   -13.5310 
  153.6250    57.5170    28.2030    26.7230    34.1430    25.1690     2.2620   -13.7690 
  153.7500    57.5850    27.4370    25.7970    30.2700    25.1660     2.2780   -13.9520 
  153.8750    59.6630    27.4160    25.4210    26.8710    25.1650     2.2950   -14.1100 
  154.0000    61.1520    28.9170    26.3200    27.0210    25.1370     2.3120   -14.2430 
  154.1250    58.8610    31.9920    28.6610    31.6070    25.0560     2.3270   -14.3370 
  154.2500    55.0230    36.3230    32.3320    39.7790    24.9470     2.3340   -14.3760 
  154.3750    53.2820    41.2540    36.8920    48.8240    24.8730     2.3250   -14.3570 
  154.5000    53.2790    45.6850    41.4220    53.6750    24.8640     2.2970   -14.3330 
  154.6250    52.8000    48.7320    44.9060    53.1380    24.8710     2.2570   -14.3300 
  154.7500    51.9480    50.0560    46.7460    50.8490    24.8420     2.2190   -14.3400 
  154.8750    52.3340    49.9790    47.0260    48.6320    24.7420     2.1940   -14.3420 
  155.0000    54.1580    49.3940    46.4570    46.3410    24.5890     2.1920   -14.3240 
  155.1250    54.9510    49.2930    46.0580    45.6710    24.4700     2.2060   -14.3170 
  155.2500    54.1280    50.1850    46.4220    48.2390    24.4170     2.2290   -14.3440 
  155.3750    53.8690    52.1550    47.7400    54.2310    24.3760     2.2520   -14.3820 
  155.5000    55.4610    55.0890    50.0180    62.3400    24.3010     2.2600   -14.3760 
  155.6250    56.5780    58.5600    52.9150    70.0760    24.3120     2.2540   -14.3380 
  155.7500    55.8950    62.2680    56.1500    74.3170    24.5370     2.2370   -14.3070 
  155.8750    55.0440    66.0780    59.5560    74.8820    24.8260     2.2190   -14.3080 
  156.0000    55.6110    70.0020    63.0710    75.5800    24.9910     2.2050   -14.3080 
  156.1250    56.1080    74.0060    66.6290    79.8290    25.0320     2.1970   -14.2720 
  156.2500    55.3320    77.8760    70.0450    85.5550    24.9840     2.1940   -14.2070 
  156.3750    53.6070    81.1550    72.9530    89.0080    24.9050     2.1940   -14.1350 
  156.5000    52.2340    82.9490    74.6110    88.6530    24.8670     2.1960   -14.0550 
  156.6250    52.6470    82.7750    74.5890    85.4210    24.8420     2.2010   -13.9620 
  156.7500    54.8240    80.5040    72.7340    82.1600    24.8180     2.2050   -13.8290 
  156.8750    57.7900    76.4710    69.2930    80.9050    24.7980     2.2090   -13.6440 
  157.0000    58.5440    71.3480    64.8280    78.6260    24.8240     2.2120   -13.4480 
  157.1250    57.9130    66.0340    60.1420    72.8890    24.9430     2.2150   -13.2750 
  157.2500    56.9660    61.0420    55.7040    64.5790    25.1120     2.2180   -13.1030 
  157.3750    55.4420    56.5150    51.6510    59.4260    25.2530     2.2230   -12.9220 
  157.5000    54.5250    52.3130    47.8820    58.2380    25.3010     2.2340   -12.7310 
  157.6250    55.5240    48.1000    44.1270    56.5400    25.2680     2.2500   -12.5380 
  157.7500    57.9390    43.6630    40.2070    51.3150    25.2100     2.2650   -12.3820 
  157.8750    60.1830    38.9940    36.1090    43.8830    25.2080     2.2740   -12.2810 
  158.0000    62.2590    34.3380    32.0150    36.7750    25.2580     2.2710   -12.2070 
  158.1250    64.5140    30.0340    28.2030    31.1180    25.2750     2.2630   -12.1130 
  158.2500    66.5120    26.3170    24.8840    26.5740    25.2190     2.2550   -12.0170 
  158.3750    68.0320    23.2720    22.1550    22.6500    25.1170     2.2510   -11.9530 
  158.5000    68.2890    20.9500    20.0870    19.8900    25.0650     2.2530   -11.9320 
  158.6250    66.9520    19.1930    18.5560    18.3590    25.0790     2.2550   -11.9320 
  158.7500    65.1960    17.8730    17.4510    17.9690    25.1420     2.2580   -11.9120 
  158.8750    64.3340    16.8700    16.6600    18.2690    25.2000     2.2600   -11.8660 
  159.0000    65.7670    16.0590    16.0590    18.7590    25.2240     2.2650   -11.8250 
  159.1250    69.5470    15.2870    15.4910    19.1110    25.2290     2.2700   -11.8100 
  159.2500    72.4450    14.4630    14.8450    18.5770    25.2320     2.2730   -11.7890 
  159.3750    71.5270    13.5520    14.0700    16.7520    25.2330     2.2750   -11.7300 
  159.5000    68.8130    12.5610    13.1550    14.5760    25.2370     2.2760   -11.6490 
  159.6250    68.1140    11.5380    12.1500    12.6300    25.2580     2.2790   -11.5860 
  159.7500    69.7160    10.5230    11.1050    11.1160    25.2950     2.2880   -11.5490 
  159.8750    72.7280     9.5420    10.0570     9.9870    25.3200     2.3010   -11.5000 
  160.0000    77.0460     8.6210     9.0470     8.9970    25.3330     2.3180   -11.4100 
  160.1250    80.6580     7.7860     8.1150     7.9940    25.3440     2.3330   -11.3040 
  160.2500    81.4330     7.0890     7.3200     7.0220    25.3540     2.3460   -11.2250 
  160.3750    80.0140     6.6100     6.7380     6.2650    25.3630     2.3540   -11.1840 
  160.5000    80.2340     6.4890     6.5010     5.9000    25.3710     2.3570   -11.1590 
  160.6250    81.4690     6.7740     6.6510     6.0140    25.3830     2.3520   -11.1170 
  160.7500    82.1090     7.4760     7.2110     6.7040    25.3850     2.3400   -11.0720 
  160.8750    80.0030     8.5580     8.1650     8.0890    25.3800     2.3220   -11.0760 
  161.0000    74.0900     9.9140     9.4580    10.1500    25.3770     2.3010   -11.1490 
  161.1250    67.4410    11.3080    10.8800    12.3230    25.3720     2.2830   -11.2370 
  161.2500    64.4000    12.5280    12.2060    13.9860    25.3520     2.2700   -11.2980 
  161.3750    66.0600    13.4320    13.2420    14.9940    25.3210     2.2630   -11.3360 
