~V
VERS. 2.00: Ver 2.00
~W
STRT.M 50.0000:
STOP.M 257.0000:
STEP.M 0.1250:
NULL. -999.2500:
UWI. F11021:
~C
DEPT.M :
GR.API :
RML.OHMM :
RI. :
RXO.OHMM :
CALI.CM :
SP.MV :
DEN.GM/CC :
~A
# ...
  117.5000    99.7150     7.9250     6.1030     5.8550    23.6960    -6.4310     2.2400 
  117.6250   102.5840     8.1040     6.2160     6.6900    23.5230    -6.7400     2.2430 
  117.7500   102.6620     8.2640     6.3330     8.0550    23.3870    -7.1110     2.2490 
  117.8750    97.0450     8.3510     6.4190     7.9830    23.3050    -7.4730     2.2540 
  118.0000    90.6160     8.3290     6.4460     7.8090    23.2930    -7.7310     2.2550 
  118.1250    91.9590     8.1940     6.3940     7.2960    23.3760    -7.8590     2.2490 
  118.2500    94.8440     8.0220     6.3000     6.8580    23.4710    -7.9470     2.2370 
  118.3750    93.7530     7.8600     6.1910     6.8870    23.5120    -8.0270     2.2230 
  118.5000    91.4820     7.7270     6.0840     7.0250    23.5170    -8.1030     2.2080 
  118.6250    92.8560     7.6190     5.9840     7.0760    23.5170    -8.0980     2.1990 
  118.7500    93.8370     7.5170     5.8930     6.9440    23.5170    -7.9660     2.1970 
  118.8750    93.5040     7.4190     5.8120     6.6590    23.5000    -7.8470     2.2030 
  119.0000    94.7540     7.3330     5.7470     6.5560    23.4500    -7.8280     2.2120 
  119.1250    99.5030     7.2910     5.7150     6.6850    23.3620    -7.8940     2.2160 
  119.2500   103.1840     7.2970     5.7210     6.8760    23.3580    -7.9780     2.2100 
  119.3750   102.2360     7.3460     5.7620     6.9750    23.4420    -8.0480     2.1920 
  119.5000    96.7720     7.4210     5.8280     6.9260    23.5420    -8.0480     2.1710 
  119.6250    90.9400     7.5010     5.9060     6.9290    23.5760    -8.0140     2.1560 
  119.7500    88.6220     7.5670     5.9750     6.9620    23.5660    -8.0510     2.1540 
  119.8750    89.6910     7.6050     6.0250     7.2410    23.5530    -8.1240     2.1610 
  120.0000    92.1400     7.6130     6.0520     7.5090    23.5650    -8.1760     2.1750 
  120.1250    94.3310     7.5930     6.0590     7.6490    23.5700    -8.1730     2.1920 
  120.2500    92.3980     7.5630     6.0600     7.8510    23.5780    -8.1090     2.2120 
  120.3750    87.6770     7.5410     6.0630     8.1740    23.6200    -8.0270     2.2330 
  120.5000    84.2710     7.5360     6.0720     8.3380    23.7060    -8.0480     2.2500 
  120.6250    85.8050     7.5500     6.0860     8.4390    23.8260    -8.2240     2.2510 
  120.7500    88.7770     7.5710     6.0970     8.4320    23.9390    -8.4230     2.2370 
  120.8750    90.4980     7.5850     6.1030     8.3810    24.0500    -8.6100     2.2130 
  121.0000    91.2500     7.5820     6.1010     8.2810    24.1620    -8.8050     2.1890 
  121.1250    90.7240     7.5580     6.0930     8.0700    24.2540    -9.0470     2.1760 
  121.2500    89.2020     7.5360     6.0890     7.8290    24.3010    -9.3660     2.1720 
  121.3750    87.9080     7.5510     6.1040     7.7390    24.2950    -9.7130     2.1700 
  121.5000    88.4390     7.6330     6.1530     7.7580    24.2480    -9.9890     2.1640 
  121.6250    90.1360     7.8040     6.2540     7.8100    24.1400   -10.1610     2.1530 
  121.7500    91.5770     8.0250     6.3940     8.0250    23.9840   -10.3220     2.1440 
  121.8750    91.6950     8.2550     6.5570     8.3140    23.8060   -10.4680     2.1450 
  122.0000    89.0530     8.4560     6.7190     8.3650    23.7180   -10.5930     2.1560 
  122.1250    87.1510     8.6080     6.8580     8.0970    23.7450   -10.6570     2.1710 
  122.2500    88.6290     8.7350     6.9790     8.1880    23.8020   -10.6660     2.1810 
  122.3750    90.2690     8.8600     7.1000     8.8780    23.8040   -10.6850     2.1820 
  122.5000    88.7460     9.0000     7.2400     9.3310    23.7260   -10.7580     2.1760 
  122.6250    87.0380     9.1750     7.4160     9.0650    23.6410   -10.8630     2.1740 
  122.7500    87.9860     9.4010     7.6350     9.2520    23.5490   -10.9620     2.1800 
  122.8750    88.9580     9.6980     7.9050     9.5790    23.4700   -11.0570     2.1940 
  123.0000    89.5920    10.0640     8.2280     9.3710    23.4310   -11.1120     2.2100 
  123.1250    91.4020    10.4520     8.5860     9.4880    23.5090   -11.1180     2.2170 
  123.2500    91.0130    10.7650     8.9210    10.9550    23.5630   -11.1090     2.2110 
  123.3750    88.4810    10.9160     9.1630    12.8530    23.5740   -11.0270     2.1950 
  123.5000    86.6600    10.8340     9.2390    17.5350    23.5540   -10.7890     2.1770 
  123.6250    88.1740    10.4630     9.0670    12.8900    23.5210   -10.3550     2.1710 
  123.7500    90.8970     9.9000     8.6970    10.5710    23.4050    -9.8120     2.1790 
  123.8750    92.8320     9.2460     8.1990     9.8490    23.2240    -9.2090     2.2000 
  124.0000    93.9790     8.6410     7.6820     9.3120    23.0300    -8.5850     2.2290 
  124.1250    91.7370     8.3000     7.3170     8.4000    22.9230    -7.9760     2.2640 
  124.2500    93.6220     8.3280     7.2010     7.3050    22.7940    -7.3830     2.2980 
  124.3750   104.2460     8.7760     7.3900     6.8890    22.7550    -6.8620     2.3240 
  124.5000   112.3210     9.6150     7.8950     8.0630    22.7770    -6.5160     2.3350 
  124.6250   102.8840    10.7410     8.7090    10.5300    22.8240    -6.4340     2.3220 
  124.7500    87.8100    11.8960     9.6630    12.8200    22.9590    -6.4550     2.2930 
  124.8750    81.9250    12.9080    10.6050    13.3090    23.1990    -6.4580     2.2610 
  125.0000    83.1790    13.7240    11.4200    13.1660    23.4330    -6.3760     2.2430 
  125.1250    80.2230    14.5040    12.1130    15.2770    23.5520    -6.1850     2.2620 
  125.2500    76.0180    15.5440    12.8810    21.7960    23.6200    -5.9090     2.3190 
  125.3750    73.8350    17.0500    13.9180    19.5460    23.6280    -5.5590     2.4030 
  125.5000    72.6050    19.0810    15.3490    18.1520    23.5160    -5.0880     2.4960 
  125.6250    68.5720    21.5250    17.2040    16.4030    23.3150    -4.4230     2.5710 
  125.7500    62.5630    23.9030    19.1640    17.5110    23.1640    -3.6870     2.6200 
  125.8750    56.5530    25.7240    20.8480    21.3250    23.0990    -2.9840     2.6440 
  126.0000    52.8540    26.5950    21.8960    25.0080    23.1040    -2.3900     2.6500 
  126.1250    54.7550    26.3040    22.0460    22.9100    23.1360    -1.9250     2.6430 
  126.2500    58.4460    25.4030    21.6270    19.1180    23.1120    -1.5420     2.6260 
  126.3750    60.3980    24.4010    20.9890    17.4210    22.9930    -1.2000     2.6040 
  126.5000    60.4440    23.7020    20.4550    17.1460    22.7900    -0.9070     2.5800 
  126.6250    61.4390    23.5290    20.2510    17.0040    22.6570    -0.7570     2.5680 
  126.7500    62.1640    23.7220    20.3240    17.5630    22.6110    -0.6990     2.5700 
  126.8750    61.6450    24.1580    20.6150    18.3800    22.6670    -0.6730     2.5850 
  127.0000    62.7100    24.7200    21.0590    18.6360    22.7660    -0.6450     2.6050 
  127.1250    63.7510    25.2470    21.5660    18.0590    22.8500    -0.6370     2.6260 
  127.2500    60.9870    25.5440    21.9760    18.4440    22.9600    -0.6720     2.6470 
  127.3750    56.5040    25.4500    22.1350    20.5040    23.1030    -0.7480     2.6640 
  127.5000    54.9920    24.9260    21.9540    22.9350    23.2920    -0.8400     2.6720 
  127.6250    56.3460    24.1110    21.4640    20.8010    23.5310    -0.8470     2.6520 
  127.7500    55.7930    23.3530    20.9260    18.2500    23.7990    -0.8250     2.6010 
  127.8750    54.6590    22.8640    20.5220    16.7190    24.1210    -0.8110     2.5320 
  128.0000    55.6350    22.7220    20.3560    16.5500    24.3280    -0.8150     2.4700 
  128.1250    56.5600    22.8530    20.4480    18.3570    24.2010    -0.7990     2.4480 
  128.2500    55.1190    22.9510    20.5970    19.8320    23.9140    -0.7300     2.4640 
  128.3750    54.0460    22.7910    20.6120    19.4040    23.7760    -0.6430     2.5010 
  128.5000    55.6960    22.3070    20.3810    19.0420    23.8030    -0.5830     2.5350 
  128.6250    57.8430    21.6440    19.9370    18.7400    23.8580    -0.5960     2.5480 
