~V
VERS. 2.00: Ver 2.00
~W
STRT.M 57.0000:
STOP.M 283.0000:
STEP.M 0.1250:
NULL. -999.2500:
UWI. F11039:
~C
DEPT.M :
SP.MV :
GR.API :
RML.OHMM :
RI. :
RXO.OHMM :
CALI.CM :
DEN.GM/CC :
~A
# ...
   90.7500   -12.2160    58.0040     9.7570     8.1550     9.1220    20.8730     2.1360 
   90.8750   -11.9800    59.0220     9.7530     8.1110     9.2710    20.8750     2.1350 
   91.0000   -11.7500    60.6260     9.7540     8.0930     9.3100    20.9160     2.1340 
   91.1250   -11.5430    60.9430     9.7700     8.1120     9.2060    20.9870     2.1350 
   91.2500   -11.3630    59.4900     9.8120     8.1740     9.1200    21.0930     2.1370 
   91.3750   -11.2010    58.0210     9.8780     8.2640     9.0670    21.2330     2.1390 
   91.5000   -11.0620    57.7650     9.9480     8.3540     9.0420    21.3850     2.1410 
   91.6250   -10.9470    58.6690    10.0020     8.4190     9.0370    21.5300     2.1420 
   91.7500   -10.8710    58.7650    10.0290     8.4450     9.0690    21.6260     2.1420 
   91.8750   -10.8350    58.2600    10.0190     8.4270     9.1080    21.6570     2.1400 
   92.0000   -10.7990    57.3180     9.9880     8.3820     9.0500    21.6630     2.1390 
   92.1250   -10.7670    56.8980     9.9480     8.3270     8.9080    21.6640     2.1390 
   92.2500   -10.7690    58.1550     9.9130     8.2770     8.7150    21.6600     2.1400 
   92.3750   -10.7590    58.6710     9.8960     8.2440     8.4880    21.6530     2.1430 
   92.5000   -10.7430    57.0970     9.8970     8.2290     8.3790    21.6400     2.1470 
   92.6250   -10.7310    56.3310     9.9090     8.2270     8.3890    21.6160     2.1510 
   92.7500   -10.7340    58.9470     9.9190     8.2320     8.4280    21.5760     2.1570 
   92.8750   -10.7300    61.6720     9.9130     8.2320     8.5730    21.5360     2.1620 
   93.0000   -10.7440    59.6140     9.8840     8.2240     8.7180    21.5070     2.1650 
   93.1250   -10.7590    55.7750     9.8300     8.2000     8.7970    21.4620     2.1640 
   93.2500   -10.7850    54.2550     9.7510     8.1590     8.7870    21.3800     2.1590 
   93.3750   -10.8190    56.5730     9.6540     8.0970     8.8740    21.2570     2.1540 
   93.5000   -10.8560    58.8290     9.5590     8.0260     8.9980    21.1510     2.1510 
   93.6250   -10.8840    59.4520     9.4820     7.9580     8.9750    21.0730     2.1520 
   93.7500   -10.8720    60.4010     9.4320     7.9090     8.8240    21.0290     2.1560 
   93.8750   -10.7890    61.3770     9.4120     7.8950     8.7920    21.0310     2.1610 
   94.0000   -10.6570    61.2410     9.4120     7.9130     8.8680    21.0650     2.1620 
   94.1250   -10.4740    60.2990     9.4240     7.9570     8.8700    21.1210     2.1590 
   94.2500   -10.2460    58.8060     9.4430     8.0170     8.7760    21.1700     2.1520 
   94.3750    -9.9670    56.4750     9.4670     8.0790     8.7060    21.1960     2.1430 
   94.5000    -9.6210    54.3740     9.4800     8.1290     8.7410    21.1780     2.1350 
   94.6250    -9.1970    54.0800     9.4560     8.1450     8.8060    21.1460     2.1300 
   94.7500    -8.6670    54.6360     9.3570     8.1020     8.8480    21.1650     2.1280 
   94.8750    -8.0250    54.4280     9.1190     7.9450     8.7990    21.2960     2.1300 
   95.0000    -7.2940    56.4830     8.7410     7.6670     8.6100    21.5200     2.1370 
   95.1250    -6.5180    62.6570     8.2400     7.2790     8.2920    21.7780     2.1460 
   95.2500    -5.7150    70.0480     7.6800     6.8260     7.8480    22.0410     2.1570 
   95.3750    -4.9540    74.9590     7.1770     6.3970     7.2180    22.3940     2.1690 
   95.5000    -4.2480    78.3550     6.8250     6.0740     6.5760    22.8580     2.1800 
   95.6250    -3.6330    81.0300     6.6710     5.9000     6.1330    23.3910     2.1880 
   95.7500    -3.1710    81.3250     6.6980     5.8730     5.9750    23.8510     2.1950 
   95.8750    -2.8890    79.4500     6.8400     5.9590     6.0820    23.9330     2.2010 
   96.0000    -2.7360    77.8170     6.9720     6.0590     6.3320    23.8020     2.2090 
   96.1250    -2.6740    76.3140     7.0160     6.1050     6.5460    23.6560     2.2210 
   96.2500    -2.6790    75.8190     6.9410     6.0570     6.4860    23.6760     2.2350 
   96.3750    -2.7170    77.8530     6.7570     5.9070     6.4050    23.8560     2.2500 
   96.5000    -2.8050    79.4100     6.5370     5.7130     6.2110    24.0210     2.2640 
   96.6250    -2.9470    79.3490     6.3350     5.5250     6.1560    24.1350     2.2770 
   96.7500    -3.1510    79.2050     6.1970     5.3870     6.1000    24.1810     2.2870 
   96.8750    -3.4590    79.0160     6.1880     5.3540     6.1420    24.1940     2.2900 
   97.0000    -3.8810    77.4340     6.3390     5.4510     6.1360    24.1410     2.2880 
   97.1250    -4.4310    75.9240     6.6850     5.7040     6.1650    24.0080     2.2850 
   97.2500    -5.0750    74.7880     7.2190     6.1180     6.4320    23.7500     2.2860 
   97.3750    -5.7210    70.8020     7.8630     6.6530     7.0780    23.2780     2.2890 
   97.5000    -6.2850    66.7240     8.4240     7.1640     8.0100    22.6280     2.2870 
   97.6250    -6.7240    66.7150     8.7280     7.5110     9.0360    22.0190     2.2790 
   97.7500    -7.0360    70.3020     8.6710     7.5800     9.7810    21.7300     2.2650 
   97.8750    -7.2090    72.6770     8.2410     7.3060     8.9520    21.7730     2.2500 
   98.0000    -7.3270    74.1910     7.6860     6.8650     7.9920    22.0020     2.2360 
   98.1250    -7.4130    77.2920     7.2180     6.4230     7.2010    22.3650     2.2230 
   98.2500    -7.5200    79.2840     6.9820     6.1180     6.6470    22.7290     2.2100 
   98.3750    -7.7250    74.0310     7.0520     6.0420     6.6530    22.7450     2.1980 
   98.5000    -8.0310    64.6190     7.3110     6.1430     7.0050    22.4840     2.1860 
   98.6250    -8.4420    57.9720     7.6650     6.3670     7.4270    22.1330     2.1740 
   98.7500    -8.9140    58.1430     8.0410     6.6570     7.8120    21.8510     2.1600 
   98.8750    -9.4560    64.1590     8.4170     6.9870     8.0430    21.7210     2.1470 
   99.0000    -9.9890    69.5730     8.8250     7.3540     8.1960    21.6750     2.1360 
   99.1250   -10.4760    70.6840     9.3080     7.7790     8.2860    21.6310     2.1330 
   99.2500   -10.8630    68.3990     9.8790     8.2750     8.4650    21.5330     2.1380 
   99.3750   -11.1360    67.6120    10.4930     8.8190     8.8980    21.3740     2.1520 
   99.5000   -11.3520    67.6880    11.0370     9.3310     9.5180    21.2500     2.1680 
   99.6250   -11.5220    66.3110    11.4070     9.7280     9.9510    21.2020     2.1820 
   99.7500   -11.6700    63.6000    11.5350     9.9500     9.8200    21.1990     2.1920 
   99.8750   -11.7350    59.9710    11.4080     9.9640     9.2160    21.2180     2.1980 
  100.0000   -11.7230    56.3390    11.1830     9.8730     8.9310    21.2540     2.2030 
  100.1250   -11.6470    55.3730    11.0090     9.7760     8.7860    21.3140     2.2110 
  100.2500   -11.5380    60.1310    11.0160     9.7690     8.6050    21.3960     2.2230 
  100.3750   -11.3800    69.3070    11.3040     9.9370     8.6380    21.4830     2.2390 
  100.5000   -11.1880    78.3210    11.7720    10.2410     8.9870    21.5720     2.2560 
  100.6250   -10.9960    83.6940    12.2730    10.5980     9.6940    21.7000     2.2670 
  100.7500   -10.8260    82.7860    12.6250    10.8850    10.8500    21.8690     2.2690 
  100.8750   -10.7220    76.5650    12.6060    10.9350    12.2470    21.8990     2.2580 
  101.0000   -10.6740    70.8400    12.2220    10.7180    12.5550    21.7320     2.2390 
  101.1250   -10.6490    67.5050    11.5670    10.2710    11.1320    21.4040     2.2190 
  101.2500   -10.6440    64.9910    10.8060     9.6940     9.8230    21.0710     2.1990 
  101.3750   -10.6970    64.1330    10.1230     9.1070     9.2020    20.8480     2.1850 
  101.5000   -10.7770    65.3400     9.5940     8.5960     8.8770    20.7200     2.1770 
  101.6250   -10.8430    65.0980     9.2240     8.1920     8.6700    20.6160     2.1750 
  101.7500   -10.8720    62.3810     8.9930     7.9040     8.5330    20.5020     2.1780 
  101.8750   -10.8510    61.4350     8.9020     7.7520     8.4160    20.3840     2.1820 
