~V
VERS. 2.00: Ver 2.00
~W
STRT.M 58.0000:
STOP.M 272.0000:
STEP.M 0.1250:
NULL. -999.2500:
UWI. F11073:
~C
DEPT.M :
GR.API :
RML.OHMM :
RI. :
RXO.OHMM :
CALI.CM :
DEN.GM/CC :
SP.MV :
~A
# ...
  249.2500   121.6200     7.7480     6.7570     9.2190    24.3750     2.4020    -1.6050 
  249.3750   116.6360     7.7450     6.7590     9.1090    24.3710     2.4060    -1.5950 
  249.5000   110.4390     7.7570     6.7570     8.9230    24.3790     2.4100    -1.6050 
  249.6250   110.6710     7.7610     6.7380     8.9110    24.3840     2.4100    -1.5900 
  249.7500   118.9950     7.7290     6.7050     8.9770    24.3780     2.4070    -1.5350 
  249.8750   128.1680     7.6550     6.6580     8.9880    24.3780     2.4020    -1.4660 
  250.0000   128.0720     7.5650     6.5960     8.8100    24.3840     2.3980    -1.4470 
  250.1250   116.8120     7.5030     6.5200     8.6220    24.3720     2.3990    -1.4720 
  250.2500   105.2980     7.4700     6.4380     8.6070    24.3670     2.4000    -1.4740 
  250.3750   101.2830     7.4260     6.3440     8.6390    24.3730     2.4010    -1.4480 
  250.5000   105.8350     7.3410     6.2340     8.5430    24.4630     2.4000    -1.3610 
  250.6250   111.0860     7.2640     6.1330     8.5000    24.6150     2.4000    -1.2310 
  250.7500   109.7600     7.3030     6.1030     8.5580    24.6900     2.3990    -1.1080 
  250.8750   105.6150     7.5430     6.2110     8.3480    24.5750     2.3970    -1.0030 
  251.0000   105.9970     8.0160     6.5100     8.1100    24.4460     2.3940    -0.8850 
  251.1250   110.1810     8.6970     7.0390     9.1620    24.4020     2.3930    -0.7550 
  251.2500   110.7620     9.3970     7.6680    11.9900    24.4020     2.3970    -0.6200 
  251.3750   109.1890     9.9270     8.2260    14.7370    24.4400     2.4070    -0.4700 
  251.5000   109.4050    10.1240     8.5410    13.9030    24.4820     2.4190    -0.3230 
  251.6250   110.0330     9.8780     8.4790    11.9870    24.5040     2.4280    -0.1570 
  251.7500   109.1510     9.3620     8.1520    10.6810    24.4370     2.4310     0.0400 
  251.8750   107.4550     8.7430     7.6780    10.2070    24.4060     2.4290     0.2460 
  252.0000   106.6610     8.1410     7.1540    10.2100    24.4060     2.4230     0.4390 
  252.1250   105.9660     7.5940     6.6230     9.6160    24.4590     2.4110     0.6320 
  252.2500   104.9570     7.0800     6.1070     8.4920    24.4830     2.3960     0.8270 
  252.3750   105.6920     6.6030     5.6360     7.4360    24.4960     2.3810     1.0130 
  252.5000   108.6780     6.1950     5.2500     6.7790    24.4960     2.3700     1.1720 
  252.6250   110.5420     5.9040     4.9910     6.4300    24.4850     2.3690     1.2540 
  252.7500   108.6190     5.7190     4.8400     6.2450    24.4470     2.3710     1.2940 
  252.8750   103.7190     5.6250     4.7740     6.1590    24.3970     2.3710     1.3290 
  253.0000   100.0970     5.6020     4.7610     6.2430    24.3900     2.3670     1.4100 
  253.1250    98.0600     5.6320     4.7720     6.2980    24.4460     2.3630     1.5550 
  253.2500    95.5660     5.6710     4.7830     6.2870    24.4690     2.3610     1.6940 
  253.3750    94.5910     5.6930     4.7860     6.2780    24.4590     2.3610     1.8140 
  253.5000    95.8110     5.6780     4.7830     6.2520    24.4230     2.3590     1.9160 
  253.6250    97.7830     5.6250     4.7780     6.2110    24.4630     2.3550     1.9910 
  253.7500   100.3830     5.5700     4.7790     6.1900    24.4980     2.3510     1.9990 
  253.8750   104.1160     5.5410     4.7900     6.2520    24.5100     2.3490     1.9470 
  254.0000   104.9940     5.5420     4.8090     6.3060    24.5080     2.3500     1.8920 
  254.1250    97.9990     5.5490     4.8190     6.3300    24.5090     2.3530     1.8310 
  254.2500    91.1520     5.5330     4.8070     6.3820    24.5060     2.3550     1.7760 
  254.3750    89.1750     5.4710     4.7600     6.4330    24.5020     2.3580     1.7300 
  254.5000    90.2720     5.3590     4.6730     6.2430    24.5070     2.3620     1.6910 
  254.6250    93.5600     5.2250     4.5580     5.9700    24.5250     2.3660     1.6920 
  254.7500    98.6330     5.1180     4.4430     5.7750    24.5330     2.3700     1.7520 
  254.8750   101.1890     5.0620     4.3420     5.6540    24.5290     2.3740     1.8390 
  255.0000    98.0280     5.0490     4.2560     5.5520    24.5230     2.3780     1.8800 
  255.1250    94.6210     5.0420     4.1810     5.4700    24.5040     2.3820     1.8420 
  255.2500    97.1040     5.0060     4.1130     5.4520    24.4700     2.3850     1.7580 
  255.3750   102.5010     4.9400     4.0480     5.4630    24.4520     2.3840     1.6420 
  255.5000   103.4920     4.8670     3.9900     5.4200    24.4520     2.3810     1.5200 
  255.6250    97.8420     4.8390     3.9650     5.3960    24.4620     2.3810     1.3790 
  255.7500    92.7720     4.9060     4.0060     5.4130    24.5100     2.3820     1.2300 
  255.8750    92.1170     5.1180     4.1600     5.5180    24.5320     2.3790     1.1120 
  256.0000    93.1760     5.5220     4.4690     5.8300    24.5290     2.3690     1.0560 
  256.1250    90.2520     6.1800     5.0010     6.7170    24.5200     2.3570     1.0620 
  256.2500    85.3420     6.9910     5.7060     8.1370    24.5080     2.3440     1.1050 
  256.3750    81.5710     7.8020     6.4820     9.3940    24.5000     2.3330     1.1750 
  256.5000    79.7650     8.4030     7.1470    10.3440    24.5250     2.3240     1.2510 
  256.6250    81.9620     8.5600     7.4530    10.9400    24.5320     2.3220     1.3150 
  256.7500    86.4800     8.3550     7.4210    10.8700    24.5380     2.3210     1.3400 
  256.8750    89.4630     7.9710     7.1920     9.6720    24.5380     2.3190     1.2860 
  257.0000    86.8500     7.6370     6.9580     7.9320    24.5400     2.3180     1.1410 
  257.1250    80.3350     7.5710     6.8840     8.1440    24.5450     2.3210     0.9410 
  257.2500    77.4520     7.7510     6.9740     9.9630    24.5410     2.3240     0.7290 
  257.3750    80.0630     8.0540     7.1560    12.0750    24.5380     2.3260     0.4990 
  257.5000    86.4670     8.2950     7.3140    12.3840    24.5500     2.3280     0.2560 
  257.6250    91.5520     8.2540     7.2960    10.4640    24.5700     2.3340     0.0380 
  257.7500    91.8070     7.9470     7.0830     9.5340    24.5600     2.3390    -0.1040 
  257.8750    88.8140     7.4920     6.7310     8.8360    24.5520     2.3400    -0.1540 
  258.0000    86.3600     7.0290     6.3380     7.8570    24.5650     2.3410    -0.1340 
  258.1250    86.1970     6.6850     6.0160     7.2700    24.5590     2.3490    -0.0660 
  258.2500    84.5030     6.5450     5.8430     7.2140    24.5410     2.3630     0.0030 
  258.3750    80.9330     6.7400     5.9180     7.4530    24.5420     2.3820     0.0670 
  258.5000    78.4490     7.4340     6.3640     7.9920    24.5600     2.4070     0.0980 
  258.6250    77.5550     8.8780     7.4190     9.4720    24.5320     2.4320     0.0850 
  258.7500    76.3660    10.9450     9.0710    13.3650    24.4820     2.4450     0.0400 
  258.8750    75.0690    13.3790    11.2280    21.4120    24.4780     2.4410    -0.0470 
  259.0000    75.0240    15.7460    13.5960    29.5620    24.5450     2.4280    -0.1530 
  259.1250    77.7570    17.5370    15.6960    33.8220    24.6590     2.4210    -0.2750 
  259.2500    79.6440    18.7220    17.2780    28.1480    24.6860     2.4220    -0.3850 
  259.3750    76.9810    19.4140    18.2910    21.6050    24.5730     2.4350    -0.4530 
  259.5000    68.8710    19.6920    18.7530    22.8250    24.4740     2.4660    -0.4520 
  259.6250    60.1850    19.3360    18.5120    44.0760    24.4180     2.4990    -0.3880 
  259.7500    56.1790    18.2690    17.6080    51.3050    24.3560     2.5110    -0.3050 
  259.8750    55.8690    16.6720    16.2230    28.4760    24.3650     2.5130    -0.2090 
  260.0000    56.7320    15.0080    14.7370    11.5850    24.3730     2.5290    -0.1100 
  260.1250    55.5730    13.7400    13.5160     7.0210    24.3690     2.5650    -0.0020 
  260.2500    53.7240    12.8480    12.5790     5.9230    24.3620     2.5980     0.1100 
  260.3750    53.0650    12.1080    11.7870     6.2330    24.3320     2.6100     0.2210 
