~V
VERS. 2.00: Ver 2.00
~W
STRT.M 52.0000:
STOP.M 271.0000:
STEP.M 0.1250:
NULL. -999.2500:
UWI. F11069:
~C
DEPT.M :
GR.API :
RML.OHMM :
RI. :
RXO.OHMM :
CALI.CM :
DEN.GM/CC :
SP.MV :
~A
# ...
  209.5000    64.7770    57.1340    56.2330    61.0570    24.5930     2.2900   -14.3270 
  209.6250    65.2530    56.1180    54.9290    61.9710    24.5740     2.2890   -14.2490 
  209.7500    63.7000    56.0940    54.5530    67.1700    24.5990     2.2930   -14.1990 
  209.8750    59.1660    56.9830    54.9710    70.7910    24.5730     2.2980   -14.2100 
  210.0000    55.4480    58.6130    56.0690    69.9010    24.4900     2.2990   -14.2450 
  210.1250    55.5280    60.6920    57.6770    73.7540    24.4630     2.2940   -14.2340 
  210.2500    57.2910    62.7690    59.4200    78.5200    24.4800     2.2820   -14.1880 
  210.3750    57.8580    64.6010    61.1640    79.5670    24.4460     2.2680   -14.1010 
  210.5000    57.5340    66.0320    62.8340    75.7720    24.3400     2.2570   -13.9730 
  210.6250    59.0830    66.7480    64.0230    72.7370    24.2950     2.2520   -13.8040 
  210.7500    62.6630    66.5510    64.2310    80.1060    24.3430     2.2560   -13.6620 
  210.8750    65.6560    65.2080    63.0710    90.5230    24.4080     2.2640   -13.4840 
  211.0000    65.9630    62.6590    60.4790    94.9930    24.4340     2.2730   -13.2860 
  211.1250    65.0910    59.0070    56.6170    81.9190    24.4330     2.2810   -13.1060 
  211.2500    65.1830    54.9230    52.2780    66.4380    24.4310     2.2850   -12.9640 
  211.3750    65.3980    50.9030    48.0000    59.9030    24.4290     2.2880   -12.8640 
  211.5000    65.1430    47.3270    44.1420    56.6090    24.4180     2.2910   -12.7410 
  211.6250    64.6980    44.5170    41.0080    52.4140    24.4010     2.2940   -12.5780 
  211.7500    64.0260    42.3950    38.5720    48.4070    24.3740     2.2960   -12.3680 
  211.8750    62.3680    40.9420    36.8380    45.6950    24.3460     2.2970   -12.0840 
  212.0000    61.6080    40.1960    35.8000    42.8100    24.3030     2.3020   -11.7220 
  212.1250    64.7390    40.4400    35.7080    41.3220    24.2830     2.3250   -11.3210 
  212.2500    68.4190    41.5840    36.6130    43.1770    24.3170     2.3700   -10.9290 
  212.3750    68.7600    43.2870    38.4180    47.3240    24.3660     2.4310   -10.5690 
  212.5000    66.4330    44.6510    40.4170    51.1320    24.4090     2.4900   -10.2880 
  212.6250    65.7710    43.9440    40.7310    54.7180    24.3990     2.5220    -9.9910 
  212.7500    65.8940    40.5700    38.0760    62.4170    24.3910     2.5240    -9.6560 
  212.8750    65.7770    34.9390    32.6370    62.7990    24.4120     2.5060    -9.3540 
  213.0000    69.1580    28.1850    26.0970    38.4230    24.4090     2.4850    -9.1060 
  213.1250    79.5740    21.9170    20.5670    20.9050    24.3680     2.4730    -8.9370 
  213.2500    91.0050    17.2950    16.6970    15.0650    24.3680     2.4730    -8.8090 
  213.3750    98.0770    14.7150    14.3830    13.8140    24.4250     2.4810    -8.6930 
  213.5000    98.8650    13.8200    13.3000    13.9420    24.4970     2.4930    -8.5550 
  213.6250    92.4640    13.9030    13.1900    14.0960    24.5520     2.5040    -8.4150 
  213.7500    85.2230    14.2060    13.4820    14.6830    24.5770     2.5130    -8.3290 
  213.8750    82.6340    14.3650    13.7710    16.0210    24.5870     2.5160    -8.2680 
  214.0000    84.0340    14.1020    13.7110    16.0600    24.5660     2.5110    -8.2170 
  214.1250    88.1800    13.2860    13.0520    13.7250    24.5140     2.4930    -8.1590 
  214.2500    93.9400    12.1940    12.0130    12.2340    24.5250     2.4680    -8.0540 
  214.3750    98.0640    11.1220    10.8850    11.6990    24.5700     2.4420    -7.9530 
  214.5000    97.4950    10.3630     9.9550    10.8770    24.6470     2.4240    -7.8740 
  214.6250    94.4470    10.2240     9.5060     9.6390    24.8050     2.4180    -7.8470 
  214.7500    93.5190    10.6690     9.5460     9.3660    24.9150     2.4190    -7.8110 
  214.8750    93.4270    11.5920    10.0410    11.4680    24.9120     2.4200    -7.7550 
  215.0000    91.4360    12.7780    10.8720    13.9700    24.8510     2.4190    -7.6500 
  215.1250    87.8420    13.9000    11.8300    15.0120    24.8050     2.4170    -7.5090 
  215.2500    86.4650    14.6960    12.6370    14.9930    24.7980     2.4150    -7.4050 
  215.3750    89.0100    15.0740    13.1290    14.6240    24.8070     2.4120    -7.3140 
  215.5000    91.9060    15.0950    13.2880    14.6420    24.8120     2.4050    -7.2420 
  215.6250    88.7640    14.9110    13.2090    14.8660    24.7850     2.3910    -7.1720 
  215.7500    81.3330    14.7340    13.0760    15.1440    24.7300     2.3740    -7.0890 
  215.8750    74.7460    14.7080    12.9860    15.2970    24.6770     2.3660    -7.0020 
  216.0000    72.3550    15.0190    13.0520    15.3090    24.6430     2.3750    -6.9580 
  216.1250    72.4290    16.1290    13.5540    15.4220    24.5980     2.4050    -6.9740 
  216.2500    71.0640    18.3990    14.7710    16.3120    24.6030     2.4410    -7.0400 
  216.3750    67.8690    22.1880    17.1470    19.5540    24.6390     2.4830    -7.1180 
  216.5000    66.2830    27.4070    21.1020    26.9510    24.6290     2.5410    -7.1820 
  216.6250    67.1490    32.5750    26.4320    38.8700    24.6400     2.6280    -7.2100 
  216.7500    67.5070    34.8870    30.3490    51.5080    24.5940     2.7200    -7.2120 
  216.8750    66.7150    32.4140    29.3780    58.7370    24.5370     2.7770    -7.1880 
  217.0000    66.6420    25.5940    23.1490    53.9790    24.4920     2.7630    -7.1380 
  217.1250    66.5630    17.3670    15.6630    36.2370    24.3900     2.6730    -7.0590 
  217.2500    63.4580    10.9070    10.1500    17.9150    24.2120     2.5690    -6.9150 
  217.3750    59.5810     6.9640     6.8310     7.1370    24.0460     2.5000    -6.7090 
  217.5000    58.6810     5.0430     5.1190     3.9160    23.9430     2.4870    -6.4570 
  217.6250    62.2030     4.5170     4.5450     3.9120    23.8680     2.5070    -6.2360 
  217.7500    68.3480     4.6230     4.5720     4.2720    23.8400     2.5120    -6.0670 
  217.8750    76.2480     5.0490     4.9860     4.5710    23.8570     2.4680    -5.9060 
  218.0000    85.0370     5.5500     5.5790     4.7940    23.9120     2.3590    -5.7480 
  218.1250    91.4100     5.9050     6.0920     5.0490    24.0570     2.1930    -5.5740 
  218.2500    94.0210     6.0530     6.3660     5.3180    24.2890     2.0330    -5.3910 
  218.3750    91.1330     6.0250     6.3830     5.5180    24.5660     1.9370    -5.2450 
  218.5000    84.3280     5.9020     6.2340     5.6320    24.8800     1.9430    -5.1320 
  218.6250    80.4090     5.7840     6.0700     5.7160    25.1650     2.0510    -5.0180 
  218.7500    80.0210     5.7380     6.0070     5.7700    25.4800     2.1890    -4.8790 
  218.8750    79.9640     5.7940     6.0750     5.7970    25.2140     2.3050    -4.7680 
  219.0000    78.9480     5.9560     6.2500     5.8260    24.6980     2.3760    -4.7070 
  219.1250    79.7460     6.1930     6.4560     5.8690    24.4870     2.4040    -4.6770 
  219.2500    82.9710     6.4130     6.5870     5.9110    24.4770     2.4140    -4.7070 
  219.3750    86.1360     6.5440     6.5750     5.9380    24.4190     2.4170    -4.7780 
  219.5000    88.7750     6.5600     6.4190     5.9460    24.2940     2.4170    -4.8760 
  219.6250    91.5410     6.5000     6.1900     5.9750    24.3100     2.4170    -4.9880 
  219.7500    93.7420     6.4750     6.0140     6.0380    24.4420     2.4190    -5.1000 
  219.8750    94.7110     6.5710     5.9690     6.1160    24.5050     2.4190    -5.1660 
  220.0000    94.6540     6.8420     6.0880     6.1870    24.4640     2.4140    -5.1920 
  220.1250    95.2970     7.3730     6.4050     6.3220    24.3560     2.4010    -5.2110 
  220.2500    96.0250     8.1980     6.9020     6.5930    24.4150     2.3850    -5.2220 
  220.3750    95.0510     9.4110     7.6320     6.9270    24.5590     2.3720    -5.2250 
  220.5000    91.3010    11.1030     8.6860     7.3440    24.7550     2.3620    -5.2250 
  220.6250    86.0130    13.3570    10.2260     8.1090    24.8860     2.3550    -5.2320 
