~V
VERS. 2.00: Ver 2.00
~W
STRT.M 60.0000:
STOP.M 273.0000:
STEP.M 0.1250:
NULL. -999.2500:
UWI. F11028:
~C
DEPT.M :
DEN.GM/CC :
GR.API :
RML.OHMM :
RI. :
RXO.OHMM :
CALI.CM :
SP.MV :
~A
# ...
  172.5000     2.1470    68.7450    84.3850    75.8470   120.1610    22.6410   -21.3130 
  172.6250     2.1530    71.5240    76.5560    67.5680    96.0650    22.5530   -21.6640 
  172.7500     2.1560    79.0080    74.9580    64.3470    67.8930    22.4340   -22.0640 
  172.8750     2.1550    87.5610    79.9690    66.9600    58.0860    22.1860   -22.4870 
  173.0000     2.1490    88.0420    91.5280    75.7190    72.3230    22.2160   -22.9310 
  173.1250     2.1410    79.2300   110.2100    91.5650    98.9630    22.5810   -23.4280 
  173.2500     2.1340    71.4730   133.3920   112.3600   126.1250    22.4190   -23.9500 
  173.3750     2.1280    69.3120   157.6220   135.3630   126.0990    22.2330   -24.5220 
  173.5000     2.1250    71.5980   177.4240   156.1030    97.0570    22.3780   -25.1220 
  173.6250     2.1230    75.4890   183.7260   166.9450    82.6740    22.5290   -25.7610 
  173.7500     2.1240    76.2870   173.5740   163.9320   113.5560    22.5890   -26.3790 
  173.8750     2.1290    72.4530   148.8320   146.3530   168.3890    22.6220   -26.9880 
  174.0000     2.1380    68.1570   118.1060   119.7200   182.1730    22.6190   -27.6120 
  174.1250     2.1520    70.8010    92.3610    93.8810   112.8110    22.5640   -28.1940 
  174.2500     2.1690    76.7510    75.1420    74.8010    60.0780    22.5440   -28.8300 
  174.3750     2.1840    79.7420    66.2310    63.5090    36.9180    22.4810   -29.4890 
  174.5000     2.1940    78.8400    64.5920    59.3280    27.8410    22.2090   -30.1570 
  174.6250     2.1940    76.2530    70.7760    62.6240    24.3710    22.1020   -30.8870 
  174.7500     2.1850    74.2740    84.2200    72.6940    28.4670    22.1800   -31.6500 
  174.8750     2.1680    73.1830   106.2840    90.8740    42.6830    22.3390   -32.4360 
  175.0000     2.1480    71.3470   138.7720   118.9840    82.1920    22.5590   -33.1790 
  175.1250     2.1280    67.6640   184.9850   159.7630   197.0450    22.6180   -33.8740 
  175.2500     2.1100    63.1160   240.8000   208.4900   321.1350    22.6340   -34.4420 
  175.3750     2.0980    60.5700   297.7410   257.0230   331.7510    22.6490   -34.7850 
  175.5000     2.0910    60.1510   341.9880   293.7240   300.2630    22.7060   -34.9300 
  175.6250     2.0890    60.4980   361.4090   308.3040   289.5680    22.7030   -34.7660 
  175.7500     2.0900    61.2420   367.5410   309.8690   300.1750    22.6580   -34.3510 
  175.8750     2.0890    61.2390   371.8490   308.3230   320.5670    22.5760   -33.6970 
  176.0000     2.0840    60.9940   379.8500   309.4730   336.8000    22.4380   -32.8920 
  176.1250     2.0760    61.8350   390.6130   313.7150   333.6880    22.1320   -31.9520 
  176.2500     2.0680    62.5750   399.7420   317.9280   323.7750    21.8830   -30.9200 
  176.3750     2.0640    62.3220   404.3140   320.0110   320.7810    22.0560   -29.9210 
  176.5000     2.0680    60.7510   403.0030   318.7450   332.5390    22.3810   -28.9310 
  176.6250     2.0800    58.9400   396.0200   313.8390   292.9180    22.5350   -28.0430 
  176.7500     2.0950    58.4820   386.6040   307.2940   235.7790    22.3870   -27.2490 
  176.8750     2.1060    60.1240   376.3510   300.3200   198.5020    22.2120   -26.5290 
  177.0000     2.1110    62.4610   365.7150   293.3760   188.2530    22.1030   -25.8670 
  177.1250     2.1120    63.5240   353.8690   286.2350   212.0510    22.3080   -25.2180 
  177.2500     2.1130    62.6640   339.0970   277.9920   253.4190    22.6790   -24.6400 
  177.3750     2.1180    61.2770   318.6730   266.8470   282.1780    22.9740   -24.0660 
  177.5000     2.1300    62.1510   289.9460   250.4240   275.0400    23.0990   -23.5350 
  177.6250     2.1450    64.4620   251.2720   225.8320   243.1420    23.2120   -23.0610 
  177.7500     2.1610    65.9000   208.2800   195.2790   235.0170    23.3320   -22.6040 
  177.8750     2.1760    65.4930   167.2570   162.6170   202.0870    23.4750   -22.1890 
  178.0000     2.1880    64.6460   133.5940   132.8660   147.1840    23.5450   -21.8140 
  178.1250     2.1980    65.9730   110.5900   110.6800   107.8540    23.3670   -21.5760 
  178.2500     2.2060    70.0870    94.3130    94.5320    86.2870    23.2720   -21.3290 
  178.3750     2.2120    74.4540    81.1000    81.5600    74.2650    23.3340   -21.1410 
  178.5000     2.2180    74.3180    67.9540    68.8410    72.1690    23.3870   -21.0080 
  178.6250     2.2270    70.0430    53.9050    55.0350    80.8880    23.5500   -20.8500 
  178.7500     2.2420    68.1390    40.5940    41.6350    61.4070    23.7120   -20.7370 
  178.8750     2.2640    71.4180    29.6620    30.4520    31.8590    23.7480   -20.6560 
  179.0000     2.2920    78.7310    21.8050    22.3660    16.1770    23.7590   -20.6240 
  179.1250     2.3200    83.9620    17.2250    17.5800    13.6360    24.0180   -20.6010 
  179.2500     2.3420    85.5690    14.9340    14.9690    12.4820    24.0170   -20.6390 
  179.3750     2.3540    86.2770    14.6830    14.1790    11.0460    24.0600   -20.7090 
  179.5000     2.3540    87.1690    16.5180    15.1770    10.9960    24.0740   -20.7580 
  179.6250     2.3390    83.2430    21.2670    18.7400    15.4390    24.2980   -20.8650 
  179.7500     2.3150    74.6730    28.9710    25.2080    27.6080    24.3380   -20.9590 
  179.8750     2.2870    68.6280    39.5270    34.9400    47.3730    24.4840   -21.0540 
  180.0000     2.2610    69.9840    51.6330    47.1190    59.7680    24.6000   -21.1180 
  180.1250     2.2440    74.9050    61.3080    57.9910    57.8700    24.6130   -21.0780 
  180.2500     2.2370    79.0590    64.5760    62.8210    55.1000    24.6200   -21.0140 
  180.3750     2.2360    82.0150    60.1200    59.5310    54.3870    24.6310   -20.8910 
  180.5000     2.2410    83.5240    50.0750    49.8450    52.9710    24.6570   -20.7520 
  180.6250     2.2480    80.6930    38.6020    38.1320    44.7910    24.7700   -20.5900 
  180.7500     2.2560    76.6030    29.2960    28.4310    32.3380    24.8500   -20.4010 
  180.8750     2.2650    77.2180    23.4850    21.9620    19.7070    25.0010   -20.2210 
  181.0000     2.2720    83.0660    21.4810    18.7190    13.8540    25.1190   -20.0440 
  181.1250     2.2740    84.5910    23.9260    18.8590    14.8210    25.0030   -19.9550 
  181.2500     2.2700    79.9440    30.4360    22.0360    21.0190    24.5780   -19.8790 
  181.3750     2.2590    74.3770    41.4490    28.8780    36.9070    24.2380   -19.8490 
  181.5000     2.2430    72.9140    57.0980    39.9700    56.8510    23.9010   -19.8730 
  181.6250     2.2260    75.2430    76.4000    55.0570    59.2670    23.6130   -19.8840 
  181.7500     2.2090    77.8650    94.9720    70.2760    50.2440    23.1100   -19.9400 
  181.8750     2.1950    78.7060   109.1990    82.2450    46.4600    22.4560   -20.0060 
  182.0000     2.1850    77.3600   118.1020    89.8490    48.0920    22.1930   -20.1290 
  182.1250     2.1790    75.1100   122.9970    93.9630    49.7270    22.0160   -20.2330 
  182.2500     2.1770    73.2330   126.3540    96.6450    49.6780    21.8570   -20.3460 
  182.3750     2.1770    70.7760   128.6350    98.4080    47.5370    21.7010   -20.4770 
  182.5000     2.1770    68.0800   129.7600    99.3110    45.4120    21.5810   -20.5750 
  182.6250     2.1770    67.2060   129.4270    99.2690    41.5660    21.4160   -20.6860 
  182.7500     2.1770    67.0400   127.5420    98.3470    35.5300    21.3240   -20.7370 
  182.8750     2.1780    67.1120   122.9780    95.9410    29.9570    21.1950   -20.7550 
  183.0000     2.1840    67.1980   113.3560    90.3770    27.1630    21.0880   -20.6850 
  183.1250     2.1950    67.2670    94.9480    78.0460    24.7110    21.0690   -20.5320 
  183.2500     2.2120    69.2470    70.9840    60.2530    21.9860    21.0650   -20.3520 
  183.3750     2.2310    72.2220    47.3530    41.5370    18.8750    21.0790   -20.1220 
  183.5000     2.2510    75.9030    29.0960    26.5230    16.1020    21.2000   -19.9340 
  183.6250     2.2710    83.1950    18.5370    17.5060    12.4460    21.4620   -19.7810 
