~V
VERS. 2.00: Ver 2.00
~W
STRT.M 65.0000:
STOP.M 225.0000:
STEP.M 0.1250:
NULL. -999.2500:
UWI. F11012:
~C
DEPT.M :
SP.MV :
GR.API :
RML.OHMM :
RI. :
RXO.OHMM :
CALI.CM :
DEN.GM/CC :
~A
# ...
  155.0000   -14.2590    65.9180    51.8850    50.2900    93.2670    23.7970     2.3100 
  155.1250   -14.3320    63.1850    47.1170    45.7260    70.1980    23.7390     2.3200 
  155.2500   -14.4360    62.6450    42.5070    41.0710    39.9300    23.6870     2.3380 
  155.3750   -14.5460    64.1600    39.4180    37.7820    31.2030    23.7000     2.3470 
  155.5000   -14.6520    67.5100    38.1310    36.1280    33.0260    23.7440     2.3420 
  155.6250   -14.7550    71.9120    38.5130    35.9960    35.7500    23.7570     2.3310 
  155.7500   -14.8760    74.1970    40.3510    37.2680    36.5600    23.6830     2.3240 
  155.8750   -15.0010    72.4460    42.8420    39.2680    38.2890    23.6010     2.3190 
  156.0000   -15.1070    67.1220    45.5120    41.5460    41.9160    23.5450     2.3150 
  156.1250   -15.2090    61.6250    48.0560    43.7750    45.8960    23.5290     2.3120 
  156.2500   -15.3060    58.3430    50.2030    45.6660    49.3490    23.5230     2.3090 
  156.3750   -15.4150    58.4570    51.8340    47.0780    51.5640    23.4920     2.3080 
  156.5000   -15.5420    62.5420    52.8880    47.9260    53.0190    23.4290     2.3080 
  156.6250   -15.6700    66.9860    53.4670    48.2830    54.1080    23.3870     2.3100 
  156.7500   -15.7760    66.4580    53.8300    48.3560    55.5200    23.3780     2.3110 
  156.8750   -15.8660    64.6200    54.3010    48.4460    55.5000    23.3630     2.3140 
  157.0000   -15.9660    65.0100    54.9600    48.6460    56.2150    23.3260     2.3170 
  157.1250   -16.0630    66.8850    55.6560    48.8760    55.8030    23.3070     2.3190 
  157.2500   -16.1380    66.3520    56.0440    48.9050    56.1270    23.3320     2.3190 
  157.3750   -16.1890    64.8520    56.0180    48.6500    56.5510    23.3740     2.3190 
  157.5000   -16.2220    65.9120    55.7030    48.1980    58.7740    23.3960     2.3220 
  157.6250   -16.2550    69.1990    55.3940    47.7620    59.2080    23.4460     2.3240 
  157.7500   -16.2960    70.4910    55.5040    47.6540    52.4480    23.5390     2.3240 
  157.8750   -16.3440    68.8590    56.1720    48.0010    46.3360    23.6250     2.3200 
  158.0000   -16.4110    66.2790    57.3800    48.8250    48.9660    23.6840     2.3100 
  158.1250   -16.4770    64.2190    58.9840    50.0360    54.8560    23.7470     2.2980 
  158.2500   -16.5540    64.0040    60.8070    51.4950    56.0320    23.7720     2.2870 
  158.3750   -16.6490    65.7490    62.7010    53.0330    55.1860    23.7420     2.2820 
  158.5000   -16.7490    68.2140    64.7070    54.6590    58.7480    23.6930     2.2820 
  158.6250   -16.8580    70.0690    66.9460    56.4800    63.8510    23.6520     2.2820 
  158.7500   -16.9530    69.9990    69.5690    58.6660    65.1070    23.6280     2.2810 
  158.8750   -17.0450    69.1220    72.4380    61.1490    64.2500    23.6090     2.2800 
  159.0000   -17.1190    68.3930    75.2940    63.7390    66.0690    23.5890     2.2780 
  159.1250   -17.1780    69.8260    77.7620    66.1290    67.2650    23.5130     2.2780 
  159.2500   -17.2260    72.5630    79.2260    67.7900    66.9140    23.4000     2.2830 
  159.3750   -17.2700    71.8670    79.4280    68.4320    65.5710    23.3160     2.2920 
  159.5000   -17.3150    66.3090    78.2280    67.8730    64.4210    23.2400     2.2990 
  159.6250   -17.3390    58.7480    75.7970    66.1910    61.2540    23.1800     2.3000 
  159.7500   -17.3580    58.3490    72.5710    63.6870    57.5620    23.1450     2.2960 
  159.8750   -17.3710    62.3990    69.3740    61.0620    56.5090    23.1300     2.2930 
  160.0000   -17.3700    64.2360    66.7950    58.8210    56.2200    23.1370     2.2930 
  160.1250   -17.3660    62.6330    65.2780    57.3700    54.9620    23.1610     2.2950 
  160.2500   -17.3770    63.1300    65.3120    57.1550    51.0080    23.1790     2.2980 
  160.3750   -17.3790    65.6240    66.8240    58.1420    48.3860    23.1590     2.2980 
  160.5000   -17.3580    65.5940    70.0120    60.4720    51.4090    23.1450     2.2940 
  160.6250   -17.3320    62.9780    75.1770    64.3830    58.6720    23.1590     2.2880 
  160.7500   -17.3190    60.5630    82.8980    70.3940    64.0230    23.1940     2.2790 
  160.8750   -17.2930    59.8040    92.5100    78.0480    62.1110    23.1840     2.2730 
  161.0000   -17.2630    60.3260   102.9720    86.5880    61.6680    23.1240     2.2670 
  161.1250   -17.2490    60.2790   112.4100    94.5320    75.4120    23.1420     2.2610 
  161.2500   -17.2280    61.4080   117.8460    99.3860   104.0230    23.3820     2.2570 
  161.3750   -17.2040    63.7080   118.9860   100.6260   110.8570    23.7540     2.2600 
  161.5000   -17.1940    65.7050   117.4580    99.2890    90.5450    24.0990     2.2670 
  161.6250   -17.2020    66.0250   116.2260    97.6710    82.3690    24.2360     2.2710 
  161.7500   -17.2010    66.9980   118.8450    98.8700    83.0590    24.1830     2.2670 
  161.8750   -17.2250    67.4440   126.0810   104.0310    95.2170    24.1610     2.2540 
  162.0000   -17.2710    63.6040   137.1530   112.8640   120.5480    24.3930     2.2360 
  162.1250   -17.3450    59.0970   149.6180   123.5140   144.3160    24.6950     2.2150 
  162.2500   -17.4710    58.0410   159.1310   132.5160   152.9470    24.5570     2.2040 
  162.3750   -17.6360    57.6620   162.8280   137.2510   162.7650    24.2600     2.2080 
  162.5000   -17.8110    57.3650   159.6600   136.5620   166.5760    24.0260     2.2230 
  162.6250   -17.9640    59.8250   150.3050   130.6210   157.3930    23.9380     2.2400 
  162.7500   -18.0930    65.6320   136.0960   120.0780   144.6030    23.8850     2.2520 
  162.8750   -18.1940    68.3650   120.1400   107.4160   134.9360    23.8480     2.2590 
  163.0000   -18.2680    66.7090   104.4730    94.3810   120.7870    23.9020     2.2650 
  163.1250   -18.2780    63.6070    90.7930    82.5960    97.0550    24.0810     2.2720 
  163.2500   -18.2020    64.2910    80.9310    73.8300    74.6420    24.0990     2.2770 
  163.3750   -18.0720    67.8490    75.0200    68.3570    62.8820    23.9800     2.2770 
  163.5000   -17.9230    69.7760    73.2180    66.3770    59.9610    23.8000     2.2720 
  163.6250   -17.7680    67.4960    75.2850    67.8090    62.0730    23.5780     2.2660 
  163.7500   -17.6130    64.9990    80.7780    72.5680    71.7390    23.3980     2.2590 
  163.8750   -17.4610    63.6650    87.4380    78.8650    94.0510    23.5500     2.2530 
  164.0000   -17.3040    60.5640    93.0650    84.7580   128.2130    23.9770     2.2480 
  164.1250   -17.1720    56.3940    95.6150    88.1640   129.2510    24.2710     2.2470 
  164.2500   -17.0740    56.5750    93.7840    87.4250    98.6970    24.3370     2.2520 
  164.3750   -17.0000    61.1770    89.6240    84.0700    84.0740    24.3420     2.2590 
  164.5000   -16.9350    65.6490    85.2130    79.9370    78.6500    24.3420     2.2650 
  164.6250   -16.8880    66.5660    82.1500    76.6310    79.9240    24.3510     2.2690 
  164.7500   -16.8610    64.6410    81.4710    75.2880    79.1860    24.3630     2.2690 
  164.8750   -16.8430    62.0750    82.8020    75.7170    78.3900    24.3670     2.2660 
  165.0000   -16.8490    60.6620    86.0350    77.8110    80.6150    24.3550     2.2620 
  165.1250   -16.8600    62.1310    91.2560    81.5940    87.9460    24.3460     2.2590 
  165.2500   -16.8640    64.0180    98.9970    87.5180    91.9160    24.3430     2.2590 
  165.3750   -16.8700    62.4710   108.7620    95.2420    99.0460    24.3030     2.2580 
  165.5000   -16.8860    59.9700   119.8270   104.2450   117.4200    24.1740     2.2500 
  165.6250   -16.8990    61.2400   130.9210   113.5430   140.0140    23.9070     2.2370 
  165.7500   -16.8870    62.1100   140.1580   121.7370   151.3260    23.6490     2.2220 
  165.8750   -16.8790    58.1980   146.7710   128.2020   154.7350    23.4730     2.2140 
  166.0000   -16.8800    53.5760   150.8510   132.9860   147.5040    23.5350     2.2120 
  166.1250   -16.8950    55.2540   153.2860   136.8080   138.7890    23.7490     2.2100 
