~V
VERS. 2.00: Ver 2.00
~W
STRT.M 59.0000:
STOP.M 230.0000:
STEP.M 0.1250:
NULL. -999.2500:
UWI. F11001:
~C
DEPT.M :
GR.API :
RML.OHMM :
RI. :
RXO.OHMM :
CALI.CM :
SP.MV :
DEN.GM/CC :
~A
# ...
  182.7500    90.5830     7.4100     5.4820     5.6600    24.7070    -3.1730     2.3960 
  182.8750    91.8070     8.0970     5.9880     7.0770    24.7570    -3.6980     2.3880 
  183.0000    91.7370     8.9290     6.6450     8.6450    24.7800    -4.2820     2.3810 
  183.1250    93.2150     9.7890     7.3730     9.6370    24.8080    -4.8360     2.3760 
  183.2500    93.5370    10.5390     8.0500     9.9860    24.8180    -5.3790     2.3770 
  183.3750    90.9950    11.1200     8.6000     9.9410    24.8030    -5.9020     2.3860 
  183.5000    88.1400    11.5290     9.0050     9.6380    24.7500    -6.3350     2.4000 
  183.6250    87.1240    11.7950     9.2850     9.9320    24.6790    -6.6640     2.4160 
  183.7500    86.4710    11.9340     9.4440    10.4080    24.6240    -6.9050     2.4280 
  183.8750    85.8030    11.9770     9.5140    10.4510    24.5730    -7.0670     2.4320 
  184.0000    87.2040    11.9220     9.5060    10.3390    24.4700    -7.1450     2.4270 
  184.1250    92.1130    11.7750     9.4300    10.3000    24.3450    -7.1740     2.4150 
  184.2500    95.4930    11.5850     9.3120     9.5610    24.2870    -7.1280     2.3980 
  184.3750    95.0290    11.4730     9.2370     9.3240    24.3260    -7.0300     2.3810 
  184.5000    95.3830    11.5600     9.3100     9.0970    24.4730    -6.9070     2.3700 
  184.6250    97.5390    11.9190     9.6090     9.0470    24.6440    -6.7600     2.3670 
  184.7500    95.8630    12.5400    10.1750     9.9150    24.7210    -6.6080     2.3760 
  184.8750    89.9460    13.2030    10.8580    11.5860    24.6240    -6.4290     2.3910 
  185.0000    84.5910    13.7070    11.4880    13.6450    24.3990    -6.2790     2.4070 
  185.1250    84.2210    13.9100    11.9020    17.0100    24.1940    -6.2290     2.4170 
  185.2500    89.4940    13.7730    12.0040    15.1440    24.0110    -6.2390     2.4130 
  185.3750    92.5860    13.4910    11.9460    12.1860    23.8690    -6.3520     2.3980 
  185.5000    90.2590    13.2050    11.8570    11.0860    23.8380    -6.5090     2.3790 
  185.6250    86.8520    12.9840    11.8030    11.6180    23.8820    -6.7050     2.3600 
  185.7500    87.7170    12.8280    11.7910    11.9940    23.9290    -6.8770     2.3490 
  185.8750    88.6510    12.7160    11.7920    11.7730    24.0750    -7.0590     2.3460 
  186.0000    88.3010    12.6960    11.8160    12.0340    24.3160    -7.2160     2.3480 
  186.1250    89.4740    12.8530    11.9280    12.7440    24.5410    -7.3340     2.3510 
  186.2500    91.3500    13.2730    12.2320    13.1630    24.6100    -7.4790     2.3470 
  186.3750    91.4930    13.8220    12.6720    13.4700    24.6500    -7.6020     2.3360 
  186.5000    91.1430    14.2820    13.0850    12.7320    24.6570    -7.7140     2.3230 
  186.6250    89.3040    14.4080    13.2410    13.1680    24.6200    -7.8570     2.3130 
  186.7500    84.0370    13.9960    12.8840    13.4170    24.5580    -8.0200     2.3090 
  186.8750    81.0500    13.2860    12.1790    13.0090    24.5900    -8.2240     2.3090 
  187.0000    85.4130    12.6910    11.4770    11.8660    24.6800    -8.4910     2.3090 
  187.1250    91.2440    12.7580    11.2290    12.2690    24.7430    -8.8740     2.3090 
  187.2500    88.9750    14.6960    12.2290    11.4410    24.7280    -9.3770     2.3160 
  187.3750    80.3270    19.7600    15.3980    11.9590    24.6210   -10.0450     2.3330 
  187.5000    73.0300    29.7400    22.7590    16.2800    24.4220   -10.8660     2.3540 
  187.6250    70.2830    47.1550    37.6510    35.9000    24.1990   -11.8090     2.3690 
  187.7500    68.2120    77.8250    66.7540    60.7610    24.2290   -12.8660     2.3590 
  187.8750    64.6740   120.8440   109.3280    60.1320    24.5400   -13.9560     2.3260 
  188.0000    61.9610   168.6050   156.8150    59.5220    25.0560   -15.0750     2.2780 
  188.1250    61.6040   207.1490   192.3190    68.4540    25.3600   -16.1290     2.2320 
  188.2500    61.9980   222.8340   202.5850    89.6020    25.4000   -17.1170     2.2030 
  188.3750    61.8880   222.2900   199.2760   107.9330    25.3610   -17.9960     2.1930 
  188.5000    61.7660   214.5380   191.7470    97.0660    25.3480   -18.7810     2.1950 
  188.6250    61.5610   205.3700   183.5360    81.3870    25.3600   -19.4470     2.2020 
  188.7500    60.8300   196.0230   174.7580    86.0270    25.4000   -19.9880     2.2060 
  188.8750    62.7640   186.4350   165.7480   100.9720    25.4450   -20.5060     2.2040 
  189.0000    66.7200   177.0480   157.1240   109.1960    25.4530   -20.9890     2.1970 
  189.1250    69.4170   168.6180   149.5890   108.2430    25.4360   -21.4400     2.1900 
  189.2500    69.0780   162.3320   144.2060   111.0660    25.4250   -21.8190     2.1850 
  189.3750    68.2040   158.5040   141.2340   120.7550    25.4030   -22.1260     2.1840 
  189.5000    67.9390   157.2260   140.8100   130.8110    25.3660   -22.4090     2.1850 
  189.6250    68.8700   158.0840   142.6130   152.6140    25.3430   -22.6810     2.1890 
  189.7500    70.8450   160.2670   145.9120   179.1870    25.3400   -22.9750     2.1900 
  189.8750    71.7040   162.3870   149.2560   219.2150    25.3310   -23.2130     2.1870 
  190.0000    70.0110   163.5670   151.7100   234.9150    25.3010   -23.3910     2.1790 
  190.1250    67.1440   163.3000   152.7300   211.0960    25.2590   -23.4610     2.1670 
  190.2500    64.3170   161.2760   151.9460   175.7180    25.2430   -23.3810     2.1580 
  190.3750    61.6470   158.0990   149.8620   164.1260    25.2420   -23.1820     2.1560 
  190.5000    60.7170   154.3040   146.9170   170.5780    25.2800   -22.9240     2.1600 
  190.6250    62.3760   150.4770   143.7020   182.5790    25.3160   -22.6720     2.1680 
  190.7500    64.3910   147.2380   140.9520   178.1140    25.2720   -22.3710     2.1760 
  190.8750    65.8520   144.7450   138.9870   134.4480    25.1520   -22.1060     2.1850 
  191.0000    66.5260   142.9630   137.8310   106.4900    25.0520   -21.8510     2.1940 
  191.1250    65.7330   141.7590   137.3560    93.3440    25.1150   -21.7050     2.2030 
  191.2500    64.7600   141.1030   137.5390    84.0880    25.2030   -21.7570     2.2030 
  191.3750    66.5640   140.9000   138.2690    71.9200    25.1660   -21.9170     2.1900 
  191.5000    70.3640   141.1330   139.5370    64.3230    25.0310   -22.0480     2.1640 
  191.6250    72.5470   141.6670   141.2100    70.2600    24.9690   -22.0700     2.1320 
  191.7500    72.5480   142.0870   142.8610    85.8620    24.9410   -22.0700     2.1100 
  191.8750    71.4990   141.8480   143.8320    98.2720    24.8410   -22.0550     2.1030 
  192.0000    68.1630   140.5290   143.5690    83.8910    24.7630   -22.0630     2.1100 
  192.1250    64.0360   137.9940   141.7820    80.1970    24.9840   -22.0390     2.1260 
  192.2500    64.2290   134.4500   138.4950    82.4090    25.1440   -21.9290     2.1440 
  192.3750    68.7100   130.8000   134.6970    94.8350    25.2060   -21.8330     2.1590 
  192.5000    71.8050   127.8370   131.2760   108.1370    25.1930   -21.8050     2.1720 
  192.6250    69.9880   126.2750   129.0490   115.0710    25.1620   -21.8500     2.1830 
  192.7500    67.5710   127.0890   129.0590   119.8980    25.1470   -21.9280     2.1910 
  192.8750    68.1860   130.3610   131.4770   121.2840    25.1420   -22.0320     2.1980 
  193.0000    70.1860   136.2000   136.4700   126.1230    25.1430   -22.1470     2.2020 
  193.1250    70.4100   144.3110   143.8080   132.1340    25.1480   -22.2810     2.2050 
  193.2500    69.3560   153.8230   152.7230   154.4670    25.1620   -22.5230     2.2050 
  193.3750    68.4980   162.7950   161.2650   181.0660    25.1810   -22.7600     2.2040 
  193.5000    66.9630   169.6530   167.7650   218.2600    25.1990   -23.0060     2.2000 
  193.6250    65.8210   173.5340   171.2130   226.1050    25.2050   -23.3440     2.1960 
  193.7500    67.0680   174.5840   171.6340   208.5120    25.2000   -23.7380     2.1920 
  193.8750    67.2490   175.0510   171.3760   186.8090    25.1910   -24.1920     2.1900 
