~V
VERS. 2.00: Ver 2.00
~W
STRT.M 50.0000:
STOP.M 275.0000:
STEP.M 0.1250:
NULL. -999.2500:
UWI. F11033:
~C
DEPT.M :
DEN.GM/CC :
GR.API :
RML.OHMM :
RI. :
RXO.OHMM :
CALI.CM :
SP.MV :
~A
# ...
   61.2500     2.1910    83.2330     5.2590     6.0340     5.4440    23.8770   -17.2820 
   61.3750     2.2090    84.1300     5.1820     6.3470     5.9240    23.8580   -18.2980 
   61.5000     2.2270    86.2650     5.1330     6.4750     6.5740    23.9830   -19.0490 
   61.6250     2.2340    88.6540     5.1210     6.4590     6.3360    24.3020   -19.6720 
   61.7500     2.2280    88.7670     5.1090     6.3720     5.6900    24.6830   -20.2270 
   61.8750     2.2170    87.8170     5.1220     6.2960     5.3770    24.9950   -20.6310 
   62.0000     2.2060    88.7080     5.2510     6.3380     5.3830    25.1550   -21.0690 
   62.1250     2.1890    89.4750     5.6510     6.6380     5.4310    25.1890   -21.5790 
   62.2500     2.1670    87.1200     6.3340     7.1910     5.4760    25.1650   -21.9880 
   62.3750     2.1500    82.7820     7.2180     7.9190     5.9230    25.0720   -22.3330 
   62.5000     2.1520    81.6760     8.0810     8.6440     6.9560    24.8870   -22.7170 
   62.6250     2.1690    84.3540     8.5380     9.0800     7.5020    24.6640   -23.1150 
   62.7500     2.1850    86.5000     8.5270     9.1510     7.0870    24.4580   -23.4220 
   62.8750     2.1960    86.7730     8.2240     8.9370     6.3420    24.2640   -23.7470 
   63.0000     2.2010    84.6150     7.8830     8.5990     6.1740    24.0490   -24.0230 
   63.1250     2.2000    81.1590     7.6710     8.2700     6.2450    23.9360   -24.1910 
   63.2500     2.1960    80.3990     7.5270     7.9780     6.2840    23.9060   -24.3650 
   63.3750     2.1970    83.5830     7.3170     7.6760     6.4060    23.8970   -24.5710 
   63.5000     2.2020    87.4960     6.9750     7.3240     6.4400    23.8880   -24.8170 
   63.6250     2.2070    89.7740     6.6120     6.9480     6.0550    23.8800   -25.0170 
   63.7500     2.2110    92.3250     6.3910     6.6260     5.8660    23.8710   -25.2500 
   63.8750     2.2150    93.9240     6.3480     6.3900     6.0760    23.8800   -25.5200 
   64.0000     2.2170    91.6020     6.4290     6.2360     6.3870    24.0010   -25.8180 
   64.1250     2.2220    85.1620     6.6080     6.2020     7.1870    24.2740   -26.1580 
   64.2500     2.2460    79.7690     6.9770     6.3840     8.1210    24.5060   -26.4710 
   64.3750     2.2970    75.8230     7.7730     6.9770     8.8090    24.6190   -26.8200 
   64.5000     2.3730    71.4360     9.2400     8.2290    10.5340    24.7110   -27.1000 
   64.6250     2.4540    68.0770    11.6900    10.6120    18.0310    24.8650   -27.3710 
   64.7500     2.5130    66.8540    15.0370    14.1600    34.9370    25.0220   -27.6950 
   64.8750     2.5310    65.8120    19.0870    18.5670    57.9730    25.0950   -28.0230 
   65.0000     2.5110    64.6410    22.9350    22.6050    62.5650    25.1020   -28.3200 
   65.1250     2.4650    64.4210    23.9590    23.8180    45.5150    25.1030   -28.6190 
   65.2500     2.4100    64.8490    21.5720    22.0610    30.6950    25.0860   -28.9890 
   65.3750     2.3380    65.1700    17.6560    18.6440    24.8410    25.0580   -29.3530 
   65.5000     2.2510    66.1690    14.0970    14.9880    22.1360    25.0180   -29.7550 
   65.6250     2.1780    66.9600    11.5630    11.9690    17.2590    24.9900   -30.2110 
   65.7500     2.1410    66.7870     9.7520     9.6730    11.2950    25.0450   -30.6400 
   65.8750     2.1360    66.3340     8.5230     8.0540     8.9250    25.1710   -31.0090 
   66.0000     2.1470    64.3360     7.8410     7.0630     8.5860    25.2540   -31.3290 
   66.1250     2.1630    60.4280     7.8820     6.8140     8.6880    25.2830   -31.5550 
   66.2500     2.1810    58.1660     8.6260     7.2330     8.8980    25.3040   -31.6830 
   66.3750     2.2030    58.9190    10.0920     8.3080     9.4470    25.3060   -31.7700 
   66.5000     2.2300    60.6990    12.1570     9.9250    11.5750    25.2490   -31.8480 
   66.6250     2.2380    62.3260    14.2330    11.6820    20.4960    25.1040   -31.9110 
   66.7500     2.2090    63.0120    15.2690    12.8070    37.9970    24.9780   -31.9950 
   66.8750     2.1500    61.5200    14.7040    12.7720    40.6570    24.8350   -32.1150 
   67.0000     2.0940    59.2110    13.0200    11.7050    22.3360    24.7320   -32.2570 
   67.1250     2.0660    60.5870    11.2910    10.2600    13.2270    24.7580   -32.4360 
   67.2500     2.0620    64.9340    10.1240     9.0660    10.5900    24.9380   -32.6230 
   67.3750     2.0760    67.6950     9.5820     8.3140    10.1260    25.1980   -32.7740 
   67.5000     2.0940    65.6150     9.5260     7.9880     9.9670    25.3170   -32.8610 
   67.6250     2.0960    62.2570     9.7500     7.9780     9.8550    25.1910   -32.8920 
   67.7500     2.0820    61.8410     9.9930     8.0540     9.8710    25.0740   -32.8770 
   67.8750     2.0630    62.3820    10.1530     8.1150     9.9550    25.1610   -32.8150 
   68.0000     2.0540    60.4490    10.2230     8.1310     9.9890    25.4820   -32.7270 
   68.1250     2.0600    57.9120    10.2460     8.1250     9.9460    25.7690   -32.6160 
   68.2500     2.0730    57.6070    10.2710     8.1330     9.9630    25.7390   -32.4830 
   68.3750     2.0890    59.7250    10.2960     8.1600    10.0560    25.5010   -32.3320 
   68.5000     2.1000    63.0260    10.2810     8.1790    10.1260    25.2570   -32.1530 
   68.6250     2.1050    67.6550    10.1740     8.1380    10.2400    25.1540   -31.9460 
   68.7500     2.1100    71.3680     9.9850     8.0240    10.2500    25.1200   -31.7380 
   68.8750     2.1210    71.9030     9.7530     7.8590     9.9250    25.0910   -31.5440 
   69.0000     2.1380    70.8900     9.5430     7.6860     9.0920    25.0330   -31.3660 
   69.1250     2.1490    71.0800     9.4420     7.5670     8.0780    24.9760   -31.2300 
   69.2500     2.1460    71.0520     9.4840     7.5290     8.2510    24.9760   -31.1460 
   69.3750     2.1340    67.6370     9.6680     7.5780     9.2940    25.0030   -31.1080 
   69.5000     2.1210    62.2200     9.9590     7.7010    10.2490    25.0630   -31.1100 
   69.6250     2.1130    59.4590    10.3130     7.8860    10.5720    25.1550   -31.1540 
   69.7500     2.1200    58.3570    10.6890     8.1090    10.4980    25.2270   -31.2260 
   69.8750     2.1500    57.2890    11.0740     8.3550    10.4180    25.1800   -31.2970 
   70.0000     2.2010    57.1370    11.4420     8.5950    10.4570    24.9770   -31.3600 
   70.1250     2.2430    59.7320    11.7160     8.7710    10.7330    24.8180   -31.4040 
   70.2500     2.2360    62.5210    11.8150     8.8340    11.2370    24.7440   -31.4360 
   70.3750     2.1840    62.9890    11.6870     8.7520    11.8950    24.6870   -31.4360 
   70.5000     2.1290    61.3120    11.3660     8.5410    11.6260    24.6110   -31.4150 
   70.6250     2.1020    59.8900    10.9780     8.2580    10.8130    24.5380   -31.3860 
   70.7500     2.0890    60.1430    10.6770     7.9930    10.3090    24.4920   -31.3200 
   70.8750     2.0780    61.0060    10.5210     7.7950    10.1990    24.4870   -31.2410 
   71.0000     2.0710    61.0320    10.4930     7.6830    10.1620    24.5380   -31.1640 
   71.1250     2.0720    60.1820    10.5240     7.6500    10.0920    24.6420   -31.1050 
   71.2500     2.0800    60.2790    10.5320     7.6440    10.0100    24.7690   -31.0390 
   71.3750     2.0940    61.0300    10.4980     7.6370     9.7590    24.7840   -30.9510 
   71.5000     2.1110    60.6910    10.4350     7.6210     9.4250    24.6150   -30.8530 
   71.6250     2.1270    60.0280    10.3620     7.6000     9.3410    24.3260   -30.7690 
   71.7500     2.1350    60.2240    10.2920     7.5850     9.5370    24.1070   -30.6850 
   71.8750     2.1370    60.0630    10.2310     7.5780     9.9190    23.9920   -30.6290 
   72.0000     2.1360    58.9140    10.1820     7.5750    10.2790    23.9580   -30.6210 
   72.1250     2.1390    58.6340    10.1330     7.5560    10.4580    24.0000   -30.5970 
   72.2500     2.1420    60.3970    10.0580     7.5050    10.4350    24.1330   -30.5360 
   72.3750     2.1400    61.4240     9.9400     7.4180    10.2100    24.3640   -30.4890 
