~V
VERS. 2.00: Ver 2.00
~W
STRT.M 58.0000:
STOP.M 271.0000:
STEP.M 0.1250:
NULL. -999.2500:
UWI. F11072:
~C
DEPT.M :
DEN.GM/CC :
GR.API :
RML.OHMM :
RI. :
RXO.OHMM :
CALI.CM :
SP.MV :
~A
# ...
  103.0000     2.2210    62.1760     9.7470     7.8510     7.4080    23.0970   -10.9790 
  103.1250     2.2140    60.3920     9.9130     8.0360     7.5370    22.9120   -11.3660 
  103.2500     2.2120    61.4290     9.9250     8.1050     7.6880    22.7850   -11.6930 
  103.3750     2.2140    64.4200     9.8370     8.0880     7.8260    22.7340   -11.9740 
  103.5000     2.2200    66.7100     9.7280     8.0410     7.9250    22.7510   -12.2170 
  103.6250     2.2310    65.8040     9.6830     8.0200     7.9600    22.7790   -12.4280 
  103.7500     2.2400    64.3850     9.7070     8.0380     8.0870    22.7530   -12.6220 
  103.8750     2.2440    63.5540     9.7660     8.0770     8.1480    22.7000   -12.8130 
  104.0000     2.2390    62.0540     9.8070     8.1060     7.9920    22.6320   -13.0100 
  104.1250     2.2260    59.0940     9.7730     8.0890     7.7490    22.5140   -13.2070 
  104.2500     2.2120    57.0360     9.6670     8.0260     7.6200    22.4930   -13.3850 
  104.3750     2.2010    57.2260     9.5130     7.9320     7.6810    22.6230   -13.5370 
  104.5000     2.1960    58.1430     9.3490     7.8320     7.8090    22.8160   -13.6620 
  104.6250     2.1990    59.0830     9.2070     7.7500     7.9790    23.0190   -13.7500 
  104.7500     2.2040    58.4840     9.1020     7.6950     8.0510    23.1640   -13.8170 
  104.8750     2.2090    57.5090     9.0390     7.6670     8.1010    23.2140   -13.8670 
  105.0000     2.2100    58.9920     9.0220     7.6600     8.1130    23.2230   -13.9070 
  105.1250     2.2050    61.1590     9.0570     7.6680     8.3050    23.2420   -13.9350 
  105.2500     2.1940    61.2820     9.1240     7.6810     8.6010    23.2630   -13.9520 
  105.3750     2.1800    59.6290     9.1930     7.6900     8.7790    23.3160   -13.9580 
  105.5000     2.1670    57.2210     9.2310     7.6850     8.7170    23.3930   -13.9510 
  105.6250     2.1600    52.9310     9.2020     7.6560     8.5800    23.4210   -13.9250 
  105.7500     2.1600    49.8510     9.1170     7.6050     8.4350    23.4390   -13.8790 
  105.8750     2.1670    52.6100     9.0020     7.5420     8.3960    23.4740   -13.8180 
  106.0000     2.1790    58.3060     8.9030     7.4880     8.4630    23.4960   -13.7390 
  106.1250     2.1940    59.1520     8.8870     7.4830     8.5880    23.5250   -13.6440 
  106.2500     2.2070    57.7380     8.9770     7.5460     8.7170    23.5590   -13.5530 
  106.3750     2.2140    59.0980     9.1620     7.6760     8.6960    23.5390   -13.4710 
  106.5000     2.2150    62.8690     9.3940     7.8470     8.5830    23.4480   -13.4070 
  106.6250     2.2090    63.3950     9.5830     8.0010     8.4720    23.2510   -13.3810 
  106.7500     2.2000    60.4130     9.6630     8.0890     8.3270    22.8860   -13.3920 
  106.8750     2.1910    58.2950     9.6110     8.0850     8.2000    22.4760   -13.4320 
  107.0000     2.1850    60.3680     9.4520     7.9960     8.3400    22.2850   -13.5040 
  107.1250     2.1820    63.7370     9.2530     7.8580     8.7180    22.2560   -13.6200 
  107.2500     2.1800    63.9510     9.0910     7.7260     9.0330    22.2620   -13.7620 
  107.3750     2.1790    60.5760     8.9970     7.6300     9.1870    22.2960   -13.9180 
  107.5000     2.1770    57.3590     8.9680     7.5780     9.2360    22.3360   -14.0820 
  107.6250     2.1750    57.1670     8.9770     7.5630     9.1540    22.4100   -14.2480 
  107.7500     2.1720    59.0600     8.9870     7.5620     9.1120    22.5150   -14.4050 
  107.8750     2.1690    61.3050     8.9890     7.5660     9.1770    22.6050   -14.5400 
  108.0000     2.1690    61.0740     8.9860     7.5750     9.4330    22.6970   -14.6450 
  108.1250     2.1740    59.2960     8.9840     7.5930     9.7130    22.8840   -14.6920 
  108.2500     2.1820    58.1100     8.9800     7.6160    10.0150    23.1400   -14.6870 
  108.3750     2.1930    58.4440     8.9700     7.6380    10.5640    23.4200   -14.6390 
  108.5000     2.2010    59.9650     8.9550     7.6540    11.0750    23.6610   -14.5540 
  108.6250     2.2050    61.5650     8.9380     7.6540    11.2930    23.7820   -14.4210 
  108.7500     2.2050    63.0400     8.9190     7.6380    11.3080    23.7920   -14.2600 
  108.8750     2.2040    62.9720     8.8850     7.6030    11.3460    23.7730   -14.0810 
  109.0000     2.2010    60.5970     8.8220     7.5450    11.3930    23.7440   -13.8950 
  109.1250     2.1970    58.0260     8.7190     7.4610    11.2640    23.7260   -13.7170 
  109.2500     2.1900    57.6340     8.6030     7.3680    10.7040    23.7570   -13.5590 
  109.3750     2.1830    59.2720     8.5190     7.2940     9.6730    23.7890   -13.4280 
  109.5000     2.1820    61.6030     8.5190     7.2740     8.7080    23.7920   -13.3320 
  109.6250     2.1930    65.3030     8.6510     7.3480     8.3350    23.7920   -13.2870 
  109.7500     2.2150    68.8550     8.8740     7.4980     8.3110    23.7560   -13.2830 
  109.8750     2.2400    70.0160     9.1250     7.6890     8.3560    23.6720   -13.3170 
  110.0000     2.2560    68.8790     9.3260     7.8670     8.2860    23.5470   -13.3750 
  110.1250     2.2520    66.5070     9.3900     7.9610     8.2770    23.3540   -13.4430 
  110.2500     2.2360    62.2820     9.3240     7.9570     8.4270    23.1780   -13.5070 
  110.3750     2.2180    56.9710     9.1690     7.8690     8.6560    23.0580   -13.5590 
  110.5000     2.2060    53.1540     8.9850     7.7370     8.8150    22.9720   -13.5890 
  110.6250     2.2040    52.0000     8.8350     7.6070     8.8870    22.9030   -13.5900 
  110.7500     2.2060    52.8290     8.7490     7.5130     8.8330    22.8720   -13.5660 
  110.8750     2.2080    56.3170     8.7360     7.4690     8.6330    22.8330   -13.5190 
  111.0000     2.2060    60.4250     8.7870     7.4750     8.3260    22.7610   -13.4580 
  111.1250     2.1980    62.1010     8.8790     7.5180     8.0730    22.6880   -13.3860 
  111.2500     2.1910    62.6740     8.9550     7.5550     8.0070    22.6040   -13.2950 
  111.3750     2.1930    63.9910     8.9530     7.5430     8.3010    22.5490   -13.1860 
  111.5000     2.2080    65.7790     8.8340     7.4510     8.4620    22.5530   -13.0730 
  111.6250     2.2340    67.3760     8.6010     7.2760     8.3340    22.5830   -12.9930 
  111.7500     2.2550    70.2940     8.3610     7.0900     7.9780    22.6180   -12.9720 
  111.8750     2.2640    74.0210     8.2180     6.9660     7.5090    22.7020   -13.0220 
  112.0000     2.2550    75.9570     8.2470     6.9660     7.1710    22.8170   -13.1470 
  112.1250     2.2340    72.9340     8.4870     7.1330     7.3940    22.9780   -13.3480 
  112.2500     2.2130    66.9620     8.8330     7.4070     8.1770    23.1560   -13.6110 
  112.3750     2.1990    61.0040     9.1850     7.7190     9.0680    23.3400   -13.9280 
  112.5000     2.1910    56.7780     9.4480     7.9900     9.6280    23.5280   -14.2830 
  112.6250     2.1900    54.2600     9.5490     8.1420     9.7970    23.6860   -14.6370 
  112.7500     2.1910    53.9510     9.5330     8.1790     9.7930    23.7710   -14.9510 
  112.8750     2.1940    56.5140     9.4630     8.1410     9.7310    23.8800   -15.2070 
  113.0000     2.1980    60.2130     9.4060     8.0850     9.6570    24.1010   -15.4000 
  113.1250     2.1950    61.5990     9.4190     8.0690     9.5670    24.3790   -15.5310 
  113.2500     2.1810    61.5090     9.4980     8.1110     9.5040    24.5910   -15.6160 
  113.3750     2.1530    62.2190     9.6260     8.2050     9.4980    24.7240   -15.6600 
  113.5000     2.1200    62.2480     9.7770     8.3360     9.5750    24.8140   -15.6670 
  113.6250     2.1090    59.7330     9.9210     8.4850     9.6980    24.9250   -15.6340 
  113.7500     2.1340    58.4060    10.0300     8.6260     9.7520    25.0350   -15.5690 
  113.8750     2.1920    58.2150    10.0740     8.7270     9.8080    25.0710   -15.4790 
  114.0000     2.2640    57.0530    10.0300     8.7610    10.3030    25.0320   -15.3770 
  114.1250     2.3070    56.1980     9.8760     8.6930    10.1920    24.8810   -15.2750 
