~V
VERS. 2.00: Ver 2.00
~W
STRT.M 52.0000:
STOP.M 286.0000:
STEP.M 0.1250:
NULL. -999.2500:
UWI. F11061:
~C
DEPT.M :
GR.API :
RML.OHMM :
RI. :
RXO.OHMM :
CALI.CM :
DEN.GM/CC :
SP.MV :
~A
# ...
  142.0000    58.8070    10.5600    10.0460    14.1610    23.2970     2.3650   -13.8540 
  142.1250    65.3210     8.9710     8.6930    13.1190    23.5830     2.3080   -13.6590 
  142.2500    72.5500     7.3570     7.2300     9.8170    23.8650     2.2520   -13.5400 
  142.3750    75.7540     6.0610     5.9800     6.8570    24.1970     2.2080   -13.4910 
  142.5000    75.3540     5.3310     5.1850     5.5120    24.5350     2.1900   -13.4940 
  142.6250    75.9280     5.1310     4.8420     5.2040    24.7360     2.1980   -13.5590 
  142.7500    79.1010     5.3810     4.9080     5.4260    24.7530     2.2340   -13.6890 
  142.8750    81.7470     5.9900     5.3240     6.0630    24.5680     2.2910   -13.8580 
  143.0000    81.1520     6.8250     6.0030     6.8780    24.3730     2.3540   -14.0480 
  143.1250    77.5020     7.6460     6.7450     7.6830    24.2370     2.4040   -14.2650 
  143.2500    71.9490     8.2290     7.3490     8.7580    24.1780     2.4260   -14.4970 
  143.3750    68.0790     8.4140     7.6520    10.2050    24.1510     2.4160   -14.7330 
  143.5000    71.1330     8.1500     7.5570    10.7580    24.1330     2.3830   -14.9820 
  143.6250    76.5900     7.6830     7.2310     9.4150    24.1270     2.3450   -15.2420 
  143.7500    76.8300     7.3090     6.9120     7.6490    24.1480     2.3110   -15.4980 
  143.8750    71.6470     7.2500     6.7950     6.6730    24.1470     2.2830   -15.7500 
  144.0000    66.8890     7.6140     7.0010     6.8480    24.0760     2.2630   -15.9880 
  144.1250    65.4250     8.2290     7.4320     7.6530    23.9850     2.2480   -16.1970 
  144.2500    65.1850     8.8550     7.9200     8.5970    23.9250     2.2380   -16.3720 
  144.3750    65.0460     9.2650     8.2840     9.2660    23.9200     2.2330   -16.4870 
  144.5000    65.1320     9.2750     8.3550     9.1710    23.9890     2.2310   -16.5220 
  144.6250    65.2000     8.9850     8.1790     8.6550    24.1210     2.2310   -16.4950 
  144.7500    65.6280     8.6350     7.9230     8.1660    24.2660     2.2320   -16.4190 
  144.8750    66.5210     8.5070     7.8010     7.9810    24.3610     2.2350   -16.2920 
  145.0000    66.4960     8.8980     8.0660     8.1500    24.4020     2.2480   -16.1090 
  145.1250    64.8770     9.7710     8.7390     8.7550    24.4330     2.2750   -15.8840 
  145.2500    60.9870    10.8660     9.6670    10.0240    24.4790     2.3130   -15.6270 
  145.3750    56.2250    11.7530    10.5320    12.0420    24.5250     2.3510   -15.3410 
  145.5000    54.7990    11.8550    10.8290    15.0020    24.4920     2.3720   -15.0250 
  145.6250    59.6540    11.0570    10.3310    19.0700    24.3460     2.3680   -14.6760 
  145.7500    69.1690     9.5930     9.1470    20.3250    24.0700     2.3470   -14.3080 
  145.8750    77.7730     7.9620     7.6780    14.6230    23.6480     2.3210   -13.9560 
  146.0000    81.0870     6.7850     6.4430     8.8100    23.2320     2.3040   -13.6470 
  146.1250    82.6730     6.0760     5.6680     6.4860    23.0390     2.2970   -13.3680 
  146.2500    84.8770     5.8780     5.3580     6.0440    23.0310     2.2990   -13.1220 
  146.3750    84.7180     6.0700     5.4270     6.0920    23.0270     2.3080   -12.9380 
  146.5000    79.9980     6.4620     5.7480     6.4460    22.9890     2.3240   -12.8480 
  146.6250    75.3200     6.8410     6.1270     6.9160    22.9350     2.3440   -12.8120 
  146.7500    73.0080     7.0620     6.4150     7.2390    22.8700     2.3620   -12.8160 
  146.8750    71.9930     7.0570     6.5200     7.5240    22.8100     2.3750   -12.8560 
  147.0000    73.3400     6.8080     6.3910     7.9360    22.7720     2.3750   -12.9340 
  147.1250    78.8310     6.4340     6.1140     7.8390    22.7760     2.3690   -13.0430 
  147.2500    85.2580     6.0900     5.8160     6.9220    22.8160     2.3620   -13.1730 
  147.3750    87.9440     5.9350     5.6350     6.0780    22.8860     2.3630   -13.3240 
  147.5000    85.7430     6.1190     5.7180     5.7330    22.9650     2.3770   -13.4930 
  147.6250    81.0580     6.5940     6.0580     5.9490    23.0490     2.3980   -13.6710 
  147.7500    75.3710     7.2160     6.5630     6.6290    23.1230     2.4170   -13.8410 
  147.8750    69.1620     7.7810     7.0760     7.7520    23.1900     2.4250   -14.0020 
  148.0000    64.4740     8.0450     7.3770     9.2770    23.2930     2.4150   -14.1490 
  148.1250    64.3150     7.9660     7.3840     9.9000    23.4940     2.3910   -14.2820 
  148.2500    68.1280     7.6530     7.1510     8.7060    23.8070     2.3650   -14.3910 
  148.3750    71.8200     7.3200     6.8460     7.2780    24.1120     2.3480   -14.4630 
  148.5000    72.7160     7.2630     6.7200     7.2280    24.2730     2.3490   -14.5010 
  148.6250    71.9670     7.6360     6.9290     8.1410    24.3200     2.3690   -14.5270 
  148.7500    71.1170     8.5050     7.5540     9.0200    24.3240     2.4080   -14.5490 
  148.8750    68.6130     9.8610     8.6140     9.4120    24.3080     2.4580   -14.5460 
  149.0000    62.3840    11.6510    10.1060    10.2580    24.2740     2.5070   -14.5020 
  149.1250    55.6590    13.6250    11.8470    12.4150    24.2280     2.5430   -14.4380 
  149.2500    53.2340    15.5040    13.6160    15.1330    24.1920     2.5560   -14.3850 
  149.3750    55.3180    17.0150    15.1610    16.8800    24.1570     2.5480   -14.3420 
  149.5000    56.7290    17.8700    16.1750    17.2890    24.0860     2.5280   -14.2990 
  149.6250    55.3370    18.1190    16.6160    17.9750    23.9480     2.5100   -14.2720 
  149.7500    52.1250    17.9560    16.6060    18.9690    23.7180     2.4980   -14.2740 
  149.8750    47.3430    17.6510    16.3730    19.3530    23.3900     2.4940   -14.3050 
  150.0000    42.7300    17.4910    16.1840    17.6300    23.0000     2.4960   -14.3610 
  150.1250    40.8740    17.6250    16.2120    16.5550    22.7450     2.5010   -14.4360 
  150.2500    42.3410    18.0910    16.5290    17.0050    22.6670     2.5050   -14.5300 
  150.3750    45.7450    18.8250    17.1220    18.9860    22.6570     2.5090   -14.6470 
  150.5000    47.4050    19.6710    17.8960    21.2770    22.6640     2.5130   -14.7720 
  150.6250    45.3790    20.4170    18.6640    22.3330    22.7850     2.5170   -14.9020 
  150.7500    42.1590    20.9200    19.2710    21.8250    23.0540     2.5230   -15.0420 
  150.8750    40.9100    21.1240    19.6330    21.4910    23.4350     2.5310   -15.1860 
  151.0000    40.9390    21.0580    19.7330    21.7620    23.8200     2.5420   -15.3170 
  151.1250    39.4970    20.8830    19.6980    21.9270    24.0930     2.5510   -15.4370 
  151.2500    38.5410    20.7410    19.6570    21.9880    24.1980     2.5570   -15.5500 
  151.3750    40.8860    20.7130    19.6950    21.8240    24.2010     2.5610   -15.6530 
  151.5000    43.3900    20.8090    19.8420    21.5060    24.1800     2.5660   -15.7470 
  151.6250    42.6650    20.9310    20.0290    21.9060    24.1590     2.5710   -15.8150 
  151.7500    39.8530    20.9620    20.1570    22.6450    24.1400     2.5760   -15.8450 
  151.8750    39.0070    20.8280    20.1490    22.8510    24.1300     2.5790   -15.8600 
  152.0000    40.0280    20.5250    19.9790    21.3370    24.1320     2.5770   -15.9050 
  152.1250    40.1930    20.1730    19.7380    19.9550    24.1370     2.5730   -15.9780 
  152.2500    39.6590    19.8920    19.5290    19.1020    24.1270     2.5660   -16.0470 
  152.3750    40.1380    19.7510    19.4190    18.7410    24.0860     2.5590   -16.1030 
  152.5000    43.1310    19.7230    19.4000    18.7040    24.0180     2.5490   -16.1620 
  152.6250    47.7960    19.6540    19.3460    18.6810    23.9380     2.5370   -16.2440 
  152.7500    51.4770    19.3800    19.1060    18.5650    23.8400     2.5200   -16.3470 
  152.8750    52.5790    18.7960    18.5700    18.6000    23.7190     2.4990   -16.4480 
  153.0000    53.5200    17.8800    17.6970    18.0330    23.6020     2.4730   -16.5220 
  153.1250    55.6640    16.8250    16.6550    16.9290    23.5600     2.4500   -16.5620 
