~V
VERS. 2.00: Ver 2.00
~W
STRT.M 60.0000:
STOP.M 276.0000:
STEP.M 0.1250:
NULL. -999.2500:
UWI. F11026:
~C
DEPT.M :
DEN.GM/CC :
GR.API :
RML.OHMM :
RI. :
RXO.OHMM :
CALI.CM :
SP.MV :
~A
# ...
  150.0000     2.4100    87.2440     4.8550     4.1550     4.7720    24.3580   -11.0840 
  150.1250     2.4150    91.4880     4.8080     4.1230     4.6770    24.1990   -11.2610 
  150.2500     2.4160    93.8150     4.7410     4.0520     4.5750    24.0920   -11.3910 
  150.3750     2.4110    90.5910     4.6730     3.9580     4.4710    24.0040   -11.5510 
  150.5000     2.4020    86.7580     4.6250     3.8610     4.4150    23.9470   -11.7240 
  150.6250     2.3880    89.3380     4.6400     3.7970     4.3580    23.9790   -11.9160 
  150.7500     2.3730    94.7720     4.7500     3.7980     4.3240    24.0050   -12.0890 
  150.8750     2.3570    97.0480     4.9810     3.8970     4.3720    23.8890   -12.1190 
  151.0000     2.3420    94.5870     5.3270     4.1120     4.6790    23.5650   -12.0200 
  151.1250     2.3310    89.7180     5.7220     4.4260     5.4930    23.1420   -11.9330 
  151.2500     2.3230    87.3310     6.0410     4.7300     6.4570    22.7960   -11.8320 
  151.3750     2.3180    87.3670     6.1920     4.9190     6.9220    22.7730   -11.6330 
  151.5000     2.3160    86.9440     6.1500     4.9330     6.5950    23.1420   -11.3540 
  151.6250     2.3170    85.6970     5.9700     4.7830     5.6810    23.6750   -11.0510 
  151.7500     2.3230    87.4650     5.7940     4.5980     4.8260    24.1670   -10.7550 
  151.8750     2.3370    92.2600     5.6950     4.4620     4.6210    24.5120   -10.4480 
  152.0000     2.3560    95.1730     5.6740     4.4010     5.1570    24.6690   -10.1480 
  152.1250     2.3730    93.9820     5.6630     4.3810     5.8800    24.7060    -9.9310 
  152.2500     2.3790    90.4360     5.5950     4.3390     6.1810    24.7120    -9.8120 
  152.3750     2.3720    86.1900     5.4660     4.2520     5.6800    24.7350    -9.8420 
  152.5000     2.3570    85.4550     5.3340     4.1460     4.7630    24.7930    -9.9640 
  152.6250     2.3430    88.4760     5.2960     4.0990     4.4380    24.8460   -10.0770 
  152.7500     2.3370    89.5260     5.3740     4.1590     4.5710    24.8780   -10.1580 
  152.8750     2.3380    88.0840     5.5290     4.3100     5.1690    24.8370   -10.3430 
  153.0000     2.3410    88.5930     5.6790     4.4840     5.4330    24.5970   -10.7080 
  153.1250     2.3410    92.7960     5.7270     4.5740     5.7400    24.0450   -11.1120 
  153.2500     2.3360    92.9440     5.6640     4.5460     5.5590    23.5700   -11.4300 
  153.3750     2.3260    88.9170     5.5240     4.4210     4.8440    23.5500   -11.5700 
  153.5000     2.3160    89.0140     5.3620     4.2530     4.1750    23.9330   -11.5590 
  153.6250     2.3120    97.1160     5.2340     4.1010     4.1290    24.3440   -11.5600 
  153.7500     2.3200   102.8360     5.1530     3.9840     4.4310    24.5250   -11.7200 
  153.8750     2.3390   100.8390     5.1100     3.8970     4.6470    24.5510   -11.9640 
  154.0000     2.3600    96.8860     5.0920     3.8400     4.6110    24.5060   -12.1190 
  154.1250     2.3690    96.8670     5.0930     3.8170     4.4470    24.4550   -12.1080 
  154.2500     2.3610    99.3610     5.1070     3.8240     4.4950    24.4360   -12.0890 
  154.3750     2.3420   104.1850     5.1340     3.8550     4.6600    24.4500   -12.2300 
  154.5000     2.3220   111.6250     5.1600     3.8970     4.9030    24.4950   -12.5150 
  154.6250     2.3150   115.5070     5.1560     3.9190     4.7970    24.4910   -12.7020 
  154.7500     2.3230   113.6600     5.1070     3.9030     4.6280    24.4250   -12.7060 
  154.8750     2.3430   110.3090     5.0240     3.8530     4.5620    24.1900   -12.6100 
  155.0000     2.3680   108.4350     4.9370     3.7880     4.6470    23.7980   -12.5280 
  155.1250     2.3900   105.0410     4.8890     3.7450     4.6230    23.5880   -12.5620 
  155.2500     2.4050    99.4540     4.8900     3.7390     4.4220    23.6770   -12.6100 
  155.3750     2.4130    95.8550     4.9270     3.7640     4.2980    23.8100   -12.5540 
  155.5000     2.4150    95.8960     4.9700     3.8020     4.2490    23.8570   -12.4090 
  155.6250     2.4160    98.8120     4.9860     3.8320     4.2860    23.9100   -12.3040 
  155.7500     2.4210   101.9320     4.9610     3.8430     4.3630    24.0730   -12.2410 
  155.8750     2.4300   103.8410     4.9010     3.8320     4.4280    24.3180   -12.1640 
  156.0000     2.4410   103.6540     4.8180     3.8020     4.4050    24.4760   -12.0070 
  156.1250     2.4470   100.5240     4.7320     3.7600     4.3520    24.5280   -11.8520 
  156.2500     2.4470    98.0210     4.6600     3.7180     4.3540    24.5480   -11.8650 
  156.3750     2.4450    98.9530     4.6100     3.6910     4.3870    24.5730   -12.0170 
  156.5000     2.4440   103.5390     4.5890     3.6940     4.4290    24.5920   -12.2580 
  156.6250     2.4450   106.2450     4.6010     3.7410     4.4400    24.5670   -12.5340 
  156.7500     2.4450   104.9730     4.6390     3.8180     4.4960    24.5490   -12.7350 
  156.8750     2.4390   103.6970     4.6940     3.9040     4.6340    24.5660   -12.8770 
  157.0000     2.4280   104.5270     4.7510     3.9800     4.8250    24.5830   -13.0160 
  157.1250     2.4170   105.0010     4.7980     4.0270     4.8260    24.5540   -13.0290 
  157.2500     2.4090   101.5050     4.8350     4.0510     4.7140    24.5360   -12.8340 
  157.3750     2.4010    95.5550     4.8670     4.0620     4.5720    24.5190   -12.5110 
  157.5000     2.3920    90.8060     4.8980     4.0660     4.4940    24.5130   -12.0990 
  157.6250     2.3830    89.1410     4.9230     4.0580     4.5610    24.5220   -11.5600 
  157.7500     2.3780    90.6360     4.9310     4.0320     4.6750    24.5460   -11.0150 
  157.8750     2.3830    92.6030     4.9170     3.9810     4.6710    24.6060   -10.4790 
  158.0000     2.3940    92.5310     4.9100     3.9200     4.5520    24.5720    -9.9770 
  158.1250     2.4060    92.2370     5.0060     3.9200     4.5210    24.5220    -9.6310 
  158.2500     2.4090    93.3830     5.3070     4.0650     4.6130    24.5250    -9.4030 
  158.3750     2.4020    93.5390     5.9050     4.4350     4.8500    24.5440    -9.1760 
  158.5000     2.3860    90.4840     6.8440     5.0980     5.5350    24.5350    -8.9160 
  158.6250     2.3630    86.8620     8.0980     6.1300     7.5900    24.4830    -8.6850 
  158.7500     2.3400    84.0970     9.3900     7.3740    10.6820    24.3880    -8.5330 
  158.8750     2.3200    80.5750    10.4410     8.5660    12.9760    24.3720    -8.5100 
  159.0000     2.3070    77.2460    11.0290     9.3770    13.3900    24.4360    -8.5400 
  159.1250     2.3050    77.3550    11.0930     9.5620    13.0400    24.4750    -8.5080 
  159.2500     2.3110    78.6940    11.0060     9.4210    13.0430    24.4950    -8.4740 
  159.3750     2.3240    79.4010    11.1590     9.3080    11.1940    24.4970    -8.5480 
  159.5000     2.3390    78.5980    11.9120     9.5560     9.8080    24.4870    -8.7380 
  159.6250     2.3480    75.6090    13.6960    10.5450    12.1380    24.4970    -9.0160 
  159.7500     2.3450    72.1020    16.5090    12.3840    17.2170    24.4920    -9.3540 
  159.8750     2.3300    70.9000    20.3190    15.2280    24.1720    24.4780    -9.6130 
  160.0000     2.3070    70.8950    24.8880    19.0830    31.4740    24.5580    -9.7070 
  160.1250     2.2840    69.0720    29.6890    23.6500    33.9270    24.6520    -9.8280 
  160.2500     2.2660    66.2850    34.0280    28.0680    35.5050    24.7500   -10.0760 
  160.3750     2.2540    65.5080    37.5010    31.7630    37.5540    24.8590   -10.4120 
  160.5000     2.2470    66.6370    39.9410    34.4980    39.0610    24.9720   -10.8010 
  160.6250     2.2420    67.3270    41.0570    36.0240    41.4300    25.0390   -11.1680 
  160.7500     2.2390    66.7120    40.8240    36.3130    44.2000    25.0270   -11.3970 
  160.8750     2.2390    65.8340    39.0710    35.1090    45.1820    24.9360   -11.5520 
  161.0000     2.2440    65.7800    35.9220    32.4190    43.9340    24.8440   -11.8160 
  161.1250     2.2600    67.1950    31.9110    28.7180    37.4450    24.7490   -12.0660 
