~V
VERS. 2.00: Ver 2.00
~W
STRT.M 52.0000:
STOP.M 269.0000:
STEP.M 0.1250:
NULL. -999.2500:
UWI. F11071:
~C
DEPT.M :
GR.API :
RML.OHMM :
RI. :
RXO.OHMM :
CALI.CM :
DEN.GM/CC :
SP.MV :
~A
# ...
  175.7500    75.9830    74.1890    62.5680    68.4940    24.7330     2.2700    -9.5720 
  175.8750    74.6330    80.8860    70.4830    71.1100    24.7300     2.2820    -9.6760 
  176.0000    74.0240    82.7390    73.7200    64.3450    24.7170     2.2900    -9.8010 
  176.1250    73.4160    80.4200    72.7030    62.7620    24.7030     2.2880    -9.9090 
  176.2500    73.3550    77.0020    70.4480    65.8150    24.7460     2.2810    -9.9750 
  176.3750    74.8090    73.8960    68.4090    66.3110    24.8460     2.2710    -9.9720 
  176.5000    77.8240    71.1260    66.8510    58.4290    24.9360     2.2600    -9.8930 
  176.6250    82.3300    67.4690    64.6870    53.9350    24.9560     2.2550    -9.7750 
  176.7500    84.7210    62.1360    60.6970    58.7390    24.9330     2.2590    -9.6850 
  176.8750    83.3660    55.3920    54.7360    68.4640    24.8930     2.2750    -9.6270 
  177.0000    81.2960    48.4490    47.9900    67.3310    24.8240     2.2980    -9.6000 
  177.1250    81.8670    43.0840    42.5140    46.1690    24.7780     2.3160    -9.5520 
  177.2500    83.0010    39.7920    39.1050    31.9690    24.7670     2.3210    -9.5110 
  177.3750    83.2960    38.2970    37.5490    30.3770    24.7650     2.3140    -9.5340 
  177.5000    83.8610    37.8760    37.1350    36.6700    24.7790     2.3060    -9.6610 
  177.6250    84.9520    37.7900    37.1130    48.6800    24.8300     2.3080    -9.8350 
  177.7500    85.7930    37.7070    37.0050    50.1010    24.9700     2.3170   -10.0120 
  177.8750    85.5240    37.9990    36.9890    37.7160    25.1230     2.3280   -10.1930 
  178.0000    83.3350    39.4510    37.7710    28.3900    25.1840     2.3280   -10.3320 
  178.1250    80.4810    43.3980    40.7340    33.2260    25.1710     2.3120   -10.4860 
  178.2500    78.2730    50.0960    46.4170    46.3600    25.1400     2.2860   -10.6920 
  178.3750    77.8850    59.5230    55.0910    62.8760    25.1280     2.2600   -10.9030 
  178.5000    78.6590    71.0810    66.3580    73.0410    25.1270     2.2440   -11.0520 
  178.6250    79.3770    83.6570    78.9810    72.0640    25.1280     2.2410   -11.1850 
  178.7500    76.5860    95.7190    91.0410    72.6970    25.1470     2.2450   -11.3330 
  178.8750    70.3610   106.2450   101.5570    83.6300    25.2100     2.2490   -11.5130 
  179.0000    66.2150   114.3510   109.8900   100.3190    25.3050     2.2500   -11.7720 
  179.1250    68.1700   118.6460   114.5320   110.2190    25.3680     2.2480   -12.0870 
  179.2500    71.6940   119.4940   115.4110   112.7980    25.3770     2.2480   -12.4100 
  179.3750    72.5760   117.8290   113.2370   111.7750    25.3840     2.2510   -12.7570 
  179.5000    70.9450   115.4090   109.7710   103.6940    25.3840     2.2570   -13.1460 
  179.6250    68.5430   114.5090   107.4330    90.2550    25.3630     2.2580   -13.5530 
  179.7500    66.1550   116.0990   107.5740    86.5610    25.3290     2.2540   -13.9240 
  179.8750    64.7860   120.1030   110.4910    94.8610    25.3000     2.2440   -14.2400 
  180.0000    65.1120   125.4760   115.4910   108.5670    25.2750     2.2340   -14.4820 
  180.1250    67.2830   130.1350   120.7270   116.0120    25.2530     2.2270   -14.6230 
  180.2500    70.4460   132.2900   123.9590   117.1410    25.2260     2.2260   -14.6840 
  180.3750    72.4790   131.2210   124.0370   115.2350    25.2100     2.2310   -14.6720 
  180.5000    71.3420   127.3820   121.1450   112.8570    25.2380     2.2380   -14.6410 
  180.6250    68.5840   122.0640   116.5610    96.7030    25.3310     2.2450   -14.6240 
  180.7500    67.7430   116.9880   112.2450    84.3670    25.4300     2.2520   -14.6440 
  180.8750    68.9050   112.8030   109.0350    83.4690    25.4960     2.2570   -14.6500 
  181.0000    70.4540   109.4130   106.9070    89.7160    25.5390     2.2610   -14.5800 
  181.1250    71.9690   106.0810   105.0160    92.0740    25.5640     2.2630   -14.4950 
  181.2500    72.6230   101.9500   102.1880    90.6770    25.5570     2.2640   -14.4580 
  181.3750    71.3230    96.6090    97.8150    92.9700    25.5160     2.2640   -14.4760 
  181.5000    68.2880    90.1200    91.9830    87.2730    25.4490     2.2630   -14.4880 
  181.6250    67.0460    82.8830    85.2770    74.0350    25.3710     2.2610   -14.4090 
  181.7500    69.1640    75.6130    78.5030    64.6950    25.3190     2.2620   -14.2350 
  181.8750    72.6470    68.7430    71.9150    61.1560    25.3090     2.2670   -14.0520 
  182.0000    75.5030    62.6160    65.6240    61.5130    25.3140     2.2770   -13.9510 
  182.1250    77.7150    57.7720    60.0520    56.0780    25.3060     2.2910   -13.9090 
  182.2500    79.6100    54.3860    55.6610    48.7400    25.2820     2.3010   -13.8320 
  182.3750    81.6380    52.7620    52.9610    43.9800    25.2650     2.3020   -13.7330 
  182.5000    82.8540    53.1840    52.3520    42.1340    25.2430     2.2960   -13.6580 
  182.6250    81.3360    56.2330    54.5370    44.5350    25.2030     2.2860   -13.6680 
  182.7500    76.9420    61.4340    59.1030    50.5000    25.1810     2.2810   -13.7680 
  182.8750    74.0590    68.3090    65.5550    58.1780    25.2280     2.2830   -13.9190 
  183.0000    75.5630    76.1040    73.0040    62.0310    25.2880     2.2880   -14.0490 
  183.1250    75.3490    83.9670    80.3820    68.0900    25.2960     2.2890   -14.0860 
  183.2500    71.4810    91.4100    87.1020    74.6990    25.2710     2.2810   -14.0800 
  183.3750    67.2350    98.4700    93.2060    76.3040    25.2410     2.2660   -14.0730 
  183.5000    65.6300   105.3980    99.0560    74.8830    25.1910     2.2490   -14.0980 
  183.6250    67.5240   112.3040   104.9100    78.0610    25.1380     2.2400   -14.1330 
  183.7500    70.0000   118.8400   110.4870    86.1230    25.1000     2.2410   -14.1530 
  183.8750    71.9240   124.3770   115.1790    92.4380    25.0760     2.2480   -14.1500 
  184.0000    72.0110   128.2960   118.3950    94.7080    25.0670     2.2580   -14.1100 
  184.1250    69.8170   130.0090   119.5870    96.4050    25.0650     2.2620   -14.0860 
  184.2500    66.7680   130.1680   119.4300    97.4360    25.0500     2.2600   -14.0830 
  184.3750    64.4470   129.3950   118.6310    98.5360    25.0100     2.2530   -14.0700 
  184.5000    64.3560   128.1920   117.7420    92.6230    24.9640     2.2470   -14.0550 
  184.6250    65.5270   126.5530   116.7590    89.5250    24.9320     2.2440   -13.9860 
  184.7500    66.1420   124.2040   115.2340    87.7680    24.9110     2.2450   -13.8320 
  184.8750    66.9130   120.9190   112.8640    87.1170    24.8660     2.2470   -13.6650 
  185.0000    67.4880   116.7880   109.7390    85.0870    24.7910     2.2500   -13.5910 
  185.1250    67.3390   112.1270   106.1430    80.9230    24.6850     2.2550   -13.6320 
  185.2500    67.2690   107.3520   102.3910    78.7470    24.6230     2.2630   -13.7410 
  185.3750    68.6800   102.5500    98.5120    77.6890    24.6020     2.2740   -13.8900 
  185.5000    70.8830    97.7100    94.4780    76.0590    24.5990     2.2880   -14.0310 
  185.6250    71.8150    92.9750    90.3310    75.5910    24.5990     2.3020   -14.2720 
  185.7500    71.5340    88.7230    86.3840    74.2990    24.5990     2.3130   -14.6590 
  185.8750    70.9980    85.3890    83.1120    72.5360    24.5990     2.3210   -15.1110 
  186.0000    71.4130    83.2130    80.9550    69.9480    24.5990     2.3250   -15.5320 
  186.1250    71.4590    82.0890    80.1140    64.9500    24.5990     2.3280   -15.8570 
  186.2500    70.9740    81.1720    79.7170    62.8480    24.5990     2.3330   -16.1210 
  186.3750    69.3510    79.8650    78.9070    60.4440    24.5990     2.3400   -16.3530 
  186.5000    68.5480    77.9910    77.2160    60.1160    24.5990     2.3450   -16.5820 
  186.6250    70.6950    76.0330    74.9200    60.7360    24.5990     2.3430   -16.7390 
  186.7500    73.6990    74.9380    73.1250    54.5280    24.5990     2.3340   -16.8050 
  186.8750    74.3090    75.4480    72.8200    49.7200    24.6000     2.3170   -16.8520 
