~V
VERS. 2.00: Ver 2.00
~W
STRT.M 51.0000:
STOP.M 252.0000:
STEP.M 0.1250:
NULL. -999.2500:
UWI. F11020:
~C
DEPT.M :
DEN.GM/CC :
GR.API :
RML.OHMM :
RI. :
RXO.OHMM :
CALI.CM :
SP.MV :
~A
# ...
   62.2500     2.2620    79.9550     7.7640     7.6790     6.9240    24.9460   -16.1770 
   62.3750     2.2800    77.6320     7.9950     7.8170     7.1980    25.0160   -16.8840 
   62.5000     2.2740    75.9570     7.8800     7.8510     7.0490    25.0400   -17.4660 
   62.6250     2.2500    75.1310     7.3780     7.7680     6.6380    25.0150   -17.9320 
   62.7500     2.2380    75.5230     6.6650     7.5680     7.0130    24.9630   -18.2740 
   62.8750     2.2490    77.3250     6.0550     7.2930     7.0910    24.9420   -18.5160 
   63.0000     2.2620    80.4650     5.7200     7.0070     6.5010    24.9910   -18.6840 
   63.1250     2.2620    85.0530     5.6800     6.7990     5.7610    25.1290   -18.8170 
   63.2500     2.2510    89.1410     5.8190     6.7380     5.3400    25.2810   -18.9860 
   63.3750     2.2350    89.0640     6.0030     6.8040     5.5730    25.3010   -19.2680 
   63.5000     2.2100    84.8660     6.2180     6.9550     6.2560    25.1820   -19.7020 
   63.6250     2.1720    79.4180     6.4210     7.1070     6.8280    25.0600   -20.2400 
   63.7500     2.1270    76.0790     6.4590     7.1420     6.7310    25.0310   -20.8260 
   63.8750     2.1020    74.8970     6.2490     7.0110     6.4220    25.0480   -21.4320 
   64.0000     2.1190    74.0650     5.9080     6.7810     6.3600    25.0700   -22.0600 
   64.1250     2.1800    72.7240     5.7590     6.6520     6.6190    25.0890   -22.7080 
   64.2500     2.2610    72.9760     6.2070     6.8980     6.7500    25.0880   -23.3560 
   64.3750     2.3380    74.9870     7.5690     7.6580     7.1870    25.0300   -23.9660 
   64.5000     2.4130    75.2690    10.0960     8.9580     8.5790    24.9310   -24.5130 
   64.6250     2.4780    70.5740    12.1130    10.5830    11.8300    24.8410   -25.0530 
   64.7500     2.4900    63.3420    13.5050    11.9090    17.0580    24.7950   -25.6230 
   64.8750     2.4240    58.4860    13.8720    12.2590    16.8440    24.8070   -26.2010 
   65.0000     2.3210    57.3950    13.1210    11.5440    12.1960    24.8680   -26.7690 
   65.1250     2.2420    59.7850    11.8180    10.3030     9.1230    24.9430   -27.2750 
   65.2500     2.2100    63.9760    10.6680     9.2080     8.2950    24.9800   -27.6360 
   65.3750     2.2010    67.2220     9.9600     8.5330     8.2350    24.9950   -27.8550 
   65.5000     2.2030    68.9890     9.6510     8.2390     8.3150    25.0190   -27.9760 
   65.6250     2.2050    70.3080     9.5400     8.1330     8.5700    25.0700   -27.9710 
   65.7500     2.2070    71.7280     9.3800     7.9810     8.6010    25.1310   -27.8660 
   65.8750     2.2170    73.2970     9.0660     7.6820     8.1590    25.1780   -27.7430 
   66.0000     2.2400    76.6410     8.6550     7.2910     7.1080    25.1770   -27.6160 
   66.1250     2.2680    81.9950     8.2730     6.9260     6.1050    25.1410   -27.5830 
   66.2500     2.2800    85.8970     8.0360     6.7010     6.0990    25.1040   -27.7070 
   66.3750     2.2690    83.7920     7.9760     6.6440     6.4970    25.0760   -27.9670 
   66.5000     2.2460    76.1490     8.0920     6.7550     6.8970    25.0740   -28.3600 
   66.6250     2.2230    67.0400     8.3650     7.0150     7.4020    25.1010   -28.8740 
   66.7500     2.2090    60.5260     8.7460     7.3770     8.0240    25.1640   -29.4830 
   66.8750     2.2110    57.8110     9.1340     7.7460     8.5100    25.2310   -30.1390 
   67.0000     2.2330    58.4200     9.4370     8.0350     8.9330    25.2670   -30.7990 
   67.1250     2.2560    60.4180     9.5760     8.1680     9.4630    25.2800   -31.3900 
   67.2500     2.2520    62.4490     9.5050     8.1000     9.7200    25.2960   -31.8510 
   67.3750     2.2200    64.3240     9.2890     7.8950     9.1200    25.3230   -32.1940 
   67.5000     2.1840    65.3860     9.0140     7.6330     8.3920    25.3380   -32.3730 
   67.6250     2.1660    64.6310     8.7700     7.4000     8.0240    25.3110   -32.4320 
   67.7500     2.1680    62.6280     8.6180     7.2560     8.0800    25.2430   -32.3720 
   67.8750     2.1710    60.7260     8.5590     7.1990     8.1690    25.1790   -32.2260 
   68.0000     2.1670    59.6840     8.5570     7.1970     8.1960    25.1430   -32.0230 
   68.1250     2.1590    59.7890     8.5660     7.2050     8.2600    25.1330   -31.7330 
   68.2500     2.1540    61.4280     8.5680     7.2080     8.3820    25.1330   -31.3580 
   68.3750     2.1570    63.6550     8.5890     7.2270     8.4630    25.1360   -30.9160 
   68.5000     2.1620    65.3440     8.6560     7.2910     8.5300    25.1490   -30.4080 
   68.6250     2.1640    65.5220     8.7900     7.4190     8.5550    25.1820   -29.8140 
   68.7500     2.1630    64.0200     9.0010     7.6200     8.6600    25.2230   -29.1080 
   68.8750     2.1700    62.7360     9.2440     7.8520     8.9330    25.2260   -28.2680 
   69.0000     2.1990    64.4830     9.4400     8.0380     9.3840    25.1710   -27.2950 
   69.1250     2.2580    71.1860     9.4490     8.0460     9.9190    25.0980   -26.2220 
   69.2500     2.3360    80.7820     9.0990     7.7130    10.1810    25.0800   -25.0980 
   69.3750     2.3980    88.3280     8.4020     7.0500     9.2630    25.1020   -23.9750 
   69.5000     2.4250    92.9600     7.4970     6.1880     7.2090    25.1360   -22.9200 
   69.6250     2.4220    95.1970     6.6120     5.3450     5.3920    25.2570   -21.9950 
   69.7500     2.4000    93.5370     5.9860     4.7490     4.5510    25.4660   -21.2610 
   69.8750     2.3740    88.9260     5.7160     4.4920     4.0710    25.5640   -20.7380 
   70.0000     2.3600    85.8830     5.8330     4.6030     3.9340    25.4090   -20.4420 
   70.1250     2.3670    85.8520     6.3200     5.0670     4.2590    25.1950   -20.3860 
   70.2500     2.3870    86.3130     7.1140     5.8230     5.2640    25.0880   -20.5750 
   70.3750     2.3920    84.9630     8.0060     6.6720     6.8280    25.0650   -20.9340 
   70.5000     2.3570    83.2070     8.7610     7.3920     8.3500    25.0550   -21.4140 
   70.6250     2.2950    82.6320     9.1540     7.7660     8.0880    25.0290   -21.9380 
   70.7500     2.2390    83.8550     9.0990     7.7130     7.3000    24.9810   -22.4580 
   70.8750     2.2080    83.7520     8.8090     7.4370     6.9560    24.9410   -22.9380 
   71.0000     2.1970    79.9710     8.4870     7.1300     6.9720    24.9200   -23.3510 
   71.1250     2.1940    76.0540     8.2810     6.9340     7.0150    24.9200   -23.6520 
   71.2500     2.2010    76.1070     8.2470     6.9020     6.9620    24.9380   -23.7730 
   71.3750     2.2240    78.4480     8.3010     6.9540     7.0030    24.9630   -23.7190 
   71.5000     2.2650    80.4010     8.3400     6.9900     7.1360    24.9850   -23.4780 
   71.6250     2.3150    80.5230     8.2690     6.9220     7.3310    25.0290   -23.1040 
   71.7500     2.3500    80.9010     8.0450     6.7090     7.0390    25.1380   -22.6500 
   71.8750     2.3550    84.3660     7.7280     6.4080     6.0170    25.2770   -22.1680 
   72.0000     2.3370    88.9800     7.4080     6.1040     5.1070    25.3570   -21.6810 
   72.1250     2.3150    89.8310     7.1750     5.8810     4.9600    25.3630   -21.2160 
   72.2500     2.2990    87.5790     7.0850     5.7960     5.1610    25.3510   -20.8060 
   72.3750     2.2930    88.7000     7.1080     5.8170     5.2010    25.3390   -20.4660 
   72.5000     2.2910    91.9020     7.1970     5.9020     5.1200    25.3100   -20.2120 
   72.6250     2.2900    91.6770     7.2830     5.9830     5.1160    25.2400   -20.0360 
   72.7500     2.2890    89.4700     7.2740     5.9750     5.1180    25.1190   -19.9060 
   72.8750     2.2940    90.0200     7.1400     5.8470     5.0990    24.9960   -19.7820 
   73.0000     2.3090    94.1250     6.9150     5.6340     5.0710    24.9350   -19.6580 
   73.1250     2.3320    99.6670     6.6960     5.4240     4.9410    24.9360   -19.5280 
   73.2500     2.3530   102.5160     6.5960     5.3300     4.6620    24.9170   -19.4280 
   73.3750     2.3660   101.0170     6.6470     5.3780     4.5190    24.7970   -19.3760 
