~V
VERS. 2.00: Ver 2.00
~W
STRT.M 60.0000:
STOP.M 273.0000:
STEP.M 0.1250:
NULL. -999.2500:
UWI. F11028:
~C
DEPT.M :
DEN.GM/CC :
GR.API :
RML.OHMM :
RI. :
RXO.OHMM :
CALI.CM :
SP.MV :
~A
# ...
  105.0000     2.2200    59.2090    10.4140     9.1560    18.4240    23.0570   -22.7050 
  105.1250     2.2400    60.6330    10.0800     9.0630    15.9090    22.8850   -22.6940 
  105.2500     2.2400    59.8910     9.5580     8.6920    12.7300    22.9090   -22.7140 
  105.3750     2.2250    58.8660     9.0330     8.2130    11.2120    22.9460   -22.7660 
  105.5000     2.2030    60.0510     8.6280     7.7770    10.8300    23.0380   -22.8210 
  105.6250     2.1860    60.4760     8.4100     7.4840    10.6220    23.1090   -22.8470 
  105.7500     2.1770    58.0680     8.3060     7.3030    10.3230    23.0700   -22.8300 
  105.8750     2.1720    57.2760     8.2420     7.1750     9.9760    22.9950   -22.7450 
  106.0000     2.1720    60.3870     8.1550     7.0530     9.6370    23.0600   -22.5830 
  106.1250     2.1740    66.6520     8.0110     6.9110     9.3940    23.0430   -22.3070 
  106.2500     2.1780    72.0720     7.8370     6.7660     9.1160    22.9510   -21.9790 
  106.3750     2.1820    73.2200     7.6830     6.6490     8.6130    22.8540   -21.6190 
  106.5000     2.1850    71.1500     7.6160     6.6000     8.3140    22.8190   -21.2710 
  106.6250     2.1840    71.4100     7.7250     6.6770     7.8420    22.7200   -20.9810 
  106.7500     2.1800    73.5580     7.9980     6.8700     8.0470    22.4320   -20.7490 
  106.8750     2.1730    70.8450     8.3820     7.1480     9.2790    22.1300   -20.5810 
  107.0000     2.1670    63.0880     8.7800     7.4470    10.8430    21.6530   -20.4350 
  107.1250     2.1640    60.2200     9.0530     7.6650    11.3390    21.1110   -20.3610 
  107.2500     2.1610    62.7070     9.1570     7.7550    10.8980    21.0640   -20.3030 
  107.3750     2.1580    65.4090     9.1050     7.7170    10.3850    21.2940   -20.2730 
  107.5000     2.1520    67.5040     8.9530     7.5880    10.0460    21.5940   -20.2390 
  107.6250     2.1450    69.7010     8.7550     7.4220     9.7040    21.8490   -20.1710 
  107.7500     2.1380    68.9710     8.5480     7.2600     9.4770    22.2260   -20.0590 
  107.8750     2.1310    64.8640     8.3310     7.1040     9.2620    22.4000   -19.9250 
  108.0000     2.1250    62.8270     8.1180     6.9520     9.0880    22.6310   -19.7510 
  108.1250     2.1220    67.1780     8.0140     6.8590     8.9380    22.6490   -19.5270 
  108.2500     2.1260    73.0780     8.1580     6.9160     8.9230    22.3700   -19.2780 
  108.3750     2.1370    75.9190     8.6650     7.2300     9.1100    22.3300   -18.9790 
  108.5000     2.1580    72.5330     9.5610     7.8680     9.4050    22.5410   -18.6280 
  108.6250     2.1900    65.3950    10.7170     8.8340    10.6610    22.7400   -18.2130 
  108.7500     2.2290    61.9410    11.6820     9.8190    13.7160    22.6360   -17.7340 
  108.8750     2.2710    62.9040    11.9480    10.3850    18.0060    22.4850   -17.1810 
  109.0000     2.3040    64.5220    11.1670    10.1090    18.8010    22.4830   -16.5830 
  109.1250     2.3120    67.7150     9.4410     8.8830    13.3350    22.2820   -15.9420 
  109.2500     2.2980    75.0250     7.6180     7.3630     8.4590    22.5080   -15.2710 
  109.3750     2.2740    82.8870     6.2000     6.0070     6.0960    23.2290   -14.6040 
  109.5000     2.2550    87.1440     5.3520     5.0340     5.1440    23.6290   -13.9530 
  109.6250     2.2530    90.3850     5.0550     4.5360     4.7950    23.6910   -13.3650 
  109.7500     2.2630    93.2350     5.0380     4.3580     4.6460    23.6950   -12.8660 
  109.8750     2.2800    94.7780     5.1330     4.3950     4.7480    23.6960   -12.4450 
  110.0000     2.2970    95.8200     5.2120     4.5320     5.1670    23.6490   -12.1030 
  110.1250     2.3080    95.8470     5.1810     4.6510     5.5380    23.6230   -11.8360 
  110.2500     2.3160    95.8930     5.0510     4.6740     5.2840    23.6390   -11.6060 
  110.3750     2.3200    96.6670     4.8520     4.5840     4.7440    23.6340   -11.4030 
  110.5000     2.3230    99.8780     4.6260     4.4130     4.4350    23.6320   -11.2550 
  110.6250     2.3240   103.5330     4.4310     4.2290     4.4040    23.7190   -11.1470 
  110.7500     2.3230   104.3310     4.3070     4.1000     4.4000    23.9140   -11.0780 
  110.8750     2.3200   103.0440     4.2740     4.0640     4.3790    23.8920   -11.0640 
  111.0000     2.3160   100.2500     4.3450     4.1260     4.3860    23.9530   -11.1140 
  111.1250     2.3120    99.5260     4.5390     4.2850     4.6220    23.6820   -11.2370 
  111.2500     2.3090   101.4230     4.7990     4.4900     5.0870    23.0820   -11.4530 
  111.3750     2.3070   105.0280     5.0480     4.6870     5.2110    22.2830   -11.7430 
  111.5000     2.3050   108.8190     5.2080     4.8170     4.9210    21.6420   -12.0670 
  111.6250     2.3020   110.9950     5.2030     4.8140     4.8950    21.6030   -12.4150 
  111.7500     2.2980   112.1610     5.0490     4.6920     4.9680    21.6440   -12.7320 
  111.8750     2.2970   112.0070     4.7830     4.4730     4.8700    21.6180   -13.0170 
  112.0000     2.3000   108.6250     4.4600     4.1920     4.5650    21.7040   -13.2870 
  112.1250     2.3070   105.1660     4.1520     3.8880     4.2550    21.7070   -13.5190 
  112.2500     2.3170   105.5050     3.9390     3.6170     4.0950    21.8280   -13.7630 
  112.3750     2.3250   107.5690     3.8980     3.4450     4.0950    21.8680   -14.0120 
  112.5000     2.3300   106.6870     4.0990     3.4470     4.1040    21.8590   -14.2940 
  112.6250     2.3340   104.2470     4.6400     3.7350     4.3390    21.8000   -14.6470 
  112.7500     2.3370   101.2740     5.4770     4.2980     4.9800    21.8280   -15.1060 
  112.8750     2.3390    94.1200     6.5390     5.1080     6.1120    22.0050   -15.6710 
  113.0000     2.3360    83.3910     7.6420     6.0510     7.2880    22.3420   -16.3390 
  113.1250     2.3240    74.1190     8.4340     6.8790     7.4140    23.0320   -17.1080 
  113.2500     2.3000    69.6360     8.7590     7.3900     7.2550    23.3210   -17.9080 
  113.3750     2.2680    68.2870     8.6910     7.5540     7.5390    23.2310   -18.7070 
  113.5000     2.2320    66.4940     8.4620     7.4910     8.1340    23.1690   -19.4640 
  113.6250     2.2010    66.1600     8.2900     7.3590     8.5800    23.1390   -20.1170 
  113.7500     2.1760    69.6380     8.1980     7.2420     8.7220    23.2680   -20.6510 
  113.8750     2.1570    75.6970     8.0920     7.1050     8.8220    23.5030   -21.0300 
  114.0000     2.1450    79.3340     7.8710     6.8900     8.9150    23.5120   -21.2220 
  114.1250     2.1400    79.3520     7.4980     6.5680     8.7160    23.2220   -21.2570 
  114.2500     2.1420    80.4370     7.1020     6.2160     7.9260    23.0170   -21.2340 
  114.3750     2.1480    82.6500     6.8260     5.9270     6.8950    22.8790   -21.2110 
  114.5000     2.1560    83.0580     6.7840     5.7850     6.5460    22.5810   -21.2460 
  114.6250     2.1600    79.4310     7.0500     5.8610     7.2780    22.3600   -21.3260 
  114.7500     2.1570    75.1670     7.5100     6.1030     7.9520    22.3770   -21.4260 
  114.8750     2.1500    73.4350     8.0350     6.4400     8.3860    22.4920   -21.5870 
  115.0000     2.1420    73.7800     8.4810     6.7770     8.7300    22.5590   -21.8080 
  115.1250     2.1330    72.7450     8.7040     7.0090     9.0080    22.5950   -22.0470 
  115.2500     2.1220    70.7740     8.7330     7.1160     8.8930    22.6620   -22.2410 
  115.3750     2.1090    71.0880     8.6310     7.1140     8.5370    22.7620   -22.3530 
  115.5000     2.0920    73.5400     8.4540     7.0310     8.3440    23.0280   -22.3690 
  115.6250     2.0750    73.9820     8.2400     6.8910     8.4800    23.2310   -22.3160 
  115.7500     2.0660    70.7590     8.0450     6.7400     8.7350    23.4140   -22.2170 
  115.8750     2.0710    69.0970     7.9240     6.6270     8.8860    23.0950   -22.0810 
  116.0000     2.0900    73.7270     7.9290     6.6090     8.9410    22.4200   -21.9120 
  116.1250     2.1170    78.6940     8.1070     6.7620     9.1890    22.5640   -21.7470 
