~V
VERS. 2.00: Ver 2.00
~W
STRT.M 63.0000:
STOP.M 273.0000:
STEP.M 0.1250:
NULL. -999.2500:
UWI. F11030:
~C
DEPT.M :
DEN.GM/CC :
GR.API :
RML.OHMM :
RI. :
RXO.OHMM :
CALI.CM :
SP.MV :
~A
# ...
  220.5000     2.1960    74.3700    30.2850    31.5190    26.3430    23.2350   -18.6410 
  220.6250     2.2830    77.0530    27.6060    29.1260    23.9920    23.5870   -18.2590 
  220.7500     2.3590    74.8050    24.8620    26.5660    29.4760    24.1600   -17.7160 
  220.8750     2.4160    70.7320    21.6370    23.2120    36.9420    24.5580   -17.1640 
  221.0000     2.4480    66.5070    17.9410    19.0840    32.4990    24.6350   -16.6320 
  221.1250     2.4460    61.9260    14.2580    14.9420    18.1020    24.4280   -16.0520 
  221.2500     2.4190    57.7950    11.1560    11.5310     9.3120    24.1250   -15.5040 
  221.3750     2.3820    54.3730     8.9010     9.0630     6.7600    23.9380   -15.0020 
  221.5000     2.3490    51.7710     7.4830     7.4480     6.0170    23.9590   -14.4700 
  221.6250     2.3360    51.9700     6.7940     6.5750     5.7720    23.9730   -14.0710 
  221.7500     2.3410    54.1030     6.4810     6.1230     5.7320    23.8690   -13.9740 
  221.8750     2.3570    55.6090     6.3810     5.9290     5.5960    23.7550   -14.1020 
  222.0000     2.3730    54.9150     6.4000     5.8760     5.3190    23.7620   -14.3040 
  222.1250     2.3800    53.1820     6.5270     5.9230     5.1510    23.8100   -14.7330 
  222.2500     2.3810    51.3320     6.7500     6.0520     5.3020    23.8850   -15.3650 
  222.3750     2.3760    49.1340     7.0670     6.2660     5.7230    23.9760   -16.0120 
  222.5000     2.3730    47.6920     7.4650     6.5540     6.1470    24.0620   -16.7250 
  222.6250     2.3720    47.4340     7.9500     6.9100     6.8200    24.1610   -17.6400 
  222.7500     2.3730    46.5200     8.5330     7.3280     7.7390    24.2390   -18.5910 
  222.8750     2.3730    44.3520     9.2680     7.8480     8.3220    24.3950   -19.4680 
  223.0000     2.3710    41.4950    10.2110     8.5330     8.4250    24.4680   -20.3580 
  223.1250     2.3720    37.7300    11.4230     9.4770     8.8630    24.3970   -21.1530 
  223.2500     2.3780    33.8450    12.8020    10.6390    10.4430    24.2370   -21.6910 
  223.3750     2.3910    31.3580    14.1980    11.9360    12.9430    24.1760   -22.0610 
  223.5000     2.4100    29.7990    15.3860    13.2000    14.6890    24.3200   -22.2870 
  223.6250     2.4300    29.4590    15.9850    14.0750    14.7010    24.4430   -22.0710 
  223.7500     2.4440    32.3680    15.8650    14.3000    15.9340    24.5080   -21.4890 
  223.8750     2.4490    36.3960    15.0150    13.7740    18.1640    24.5930   -20.7420 
  224.0000     2.4460    39.1800    13.5970    12.6270    18.8800    24.7030   -19.7460 
  224.1250     2.4350    43.0440    11.8720    11.1060    14.7650    24.7050   -18.4350 
  224.2500     2.4250    46.4490    10.1730     9.5470    10.2520    24.6580   -17.2080 
  224.3750     2.4160    43.8450     8.6640     8.1140     7.8980    24.5600   -16.1350 
  224.5000     2.4090    36.5620     7.4330     6.8940     7.1680    24.4560   -15.1350 
  224.6250     2.4020    34.9670     6.5680     5.9830     6.7030    24.3630   -14.4050 
  224.7500     2.3960    39.2940     6.0320     5.3710     5.7640    24.2420   -13.9210 
  224.8750     2.3920    44.5740     5.8150     5.0650     5.1940    24.1500   -13.5720 
  225.0000     2.3900    49.2970     5.8770     5.0420     5.0050    24.1490   -13.5380 
  225.1250     2.3870    52.1190     6.1380     5.2750     5.0930    24.2080   -13.8780 
  225.2500     2.3780    52.7300     6.3890     5.5870     5.6390    24.2910   -14.2340 
  225.3750     2.3610    53.1510     6.4590     5.7870     6.3030    24.3370   -14.6350 
  225.5000     2.3380    56.5630     6.2500     5.7070     6.3820    24.3640   -15.1480 
  225.6250     2.3180    62.6570     5.7950     5.3070     5.7380    24.2480   -15.6690 
  225.7500     2.3120    68.8970     5.3380     4.8290     5.1980    24.1280   -16.2460 
  225.8750     2.3240    76.3730     5.0770     4.4740     4.6430    24.1310   -16.8780 
  226.0000     2.3500    84.2120     5.1380     4.3800     4.4730    24.3490   -17.4640 
  226.1250     2.3750    86.8510     5.6080     4.6620     4.9460    24.6850   -18.0190 
  226.2500     2.3890    83.2780     6.3390     5.2390     6.3680    24.9520   -18.5380 
  226.3750     2.3890    77.6010     7.1750     6.0070     7.4860    25.0670   -18.9820 
  226.5000     2.3830    74.6850     7.9310     6.7970     8.4190    25.0810   -19.4260 
  226.6250     2.3800    77.0900     8.4150     7.3640     8.9590    25.0560   -19.8370 
  226.7500     2.3820    84.0430     8.6420     7.6430     9.1530    25.0420   -20.2110 
  226.8750     2.3870    91.4540     8.6960     7.6950     9.1410    25.0440   -20.6350 
  227.0000     2.3890    95.8700     8.6820     7.6370     8.9510    25.0640   -20.9630 
  227.1250     2.3860    97.8030     8.6680     7.5460     8.5710    25.1130   -21.0740 
  227.2500     2.3780   100.8230     8.6580     7.4470     8.4070    25.1470   -21.1830 
  227.3750     2.3690   102.7300     8.6490     7.3360     8.7720    25.1410   -21.2610 
  227.5000     2.3630   102.2300     8.6690     7.2290     9.3940    25.1180   -21.2490 
  227.6250     2.3640   104.1320     8.8410     7.1910     9.5040    25.0850   -21.3440 
  227.7500     2.3680   109.5400     9.2960     7.3120     9.4150    25.1030   -21.3990 
  227.8750     2.3710   113.5270    10.1830     7.7040     9.6070    25.1580   -21.3890 
  228.0000     2.3730   112.0020    11.6330     8.4880    10.5520    25.2000   -21.5290 
  228.1250     2.3750   104.6890    13.8330     9.8860    13.0790    25.2170   -21.8100 
  228.2500     2.3760    96.6040    16.6310    11.8950    16.2780    25.2510   -22.1740 
  228.3750     2.3720    89.2610    19.8320    14.4870    20.2560    25.2940   -22.7280 
  228.5000     2.3610    84.5560    23.0940    17.4530    24.6850    25.3180   -23.3580 
  228.6250     2.3420    82.6550    25.8600    20.2960    26.7310    25.3320   -23.8640 
  228.7500     2.3230    80.7930    27.8220    22.5190    27.9310    25.2900   -24.2460 
  228.8750     2.3080    77.6950    28.8970    23.9010    28.6720    25.1730   -24.4390 
  229.0000     2.3020    73.4740    29.2480    24.5090    29.2020    25.0690   -24.4490 
  229.1250     2.3030    70.4010    29.1840    24.5570    28.7000    25.0320   -24.3730 
  229.2500     2.3080    71.6930    29.1540    24.4740    27.5510    25.0260   -24.1560 
  229.3750     2.3140    75.3070    29.4140    24.5320    27.0430    25.0330   -23.7710 
  229.5000     2.3240    76.2920    30.1030    24.9240    27.5200    25.0380   -23.2520 
  229.6250     2.3380    72.9690    31.2820    25.8120    28.8340    25.0310   -22.5680 
  229.7500     2.3540    70.2170    32.7100    27.0640    31.1050    25.0130   -21.9240 
  229.8750     2.3650    71.8200    34.1500    28.5020    34.0750    25.0180   -21.3710 
  230.0000     2.3680    75.2930    35.3700    29.8900    36.3560    25.0900   -20.8300 
  230.1250     2.3640    76.0700    36.1740    30.9800    34.8450    25.2290   -20.4220 
  230.2500     2.3590    73.9150    36.6540    31.7750    33.4500    25.2440   -20.1180 
  230.3750     2.3520    71.1630    36.9460    32.3720    33.9370    25.1010   -19.8140 
  230.5000     2.3410    69.3340    37.2070    32.9040    35.0780    24.9420   -19.6260 
  230.6250     2.3250    68.7530    37.6040    33.5140    35.5310    24.8940   -19.5840 
  230.7500     2.3090    68.6210    38.2050    34.2990    33.9810    24.8570   -19.5160 
  230.8750     2.2980    69.0280    39.0020    35.2920    33.9250    24.7650   -19.5530 
  231.0000     2.2930    69.5400    39.8900    36.4310    34.7120    24.8040   -19.6860 
  231.1250     2.2870    70.6580    40.5970    37.4990    36.0580    25.1360   -19.6920 
  231.2500     2.2760    71.2680    40.8510    38.2040    38.8430    25.5810   -19.7260 
  231.3750     2.2620    68.6730    40.4630    38.3080    42.6100    25.8490   -19.7490 
  231.5000     2.2490    63.5570    39.3940    37.7120    42.6730    25.7840   -19.6060 
  231.6250     2.2470    61.2050    37.7340    36.4280    37.9950    25.5710   -19.4980 
