~V
VERS. 2.00: Ver 2.00
~W
STRT.M 60.0000:
STOP.M 279.0000:
STEP.M 0.1250:
NULL. -999.2500:
UWI. F11060:
~C
DEPT.M :
GR.API :
RML.OHMM :
RI. :
RXO.OHMM :
CALI.CM :
DEN.GM/CC :
SP.MV :
~A
# ...
  206.2500    87.2430     9.3810     7.2360     9.3010    24.2550     2.3910     0.7020 
  206.3750    87.7650     9.7650     7.5250     9.4630    24.2360     2.3930     0.2920 
  206.5000    84.0080     9.8390     7.5750     9.5380    24.2750     2.4090    -0.1020 
  206.6250    79.7630     9.6550     7.3890     9.5620    24.2770     2.4340    -0.5590 
  206.7500    80.5280     9.4080     7.1150    10.3570    24.2500     2.4440    -0.9220 
  206.8750    83.3080     9.2240     6.8700    12.3030    24.2800     2.4220    -1.2150 
  207.0000    82.8600     9.1740     6.7420    11.5110    24.3910     2.3820    -1.5640 
  207.1250    81.2580     9.3610     6.8210     9.3620    24.6400     2.3560    -1.8420 
  207.2500    82.3430     9.8350     7.1300     9.0010    24.8780     2.3580    -2.0110 
  207.3750    82.9620    10.6550     7.7040    10.1510    25.0160     2.3780    -2.1610 
  207.5000    81.0440    11.8330     8.5550    10.9790    25.0340     2.4080    -2.3290 
  207.6250    78.5570    13.2830     9.6560    11.5490    24.9710     2.4480    -2.4180 
  207.7500    76.2290    14.6160    10.7540    14.1210    24.8550     2.4900    -2.4220 
  207.8750    72.7080    15.3880    11.5150    16.5460    24.7580     2.5190    -2.4530 
  208.0000    70.3340    15.2790    11.6500    16.1700    24.6780     2.5260    -2.4170 
  208.1250    72.2410    14.2540    11.0460    12.9820    24.7160     2.5170    -2.2580 
  208.2500    77.6980    12.9160    10.1050    10.6740    24.8660     2.5010    -2.1530 
  208.3750    83.8160    11.7110     9.1460     9.4680    25.0590     2.4800    -2.1310 
  208.5000    86.7010    10.8950     8.3810     9.1220    25.2820     2.4550    -2.0470 
  208.6250    84.5580    10.5360     7.9270     8.8850    25.4910     2.4340    -1.9060 
  208.7500    81.8420    10.3920     7.6890     8.6120    25.6460     2.4190    -1.8750 
  208.8750    80.5460    10.3170     7.5970     8.7130    25.6620     2.4110    -1.7980 
  209.0000    79.2620    10.2970     7.6280     8.8350    25.5310     2.4120    -1.6170 
  209.1250    78.6720    10.5890     7.8980     8.8830    25.3130     2.4230    -1.4340 
  209.2500    80.4870    11.4910     8.5430     9.1730    25.0830     2.4460    -1.1940 
  209.3750    81.6480    13.2590     9.7270    10.5220    24.8230     2.4810    -0.7790 
  209.5000    79.5010    15.9620    11.5620    13.6590    24.6150     2.5250    -0.2400 
  209.6250    75.1170    19.2710    14.0140    19.3850    24.4530     2.5670     0.3100 
  209.7500    72.0730    21.9100    16.2920    24.1420    24.3450     2.5950     0.9550 
  209.8750    72.9640    22.3860    17.2000    25.4520    24.2860     2.6020     1.6920 
  210.0000    77.4350    19.9170    15.8680    21.6280    24.2670     2.5910     2.3880 
  210.1250    81.2390    15.3630    12.6970    16.6920    24.2720     2.5670     3.0390 
  210.2500    79.2770    11.0100     9.4360    11.4020    24.2330     2.5340     3.7720 
  210.3750    71.7330     7.8280     6.8680     7.2300    24.1820     2.4850     4.5010 
  210.5000    62.8360     5.9470     5.1740     5.1240    24.1490     2.4350     5.0890 
  210.6250    56.9790     5.2080     4.3450     4.4580    24.1450     2.4130     5.6550 
  210.7500    55.5290     5.0730     4.0470     4.3490    24.1450     2.4190     6.2420 
  210.8750    57.3300     5.2790     4.1060     4.4320    24.1560     2.4350     6.7000 
  211.0000    60.4010     5.6110     4.3640     4.5790    24.1610     2.4480     7.0950 
  211.1250    64.0750     5.8780     4.6730     4.7130    24.1620     2.4570     7.5340 
  211.2500    68.9820     6.0040     4.9160     4.8380    24.1600     2.4650     7.8440 
  211.3750    74.1040     6.0060     5.0580     4.9560    24.1620     2.4690     7.9900 
  211.5000    78.3190     5.9310     5.1020     5.0710    24.1820     2.4680     8.1060 
  211.6250    80.2520     5.8130     5.0620     5.0610    24.2290     2.4610     8.2470 
  211.7500    80.4660     5.6840     4.9770     4.9770    24.2780     2.4520     8.2970 
  211.8750    79.5830     5.5600     4.8710     4.8600    24.3000     2.4420     8.3420 
  212.0000    80.3270     5.4540     4.7590     4.7980    24.3040     2.4310     8.4510 
  212.1250    82.8210     5.3820     4.6450     4.8140    24.3110     2.4160     8.4880 
  212.2500    85.3480     5.3520     4.5370     4.7400    24.2750     2.3910     8.4830 
  212.3750    86.1470     5.3730     4.4520     4.6130    24.1830     2.3650     8.5330 
  212.5000    83.8290     5.4490     4.4060     4.4390    24.0870     2.3510     8.6500 
  212.6250    80.8160     5.5980     4.4350     4.6290    24.1830     2.3560     8.6900 
  212.7500    80.7530     5.8230     4.5510     5.1820    24.3230     2.3680     8.7280 
  212.8750    82.5480     6.1260     4.7560     6.1130    24.4710     2.3730     8.8200 
  213.0000    81.1650     6.5010     5.0340     6.8010    24.5740     2.3690     8.8240 
  213.1250    76.4680     6.9800     5.3960     7.7380    24.5970     2.3620     8.7350 
  213.2500    73.8660     7.6080     5.8690     8.7030    24.5920     2.3560     8.6950 
  213.3750    74.2600     8.5070     6.5300     9.1600    24.6050     2.3490     8.6860 
  213.5000    76.6130     9.8750     7.5100    10.2020    24.6070     2.3370     8.5900 
  213.6250    77.6240    12.1170     9.1070    14.1090    24.5930     2.3210     8.4400 
  213.7500    75.4630    15.3640    11.4910    20.6700    24.5950     2.3030     8.3350 
  213.8750    71.4690    19.7520    14.8950    25.6370    24.6200     2.2880     8.1480 
  214.0000    67.6370    25.2500    19.4610    30.6430    24.6450     2.2780     7.9160 
  214.1250    64.5290    31.5620    25.1400    36.6490    24.6410     2.2770     7.8080 
  214.2500    60.5290    37.7480    31.0250    43.6780    24.6170     2.2810     7.7070 
  214.3750    57.1180    43.0050    36.2430    49.9240    24.5850     2.2810     7.4960 
  214.5000    57.2980    46.8010    40.1680    55.7490    24.5810     2.2720     7.3150 
  214.6250    59.0960    48.7710    42.3510    57.5110    24.6020     2.2550     7.2560 
  214.7500    58.6320    49.3970    43.2050    57.3640    24.6100     2.2420     7.1280 
  214.8750    55.9210    48.9540    42.9940    54.1500    24.5710     2.2360     6.9760 
  215.0000    55.1570    47.7920    42.0560    49.7170    24.4860     2.2320     6.9160 
  215.1250    57.9970    46.4920    40.8880    47.1760    24.4000     2.2330     6.8540 
  215.2500    60.9740    45.7490    40.1160    45.0200    24.3510     2.2370     6.7410 
  215.3750    62.6300    45.9980    40.1430    43.3340    24.3060     2.2410     6.6410 
  215.5000    62.5690    47.4100    41.1800    40.9190    24.2360     2.2410     6.5710 
  215.6250    61.9630    49.9250    43.3070    43.2660    24.1400     2.2400     6.4910 
  215.7500    62.4010    52.7560    45.9290    51.6220    23.9500     2.2410     6.3870 
  215.8750    63.5560    55.1690    48.4380    57.8570    23.6840     2.2450     6.3280 
  216.0000    63.9890    56.5630    50.2530    56.7880    23.3850     2.2500     6.2640 
  216.1250    63.9930    56.6090    50.9250    52.8790    23.0430     2.2490     6.1120 
  216.2500    63.9790    56.0120    50.8810    50.7130    22.7350     2.2420     5.9880 
  216.3750    63.3520    55.4830    50.6750    50.6730    22.7440     2.2290     5.9920 
  216.5000    62.5140    55.5210    50.8030    50.4740    23.0980     2.2120     5.9800 
  216.6250    61.9850    56.2100    51.4720    51.5910    23.6130     2.1980     5.8820 
  216.7500    61.0320    57.0240    52.3320    54.1230    24.2460     2.1900     5.9000 
  216.8750    59.4730    57.4960    53.0130    58.7870    24.8380     2.1870     5.9270 
  217.0000    58.5930    57.3450    53.2340    61.0150    25.1240     2.1890     5.8800 
  217.1250    59.0240    56.5590    52.8700    57.1830    25.0900     2.1960     5.8950 
  217.2500    59.4040    55.5500    52.1880    52.7420    25.0730     2.2040     5.9700 
  217.3750    59.0120    54.5210    51.3580    49.2460    25.1060     2.2070     5.9540 
