~V
VERS. 2.00: Ver 2.00
~W
STRT.M 53.0000:
STOP.M 276.0000:
STEP.M 0.1250:
NULL. -999.2500:
UWI. F11074:
~C
DEPT.M :
DEN.GM/CC :
SP.MV :
GR.API :
RML.OHMM :
RI. :
RXO.OHMM :
CALI.CM :
~A
# ...
  221.7500     2.3210   -23.1510    85.9100    28.1980    26.9550    36.2390    24.1770 
  221.8750     2.3210   -22.8540    82.2670    28.0730    27.2340    35.4610    24.1830 
  222.0000     2.3210   -22.4760    79.9490    27.9210    27.5270    33.3260    24.1990 
  222.1250     2.3180   -21.9720    80.6920    28.0310    27.9290    34.7430    24.2270 
  222.2500     2.3130   -21.3370    83.9810    28.9320    28.3100    37.8520    24.2490 
  222.3750     2.3130   -20.5550    86.7370    30.3620    29.1940    37.9810    24.2890 
  222.5000     2.3210   -19.6300    85.4840    32.4670    30.6710    35.9700    24.3610 
  222.6250     2.3460   -18.5660    79.5240    35.6790    33.0480    37.2480    24.4990 
  222.7500     2.3860   -17.4230    73.0760    40.0190    36.4130    43.9800    24.6460 
  222.8750     2.4410   -16.2660    69.6370    45.0660    40.6220    60.7980    24.7490 
  223.0000     2.5090   -15.1240    71.7270    49.3690    44.6720    91.2290    24.7870 
  223.1250     2.5710   -14.0070    76.9520    49.7280    45.8420   102.6600    24.7910 
  223.2500     2.6060   -12.9500    80.4120    45.4540    42.9790    74.1670    24.7930 
  223.3750     2.6140   -12.0090    80.4760    38.3380    37.2060    47.8750    24.7920 
  223.5000     2.6120   -11.1550    79.8970    31.1160    30.7990    39.8270    24.7910 
  223.6250     2.6180   -10.4040    81.2110    25.5400    25.4090    35.8800    24.7900 
  223.7500     2.6270    -9.7380    81.4530    21.2170    20.9960    33.6180    24.7900 
  223.8750     2.6260    -9.1600    81.9910    17.5940    17.2260    25.4600    24.7900 
  224.0000     2.6100    -8.6330    86.3810    14.4510    13.9780    15.5430    24.7900 
  224.1250     2.5810    -8.1640    95.2590    12.1240    11.5440    11.0070    24.7900 
  224.2500     2.5480    -7.7840   103.9210    10.7350     9.9600     9.3910    24.7900 
  224.3750     2.5130    -7.5000   108.8740    10.2640     9.1940     9.3390    24.7900 
  224.5000     2.4830    -7.3070   111.2320    10.5160     9.1060     9.8750    24.7900 
  224.6250     2.4620    -7.1910   110.9690    11.2280     9.5320    10.8190    24.7900 
  224.7500     2.4500    -7.1230   107.7390    11.9920    10.1250    11.4020    24.7900 
  224.8750     2.4460    -7.1060   105.2460    12.5750    10.6580    11.8010    24.7900 
  225.0000     2.4480    -7.1160   104.5790    12.8730    10.9910    11.7070    24.7900 
  225.1250     2.4510    -7.1280   104.6580    12.9230    11.0800    11.3300    24.7900 
  225.2500     2.4510    -7.1220   101.8150    12.9570    11.0750    11.2920    24.7900 
  225.3750     2.4480    -7.0740    97.7570    13.1370    11.1120    11.9550    24.7900 
  225.5000     2.4500    -6.9740    95.2580    13.5030    11.2610    13.5370    24.7900 
  225.6250     2.4660    -6.8400    93.5130    13.8840    11.4490    15.5900    24.7900 
  225.7500     2.4940    -6.7330    91.6620    13.9590    11.4610    17.8840    24.7900 
  225.8750     2.5230    -6.6530    90.5370    13.5210    11.1150    17.9970    24.7900 
  226.0000     2.5370    -6.6010    91.3150    12.6940    10.4420    13.6790    24.7900 
  226.1250     2.5270    -6.5880    93.7010    12.1090     9.8190    10.7560    24.7900 
  226.2500     2.5170    -6.6460    95.0090    12.2830     9.6530    11.1660    24.7900 
  226.3750     2.5310    -6.7400    94.8250    13.2320    10.0690    14.1100    24.7900 
  226.5000     2.5720    -6.8250    95.3070    14.4510    10.8590    17.6880    24.7900 
  226.6250     2.6140    -6.8640    96.8170    14.7920    11.3010    18.5280    24.7900 
  226.7500     2.6370    -6.8210    98.0730    13.6700    10.7900    16.1580    24.7900 
  226.8750     2.6390    -6.6680    98.4080    11.4760     9.4230    13.3090    24.7900 
  227.0000     2.6180    -6.4020    96.0410     9.1910     7.8110    10.2540    24.7900 
  227.1250     2.5640    -6.0570    87.7900     7.6400     6.5440     7.5870    24.7900 
  227.2500     2.5000    -5.6660    78.3630     6.7910     5.7120     6.0240    24.7900 
  227.3750     2.4520    -5.2480    76.0240     6.4760     5.2680     5.4090    24.7900 
  227.5000     2.4290    -4.8570    81.2210     6.5320     5.1400     5.3800    24.7900 
  227.6250     2.4270    -4.5280    86.2920     6.8520     5.2860     5.5720    24.7790 
  227.7500     2.4310    -4.2640    89.0540     7.2670     5.5860     5.8390    24.7510 
  227.8750     2.4330    -4.0820    93.3310     7.6840     5.9650     6.2140    24.7130 
  228.0000     2.4250    -3.9820    99.2010     8.0280     6.3540     6.6960    24.6730 
  228.1250     2.4200    -3.9330   101.3270     8.2140     6.6680     7.0650    24.6460 
  228.2500     2.4260    -3.8750    98.9470     8.2220     6.8500     7.1110    24.6160 
  228.3750     2.4410    -3.8170    95.0740     8.0560     6.8690     6.7880    24.5920 
  228.5000     2.4520    -3.7550    92.9560     7.7760     6.7500     6.3520    24.5830 
  228.6250     2.4510    -3.6880    94.1540     7.5310     6.5890     6.2000    24.5830 
  228.7500     2.4440    -3.6380    95.3070     7.4460     6.5070     6.3760    24.5830 
  228.8750     2.4370    -3.6080    93.8330     7.5510     6.5550     6.7000    24.5830 
  229.0000     2.4330    -3.5890    90.0610     7.7880     6.7100     6.8300    24.5830 
  229.1250     2.4290    -3.5810    87.3390     8.0400     6.8930     6.7480    24.5830 
  229.2500     2.4220    -3.6160    86.8920     8.2190     7.0280     6.8300    24.5830 
  229.3750     2.4150    -3.6830    86.9030     8.3170     7.1000     7.0660    24.5830 
  229.5000     2.4080    -3.7900    86.5820     8.3670     7.1280     7.3500    24.5830 
  229.6250     2.4030    -3.9320    85.6090     8.4300     7.1450     6.9290    24.5830 
  229.7500     2.3990    -4.1020    86.0050     8.5640     7.1880     6.7350    24.5830 
  229.8750     2.3950    -4.2940    89.0660     8.8000     7.2850     7.0250    24.5830 
  230.0000     2.3950    -4.5040    92.6770     9.1370     7.4480     7.7010    24.5830 
  230.1250     2.4030    -4.7180    92.9690     9.5440     7.6660     8.2060    24.5830 
  230.2500     2.4080    -4.9350    92.9970    10.0130     7.9180     8.4900    24.5830 
  230.3750     2.4030    -5.1560    95.4270    10.6870     8.2710     8.6630    24.5830 
  230.5000     2.3860    -5.3650    96.0540    11.8260     8.8900     9.1880    24.5830 
  230.6250     2.3650    -5.5720    91.6210    13.9020    10.1130    10.3860    24.5830 
  230.7500     2.3480    -5.7830    88.3330    17.1130    12.1370    11.7420    24.5830 
  230.8750     2.3360    -5.9800    88.0330    21.8370    15.2850    13.7650    24.5830 
  231.0000     2.3270    -6.1520    87.3930    28.6350    20.0990    17.0120    24.5830 
  231.1250     2.3240    -6.3190    84.2450    38.5530    27.7420    24.3800    24.5830 
  231.2500     2.3290    -6.4670    82.3160    50.9250    37.8950    34.3310    24.5830 
  231.3750     2.3420    -6.5920    82.4000    63.8270    49.0900    38.1250    24.5830 
  231.5000     2.3550    -6.7020    82.7710    73.6600    58.3740    31.9590    24.5830 
  231.6250     2.3570    -6.8010    80.3780    76.8240    62.5530    25.1000    24.5830 
  231.7500     2.3480    -6.8970    76.6140    76.0610    63.3190    23.2790    24.5850 
  231.8750     2.3350    -6.9890    76.3880    74.1150    62.7580    23.0890    24.6040 
  232.0000     2.3180    -7.0800    80.2020    72.0620    61.8610    22.5740    24.6560 
  232.1250     2.2970    -7.1670    81.3030    69.6490    60.3540    21.6380    24.7480 
  232.2500     2.2780    -7.2750    78.0880    67.6010    58.6420    22.6750    24.8600 
  232.3750     2.2660    -7.3930    74.5430    67.5390    58.1100    25.5500    24.9810 
  232.5000     2.2590    -7.5070    73.0970    70.6630    60.1120    30.3090    25.0510 
  232.6250     2.2540    -7.6260    73.4280    77.2680    65.4520    34.6850    25.0690 
  232.7500     2.2490    -7.7240    75.9070    84.9310    72.3860    40.6130    25.0690 
  232.8750     2.2430    -7.8030    78.2950    91.0400    78.7960    47.0710    25.0690 
