~V
VERS. 2.00: Ver 2.00
~W
STRT.M 53.0000:
STOP.M 276.0000:
STEP.M 0.1250:
NULL. -999.2500:
UWI. F11074:
~C
DEPT.M :
DEN.GM/CC :
SP.MV :
GR.API :
RML.OHMM :
RI. :
RXO.OHMM :
CALI.CM :
~A
# ...
   86.7500     2.1790   -19.0200    79.2540    11.6710     8.5550    11.6480    24.0120 
   86.8750     2.1890   -19.2390    80.9790    11.4100     8.3720    11.3880    24.0120 
   87.0000     2.1950   -19.4580    82.5240    11.3020     8.2650    11.2850    24.0140 
   87.1250     2.1880   -19.6360    80.6010    11.3140     8.2450    11.3700    24.0150 
   87.2500     2.1720   -19.8120    77.9030    11.3260     8.2460    11.4180    24.0150 
   87.3750     2.1520   -20.0230    77.5800    11.2760     8.2220    11.3900    24.0150 
   87.5000     2.1340   -20.2870    79.3280    11.1740     8.1670    11.2610    24.0150 
   87.6250     2.1260   -20.5920    80.7760    11.0780     8.1080    11.3510    24.0150 
   87.7500     2.1240   -20.8870    81.7610    11.0300     8.0760    11.3490    24.0140 
   87.8750     2.1240   -21.1370    82.9210    11.0260     8.0770    11.3680    24.0130 
   88.0000     2.1240   -21.3660    81.0390    11.0350     8.0930    11.3110    24.0110 
   88.1250     2.1240   -21.5910    75.5340    11.0300     8.1020    11.2470    24.0130 
   88.2500     2.1240   -21.7950    71.4320    11.0260     8.1080    11.2480    24.0130 
   88.3750     2.1250   -21.9170    70.1630    11.0540     8.1290    11.3320    24.0120 
   88.5000     2.1250   -21.9260    70.2320    11.1230     8.1780    11.4000    24.0130 
   88.6250     2.1230   -21.8290    70.5310    11.2020     8.2430    11.3540    24.0130 
   88.7500     2.1230   -21.6900    70.7040    11.2510     8.2930    11.3730    24.0120 
   88.8750     2.1260   -21.5370    69.9850    11.2660     8.3190    11.3310    24.0120 
   89.0000     2.1300   -21.3380    68.7480    11.2660     8.3270    11.2480    24.0140 
   89.1250     2.1370   -21.0950    69.2100    11.2870     8.3370    11.2570    24.0140 
   89.2500     2.1490   -20.8190    70.5160    11.3370     8.3670    11.3720    24.0120 
   89.3750     2.1640   -20.5150    72.8820    11.4070     8.4160    11.5270    24.0100 
   89.5000     2.1750   -20.2570    77.0350    11.4770     8.4740    11.6030    24.0070 
   89.6250     2.1830   -20.0780    78.3300    11.5400     8.5330    11.6080    24.0070 
   89.7500     2.1870   -19.9350    74.5340    11.6030     8.5930    11.6390    24.0070 
   89.8750     2.1870   -19.8210    71.0150    11.6750     8.6590    11.8280    24.0090 
   90.0000     2.1830   -19.7240    72.4050    11.7480     8.7320    12.1230    24.0080 
   90.1250     2.1800   -19.6540    75.8640    11.7840     8.7950    12.2770    24.0100 
   90.2500     2.1830   -19.6410    77.0220    11.7630     8.8280    12.1620    24.0110 
   90.3750     2.1930   -19.6970    76.5670    11.6930     8.8300    11.9540    24.0090 
   90.5000     2.2050   -19.7590    76.6610    11.6260     8.8310    11.9150    24.0070 
   90.6250     2.2130   -19.8020    78.7010    11.6270     8.8780    12.5040    24.0070 
   90.7500     2.2140   -19.8100    79.5900    11.6860     8.9770    13.1090    24.0090 
   90.8750     2.2110   -19.7500    77.7650    11.7590     9.0980    12.9920    24.0090 
   91.0000     2.2090   -19.6600    74.8660    11.8080     9.2060    12.3740    24.0110 
   91.1250     2.2130   -19.5100    76.0460    11.8400     9.2930    11.9430    24.0200 
   91.2500     2.2210   -19.2560    78.9190    11.8730     9.3710    12.8490    24.0450 
   91.3750     2.2260   -18.9430    79.6870    11.8460     9.4040    14.2780    24.0680 
   91.5000     2.2250   -18.6150    79.6390    11.6380     9.3010    13.6500    24.0780 
   91.6250     2.2090   -18.2590    81.5770    11.1630     8.9660    11.1090    24.0780 
   91.7500     2.1820   -17.8450    84.0640    10.6290     8.5290     9.6670    24.0780 
   91.8750     2.1540   -17.3760    84.3160    10.2640     8.1630     9.1980    24.0760 
   92.0000     2.1360   -16.8430    84.8230    10.1860     7.9860     8.7960    24.0590 
   92.1250     2.1320   -16.3270    87.7900    10.3350     8.0040     8.5060    24.0140 
   92.2500     2.1370   -15.8870    90.8790    10.4710     8.0640     8.3110    23.9660 
   92.3750     2.1460   -15.5300    93.5030    10.4700     8.0680     8.1810    23.9450 
   92.5000     2.1520   -15.2550    95.7190    10.3450     8.0040     7.8980    23.9430 
   92.6250     2.1510   -15.1510    97.0260    10.2450     7.9510     7.8650    23.9430 
   92.7500     2.1450   -15.2700    97.6600    10.3000     8.0010     8.3790    23.9430 
   92.8750     2.1380   -15.6540    98.8400    10.5480     8.1920     9.3980    23.9440 
   93.0000     2.1290   -16.2610    99.3360    10.9520     8.5160    10.5330    23.9530 
   93.1250     2.1240   -16.9540    96.0600    11.3890     8.9080    11.3780    23.9770 
   93.2500     2.1240   -17.6300    92.0670    11.6930     9.2310    11.6790    24.0000 
   93.3750     2.1300   -18.2000    89.7660    11.7690     9.3810    11.8270    24.0090 
   93.5000     2.1470   -18.6580    87.5580    11.6320     9.3290    12.1370    24.0090 
   93.6250     2.1700   -18.9320    85.7950    11.3870     9.1240    12.5430    24.0040 
   93.7500     2.1840   -19.0450    85.5690    11.1730     8.8880    12.5390    23.9700 
   93.8750     2.1790   -18.9970    84.5150    11.0500     8.6800    11.9230    23.9010 
   94.0000     2.1620   -18.7840    81.4910    11.0290     8.5260    11.3040    23.8330 
   94.1250     2.1480   -18.4770    78.4900    11.0840     8.4230    10.7220    23.8060 
   94.2500     2.1420   -18.1890    78.8460    11.1420     8.3320    10.5250    23.8160 
   94.3750     2.1400   -17.9590    82.3660    11.1480     8.2250    10.6380    23.9030 
   94.5000     2.1360   -17.7760    86.5260    11.0940     8.0980    10.7990    24.1140 
   94.6250     2.1330   -17.6500    89.6660    11.0760     8.0120    10.9570    24.3920 
   94.7500     2.1390   -17.6010    90.3790    11.2820     8.0770    11.1110    24.5330 
   94.8750     2.1600   -17.5980    88.6340    11.9750     8.4400    11.4870    24.5710 
   95.0000     2.1990   -17.6400    86.1910    13.5070     9.3070    12.8050    24.5740 
   95.1250     2.2650   -17.7390    87.4640    16.4270    11.1150    18.4250    24.5740 
   95.2500     2.3530   -17.8530    91.3280    20.3920    13.8700    35.6510    24.5730 
   95.3750     2.4500   -18.0040    93.3000    24.2570    17.0250    70.4370    24.5510 
   95.5000     2.5140   -18.1700    89.4380    25.7560    18.9480    86.7710    24.4730 
   95.6250     2.4690   -18.2970    83.9480    22.4740    17.3960    45.8030    24.3130 
   95.7500     2.3470   -18.3250    82.3410    17.0630    13.8960    21.4630    24.1960 
   95.8750     2.2250   -18.2780    84.1030    12.4870    10.5520    13.6560    24.1540 
   96.0000     2.1530   -18.2050    85.0030     9.9890     8.3720    11.8130    24.1500 
   96.1250     2.1340   -18.0900    82.9600     9.5470     7.5280    11.5130    24.1500 
   96.2500     2.1290   -17.9390    82.7860    10.0840     7.4460    11.2770    24.1500 
   96.3750     2.1220   -17.7600    86.8660    10.9530     7.7650    11.1770    24.1500 
   96.5000     2.1160   -17.5690    89.9770    11.6600     8.1710    11.1230    24.1500 
   96.6250     2.1180   -17.3940    87.6380    11.9190     8.4350    11.0360    24.1500 
   96.7500     2.1270   -17.2410    83.8590    11.8900     8.5510    10.9190    24.1500 
   96.8750     2.1390   -17.1110    82.4250    11.7470     8.5810    10.7400    24.1500 
   97.0000     2.1500   -16.9930    82.9920    11.6210     8.5930    10.6930    24.1500 
   97.1250     2.1600   -16.8310    83.5490    11.6170     8.6660    10.7900    24.1500 
   97.2500     2.1730   -16.5560    83.1240    11.7440     8.8250    10.9970    24.1500 
   97.3750     2.1930   -16.1030    81.2490    11.9460     9.0410    11.2400    24.1500 
   97.5000     2.2250   -15.4720    77.7540    12.0800     9.2120    11.6370    24.1500 
   97.6250     2.2730   -14.6870    76.5560    11.8550     9.1230    12.7710    24.1500 
   97.7500     2.3230   -13.8420    79.5540    11.1240     8.6590    12.9930    24.1500 
   97.8750     2.3520   -12.9590    87.0870     9.9440     7.8360    10.2950    24.1500 
