~V
VERS. 2.00: Ver 2.00
~W
STRT.M 55.0000:
STOP.M 274.0000:
STEP.M 0.1250:
NULL. -999.2500:
UWI. F11049:
~C
DEPT.M :
SP.MV :
GR.API :
RML.OHMM :
RI. :
RXO.OHMM :
CALI.CM :
DEN.GM/CC :
~A
# ...
  246.2500    -4.9940    71.6100   101.2170    96.1600   129.9170    24.2210     2.6430 
  246.3750    -4.7260    70.3230    84.3150    82.4860   161.5610    24.2390     2.6360 
  246.5000    -4.4070    70.7500    59.5350    59.6220   161.6520    24.2650     2.5930 
  246.6250    -4.2340    68.6540    38.7660    39.2160   121.9630    24.2890     2.5310 
  246.7500    -4.0300    62.9100    24.6720    25.7260    66.5180    24.2690     2.4860 
  246.8750    -3.8270    57.8650    16.9400    17.9700    25.1280    24.2230     2.4690 
  247.0000    -3.7580    57.0040    12.7660    13.7400    16.5790    24.1890     2.4610 
  247.1250    -3.6700    57.4160    10.8390    11.5930    14.4660    24.1870     2.4410 
  247.2500    -3.5370    55.6130     9.8300    10.3500    11.5170    24.1900     2.4200 
  247.3750    -3.4590    54.9130     9.1830     9.5740     9.3190    24.1820     2.4140 
  247.5000    -3.4630    57.4770     8.7510     8.9860     9.2820    24.1800     2.4200 
  247.6250    -3.4000    61.0030     8.8580     8.4580     9.0990    24.1970     2.4220 
  247.7500    -3.3300    63.4030     8.6660     7.9790     8.9800    24.2220     2.4120 
  247.8750    -3.3440    65.3150     8.4340     7.5830     8.6970    24.2220     2.3910 
  248.0000    -3.3390    66.9060     8.2510     7.2850     7.5730    24.2010     2.3690 
  248.1250    -3.2850    65.9650     8.1950     7.0940     7.0220    24.1960     2.3590 
  248.2500    -3.2980    63.4380     8.1160     6.9680     7.0390    24.1980     2.3620 
  248.3750    -3.3660    61.0880     7.9990     6.8740     7.1730    24.1990     2.3700 
  248.5000    -3.3430    60.1040     7.8980     6.7920     7.1050    24.2220     2.3760 
  248.6250    -3.3410    60.3200     7.8250     6.7100     6.9160    24.2270     2.3770 
  248.7500    -3.3940    61.0010     7.6820     6.6290     6.7920    24.2110     2.3780 
  248.8750    -3.3500    61.9490     7.4690     6.5520     6.7980    24.2000     2.3820 
  249.0000    -3.2860    61.7280     7.3060     6.4800     6.7840    24.2120     2.3870 
  249.1250    -3.3170    59.2980     7.2990     6.4210     6.7900    24.2070     2.3920 
  249.2500    -3.3060    57.5290     7.3480     6.3880     6.7090    24.1960     2.3950 
  249.3750    -3.2260    58.6690     7.3740     6.3890     6.5760    24.2120     2.4020 
  249.5000    -3.2230    59.8120     7.3750     6.4200     6.4430    24.2390     2.4140 
  249.6250    -3.2280    56.5000     7.3730     6.4600     6.4050    24.2490     2.4250 
  249.7500    -3.1820    54.2510     7.3740     6.4790     6.3970    24.2410     2.4280 
  249.8750    -3.2320    57.9530     7.3750     6.4610     6.2890    24.2360     2.4210 
  250.0000    -3.3000    64.6130     7.3670     6.4030     6.1400    24.2550     2.4110 
  250.1250    -3.2430    65.2700     7.3270     6.3120     6.2180    24.2850     2.4040 
  250.2500    -3.2110    61.4530     7.1780     6.2070     6.4050    24.2760     2.4010 
  250.3750    -3.2740    56.7360     7.0640     6.1080     6.9770    24.2700     2.4000 
  250.5000    -3.2860    53.4530     7.0920     6.0410     7.5310    24.2850     2.3980 
  250.6250    -3.2550    54.9040     7.2090     6.0490     7.8030    24.2680     2.3980 
  250.7500    -3.3090    58.7330     7.3950     6.1250     7.9320    24.2310     2.4030 
  250.8750    -3.3040    60.4100     7.6170     6.2400     7.9470    24.2320     2.4130 
  251.0000    -3.2470    59.4770     7.8160     6.3530     7.7230    24.2680     2.4290 
  251.1250    -3.2910    60.1910     7.9040     6.4080     7.2340    24.2600     2.4440 
  251.2500    -3.3500    60.6550     7.8520     6.3850     6.9040    24.2190     2.4470 
  251.3750    -3.3130    58.6530     7.6800     6.2860     6.9180    24.1900     2.4360 
  251.5000    -3.3180    55.7560     7.4500     6.1350     7.6440    24.1850     2.4160 
  251.6250    -3.3710    55.3600     7.2370     5.9650     7.0790    24.1950     2.3960 
  251.7500    -3.3080    56.6460     7.0780     5.8110     7.1700    24.1960     2.3770 
  251.8750    -3.2730    58.4990     6.9760     5.6920     7.8670    24.1870     2.3610 
  252.0000    -3.3230    59.7980     6.9180     5.6140     8.4470    24.1820     2.3560 
  252.1250    -3.2950    59.2730     6.8900     5.5720     8.2990    24.2020     2.3640 
  252.2500    -3.2510    59.0740     6.8820     5.5520     7.8700    24.2270     2.3760 
  252.3750    -3.3180    60.9740     6.8880     5.5440     7.5750    24.2290     2.3830 
  252.5000    -3.3270    63.9840     6.8970     5.5410     7.3760    24.2120     2.3910 
  252.6250    -3.2680    66.7800     6.8960     5.5370     7.1350    24.1910     2.4030 
  252.7500    -3.3290    67.0570     6.8920     5.5350     6.9220    24.1810     2.4110 
  252.8750    -3.3570    63.8900     6.8990     5.5360     6.7970    24.1810     2.4080 
  253.0000    -3.2880    58.8750     6.9220     5.5380     6.7840    24.1910     2.4010 
  253.1250    -3.3070    56.8600     6.9580     5.5400     6.7350    24.1900     2.3990 
  253.2500    -3.3820    59.8060     6.9990     5.5430     6.6720    24.1850     2.4030 
  253.3750    -3.3780    65.5140     7.0390     5.5480     6.6790    24.1920     2.4090 
  253.5000    -3.4020    70.0290     7.0780     5.5540     6.5390    24.1970     2.4140 
  253.6250    -3.5330    69.0580     7.1130     5.5570     6.4020    24.1920     2.4170 
  253.7500    -3.5780    65.5400     7.1480     5.5580     6.4250    24.1850     2.4200 
  253.8750    -3.6510    64.1490     7.1810     5.5630     6.5170    24.1890     2.4230 
  254.0000    -3.8210    65.2360     7.2020     5.5760     6.6000    24.1890     2.4270 
  254.1250    -3.8950    63.9760     7.2080     5.5910     6.8240    24.1840     2.4350 
  254.2500    -3.9090    60.4490     7.2000     5.5910     7.1080    24.1860     2.4440 
  254.3750    -3.9860    57.2280     7.1720     5.5650     7.2820    24.1900     2.4530 
  254.5000    -4.0450    55.9030     7.1100     5.5080     7.2040    24.1830     2.4650 
  254.6250    -4.0320    56.0160     7.0050     5.4240     7.0580    24.1840     2.4830 
  254.7500    -4.0960    56.9440     6.8810     5.3350     6.8520    24.1910     2.4880 
  254.8750    -4.1040    59.0090     6.7700     5.2550     6.6880    24.1900     2.4670 
  255.0000    -4.0370    62.1610     6.7060     5.1970     6.5800    24.1800     2.4330 
  255.1250    -4.0710    64.3130     6.7050     5.1710     6.6310    24.1820     2.4140 
  255.2500    -4.1120    63.8040     6.7330     5.1710     6.6720    24.1980     2.4120 
  255.3750    -4.0470    62.2460     6.7610     5.1860     6.6150    24.2270     2.4150 
  255.5000    -4.0230    62.6620     6.7740     5.2020     6.4630    24.2700     2.4170 
  255.6250    -4.0390    64.2110     6.7710     5.2110     6.3830    24.2610     2.4180 
  255.7500    -3.9700    64.8240     6.7650     5.2140     6.2340    24.2280     2.4180 
  255.8750    -3.9830    64.1780     6.7610     5.2170     6.1130    24.2200     2.4160 
  256.0000    -4.0570    62.8660     6.7650     5.2290     6.2050    24.2400     2.4130 
  256.1250    -4.0440    61.9060     6.7750     5.2570     6.4150    24.2120     2.4100 
  256.2500    -4.0440    62.1750     6.7850     5.2950     6.7650    24.2230     2.4030 
  256.3750    -4.1300    63.3290     6.7860     5.3300     7.1610    24.2600     2.3940 
  256.5000    -4.1710    63.3810     6.7740     5.3490     7.3230    24.2700     2.3870 
  256.6250    -4.2100    61.8030     6.7520     5.3400     7.0850    24.2310     2.3890 
  256.7500    -4.3350    60.6490     6.7320     5.3060     6.8030    24.2270     2.3950 
  256.8750    -4.3910    61.2460     6.7240     5.2610     6.6860    24.2590     2.3990 
  257.0000    -4.4250    62.9280     6.7310     5.2280     6.6440    24.2660     2.4030 
  257.1250    -4.5710    63.4280     6.7520     5.2360     6.5820    24.2440     2.4170 
  257.2500    -4.6750    63.7860     6.7870     5.2830     6.5970    24.2630     2.4410 
  257.3750    -4.7050    64.5900     6.8390     5.3530     6.7360    24.2910     2.4650 
