~V
VERS. 2.00: Ver 2.00
~W
STRT.M 62.0000:
STOP.M 272.0000:
STEP.M 0.1250:
NULL. -999.2500:
UWI. F11076:
~C
DEPT.M :
GR.API :
RML.OHMM :
RI. :
RXO.OHMM :
CALI.CM :
DEN.GM/CC :
SP.MV :
~A
# ...
  264.5000    96.1280     8.3040     7.2040     6.0900    24.7970     2.5510    -0.8300 
  264.6250    96.1280     8.5050     7.4400     5.9290    24.6670     2.5540    -0.7730 
  264.7500    96.1280     8.6200     7.6580     5.6930    24.7690     2.5180    -0.7900 
  264.8750    96.1280     8.6030     7.7610     5.4890    25.0800     2.4620    -0.8720 
  265.0000    96.1280     8.4760     7.7390     5.5760    25.5230     2.4150    -0.9600 
  265.1250    96.1280     8.2870     7.6180     6.1310    26.0650     2.4000    -1.0240 
  265.2500    96.1280     8.0890     7.4500     6.7470    26.7850     2.4090    -1.0770 
  265.3750    96.1280     7.9050     7.2610     6.6330    27.2950     2.4240    -1.0600 
  265.5000    96.1280     7.7480     7.0660     6.0620    27.3360     2.4320    -1.0830 
  265.6250    96.1280     7.6420     6.8880     5.6980    26.9960     2.4310    -1.1310 
  265.7500    96.1280     7.5810     6.7460     5.5300    26.5020     2.4270    -1.1040 
  265.8750    96.1280     7.5480     6.6520     5.4710    26.1930     2.4290    -1.1750 
  266.0000    96.1280     7.5130     6.6030     5.4680    25.9920     2.4380    -1.2860 
  266.1250    96.1280     7.4470     6.5810     5.3910    25.9160     2.4540    -1.3360 
  266.2500    96.1280     7.3610     6.5570     5.3220    25.7740     2.4660    -1.4500 
  266.3750    96.1280     7.2790     6.5220     5.3590    25.5160     2.4720    -1.6520 
  266.5000    96.1280     7.2280     6.4820     5.5340    25.4400     2.4710    -1.7790 
  266.6250    96.1280     7.2210     6.4500     5.8360    25.6690     2.4670    -1.9090 
  266.7500    96.1280     7.2350     6.4310     5.9400    25.7200     2.4620    -2.0200 
  266.8750    96.1280     7.2490     6.4220     5.8990    25.7550     2.4560    -1.9920 
  267.0000    96.1280     7.2550     6.4210     5.8580    25.8140     2.4490    -1.9520 
  267.1250    96.1280     7.2550     6.4210     5.8990    25.7650     2.4390    -1.9440 
  267.2500    96.1280     7.2550     6.4210     6.2780    25.7160     2.4270    -1.8930 
  267.3750    96.1280     7.2550     6.4210     6.9700    25.5810     2.4120    -1.8240 
  267.5000    96.1280     7.2550     6.4210     7.7020    25.4640     2.3960    -1.7180 
  267.6250    96.1280     7.2550     6.4210     8.0950    25.5140     2.3830    -1.5470 
  267.7500    96.1280     7.2550     6.4210     7.9310    25.8280     2.3750    -1.4620 
  267.8750    96.1280     7.2550     6.4210     7.5920    26.2220     2.3740    -1.4230 
  268.0000    96.1280     7.2550     6.4210     7.4760    26.2870     2.3730    -1.3540 
  268.1250    96.1280     7.2550     6.4210     7.8170    26.0020     2.3640    -1.2630 
  268.2500    96.1280     7.2550     6.4210     7.4620    25.7760     2.3430    -1.2180 
  268.3750    96.1280     7.2550     6.4210     6.8560    25.5960     2.3150    -1.1880 
  268.5000    96.1280     7.2550     6.4210     6.7340    25.4510     2.2920    -1.1810 
  268.6250    96.1280     7.2550     6.4210     6.6950    25.6190     2.2940    -1.1320 
  268.7500    96.1280     7.2550     6.4210     6.2010    25.5360     2.3210    -1.0520 
  268.8750    96.1280     7.2550     6.4210     5.5710    25.2260     2.3620    -1.0090 
  269.0000    96.1280     7.2550     6.4210     5.2410    24.9170     2.3980    -1.0210 
  269.1250    96.1280     7.2550     6.4210     5.2800    24.7970     2.4080    -1.0740 
  269.2500    96.1280     7.2550     6.4210     5.5500    24.8120     2.3970    -1.0980 
  269.3750    96.1280     7.2550     6.4210     6.0020    24.9040     2.3800    -1.0580 
  269.5000    96.1280     7.2550     6.4210     6.7310    24.8880     2.3730    -1.0520 
  269.6250    96.1280     7.2550     6.4210     7.2260    24.6590     2.3900    -1.0940 
  269.7500    96.1280     7.2550     6.4210     7.5460    24.4690     2.4190    -1.1070 
  269.8750    96.1280     7.2550     6.4210     7.6500    24.3210     2.4440    -1.1070 
  270.0000    96.1280     7.2550     6.4210     7.6580    24.0940     2.4540    -1.1070 
  270.1250    96.1280     7.2550     6.4210     7.7610    23.9680     2.4460  -999.2500 
  270.2500    96.1280     7.2550     6.4210     7.1820    23.9260     2.4320  -999.2500 
  270.3750    96.1280     7.2550     6.4210     6.5060    23.9190     2.4060  -999.2500 
  270.5000    96.1280     7.2550     6.4210     6.2220    23.8270     2.3560  -999.2500 
  270.6250    96.1280     7.2550     6.4210     6.6630    23.3810     2.2570  -999.2500 
  270.7500    96.1280     7.2550     6.4210     7.3800    22.5150     2.1230  -999.2500 
  270.8750    96.1280     7.2550     6.4210     7.1100    21.2930     1.9820  -999.2500 
  271.0000    96.1280     7.2550     6.4210     6.0650    19.6040     1.8660  -999.2500 
  271.1250    96.1280     7.2550     6.4210     5.3450    17.2420     1.7960  -999.2500 
  271.2500    96.1280     7.2550     6.4210     5.1250    15.9660     1.7500  -999.2500 
  271.3750    96.1280     7.2550     6.4210     5.0880    15.5830     1.6930  -999.2500 
  271.5000    96.1280     7.2550     6.4210     5.0890    15.5580     1.7230  -999.2500 
  271.6250    96.1280     7.2550     6.4210     5.0870    15.5580     1.5170  -999.2500 
  271.7500    96.1280     7.2550     6.4210     5.0870    15.5580     1.2480  -999.2500 
  271.8750    96.1280     7.2550     6.4210     5.0860    15.5580     1.1200  -999.2500 
  272.0000  -999.2500  -999.2500  -999.2500  -999.2500  -999.2500     1.3540  -999.2500 
