~V
VERS. 2.00: Ver 2.00
~W
STRT.M 62.0000:
STOP.M 273.0000:
STEP.M 0.1250:
NULL. -999.2500:
UWI. F11050:
~C
DEPT.M :
SP.MV :
GR.API :
RML.OHMM :
RI. :
RXO.OHMM :
CALI.CM :
DEN.GM/CC :
~A
# ...
  129.5000   -18.2040    64.2540     9.5450     7.6910     9.1030    24.1960     2.2510 
  129.6250   -18.0470    65.1270     9.4800     7.6630     9.0750    24.1780     2.2530 
  129.7500   -17.9600    65.3910     9.4830     7.6760     8.8750    24.1550     2.2520 
  129.8750   -17.8550    63.9410     9.5580     7.7380     8.6720    24.1490     2.2470 
  130.0000   -17.8020    62.7660     9.6910     7.8530     8.8060    24.1600     2.2420 
  130.1250   -17.7140    63.3220     9.8500     8.0140     9.2400    24.1830     2.2380 
  130.2500   -17.6770    64.0790     9.9890     8.1830     9.5740    24.1780     2.2360 
  130.3750   -17.6090    65.3860    10.0920     8.3340     9.6570    24.1460     2.2330 
  130.5000   -17.6010    67.9790    10.1690     8.4560     9.7190    24.1470     2.2320 
  130.6250   -17.5600    69.7640    10.2310     8.5410     9.5960    24.0970     2.2350 
  130.7500   -17.4860    69.4060    10.2340     8.5670     9.4050    24.0720     2.2430 
  130.8750   -17.4160    69.2340    10.0890     8.4800     9.5850    24.0730     2.2530 
  131.0000   -17.2840    70.3900     9.7250     8.2320    10.6730    24.1370     2.2620 
  131.1250   -17.1270    70.9540     9.1470     7.8110    11.8410    24.1730     2.2660 
  131.2500   -16.9190    71.2840     8.5430     7.3410    10.6380    24.1390     2.2680 
  131.3750   -16.7140    73.1180     8.0830     6.9420     7.7660    24.0710     2.2720 
  131.5000   -16.4370    76.0570     7.8870     6.7190     6.3850    23.9960     2.2790 
  131.6250   -16.2170    74.8080     8.0320     6.7730     6.7760    23.9100     2.2860 
  131.7500   -15.9520    69.6840     8.4160     7.0660     7.7190    23.8300     2.2900 
  131.8750   -15.6680    67.2360     8.9580     7.5520     8.3250    23.7850     2.2970 
  132.0000   -15.3630    68.7480     9.5830     8.1560     8.5360    23.7750     2.3120 
  132.1250   -15.0400    69.4710    10.2000     8.7740     8.5960    23.8290     2.3410 
  132.2500   -14.7080    66.3480    10.6830     9.2790     8.5440    23.9310     2.3780 
  132.3750   -14.3480    63.2200    10.8900     9.5480     8.6050    24.0230     2.4130 
  132.5000   -14.0580    64.3380    10.7070     9.4770     9.5030    24.0920     2.4300 
  132.6250   -13.6810    68.5800    10.1240     9.0320    10.3730    24.1100     2.4210 
  132.7500   -13.3650    71.9370     9.4380     8.4460    10.1600    24.1150     2.4040 
  132.8750   -13.0540    73.4570     8.8850     7.9210     8.9360    24.1750     2.3970 
  133.0000   -12.7710    74.9070     8.6090     7.5980     8.1790    24.2600     2.4100 
  133.1250   -12.5240    75.5710     8.7250     7.5930     9.6510    24.3750     2.4470 
  133.2500   -12.3160    73.3030     9.2200     7.9010    11.4360    24.4730     2.4920 
  133.3750   -12.1460    69.9970    10.1610     8.5710    12.7520    24.5570     2.5340 
  133.5000   -11.9660    67.7620    11.6410     9.6730    13.1610    24.5930     2.5690 
  133.6250   -11.8330    63.9860    13.8380    11.3690    14.2440    24.6240     2.5980 
  133.7500   -11.7040    57.7930    16.5490    13.5830    19.8260    24.6800     2.6240 
  133.8750   -11.6020    52.0590    19.3600    16.1110    27.5730    24.7380     2.6440 
  134.0000   -11.5450    48.9290    21.5770    18.4620    30.7490    24.7670     2.6580 
  134.1250   -11.5200    48.1240    22.3000    19.8100    26.3840    24.7640     2.6640 
  134.2500   -11.5240    48.5230    21.8330    20.1070    24.4810    24.7620     2.6680 
  134.3750   -11.5470    49.8930    21.0020    19.8520    23.3470    24.7580     2.6700 
  134.5000   -11.6130    52.5410    20.7500    19.7690    21.6630    24.7580     2.6730 
  134.6250   -11.7050    54.5550    21.8550    20.5930    21.2650    24.7530     2.6760 
  134.7500   -11.8120    53.7370    23.9530    22.3170    24.1330    24.7450     2.6800 
  134.8750   -11.9370    51.4430    26.1510    24.4170    29.6550    24.7450     2.6820 
  135.0000   -12.0600    49.9860    26.9720    25.6500    38.1870    24.7620     2.6720 
  135.1250   -12.1800    52.3380    24.6070    24.0860    40.3930    24.7610     2.6430 
  135.2500   -12.3040    56.8740    20.0070    20.2180    32.3680    24.7640     2.5980 
  135.3750   -12.4460    63.7580    14.9460    15.6240    20.8410    24.7630     2.5360 
  135.5000   -12.5910    70.4920    10.8680    11.6900    11.5700    24.7680     2.4540 
  135.6250   -12.7170    73.5730     8.4500     9.1080     8.0070    24.7910     2.3730 
  135.7500   -12.8570    74.2700     7.1620     7.5260     7.0780    24.8200     2.3200 
  135.8750   -13.0020    74.6570     6.6120     6.6600     6.9650    24.8290     2.2990 
  136.0000   -13.1600    75.4430     6.4760     6.2620     6.7570    24.8160     2.3000 
  136.1250   -13.3310    74.6410     6.5180     6.1590     6.5410    24.7870     2.3090 
  136.2500   -13.4930    73.8060     6.5690     6.1660     6.3890    24.7850     2.3180 
  136.3750   -13.6680    74.9730     6.6080     6.2260     6.4680    24.8090     2.3200 
  136.5000   -13.8130    78.1000     6.6710     6.3310     6.6280    24.8200     2.3130 
  136.6250   -14.0210    78.1830     6.8110     6.4980     6.9370    24.7660     2.2990 
  136.7500   -14.2200    74.3800     7.0330     6.7310     7.2700    24.6220     2.2890 
  136.8750   -14.4140    70.4610     7.3520     7.0490     7.7080    24.4360     2.2870 
  137.0000   -14.5830    69.2630     7.8000     7.4820     8.0640    24.3080     2.2940 
  137.1250   -14.7240    70.4790     8.5240     8.1290     8.7320    24.2050     2.3140 
  137.2500   -14.8120    71.2550     9.6420     9.0630     9.7880    24.0660     2.3530 
  137.3750   -14.8280    70.3520    11.2710    10.3890    11.6320    23.9320     2.4150 
  137.5000   -14.7910    67.6780    13.4430    12.1850    14.3940    23.8730     2.4940 
  137.6250   -14.6340    64.2430    16.1420    14.5420    17.0260    23.9530     2.5660 
  137.7500   -14.4160    60.6040    18.9820    17.2230    22.0830    24.1100     2.6150 
  137.8750   -14.1660    56.7460    21.4340    19.8090    26.0770    24.3000     2.6390 
  138.0000   -13.9250    54.1860    22.8710    21.6640    27.3540    24.5160     2.6400 
  138.1250   -13.7210    53.9130    22.7190    22.0590    27.8790    24.6410     2.6240 
  138.2500   -13.5530    55.0240    21.4880    21.2970    28.5250    24.7300     2.6040 
  138.3750   -13.4590    57.0800    19.6980    19.8080    25.2230    24.7690     2.5820 
  138.5000   -13.4010    58.8840    17.7440    17.9800    19.8710    24.7870     2.5550 
  138.6250   -13.4650    57.6450    15.8420    16.0880    17.2390    24.7840     2.5270 
  138.7500   -13.5790    57.5270    14.0960    14.3270    19.2800    24.7680     2.5110 
  138.8750   -13.7330    61.5190    12.6680    12.8630    17.8200    24.7580     2.5040 
  139.0000   -13.9020    67.2130    11.7330    11.8430    13.0820    24.7530     2.4940 
  139.1250   -14.0780    70.2460    11.4120    11.3780    10.1480    24.7450     2.4790 
  139.2500   -14.2870    71.5050    11.4150    11.2500    12.2120    24.7460     2.4770 
  139.3750   -14.4920    71.7400    11.4150    11.2040    17.0060    24.7380     2.4930 
  139.5000   -14.7210    71.2950    11.0730    10.9380    18.0800    24.7080     2.5130 
  139.6250   -14.9360    72.0740    10.1270    10.1610    13.8210    24.6010     2.5100 
  139.7500   -15.1940    72.5020     8.8740     9.0540     9.1260    24.3980     2.4830 
  139.8750   -15.4800    70.9260     7.7300     7.9540     7.2450    24.0580     2.4450 
  140.0000   -15.7960    70.5570     7.0650     7.1900     7.1410    23.7960     2.4040 
  140.1250   -16.1230    75.3520     7.1870     7.0710     7.4900    23.7350     2.3640 
  140.2500   -16.4400    79.1140     7.9380     7.5460     8.5690    23.7770     2.3250 
  140.3750   -16.7170    77.0840     9.0880     8.4920     9.8920    23.8420     2.2930 
  140.5000   -16.9690    72.6490    10.2650     9.6320    11.7360    23.9430     2.2660 
  140.6250   -17.1520    71.2840    10.9110    10.4440    13.6840    24.0640     2.2460 
