~V
VERS. 2.00: Ver 2.00
~W
STRT.M 52.0000:
STOP.M 286.0000:
STEP.M 0.1250:
NULL. -999.2500:
UWI. F11061:
~C
DEPT.M :
GR.API :
RML.OHMM :
RI. :
RXO.OHMM :
CALI.CM :
DEN.GM/CC :
SP.MV :
~A
   52.0000  -999.2500  -999.2500  -999.2500  -999.2500  -999.2500  -999.2500    18.0110 
   52.1250  -999.2500  -999.2500  -999.2500  -999.2500  -999.2500  -999.2500    18.3910 
   52.2500  -999.2500  -999.2500  -999.2500  -999.2500  -999.2500  -999.2500    18.7430 
   52.3750  -999.2500  -999.2500  -999.2500  -999.2500  -999.2500  -999.2500    18.9860 
   52.5000  -999.2500  -999.2500  -999.2500  -999.2500  -999.2500  -999.2500    19.0400 
   52.6250  -999.2500  -999.2500  -999.2500  -999.2500  -999.2500  -999.2500    18.8680 
   52.7500  -999.2500  -999.2500  -999.2500  -999.2500  -999.2500  -999.2500    18.4800 
   52.8750  -999.2500  -999.2500  -999.2500  -999.2500  -999.2500  -999.2500    17.9040 
   53.0000  -999.2500  -999.2500  -999.2500  -999.2500  -999.2500  -999.2500    17.2290 
   53.1250  -999.2500  -999.2500  -999.2500  -999.2500  -999.2500  -999.2500    16.5810 
   53.2500  -999.2500  -999.2500  -999.2500  -999.2500  -999.2500  -999.2500    15.9920 
   53.3750  -999.2500  -999.2500  -999.2500  -999.2500  -999.2500  -999.2500    15.3830 
   53.5000  -999.2500  -999.2500  -999.2500  -999.2500  -999.2500  -999.2500    14.5530 
   53.6250  -999.2500  -999.2500  -999.2500  -999.2500  -999.2500  -999.2500    13.4620 
   53.7500  -999.2500  -999.2500  -999.2500  -999.2500  -999.2500  -999.2500    12.2000 
   53.8750  -999.2500  -999.2500  -999.2500  -999.2500  -999.2500  -999.2500    10.8720 
   54.0000  -999.2500  -999.2500  -999.2500  -999.2500  -999.2500  -999.2500     9.4580 
   54.1250  -999.2500  -999.2500  -999.2500  -999.2500  -999.2500  -999.2500     7.9390 
   54.2500  -999.2500  -999.2500  -999.2500  -999.2500  -999.2500  -999.2500     6.4210 
   54.3750  -999.2500  -999.2500  -999.2500  -999.2500  -999.2500  -999.2500     5.0970 
   54.5000    39.0640     3.5550     0.5190     2.1940    25.2870  -999.2500     4.2680 
   54.6250    39.0640     3.5550     0.5190     2.1940    25.2870  -999.2500     3.9580 
   54.7500    39.8310     3.5580     0.5210     2.2600    25.2870  -999.2500     4.0030 
   54.8750    39.5920     3.6060     0.5220     2.3780    25.2860  -999.2500     4.2110 
   55.0000    37.0120     3.7140     0.5190     2.5790    25.2820  -999.2500     4.4390 
   55.1250    35.3440     3.8410     0.5140     2.8640    25.2760  -999.2500     4.6160 
   55.2500    35.6880     3.9540     0.5070     3.2970    25.2720  -999.2500     4.7270 
   55.3750    36.9410     4.0410     0.5000     3.7840    25.2700  -999.2500     4.7860 
   55.5000    37.2570     4.0970     0.4920     4.1480    25.2700  -999.2500     4.8260 
   55.6250    36.4650     4.1330     0.4830     4.3670    25.2700  -999.2500     4.9160 
   55.7500    35.5650     4.1550     0.4740     4.2650    25.2700  -999.2500     5.1520 
   55.8750    35.6760     4.1560     0.4650     3.8000    25.2700  -999.2500     5.6000 
   56.0000    36.4470     4.1160     0.4580     3.3350    25.2700  -999.2500     6.3720 
   56.1250    36.9550     4.0280     0.4540     3.0190    25.2700  -999.2500     7.4730 
   56.2500    38.1280     3.9030     0.4520     2.9360    25.2700  -999.2500     8.8280 
   56.3750    39.9210     3.7620     0.4510     3.0160    25.2700  -999.2500    10.3370 
   56.5000    39.2190     3.6370     0.4510     3.1820    25.2700  -999.2500    11.8740 
   56.6250    36.3780     3.5390     0.4510     3.3000    25.2700  -999.2500    13.3300 
   56.7500    34.6760     3.4610     0.4520     3.3420    25.2700  -999.2500    14.6510 
   56.8750    35.6510     3.3840     0.4540     3.2860    25.2700  -999.2500    15.8260 
   57.0000    37.7270     3.3040     0.4560     3.2500    25.2700  -999.2500    16.8020 
   57.1250    39.1920     3.2380     0.4580     3.1150    25.2700  -999.2500    17.5400 
   57.2500    39.6160     3.2100     0.4580     2.9410    25.2700  -999.2500    18.0370 
   57.3750    38.6890     3.2290     0.4560     2.8830    25.2700     0.4170    18.3170 
   57.5000    36.4130     3.2890     0.4540     2.9290    25.2700     0.4170    18.4620 
   57.6250    34.1960     3.3520     0.4510     2.9560    25.2700     0.5040    18.5900 
   57.7500    33.5450     3.3840     0.4510     2.9280    25.2700     1.4330    18.7460 
   57.8750    35.0840     3.3630     0.4520     2.8880    25.2700     1.9360    18.9410 
   58.0000    37.0490     3.2900     0.4510     2.8850    25.2700     2.0100    19.2080 
   58.1250    37.0770     3.1950     0.4510     2.8880    25.2700     2.0150    19.5770 
   58.2500    34.9000     3.1080     0.4510     2.8770    25.2700     2.0200    20.0720 
   58.3750    32.4050     3.0430     0.4530     2.9120    25.2700     2.0230    20.6960 
   58.5000    32.4770     3.0030     0.4570     2.9870    25.2700     2.0270    21.4310 
   58.6250    34.2250     2.9710     0.4610     3.0330    25.2710     2.0300    22.2350 
   58.7500    35.2450     2.9350     0.4640     3.0540    25.2720     2.0330    23.0870 
   58.8750    34.5870     2.8840     0.4610     3.1350    25.2740     2.0330    23.9500 
   59.0000    33.6360     2.8070     0.4540     3.2760    25.2770     2.0330    24.7900 
   59.1250    33.5990     2.7040     0.4460     3.4370    25.2790     2.0340    25.5940 
   59.2500    34.5580     2.5880     0.4420     3.5310    25.2800     2.0370    26.3410 
   59.3750    35.7990     2.4800     0.4430     3.5750    25.2790     2.0430    27.0180 
   59.5000    35.7380     2.4090     0.4460     3.7560    25.2790     2.0520    27.6680 
   59.6250    35.1910     2.3790     0.4490     4.0860    25.2780     2.0640    28.3630 
   59.7500    36.1080     2.3800     0.4490     4.4780    25.2760     2.0760    29.1560 
   59.8750    38.3610     2.3920     0.4480     4.8110    25.2730     2.0910    30.1140 
   60.0000    39.6130     2.4020     0.4470     4.7340    25.2700     2.1050    31.3290 
   60.1250    39.5820     2.3940     0.4460     4.5250    25.2660     2.1200    32.8010 
   60.2500    38.4210     2.3390     0.4400     4.2470    25.2560     2.1400    34.5200 
   60.3750    36.2350     2.1880     0.4210     3.8750    25.2320     2.1730    36.4350 
   60.5000    34.5760     1.8690     0.3800     2.8180    25.1750     2.2290    38.4240 
   60.6250    34.9580     1.4140     0.3250     1.0750    25.0680     2.2990    40.2940 
   60.7500    36.8170     0.9340     0.2700     0.5060    24.9100     2.3640    41.8210 
   60.8750    38.4420     0.5680     0.2300     0.3750    24.7140     2.3900    42.7450 
   61.0000    38.9150     0.4130     0.2260     0.6280    24.4220     2.3470    42.6330 
   61.1250    38.8120     0.4570     0.2790     1.3870    24.0040     2.2580    41.3420 
   61.2500    39.2780     0.7050     0.4260     1.9330    23.5540     2.1700    38.8620 
   61.3750    41.0940     1.1810     0.7200     2.7720    23.2250     2.1120    35.3710 
   61.5000    43.8070     1.8810     1.2310     4.3290    22.9880     2.1040    31.1740 
   61.6250    48.5710     2.6630     1.9180     6.3530    22.7680     2.1360    26.6880 
   61.7500    57.1020     3.3230     2.6740     7.5880    22.6900     2.1900    22.1900 
   61.8750    68.2240     3.6630     3.3370     7.3470    22.9030     2.2450    17.9160 
   62.0000    77.9540     3.6250     3.7380     6.1740    23.3210     2.2820    14.1880 
   62.1250    83.3790     3.4830     3.9360     5.3500    23.6930     2.3010    11.1540 
   62.2500    85.9190     3.4520     4.0790     5.0980    23.8810     2.3100     8.8540 
   62.3750    88.9930     3.5880     4.2750     5.1660    23.9150     2.3150     7.1820 
   62.5000    91.7600     3.8600     4.5680     5.3020    23.8030     2.3160     5.8940 
   62.6250    91.4290     4.1830     4.9230     5.4840    23.5970     2.3110     4.7400 
   62.7500    87.7730     4.4960     5.2890     5.6280    23.3190     2.3020     3.6460 
   62.8750    84.3050     4.7610     5.6200     5.7410    22.9860     2.2910     2.6190 
   63.0000    82.8370     4.9540     5.8690     5.9300    22.6960     2.2820     1.6860 
   63.1250    80.5280     5.0790     6.0280     6.0660    22.5780     2.2750     0.8480 
