~V
VERS. 2.00: Ver 2.00
~W
STRT.M 52.0000:
STOP.M 235.0000:
STEP.M 0.1250:
NULL. -999.2500:
UWI. F11014:
~C
DEPT.M :
DEN.GM/CC :
GR.API :
RML.OHMM :
RI. :
RXO.OHMM :
CALI.CM :
SP.MV :
~A
   52.0000     2.3600  -999.2500  -999.2500  -999.2500  -999.2500  -999.2500  -999.2500 
   52.1250     2.3480  -999.2500  -999.2500  -999.2500  -999.2500  -999.2500  -999.2500 
   52.2500     2.3400  -999.2500  -999.2500  -999.2500  -999.2500  -999.2500  -999.2500 
   52.3750     2.3360  -999.2500  -999.2500  -999.2500  -999.2500  -999.2500  -999.2500 
   52.5000     2.3300  -999.2500  -999.2500  -999.2500  -999.2500  -999.2500  -999.2500 
   52.6250     2.3230  -999.2500  -999.2500  -999.2500  -999.2500  -999.2500  -999.2500 
   52.7500     2.3210  -999.2500  -999.2500  -999.2500  -999.2500  -999.2500  -999.2500 
   52.8750     2.3260  -999.2500  -999.2500  -999.2500  -999.2500  -999.2500  -999.2500 
   53.0000     2.3410  -999.2500  -999.2500  -999.2500  -999.2500  -999.2500  -999.2500 
   53.1250     2.3680  -999.2500  -999.2500  -999.2500  -999.2500  -999.2500  -999.2500 
   53.2500     2.3960  -999.2500  -999.2500  -999.2500  -999.2500  -999.2500  -999.2500 
   53.3750     2.3860  -999.2500  -999.2500  -999.2500  -999.2500  -999.2500  -999.2500 
   53.5000     2.3260  -999.2500  -999.2500  -999.2500  -999.2500  -999.2500  -999.2500 
   53.6250     2.2530  -999.2500  -999.2500  -999.2500  -999.2500  -999.2500  -999.2500 
   53.7500     2.2140  -999.2500  -999.2500  -999.2500  -999.2500  -999.2500     0.0000 
   53.8750     2.2250  -999.2500  -999.2500  -999.2500  -999.2500  -999.2500     0.0000 
   54.0000     2.2540  -999.2500  -999.2500  -999.2500  -999.2500  -999.2500     0.0000 
   54.1250     2.2700  -999.2500  -999.2500  -999.2500  -999.2500  -999.2500     0.0000 
   54.2500     2.2620  -999.2500  -999.2500  -999.2500  -999.2500  -999.2500     0.0000 
   54.3750     2.2390  -999.2500  -999.2500  -999.2500  -999.2500  -999.2500     0.0000 
   54.5000     2.2110  -999.2500  -999.2500  -999.2500  -999.2500  -999.2500    20.8610 
   54.6250     2.1870  -999.2500  -999.2500  -999.2500  -999.2500  -999.2500    55.5370 
   54.7500     2.1700  -999.2500  -999.2500  -999.2500  -999.2500  -999.2500    69.2460 
   54.8750     2.1610  -999.2500  -999.2500  -999.2500  -999.2500  -999.2500    69.0330 
   55.0000     2.1610  -999.2500  -999.2500  -999.2500  -999.2500  -999.2500    68.8710 
   55.1250     2.1670  -999.2500  -999.2500  -999.2500  -999.2500  -999.2500    68.8060 
   55.2500     2.1790  -999.2500  -999.2500  -999.2500  -999.2500  -999.2500    68.8010 
   55.3750     2.1910  -999.2500  -999.2500  -999.2500  -999.2500  -999.2500    68.8280 
   55.5000     2.2030  -999.2500  -999.2500  -999.2500  -999.2500  -999.2500    68.9230 
   55.6250     2.2130  -999.2500  -999.2500  -999.2500  -999.2500  -999.2500    69.0120 
   55.7500     2.2210  -999.2500  -999.2500  -999.2500  -999.2500  -999.2500    69.0740 
   55.8750     2.2230  -999.2500  -999.2500  -999.2500  -999.2500  -999.2500    69.1920 
   56.0000     2.2190  -999.2500  -999.2500  -999.2500  -999.2500  -999.2500    69.3230 
   56.1250     2.2100  -999.2500  -999.2500  -999.2500  -999.2500  -999.2500    69.4470 
   56.2500     2.2020  -999.2500  -999.2500  -999.2500  -999.2500  -999.2500    69.6190 
   56.3750     2.2010     0.0000     0.0000     0.0000     0.0000     0.0000    69.8450 
   56.5000     2.2070     0.0000     0.0000     0.0000     0.0000     0.0000    70.1000 
   56.6250     2.2170     0.0000     0.0000     0.0000     0.0000     0.0000    70.4060 
   56.7500     2.2280  -999.2500     0.0000     0.0000     0.0000     0.0000    70.8240 
   56.8750     2.2310  -999.2500     0.0000     0.0000     0.0000     0.0000    71.3100 
   57.0000     2.2220     0.0000    13.8930     0.1510     0.1280     7.6330    71.8470 
   57.1250     2.2050    37.8290    19.5080     0.3960     0.3130    20.3740    72.4670 
   57.2500     2.1900    46.1430     8.3900     0.4820     0.3610    25.5190    73.1590 
   57.3750     2.1780    44.7290     1.3740     0.4740     0.3480    25.5750    73.9240 
   57.5000     2.1620    42.7890     0.5480     0.4740     0.3550    25.5790    74.7350 
   57.6250     2.1390    39.8570     0.5370     0.4810     0.3590    25.5420    75.6290 
   57.7500     2.1190    37.6850     0.5330     0.4960     0.3470    25.4960    76.5840 
   57.8750     2.1150    38.5210     0.5280     0.5160     0.3320    25.4520    77.5800 
   58.0000     2.1260    40.3750     0.5330     0.5360     0.3230    25.4080    78.7000 
   58.1250     2.1490    40.1640     0.5410     0.5460     0.3160    25.3900    79.9640 
   58.2500     2.1840    38.7010     0.5530     0.5430     0.3180    25.3760    81.3450 
   58.3750     2.2220    39.0080     0.5720     0.5080     0.3240    25.3630    82.8360 
   58.5000     2.2500    41.3980     0.6010     0.4560     0.3260    25.3620    84.3880 
   58.6250     2.2630    43.9870     0.6360     0.4100     0.3240    25.3630    85.8660 
   58.7500     2.2660    45.8720     0.6440     0.3870     0.3220    25.3770    87.1410 
   58.8750     2.2740    47.3490     0.5740     0.3810     0.3190    25.3750    88.0440 
   59.0000     2.3020    48.2090     0.4600     0.3560     0.3130    25.3750    88.4370 
   59.1250     2.3450    47.5840     0.3870     0.3130     0.3040    25.3740    88.2630 
   59.2500     2.3940    45.9740     0.3590     0.2740     0.2890    25.3300    87.5890 
   59.3750     2.4310    45.1950     0.3450     0.2570     0.2690    25.1960    86.3970 
   59.5000     2.4530    45.7510     0.3320     0.2500     0.2620    24.9820    84.8240 
   59.6250     2.4710    46.2810     0.3150     0.2450     0.2640    24.7550    83.0580 
   59.7500     2.4960    45.4500     0.2990     0.2430     0.2520    24.6050    81.2130 
   59.8750     2.5240    43.5780     0.2930     0.2520     0.2370    24.5570    79.4960 
   60.0000     2.5430    42.4620     0.2970     0.2740     0.2280    24.5470    77.9900 
   60.1250     2.5460    42.8280     0.3020     0.2850     0.2220    24.5400    76.6980 
   60.2500     2.5370    44.1110     0.3050     0.2810     0.2170    24.5370    75.5770 
   60.3750     2.5230    46.4320     0.3040     0.2730     0.2150    24.5700    74.5890 
   60.5000     2.5100    49.4100     0.2920     0.2620     0.2230    24.7010    73.6360 
   60.6250     2.5010    51.9220     0.2770     0.2500     0.2390    24.9470    72.6390 
   60.7500     2.4890    53.1620     0.2670     0.2420     0.2510    25.2130    71.5260 
   60.8750     2.4730    52.5160     0.2640     0.2360     0.2490    25.3260    70.1780 
   61.0000     2.4650    50.3350     0.2630     0.2320     0.2370    25.3060    68.5610 
   61.1250     2.4730    47.8990     0.2590     0.2290     0.2290    25.2300    66.6240 
   61.2500     2.5020    47.0380     0.2550     0.2230     0.2310    25.0840    64.3040 
   61.3750     2.5520    47.6250     0.2500     0.2180     0.2330    24.7760    61.4820 
   61.5000     2.6100    48.3030     0.2460     0.2160     0.2280    24.4090    58.1120 
   61.6250     2.6610    48.8670     0.2420     0.2200     0.2200    24.1510    54.1480 
   61.7500     2.6950    48.3400     0.2360     0.1590     0.2160    24.0560    49.6280 
   61.8750     2.7080    47.0250     0.2250     0.1050     0.2150    24.0590    44.5510 
   62.0000     2.6840    48.9860     0.2840     0.1340     0.2840    24.0960    38.9180 
   62.1250     2.6030    56.6250     0.5160     0.2590     2.4780    24.1250    32.8920 
   62.2500     2.4780    67.1590     0.9640     0.5280     5.2810    24.0470    26.7110 
   62.3750     2.3560    76.4180     1.7240     1.0320     6.0880    23.8120    20.6380 
   62.5000     2.2750    82.8690     2.6940     1.7650     5.7990    23.5290    14.8560 
   62.6250     2.2350    84.8310     3.5600     2.6040     5.9180    23.2900     9.5210 
   62.7500     2.2130    80.8780     4.1250     3.4020     6.8230    23.1110     4.7030 
   62.8750     2.1930    74.5840     4.4530     4.0660     8.2220    22.9610     0.5170 
   63.0000     2.1700    70.7180     4.7110     4.5960     9.1920    22.8710    -2.9570 
   63.1250     2.1500    69.3770     4.9500     5.0060     9.4150    22.9130    -5.7150 
