~V
VERS. 2.00: Ver 2.00
~W
STRT.M 50.0000:
STOP.M 283.0000:
STEP.M 0.1250:
NULL. -999.2500:
UWI. F11058:
~C
DEPT.M :
DEN.GM/CC :
GR.API :
RML.OHMM :
RI. :
RXO.OHMM :
CALI.CM :
SP.MV :
~A
# ...
  151.2500     2.5370    61.6580    13.7590    12.7440    14.8430    24.4060   -15.4650 
  151.3750     2.5190    65.2360    13.1570    12.0730    14.2810    24.3800   -15.5000 
  151.5000     2.5030    69.9070    12.5540    11.4000    13.5980    24.3440   -15.5530 
  151.6250     2.4920    73.1120    12.0530    10.8060    12.3850    24.2650   -15.5210 
  151.7500     2.4850    72.9450    11.7290    10.3720    11.5300    24.2620   -15.4560 
  151.8750     2.4810    69.5840    11.6100    10.1460    11.2560    24.3640   -15.4220 
  152.0000     2.4740    63.9380    11.6620    10.1250    12.3730    24.4570   -15.4620 
  152.1250     2.4640    57.4830    11.8300    10.2780    13.7970    24.5080   -15.5380 
  152.2500     2.4550    54.4380    12.0340    10.5080    14.2530    24.5380   -15.6210 
  152.3750     2.4500    57.3550    12.2500    10.7690    13.0760    24.4640   -15.6890 
  152.5000     2.4490    61.4800    12.4480    11.0250    12.4340    24.2370   -15.7120 
  152.6250     2.4520    59.5960    12.5150    11.1890    12.4820    24.0150   -15.7230 
  152.7500     2.4520    55.7420    12.3070    11.1260    12.6480    24.0820   -15.7180 
  152.8750     2.4440    56.2530    11.6980    10.6760    12.8820    24.3570   -15.7090 
  153.0000     2.4250    61.1180    10.6520     9.7690    12.2050    24.4830   -15.5960 
  153.1250     2.3920    66.7590     9.1770     8.4900    10.1920    24.3630   -15.4450 
  153.2500     2.3540    74.2890     7.6050     7.1730     7.6610    24.2360   -15.3610 
  153.3750     2.3200    85.0650     6.2820     6.0370     5.9960    24.2100   -15.2590 
  153.5000     2.3020    95.2110     5.4390     5.1900     5.3180    24.2780   -15.2060 
  153.6250     2.3090    97.8390     5.1050     4.6900     5.1270    24.4240   -15.2740 
  153.7500     2.3270    98.3280     5.0120     4.4310     4.9910    24.5490   -15.3670 
  153.8750     2.3480   104.1670     5.0480     4.3440     4.8360    24.6380   -15.4830 
  154.0000     2.3620   113.4080     5.1400     4.3550     4.8080    24.7110   -15.7240 
  154.1250     2.3690   115.3380     5.2340     4.4050     4.7690    24.8040   -15.9580 
  154.2500     2.3710   107.9840     5.3090     4.4490     4.7830    24.8730   -16.0510 
  154.3750     2.3690    97.7320     5.3550     4.4730     4.7670    24.9020   -16.0290 
  154.5000     2.3610    91.6930     5.3630     4.4700     4.7730    24.8930   -15.8280 
  154.6250     2.3480    90.5990     5.3220     4.4360     4.8080    24.8630   -15.4590 
  154.7500     2.3380    90.1920     5.2540     4.3810     4.9100    24.8510   -15.0710 
  154.8750     2.3340    91.3330     5.1830     4.3140     5.0280    24.8480   -14.6330 
  155.0000     2.3360    94.8420     5.1320     4.2470     5.0400    24.8520   -14.1130 
  155.1250     2.3400    97.1540     5.1170     4.1950     4.9580    24.8570   -13.5700 
  155.2500     2.3420    97.2280     5.1260     4.1640     4.8910    24.8590   -13.0910 
  155.3750     2.3430    97.8800     5.1500     4.1560     4.8710    24.8590   -12.7630 
  155.5000     2.3460    99.1690     5.1780     4.1670     4.9890    24.8590   -12.5870 
  155.6250     2.3550    97.5270     5.2020     4.1960     5.1570    24.8610   -12.4820 
  155.7500     2.3680    96.8680     5.2180     4.2310     5.1470    24.8710   -12.3490 
  155.8750     2.3810    99.3200     5.2270     4.2700     5.0550    24.8950   -12.2300 
  156.0000     2.3930   100.2160     5.2390     4.3090     5.0640    24.9120   -12.1600 
  156.1250     2.3980    97.1670     5.2650     4.3420     5.1660    24.9170   -12.1510 
  156.2500     2.3960    95.6810     5.3000     4.3610     5.1470    24.9180   -12.1110 
  156.3750     2.3870    96.8410     5.3240     4.3580     5.0710    24.9210   -12.0620 
  156.5000     2.3750    97.1030     5.3100     4.3280     4.9790    24.9250   -12.1540 
  156.6250     2.3660    98.1780     5.2280     4.2670     4.9140    24.9380   -12.3170 
  156.7500     2.3640   101.9780     5.0910     4.1840     4.8060    24.9580   -12.4620 
  156.8750     2.3710   102.5930     4.9270     4.0880     4.6680    24.9680   -12.6120 
  157.0000     2.3850    97.3460     4.7670     3.9880     4.5530    24.9640   -12.6970 
  157.1250     2.4000    92.9040     4.6420     3.8960     4.4620    24.9630   -12.7110 
  157.2500     2.4070    94.1670     4.5540     3.8210     4.3630    25.0000   -12.8500 
  157.3750     2.4050    96.8080     4.4970     3.7670     4.2920    25.0390   -13.0020 
  157.5000     2.3970    96.9810     4.4600     3.7370     4.2880    25.0610   -13.0200 
  157.6250     2.3920    95.8360     4.4370     3.7300     4.3280    25.0790   -12.9910 
  157.7500     2.3910    96.6900     4.4180     3.7370     4.3200    25.1030   -12.9500 
  157.8750     2.3930    99.1680     4.4030     3.7520     4.2160    25.1130   -12.8860 
  158.0000     2.3950   101.0160     4.3870     3.7690     4.1190    25.1110   -12.8800 
  158.1250     2.3950    99.8790     4.3700     3.7880     4.0150    25.1020   -12.9320 
  158.2500     2.3920    98.8920     4.3570     3.8110     3.8950    25.0940   -12.9780 
  158.3750     2.3910   100.4320     4.3560     3.8430     3.8700    25.1020   -13.0240 
  158.5000     2.3920   102.0770     4.3780     3.8850     3.9870    25.1110   -13.0810 
  158.6250     2.3970   101.9660     4.4360     3.9350     4.1300    25.1060   -13.2660 
  158.7500     2.4020   101.5730     4.5220     3.9850     4.2200    25.0850   -13.5730 
  158.8750     2.4030   100.1180     4.6270     4.0310     4.2270    25.0640   -13.9160 
  159.0000     2.3980    96.9670     4.7340     4.0670     4.1940    25.0550   -14.2530 
  159.1250     2.3860    97.9900     4.8140     4.0760     4.2050    25.0550   -14.5340 
  159.2500     2.3720   104.8400     4.8380     4.0470     4.3420    25.0520   -14.6840 
  159.3750     2.3620   110.2350     4.7800     3.9590     4.4830    25.0380   -14.8060 
  159.5000     2.3560   109.6260     4.6450     3.7990     4.4490    25.0070   -14.9430 
  159.6250     2.3560   107.5560     4.5240     3.6090     4.4260    24.9890   -14.9550 
  159.7500     2.3600   105.4530     4.5970     3.5090     4.5470    24.9820   -14.9550 
  159.8750     2.3730    99.7440     5.0740     3.6410     4.7630    24.9830   -15.0100 
  160.0000     2.3960    90.2630     6.1880     4.1650     5.4020    24.9780   -15.0650 
  160.1250     2.4170    80.2200     8.3480     5.4390     8.7650    24.9680   -15.2890 
  160.2500     2.4180    71.1720    11.5810     7.6870    17.0930    25.0160   -15.7000 
  160.3750     2.3890    65.0370    15.8030    11.1470    27.0410    25.2010   -16.1240 
  160.5000     2.3330    64.2590    20.5520    15.7200    34.0280    25.5000   -16.5910 
  160.6250     2.2700    67.6040    24.9030    20.5650    33.6860    25.7220   -17.1200 
  160.7500     2.2220    70.0220    28.2990    24.5530    32.9320    25.8490   -17.5740 
  160.8750     2.1950    71.2570    30.8650    27.5110    33.0610    25.8710   -18.0180 
  161.0000     2.1860    72.9730    33.1880    30.0030    36.1410    25.8240   -18.4950 
  161.1250     2.1870    74.5120    35.9010    32.6720    39.0270    25.7190   -18.8740 
  161.2500     2.1910    73.4190    39.0100    35.6000    41.6070    25.4910   -19.1510 
  161.3750     2.1950    69.2520    42.2030    38.5920    43.5030    25.0270   -19.3700 
  161.5000     2.1970    64.4940    45.1180    41.4500    42.2280    24.3340   -19.5700 
  161.6250     2.1960    62.9670    47.4340    44.0150    36.9330    23.7190   -19.7040 
  161.7500     2.1930    63.4260    49.2040    46.2970    36.1890    23.4400   -19.8560 
  161.8750     2.1910    64.1290    50.4930    48.2790    38.1890    23.4020   -20.0410 
  162.0000     2.1910    65.5690    51.2980    49.9190    38.9930    23.4730   -20.1920 
  162.1250     2.1930    68.4310    51.1680    50.9190    38.4160    23.5750   -20.3640 
  162.2500     2.1940    69.7390    49.4190    50.7120    35.8750    23.6690   -20.5220 
  162.3750     2.1930    69.5870    46.1340    48.2950    33.9830    23.7920   -20.7020 
