~V
VERS. 2.00: Ver 2.00
~W
STRT.M 53.0000:
STOP.M 257.0000:
STEP.M 0.1250:
NULL. -999.2500:
UWI. F11022:
~C
DEPT.M :
GR.API :
RML.OHMM :
RI. :
RXO.OHMM :
CALI.CM :
SP.MV :
DEN.GM/CC :
~A
# ...
  176.7500    59.2760   161.4400   136.1100   179.5840    26.8100   -36.0870     2.1550 
  176.8750    60.2460   140.9290   121.4560   118.2770    26.5480   -35.9210     2.1760 
  177.0000    58.3470   130.4540   114.3370   103.4510    26.4560   -35.6750     2.1820 
  177.1250    55.3860   126.8450   112.4010    97.2940    26.4390   -35.6580     2.1800 
  177.2500    55.3940   126.1590   112.5720    91.9950    26.4050   -35.6470     2.1830 
  177.3750    58.9380   127.0580   113.8190    86.8610    26.3250   -35.4220     2.1950 
  177.5000    61.6260   129.2780   116.1720    89.1630    26.2660   -35.2480     2.2120 
  177.6250    59.5450   134.0570   121.0550   106.3360    26.3100   -35.3130     2.2260 
  177.7500    56.1970   142.1020   129.1470   148.4600    26.4510   -35.1740     2.2250 
  177.8750    54.7940   153.3970   140.3740   195.9960    26.6040   -34.9720     2.2100 
  178.0000    54.5590   166.6910   153.4760   219.6680    26.6690   -35.0160     2.1900 
  178.1250    54.4570   178.9460   165.3530   214.0180    26.6550   -34.9320     2.1790 
  178.2500    54.6280   186.2500   172.0580   207.7140    26.6170   -34.6890     2.1800 
  178.3750    54.5470   185.2830   170.3860   203.4620    26.5740   -34.6070     2.1860 
  178.5000    54.6820   175.2280   159.9470   202.2670    26.5240   -34.6130     2.1910 
  178.6250    56.5600   158.3450   143.5780   187.8770    26.4650   -34.4220     2.1930 
  178.7500    59.2570   140.5400   126.9130   156.1220    26.3780   -34.2680     2.1980 
  178.8750    61.0120   125.1220   112.7450   112.4860    26.2970   -34.2510     2.2050 
  179.0000    60.6620   113.6710   102.1670    87.6620    26.2840   -34.1610     2.2050 
  179.1250    59.9930   106.6530    95.3500    83.8100    26.3190   -33.9960     2.1940 
  179.2500    60.6770   102.1650    90.6250    90.5170    26.3510   -33.9900     2.1860 
  179.3750    61.5930    99.0040    87.0090    91.1870    26.3620   -34.0120     2.1900 
  179.5000    61.9190    96.3540    83.8940    84.6520    26.3550   -33.8620     2.2030 
  179.6250    60.8640    93.9040    81.1690    77.5080    26.3320   -33.7140     2.2170 
  179.7500    60.0420    91.7260    78.9320    71.0140    26.3030   -33.7400     2.2310 
  179.8750    60.3710    89.8800    77.1980    66.2040    26.2910   -33.7390     2.2440 
  180.0000    61.3720    87.9950    75.5680    65.6700    26.2890   -33.5880     2.2580 
  180.1250    62.7430    84.9600    73.0510    68.7900    26.2890   -33.5450     2.2690 
  180.2500    64.5860    80.2490    69.2240    68.7940    26.2850   -33.5630     2.2770 
  180.3750    66.0380    74.2660    64.5110    63.1260    26.2670   -33.4350     2.2770 
  180.5000    66.7680    68.3400    60.1450    54.5880    26.2210   -33.3190     2.2650 
  180.6250    66.7840    64.7210    58.2650    48.3480    26.1790   -33.4110     2.2400 
  180.7500    65.6330    64.9420    60.2850    44.7520    26.1880   -33.3500     2.2120 
  180.8750    61.8540    70.8060    67.8180    47.0870    26.2740   -33.1880     2.1890 
  181.0000    58.0620    84.5780    82.7290    61.1960    26.3990   -33.2400     2.1720 
  181.1250    57.3520   111.1200   109.2760   103.2260    26.4800   -33.2760     2.1490 
  181.2500    55.4720   149.1290   149.3080   196.0830    26.5050   -33.1330     2.1170 
  181.3750    51.9050   197.7410   199.7200   316.5340    26.5040   -33.1310     2.0870 
  181.5000    50.6090   249.7980   249.6400   366.4760    26.4920   -33.1910     2.0700 
  181.6250    52.7820   284.0560   282.4690   337.6140    26.4960   -33.0430     2.0650 
  181.7500    53.5500   294.3570   293.5250   307.8810    26.5230   -33.0260     2.0640 
  181.8750    52.7070   288.4290   288.6120   279.1430    26.5740   -33.0820     2.0690 
  182.0000    52.0590   277.2700   277.2920   260.0650    26.6290   -32.9340     2.0810 
  182.1250    51.8160   267.2460   266.4390   258.1440    26.6520   -32.7560     2.0950 
  182.2500    52.5120   256.8280   256.1850   264.3820    26.6510   -32.7480     2.1030 
  182.3750    53.9260   239.0440   241.0190   260.3410    26.6280   -32.7130     2.1060 
  182.5000    53.4080   207.2630   214.1310   244.5100    26.5800   -32.5740     2.1090 
  182.6250    51.0110   164.4420   174.4390   224.8260    26.5270   -32.5150     2.1170 
  182.7500    52.5880   125.2520   134.3120   199.1180    26.4850   -32.4610     2.1320 
  182.8750    58.1440    96.9560   102.6240   144.8570    26.4240   -32.3210     2.1520 
  183.0000    62.6060    80.6900    82.7820    85.3870    26.3410   -32.1780     2.1720 
  183.1250    62.7060    76.2960    75.8230    60.0000    26.2770   -32.1880     2.1850 
  183.2500    61.1300    79.8770    77.6590    67.9470    26.2980   -32.1290     2.1880 
  183.3750    59.1660    89.5660    86.2020    95.8170    26.3700   -31.9090     2.1840 
  183.5000    57.6760   102.6770    98.8200   122.0880    26.4220   -31.8240     2.1790 
  183.6250    58.3890   113.0130   109.9040   120.8540    26.4390   -31.8190     2.1790 
  183.7500    59.7110   113.9130   112.8350   119.0880    26.4370   -31.6070     2.1840 
  183.8750    59.8870   103.7770   105.1550   110.2440    26.4090   -31.4730     2.1940 
  184.0000    60.3200    87.3880    90.2840    84.3240    26.3390   -31.5370     2.2100 
  184.1250    62.2240    71.7260    74.7480    61.6380    26.2580   -31.4100     2.2270 
  184.2500    62.4980    59.9280    62.5890    60.4870    26.2180   -31.1920     2.2360 
  184.3750    61.9240    51.9730    54.2200    66.5240    26.1470   -31.1610     2.2340 
  184.5000    63.8930    46.7280    48.6120    62.5630    25.9960   -31.1830     2.2200 
  184.6250    68.5790    42.9850    44.5390    48.3170    25.8340   -31.0330     2.2050 
  184.7500    72.5790    39.6010    40.8640    49.9200    25.9060   -30.9940     2.2030 
  184.8750    73.6810    36.3170    37.3500    48.0620    26.0320   -31.0000     2.2230 
  185.0000    72.7730    33.2080    34.0580    36.0400    26.1060   -30.8290     2.2580 
  185.1250    72.6950    30.4560    31.1590    26.5500    26.1940   -30.7480     2.2850 
  185.2500    74.5360    28.0400    28.6430    28.6650    26.2120   -30.8470     2.2950 
  185.3750    77.7390    26.0340    26.5980    33.6330    26.0260   -30.8870     2.2950 
  185.5000    79.9810    24.7050    25.2550    29.7800    25.5920   -30.7620     2.2990 
  185.6250    77.5340    24.7230    25.1500    23.3690    25.2340   -30.7220     2.3080 
  185.7500    71.3990    26.4280    26.4990    21.0780    25.3210   -30.7920     2.3040 
  185.8750    65.5610    30.2350    29.7150    26.2760    25.6880   -30.8120     2.2760 
  186.0000    63.3390    36.2700    35.1680    39.3180    26.0560   -30.8170     2.2250 
  186.1250    64.6230    43.9370    42.8650    50.3210    26.1820   -30.8930     2.1710 
  186.2500    66.0340    50.6170    50.3840    50.5640    26.1820   -30.9230     2.1360 
  186.3750    66.5310    53.2940    54.2500    54.4640    26.1260   -30.8440     2.1290 
  186.5000    65.2600    50.1260    51.7810    68.8040    26.0870   -30.8040     2.1430 
  186.6250    64.2320    42.0400    43.5590    65.9240    26.0760   -30.8900     2.1720 
  186.7500    65.3850    33.4670    34.6310    42.4890    26.0760   -30.8500     2.2150 
  186.8750    67.6630    26.7590    27.5820    24.2620    26.0760   -30.7510     2.2670 
  187.0000    70.5930    22.7630    23.1630    17.8160    26.0730   -30.8350     2.3110 
  187.1250    72.5290    21.8120    21.5210    16.5600    26.0590   -30.8230     2.3080 
  187.2500    72.7130    23.0660    21.8780    18.7470    26.0390   -30.7220     2.2600 
  187.3750    71.4720    26.1710    24.0430    26.3770    26.0380   -30.8000     2.1960 
  187.5000    70.7570    30.7610    27.8810    39.8410    26.0470   -30.9080     2.1440 
  187.6250    70.0070    36.5800    33.3800    42.2280    26.0450   -30.8430     2.1070 
  187.7500    68.4190    43.0590    39.9310    36.3180    25.9940   -30.8620     2.0700 
  187.8750    66.4470    49.8280    47.0850    35.5620    25.8040   -30.9740     2.0460 
