~V
VERS. 2.00: Ver 2.00
~W
STRT.M 53.0000:
STOP.M 276.0000:
STEP.M 0.1250:
NULL. -999.2500:
UWI. F11074:
~C
DEPT.M :
DEN.GM/CC :
SP.MV :
GR.API :
RML.OHMM :
RI. :
RXO.OHMM :
CALI.CM :
~A
# ...
  154.2500     2.4110   -10.7080    89.4970    11.3530    10.8890     9.0690    24.8920 
  154.3750     2.3690   -10.8110    93.1690    10.9530    10.0010     9.2820    24.8670 
  154.5000     2.3730   -10.9210    92.9620    12.6390    10.5660    11.6080    24.8120 
  154.6250     2.4240   -11.0710    89.0300    17.0510    13.3510    17.5730    24.7310 
  154.7500     2.4890   -11.2100    81.0680    23.4520    18.2380    25.3600    24.6540 
  154.8750     2.5400   -11.3340    71.9860    30.2560    24.4430    30.9170    24.5670 
  155.0000     2.5630   -11.4750    66.1860    34.4870    29.5450    32.5680    24.4490 
  155.1250     2.5640   -11.6010    64.4760    33.4540    30.3650    30.4230    24.3320 
  155.2500     2.5560   -11.7210    64.2920    29.9460    28.3970    28.2070    24.2810 
  155.3750     2.5470   -11.8460    64.6360    26.6440    25.8950    26.6630    24.2660 
  155.5000     2.5410   -11.9670    66.2260    24.7450    24.1420    26.5960    24.2530 
  155.6250     2.5380   -12.0720    67.6290    24.3530    23.4810    28.2680    24.2270 
  155.7500     2.5330   -12.1770    67.3940    24.6570    23.4230    28.4440    24.2070 
  155.8750     2.5240   -12.2730    66.7160    25.0910    23.5730    27.7590    24.1980 
  156.0000     2.5150   -12.3500    66.0970    25.1920    23.5570    25.2010    24.1960 
  156.1250     2.5100   -12.4230    65.9920    24.6860    23.1120    22.4560    24.1950 
  156.2500     2.5070   -12.4810    68.1070    23.8700    22.4160    19.7880    24.1950 
  156.3750     2.5040   -12.5110    71.7260    23.0830    21.7270    18.5840    24.2110 
  156.5000     2.4990   -12.5020    73.2870    22.5820    21.2620    19.0750    24.3000 
  156.6250     2.4950   -12.4280    69.8820    22.5240    21.1740    20.0210    24.5310 
  156.7500     2.4930   -12.2810    64.8830    22.7980    21.3890    21.3780    24.7860 
  156.8750     2.4990   -12.0660    60.6030    23.2780    21.8270    23.3910    24.9260 
  157.0000     2.5170   -11.8100    57.9170    23.7530    22.3370    26.0340    24.9670 
  157.1250     2.5470   -11.5250    58.7250    23.8930    22.6380    26.9160    24.9700 
  157.2500     2.5740   -11.2360    62.1120    23.6220    22.5920    26.2820    24.9780 
  157.3750     2.5860   -10.9750    65.3880    23.1130    22.2760    24.3210    25.0130 
  157.5000     2.5790   -10.7530    66.5240    22.6880    21.9390    24.0770    25.0940 
  157.6250     2.5480   -10.5740    65.6440    22.6670    21.8810    24.2760    25.1520 
  157.7500     2.5020   -10.4380    65.2540    22.9920    22.1290    24.0890    25.1750 
  157.8750     2.4530   -10.3610    65.3100    23.4750    22.5700    24.8030    25.1770 
  158.0000     2.4190   -10.3360    65.1290    23.8770    23.0140    27.5320    25.1770 
  158.1250     2.4090   -10.3250    64.2530    23.9460    23.2250    30.4300    25.1760 
  158.2500     2.4140   -10.3020    63.0290    23.6550    23.1150    28.8880    25.1750 
  158.3750     2.4290   -10.2560    62.6630    23.1060    22.7070    25.1410    25.1750 
  158.5000     2.4520   -10.1880    64.4620    22.5700    22.2020    23.9240    25.1770 
  158.6250     2.4840   -10.1010    67.8780    22.4550    21.9850    24.7990    25.1760 
  158.7500     2.5180   -10.0080    68.8670    22.8270    22.2210    25.2590    25.1740 
  158.8750     2.5440    -9.9100    66.4800    23.5160    22.8300    24.5240    25.1740 
  159.0000     2.5540    -9.7960    64.1570    24.2370    23.5600    24.1140    25.1730 
  159.1250     2.5490    -9.6720    65.1810    24.7980    24.1720    24.0770    25.1760 
  159.2500     2.5510    -9.5580    68.3370    25.3110    24.7200    25.5890    25.1760 
  159.3750     2.5670    -9.4750    73.4700    25.9010    25.3520    28.4640    25.1740 
  159.5000     2.5880    -9.4160    78.8920    26.5460    26.1070    31.3940    25.1740 
  159.6250     2.6000    -9.3670    80.1960    26.9750    26.7760    32.0420    25.1740 
  159.7500     2.6030    -9.3610    76.6880    26.9370    27.0540    30.8380    25.1760 
  159.8750     2.6020    -9.3770    73.5090    26.3310    26.7700    28.7630    25.1770 
  160.0000     2.5990    -9.3840    76.1420    25.2280    25.9340    27.7980    25.1770 
  160.1250     2.5970    -9.3840    81.7120    23.7550    24.6300    27.0740    25.1760 
  160.2500     2.5940    -9.3990    81.8320    22.1170    23.0780    26.2130    25.1730 
  160.3750     2.5870    -9.4180    74.9070    20.4300    21.3960    24.1760    25.1700 
  160.5000     2.5760    -9.4140    67.9740    18.8300    19.7240    21.9350    25.1690 
  160.6250     2.5640    -9.3960    68.8850    17.5360    18.2840    19.4750    25.1710 
  160.7500     2.5540    -9.3760    73.1840    16.6610    17.2130    18.0290    25.1710 
  160.8750     2.5400    -9.3510    75.4100    16.3010    16.6180    16.8390    25.1620 
  161.0000     2.5220    -9.3270    76.0820    16.4930    16.5630    17.2430    25.1220 
  161.1250     2.5090    -9.2900    78.1460    17.2360    17.1110    20.1500    25.0250 
  161.2500     2.5040    -9.2710    79.1400    18.2430    18.0340    22.7770    24.9350 
  161.3750     2.5040    -9.2570    76.7740    19.2660    19.1150    22.8010    24.8930 
  161.5000     2.5040    -9.2460    72.6950    20.1020    20.1230    21.0790    24.8450 
  161.6250     2.5100    -9.2420    69.0060    20.6730    20.8840    19.6760    24.7250 
  161.7500     2.5250    -9.2330    67.5400    21.2130    21.5250    18.8840    24.5280 
  161.8750     2.5420    -9.2190    69.7970    21.9430    22.2490    19.2010    24.2650 
  162.0000     2.5530    -9.1830    74.1730    22.8760    23.1320    20.8660    23.9130 
  162.1250     2.5590    -9.1420    73.5530    23.5400    23.8230    23.1170    23.7130 
  162.2500     2.5630    -9.0880    68.5920    23.3120    23.7080    22.7300    23.6820 
  162.3750     2.5600    -9.0200    64.9690    21.9120    22.4430    20.3840    23.7990 
  162.5000     2.5530    -8.9380    63.4950    19.6610    20.2840    18.6360    24.0450 
  162.6250     2.5470    -8.8730    62.4320    17.3810    17.9800    17.7950    24.4030 
  162.7500     2.5460    -8.8390    62.5660    15.7300    16.1710    16.9260    24.7460 
  162.8750     2.5490    -8.8240    62.4140    14.8940    15.0530    16.2350    24.9550 
  163.0000     2.5600    -8.8320    59.1090    14.8170    14.6190    15.4910    25.0270 
  163.1250     2.5770    -8.9170    54.5410    15.4260    14.8660    15.8480    25.0300 
  163.2500     2.5900    -9.0540    53.1150    16.4290    15.5700    17.1930    25.0160 
  163.3750     2.5880    -9.2140    55.2460    17.6240    16.5790    18.8490    24.9880 
  163.5000     2.5730    -9.3980    59.6570    18.7360    17.6550    20.8210    24.9670 
  163.6250     2.5620    -9.6390    63.6450    19.3340    18.3810    23.2560    24.9610 
  163.7500     2.5630    -9.9100    63.4720    19.2120    18.4790    25.9470    24.9610 
  163.8750     2.5690   -10.2140    59.0300    18.3160    17.8380    25.2170    24.9600 
  164.0000     2.5670   -10.5690    55.3830    16.8490    16.5880    20.6420    24.9440 
  164.1250     2.5540   -10.9610    59.1650    15.3350    15.1390    15.8100    24.8890 
  164.2500     2.5330   -11.3800    67.8000    14.3750    14.0310    14.2060    24.8100 
  164.3750     2.5080   -11.8310    76.0990    14.2640    13.5670    15.0440    24.7590 
  164.5000     2.4860   -12.3010    81.6330    14.9630    13.8170    18.4480    24.7060 
  164.6250     2.4720   -12.7350    85.8330    16.1030    14.6330    19.9710    24.5780 
  164.7500     2.4660   -13.1390    89.1600    16.9920    15.4470    19.8150    24.4170 
  164.8750     2.4630   -13.5020    89.7080    17.2410    15.8350    18.9120    24.3160 
  165.0000     2.4580   -13.7890    89.8840    16.8900    15.6990    19.5400    24.3000 
  165.1250     2.4480   -14.0110    90.7140    16.3210    15.2880    21.3480    24.3470 
  165.2500     2.4350   -14.1540    89.4070    15.8630    14.9180    20.9810    24.3860 
  165.3750     2.4230   -14.2100    87.2980    15.4990    14.6120    19.3810    24.4010 
