~V
VERS. 2.00: Ver 2.00
~W
STRT.M 51.0000:
STOP.M 277.0000:
STEP.M 0.1250:
NULL. -999.2500:
UWI. F11053:
~C
DEPT.M :
GR.API :
RML.OHMM :
RI. :
RXO.OHMM :
CALI.CM :
DEN.GM/CC :
SP.MV :
~A
# ...
  219.7500    67.4900    71.4060    65.4710    31.1790    25.2220     2.2640   -10.3610 
  219.8750    65.8550    70.6330    64.7470    32.7760    25.2500     2.2300   -10.3640 
  220.0000    64.3900    70.1640    64.2880    32.2620    25.2700     2.1920   -10.3350 
  220.1250    63.6870    69.8830    64.0620    30.7240    25.3320     2.1640   -10.2940 
  220.2500    65.6330    69.5870    63.9490    32.2280    25.4130     2.1530   -10.2600 
  220.3750    70.0230    69.0970    63.7990    37.3090    25.4460     2.1570   -10.2400 
  220.5000    73.1660    68.3500    63.4980    38.5720    25.3970     2.1680   -10.2320 
  220.6250    73.1960    67.5480    63.1390    36.6040    25.3040     2.1770   -10.2080 
  220.7500    72.2060    66.9710    62.9270    33.4350    25.2210     2.1820   -10.1760 
  220.8750    72.3530    66.8370    63.0460    29.7120    25.1870     2.1840   -10.1850 
  221.0000    71.7110    67.2340    63.5770    27.9300    25.1790     2.1840   -10.2030 
  221.1250    70.0020    67.9130    64.3260    28.0350    25.1130     2.1820   -10.1930 
  221.2500    68.6440    68.5600    65.0380    27.4030    24.9600     2.1790   -10.1540 
  221.3750    68.3500    68.9090    65.4600    25.5560    24.7960     2.1720   -10.0890 
  221.5000    68.1100    68.7980    65.3720    26.3490    24.7620     2.1600   -10.0060 
  221.6250    66.8370    68.3760    64.8860    27.9610    24.9510     2.1420    -9.9180 
  221.7500    64.9660    67.8870    64.2500    29.0380    25.4080     2.1200    -9.8370 
  221.8750    64.7470    67.6010    63.7770    27.8370    26.0200     2.0960    -9.7230 
  222.0000    67.5050    67.8310    63.8730    26.4580    26.3180     2.0770    -9.5970 
  222.1250    69.7480    68.6450    64.6630    25.1680    26.1050     2.0680    -9.4990 
  222.2500    68.9670    69.9780    66.0870    24.6610    25.5920     2.0640    -9.4160 
  222.3750    68.0460    71.6690    67.9490    24.6810    25.0380     2.0630    -9.3330 
  222.5000    69.3870    73.4900    69.9590    27.5850    24.6320     2.0640    -9.2350 
  222.6250    69.9390    75.2520    71.8230    29.2170    24.4490     2.0690    -9.1270 
  222.7500    67.6820    76.9670    73.4840    29.0950    24.4520     2.0840    -9.0000 
  222.8750    63.9420    78.8720    75.2000    28.9730    24.3730     2.1120    -8.8660 
  223.0000    62.1340    81.4610    77.5530    29.3340    24.0650     2.1440    -8.7300 
  223.1250    63.1810    84.9530    80.8150    30.2980    23.8350     2.1640    -8.5860 
  223.2500    64.9090    89.2500    84.8870    33.3050    24.0250     2.1640    -8.4440 
  223.3750    65.5280    93.9280    89.3310    38.7490    24.6090     2.1430    -8.3200 
  223.5000    65.8870    98.2320    93.4210    40.9140    24.9110     2.1100    -8.1900 
  223.6250    66.7480   101.4500    96.5490    36.8220    24.7100     2.0830    -8.0700 
  223.7500    66.4100   102.8130    98.0890    34.1710    24.3830     2.0720    -7.9460 
  223.8750    64.1170   101.4230    97.1810    39.9970    24.0670     2.0770    -7.7860 
  224.0000    62.2660    96.2390    92.5360    52.6370    23.7650     2.0930    -7.5680 
  224.1250    61.5830    88.2500    84.7660    64.2680    23.4830     2.1110    -7.3300 
  224.2500    62.4660    79.3490    75.6090    63.3740    23.3440     2.1250    -7.0940 
  224.3750    65.0650    71.6410    67.3270    50.5040    23.3520     2.1330    -6.8530 
  224.5000    68.4090    67.3170    62.4530    40.1960    23.3540     2.1420    -6.6210 
  224.6250    70.7560    67.0710    61.7790    38.9530    23.3510     2.1570    -6.4050 
  224.7500    70.2910    71.2030    65.3470    46.7150    23.3470     2.1800    -6.2160 
  224.8750    67.7240    79.4190    72.5000    61.0410    23.3120     2.2070    -6.0940 
  225.0000    66.4450    90.0040    81.4270    79.6610    23.2530     2.2230    -6.0310 
  225.1250    67.1060    99.4490    89.1410    86.6290    23.1700     2.2220    -5.9770 
  225.2500    68.2780   105.2000    93.7010    81.5220    23.0830     2.2060    -5.9170 
  225.3750    67.9750   106.9310    95.0720    76.7560    22.9990     2.1870    -5.8630 
  225.5000    66.9810   106.2430    94.5850    74.4900    22.9510     2.1830    -5.8190 
  225.6250    66.4200   105.2220    93.7840    72.0490    22.9310     2.1970    -5.7630 
  225.7500    65.5710   104.2730    92.9740    71.4220    22.8980     2.2160    -5.6870 
  225.8750    65.2910   102.6130    91.4960    73.2300    22.8420     2.2270    -5.5790 
  226.0000    67.2140    99.1580    88.3270    68.1360    22.7860     2.2220    -5.4800 
  226.1250    70.4460    94.1530    83.6320    63.8870    22.7490     2.2080    -5.3680 
  226.2500    72.0690    88.5240    78.1970    61.5780    22.7170     2.1980    -5.2600 
  226.3750    71.0560    83.3230    72.9670    57.7450    22.6960     2.1980    -5.1540 
  226.5000    70.2470    79.6050    69.0260    52.9350    22.7370     2.2010    -5.0690 
  226.6250    70.8970    77.6600    66.8270    51.3470    22.9380     2.1960    -5.0070 
  226.7500    72.0780    77.5280    66.4660    51.9770    23.3480     2.1760    -5.0020 
  226.8750    73.0160    79.1310    67.8330    52.0690    23.9040     2.1470    -5.0380 
  227.0000    73.2500    82.4310    70.7910    52.3590    24.3520     2.1230    -5.0880 
  227.1250    72.8930    86.8330    74.6440    52.7710    24.4730     2.1130    -5.1450 
  227.2500    72.5030    91.6780    78.6510    55.0210    24.2790     2.1150    -5.2080 
  227.3750    71.4910    96.2460    82.1520    57.1940    23.9490     2.1210    -5.2800 
  227.5000    69.9590    99.6100    84.5160    62.6480    23.7840     2.1230    -5.3370 
  227.6250    69.2220   101.2790    85.6580    68.9010    23.7580     2.1220    -5.3770 
  227.7500    68.9770   101.0380    85.6620    74.1850    23.7720     2.1240    -5.3830 
  227.8750    67.6740    99.0130    84.6860    78.3050    23.7620     2.1350    -5.3930 
  228.0000    65.9960    95.7360    82.8790    79.1880    23.7600     2.1550    -5.4060 
  228.1250    66.8890    92.4310    80.7530    79.6100    23.7760     2.1770    -5.4390 
  228.2500    69.7970    90.3610    79.1040    77.5280    23.7890     2.1880    -5.4840 
  228.3750    72.3870    90.6590    79.1140    70.5870    23.7910     2.1830    -5.5330 
  228.5000    73.1480    93.5010    82.3760    62.0560    23.7960     2.1620    -5.5690 
  228.6250    71.8920    94.9960    87.7490    62.8750    23.8390     2.1440    -5.5970 
  228.7500    69.6860    89.4200    90.6890    93.9830    23.9890     2.1500    -5.6180 
  228.8750    67.7040    74.0520    84.4620   163.1360    24.2710     2.1860    -5.6070 
  229.0000    65.6940    52.9500    66.0790   216.7060    24.5130     2.2470    -5.5710 
  229.1250    63.6290    34.3360    44.5370   151.5260    24.5980     2.3060    -5.5370 
  229.2500    65.1580    21.7960    27.5200    62.3000    24.5780     2.3440    -5.4830 
  229.3750    72.0020    14.4020    16.8960    20.9900    24.6240     2.3510    -5.3780 
  229.5000    78.9560    10.3900    11.5480    10.1170    24.6880     2.3300    -5.2370 
  229.6250    80.7550     8.2870     8.9610     7.7090    24.5020     2.2920    -5.0780 
  229.7500    79.7010     7.4260     7.8260     7.4060    24.2540     2.2460    -4.9250 
  229.8750    81.1600     7.3060     7.5650     7.5730    24.3730     2.2060    -4.7690 
  230.0000    85.4260     7.5340     7.8270     7.6530    24.7980     2.1840    -4.5990 
  230.1250    89.2860     7.8210     8.2310     7.6720    25.0580     2.1850    -4.4100 
  230.2500    91.7510     7.9970     8.5540     7.6640    25.1200     2.2040    -4.2210 
  230.3750    94.5900     8.0160     8.7200     7.4990    25.1270     2.2310    -4.0570 
  230.5000    99.5190     7.9370     8.7470     7.2890    25.1610     2.2540    -3.9450 
  230.6250   104.6510     7.8640     8.7130     7.2030    25.1910     2.2720    -3.8740 
  230.7500   109.4800     7.8490     8.6720     7.2080    25.2230     2.2850    -3.8220 
  230.8750   114.8250     7.8990     8.6540     7.2930    25.2520     2.2960    -3.8000 
