~V
VERS. 2.00: Ver 2.00
~W
STRT.M 55.0000:
STOP.M 249.0000:
STEP.M 0.1250:
NULL. -999.2500:
UWI. F11017:
~C
DEPT.M :
GR.API :
RML.OHMM :
RI. :
RXO.OHMM :
CALI.CM :
DEN.GM/CC :
SP.MV :
~A
# ...
  190.0000    51.7080    31.8230    26.2970    25.9210    23.6890     2.6480    -8.2930 
  190.1250    51.6260    33.4260    27.3090    27.1830    24.0520     2.6380    -8.1330 
  190.2500    52.0720    36.3920    29.7000    30.1950    24.2770     2.6220    -8.0290 
  190.3750    50.9710    39.6390    32.5990    34.6240    24.3630     2.6030    -7.9850 
  190.5000    48.8130    41.7900    34.7910    40.9170    24.3540     2.5880    -7.9730 
  190.6250    49.0040    40.8920    34.4510    47.2870    24.2710     2.5880    -7.9710 
  190.7500    52.0890    36.6880    31.1180    49.5140    24.1290     2.6060    -7.9500 
  190.8750    55.3290    29.7250    25.3450    44.8030    23.9130     2.6370    -7.8890 
  191.0000    55.2250    21.8710    18.7850    34.9320    23.6400     2.6680    -7.7720 
  191.1250    51.7950    15.0830    13.3860    21.7900    23.4720     2.6740    -7.5900 
  191.2500    47.3180    10.0530     9.6140    11.3550    23.4980     2.6490    -7.3670 
  191.3750    43.5390     7.2490     7.2740     6.2910    23.7030     2.6000    -7.1160 
  191.5000    41.2680     6.1790     5.9960     4.7130    23.9900     2.5420    -6.8690 
  191.6250    39.9970     5.8950     5.5180     4.6830    24.1760     2.4910    -6.6650 
  191.7500    38.6050     5.9420     5.4370     5.1650    24.2760     2.4510    -6.5180 
  191.8750    37.5030     6.1080     5.5570     5.7780    24.2310     2.4230    -6.4370 
  192.0000    37.8700     6.2530     5.7280     5.9670    23.9980     2.4040    -6.4090 
  192.1250    38.8390     6.2900     5.8360     5.4650    23.5650     2.3940    -6.4140 
  192.2500    39.2910     6.2420     5.8600     4.8960    23.2150     2.3900    -6.4120 
  192.3750    40.8420     6.1490     5.8220     4.6050    23.1620     2.3890    -6.3760 
  192.5000    43.5170     6.0600     5.7650     4.7320    23.4750     2.3870    -6.3090 
  192.6250    44.4170     6.0150     5.7240     5.0630    23.9880     2.3850    -6.2090 
  192.7500    42.8840     6.0190     5.7090     5.3650    24.3530     2.3850    -6.0960 
  192.8750    40.0060     6.0640     5.7130     5.4710    24.4300     2.3890    -5.9750 
  193.0000    37.2910     6.1180     5.7220     5.3330    24.3440     2.3990    -5.8610 
  193.1250    36.0430     6.1580     5.7170     5.0590    24.2460     2.4130    -5.7860 
  193.2500    36.5500     6.1550     5.6920     4.8750    24.1820     2.4240    -5.7700 
  193.3750    36.9630     6.0910     5.6470     4.8270    24.1720     2.4250    -5.8230 
  193.5000    35.0110     6.0190     5.5850     4.8680    24.2570     2.4160    -5.9280 
  193.6250    32.6640     5.9350     5.5190     4.8270    24.3710     2.3970    -6.0640 
  193.7500    32.1810     5.8670     5.4600     4.8030    24.4190     2.3780    -6.2010 
  193.8750    32.1660     5.8220     5.4210     4.8090    24.4150     2.3650    -6.3330 
  194.0000    32.1920     5.7950     5.4110     4.8520    24.3940     2.3610    -6.4670 
  194.1250    33.8280     5.7760     5.4460     5.0140    24.3830     2.3690    -6.6010 
  194.2500    35.4200     5.8060     5.5230     5.2560    24.3910     2.3810    -6.7410 
  194.3750    34.2260     5.8860     5.6390     5.5290    24.3980     2.3940    -6.8930 
  194.5000    33.3580     6.0250     5.7800     5.7920    24.3890     2.4050    -7.0640 
  194.6250    37.1930     6.1740     5.9160     5.9110    24.3740     2.4130    -7.2520 
  194.7500    41.4140     6.3030     6.0110     5.9860    24.3450     2.4180    -7.4510 
  194.8750    40.7750     6.4440     6.0410     6.1240    24.2880     2.4230    -7.6700 
  195.0000    36.3940     6.4420     6.0030     6.1020    24.2320     2.4280    -7.9240 
  195.1250    35.1230     6.3980     5.9320     5.8520    24.1820     2.4350    -8.2340 
  195.2500    38.1230     6.4240     5.9010     5.6080    24.0980     2.4430    -8.5930 
  195.3750    43.4800     6.5910     5.9740     5.5920    23.9740     2.4470    -8.9950 
  195.5000    50.4870     6.9280     6.1900     5.6750    23.8250     2.4490    -9.4410 
  195.6250    59.4560     7.4090     6.5500     5.9080    23.6760     2.4500    -9.9550 
  195.7500    67.3190     7.8980     6.9520     6.3790    23.6930     2.4520   -10.5440 
  195.8750    72.0280     8.2710     7.2950     7.0460    24.0020     2.4580   -11.2200 
  196.0000    75.2200     8.4450     7.4950     7.7240    24.3850     2.4620   -11.9750 
  196.1250    78.3350     8.3900     7.4980     7.8860    24.4450     2.4570   -12.7960 
  196.2500    81.3390     8.2430     7.3940     7.3000    24.4160     2.4410   -13.6530 
  196.3750    84.5630     8.1240     7.2800     6.7390    24.4090     2.4180   -14.5320 
  196.5000    87.4440     8.1210     7.2330     6.6610    24.4190     2.3950   -15.4080 
  196.6250    85.5980     8.2700     7.3010     7.0950    24.4230     2.3810   -16.2510 
  196.7500    80.4900     8.4880     7.4400     7.7840    24.4620     2.3770   -17.0430 
  196.8750    78.1340     8.6980     7.5960     8.2060    24.5400     2.3800   -17.7650 
  197.0000    80.3630     8.8360     7.7200     8.2350    24.5860     2.3860   -18.4020 
  197.1250    83.4670     8.8700     7.7710     8.1450    24.5850     2.3910   -18.9370 
  197.2500    84.1530     8.8410     7.7670     8.0470    24.5620     2.3970   -19.3900 
  197.3750    84.1550     8.7970     7.7350     7.9850    24.5150     2.4010   -19.7660 
  197.5000    83.7690     8.7810     7.7090     7.8790    24.4440     2.4010   -20.0710 
  197.6250    82.1850     8.8290     7.7230     7.9130    24.4120     2.3960   -20.2980 
  197.7500    81.0850     8.9300     7.7790     8.1330    24.4200     2.3850   -20.4530 
  197.8750    80.6450     9.0610     7.8630     8.3970    24.4350     2.3730   -20.5200 
  198.0000    80.7330     9.1860     7.9480     8.7200    24.4390     2.3640   -20.4900 
  198.1250    81.1460     9.2460     7.9920     9.1470    24.4420     2.3610   -20.3470 
  198.2500    80.8290     9.2170     7.9690     9.2670    24.4260     2.3650   -20.1070 
  198.3750    79.6740     9.0950     7.8680     8.8420    24.3790     2.3730   -19.7960 
  198.5000    78.9990     8.9050     7.7020     8.4670    24.2930     2.3830   -19.4500 
  198.6250    79.4730     8.6980     7.5040     8.3150    24.1400     2.3900   -19.1210 
  198.7500    79.7020     8.5450     7.3380     8.2090    23.9810     2.3940   -18.8550 
  198.8750    79.2400     8.5010     7.2530     8.1090    23.9400     2.3950   -18.6840 
  199.0000    78.3860     8.6050     7.2910     7.9170    24.0980     2.3960   -18.6140 
  199.1250    74.5910     8.8880     7.4920     7.7240    24.3310     2.4010   -18.6330 
  199.2500    71.0090     9.2910     7.8230     7.9580    24.5120     2.4070   -18.6920 
  199.3750    71.2460     9.7550     8.2460     8.5990    24.5280     2.4100   -18.7440 
  199.5000    72.9580    10.2020     8.7070     9.2700    24.4690     2.4080   -18.7380 
  199.6250    71.6770    10.5440     9.1290     9.6110    24.4230     2.4020   -18.5880 
  199.7500    70.1630    10.7530     9.4560     9.7870    24.3950     2.3960   -18.2630 
  199.8750    71.4470    10.8140     9.6510     9.8880    24.3890     2.3960   -17.7260 
  200.0000    71.8120    10.7120     9.6820     9.8150    24.3770     2.4030   -16.9610 
  200.1250    68.0250    10.3980     9.4830     9.5260    24.3500     2.4150   -15.9540 
  200.2500    65.1460     9.9330     9.0670     9.2070    24.2930     2.4290   -14.7780 
  200.3750    65.7180     9.3200     8.4550     8.7220    24.1510     2.4390   -13.4750 
  200.5000    67.3610     8.6250     7.7180     8.2210    23.8840     2.4390   -12.0970 
  200.6250    66.1240     8.0590     6.9750     7.3480    23.5440     2.4280   -10.7090 
  200.7500    61.1700     7.3470     6.3390     6.1640    23.4090     2.4100    -9.3860 
  200.8750    55.3430     6.8530     5.8730     5.2670    23.7270     2.3900    -8.1800 
  201.0000    52.6070     6.5820     5.6020     5.1030    24.4330     2.3730    -7.1480 
  201.1250    53.2960     6.5300     5.5440     5.0820    25.0550     2.3620    -6.3500 
