~V
VERS. 2.00: Ver 2.00
~W
STRT.M 55.0000:
STOP.M 283.0000:
STEP.M 0.1250:
NULL. -999.2500:
UWI. F11062:
~C
DEPT.M :
SP.MV :
GR.API :
RML.OHMM :
RI. :
RXO.OHMM :
CALI.CM :
DEN.GM/CC :
~A
# ...
  100.0000   -18.7640    54.9240     8.6310     7.5230    10.2630    24.5150     2.1530 
  100.1250   -18.8440    53.0430     8.6520     7.5390    10.3110    24.6090     2.1570 
  100.2500   -18.8850    51.3790     8.6710     7.5540    10.4180    24.5810     2.1610 
  100.3750   -18.8840    51.2820     8.6830     7.5690    10.4880    24.4750     2.1630 
  100.5000   -18.8470    51.5360     8.6920     7.5890    10.5060    24.3310     2.1640 
  100.6250   -18.7940    49.8710     8.7040     7.6190    10.5310    24.1630     2.1660 
  100.7500   -18.7140    48.4130     8.7230     7.6550    10.5600    24.0210     2.1690 
  100.8750   -18.6110    48.8860     8.7440     7.6920    10.6050    23.8930     2.1720 
  101.0000   -18.4960    50.6370     8.7530     7.7180    10.6060    23.7420     2.1740 
  101.1250   -18.3700    52.4510     8.7290     7.7150    10.6090    23.6630     2.1730 
  101.2500   -18.2080    54.9220     8.6660     7.6820    10.6030    23.6440     2.1720 
  101.3750   -17.9810    56.9250     8.5730     7.6200    10.5770    23.6360     2.1710 
  101.5000   -17.7370    55.6750     8.4680     7.5410    10.4960    23.6270     2.1720 
  101.6250   -17.4800    54.0630     8.3830     7.4660    10.3270    23.6560     2.1750 
  101.7500   -17.2130    56.8760     8.3340     7.4100    10.0910    23.8020     2.1760 
  101.8750   -16.9470    61.6170     8.3180     7.3760     9.8570    24.0940     2.1740 
  102.0000   -16.6960    63.4490     8.3140     7.3520     9.7840    24.4810     2.1680 
  102.1250   -16.4300    60.9780     8.2850     7.3180     9.9860    24.8010     2.1610 
  102.2500   -16.2130    59.2750     8.2260     7.2650    10.1310    24.9450     2.1620 
  102.3750   -16.1010    59.6410     8.1620     7.2100    10.1180    24.9500     2.1770 
  102.5000   -16.0900    61.6430     8.1370     7.1800     9.8390    24.8720     2.2080 
  102.6250   -16.2080    64.2630     8.2090     7.2180     9.3620    24.6960     2.2450 
  102.7500   -16.4420    64.3030     8.3680     7.3250     8.8370    24.4490     2.2720 
  102.8750   -16.7730    61.3850     8.5840     7.4860     8.7230    24.2330     2.2750 
  103.0000   -17.1790    59.5430     8.8060     7.6690     9.4360    24.0620     2.2540 
  103.1250   -17.6610    59.4020     8.9810     7.8280    10.0380    23.9460     2.2190 
  103.2500   -18.1520    58.5610     9.0960     7.9400    10.4480    23.8860     2.1880 
  103.3750   -18.5920    56.2320     9.1520     7.9970    10.6520    23.9000     2.1690 
  103.5000   -18.9350    53.8030     9.1510     7.9990    10.7780    23.9860     2.1620 
  103.6250   -19.1340    53.7790     9.0930     7.9440    10.7710    24.1240     2.1640 
  103.7500   -19.2110    55.2620     8.9930     7.8500    10.6560    24.2070     2.1710 
  103.8750   -19.1830    56.8410     8.8700     7.7320    10.5890    24.1660     2.1790 
  104.0000   -19.0840    56.0450     8.7480     7.6080    10.6070    24.0550     2.1840 
  104.1250   -18.9250    55.1860     8.6530     7.5030    10.5290    23.9720     2.1830 
  104.2500   -18.7630    56.9730     8.5900     7.4250    10.2940    23.9270     2.1790 
  104.3750   -18.5820    57.9500     8.5600     7.3780    10.0370    23.9220     2.1730 
  104.5000   -18.4230    56.9340     8.5660     7.3640    10.1010    23.9380     2.1690 
  104.6250   -18.2690    57.7890     8.6240     7.3890    10.1970    23.9150     2.1680 
  104.7500   -18.1280    58.9440     8.7350     7.4510    10.2890    23.7890     2.1670 
  104.8750   -17.9870    57.8580     8.8910     7.5440    10.5200    23.6350     2.1650 
  105.0000   -17.8340    56.4390     9.0670     7.6530    10.7160    23.5490     2.1640 
  105.1250   -17.6340    56.7870     9.2230     7.7550    10.6210    23.5690     2.1640 
  105.2500   -17.3930    55.0090     9.3270     7.8270    10.5150    23.6650     2.1700 
  105.3750   -17.1350    51.7390     9.3650     7.8570    10.5380    23.7820     2.1790 
  105.5000   -16.8370    50.6500     9.3400     7.8420    10.4940    23.8450     2.1920 
  105.6250   -16.5250    52.3920     9.2640     7.7850    10.2800    23.6960     2.2040 
  105.7500   -16.2400    54.8970     9.1640     7.7020     9.8900    23.3050     2.2110 
  105.8750   -16.0060    59.0830     9.0530     7.6010     9.5250    22.7770     2.2110 
  106.0000   -15.8150    63.9540     8.9440     7.4970     9.3160    22.4320     2.2030 
  106.1250   -15.7330    65.4710     8.8560     7.4080     9.3430    22.4400     2.1920 
  106.2500   -15.7250    64.5870     8.8040     7.3490     9.4120    22.6720     2.1800 
  106.3750   -15.7670    62.7700     8.7960     7.3300     9.4710    22.9740     2.1680 
  106.5000   -15.8550    60.1390     8.8300     7.3520     9.5360    23.2170     2.1590 
  106.6250   -15.9520    57.1290     8.8870     7.4070     9.7520    23.3840     2.1540 
  106.7500   -15.9850    55.2700     8.9280     7.4640    10.0560    23.5350     2.1530 
  106.8750   -15.9350    54.2250     8.9260     7.5040    10.4060    23.6750     2.1550 
  107.0000   -15.7970    53.3640     8.8790     7.5160    10.6640    23.7700     2.1600 
  107.1250   -15.4960    53.3920     8.8090     7.5070    10.4730    23.7930     2.1640 
  107.2500   -15.0420    53.9690     8.7490     7.5000    10.1670    23.8000     2.1670 
  107.3750   -14.4460    54.4020     8.7070     7.4990     9.9440    23.8450     2.1670 
  107.5000   -13.7070    54.3250     8.6490     7.4840     9.8210    23.9560     2.1670 
  107.6250   -12.7970    53.3240     8.4950     7.3950     9.6420    24.0950     2.1680 
  107.7500   -11.7830    52.3040     8.1980     7.1920     9.4400    24.1910     2.1740 
  107.8750   -10.7010    52.9050     7.7460     6.8550     9.1400    24.1850     2.1880 
  108.0000    -9.5480    56.8800     7.1770     6.4070     8.6370    24.0660     2.2080 
  108.1250    -8.3950    62.8900     6.5770     5.9050     7.9620    23.8130     2.2330 
  108.2500    -7.3220    68.5870     6.0520     5.4380     7.1470    23.4540     2.2570 
  108.3750    -6.3860    74.9750     5.6620     5.0630     6.2800    23.0540     2.2780 
  108.5000    -5.6150    80.4220     5.4240     4.8060     5.6400    22.7040     2.2930 
  108.6250    -5.0880    81.8160     5.3360     4.6860     5.3140    22.4190     2.3020 
  108.7500    -4.7710    80.6310     5.3290     4.6560     5.2830    22.1750     2.3050 
  108.8750    -4.6240    79.1980     5.3650     4.6880     5.3060    21.9780     2.3000 
  109.0000    -4.6720    78.4770     5.4280     4.7600     5.3660    21.8440     2.2870 
  109.1250    -4.9050    76.8060     5.5410     4.8770     5.4040    21.7490     2.2690 
  109.2500    -5.2110    74.6360     5.7350     5.0500     5.4190    21.6780     2.2520 
  109.3750    -5.5400    71.9940     6.0260     5.2930     5.4860    21.6520     2.2390 
  109.5000    -5.8540    68.8840     6.3800     5.5860     5.6990    21.6960     2.2330 
  109.6250    -6.0500    67.6410     6.6860     5.8580     6.0770    21.8200     2.2340 
  109.7500    -6.1050    69.2070     6.8190     6.0090     6.4600    21.9900     2.2400 
  109.8750    -6.0240    71.1180     6.7020     5.9660     6.6840    22.2150     2.2510 
  110.0000    -5.8330    71.5110     6.3320     5.7110     6.6080    22.4660     2.2640 
  110.1250    -5.5740    70.7080     5.7870     5.2860     6.3390    22.5890     2.2790 
  110.2500    -5.2880    71.5150     5.2450     4.8300     5.9190    22.5740     2.2950 
  110.3750    -5.0160    74.6070     4.8200     4.4400     5.5170    22.5250     2.3090 
  110.5000    -4.7980    78.7910     4.5750     4.1750     5.2650    22.5210     2.3190 
  110.6250    -4.6970    82.8330     4.5520     4.0840     5.2780    22.5550     2.3240 
  110.7500    -4.7480    83.8380     4.6890     4.1340     5.3210    22.5730     2.3230 
  110.8750    -4.9730    81.9610     4.9470     4.3000     5.4580    22.5890     2.3140 
  111.0000    -5.3390    79.8350     5.2810     4.5500     5.5670    22.6160     2.2980 
  111.1250    -5.7910    79.0410     5.6410     4.8440     5.7620    22.6620     2.2770 
