~V
VERS. 2.00: Ver 2.00
~W
STRT.M 53.0000:
STOP.M 257.0000:
STEP.M 0.1250:
NULL. -999.2500:
UWI. F11022:
~C
DEPT.M :
GR.API :
RML.OHMM :
RI. :
RXO.OHMM :
CALI.CM :
SP.MV :
DEN.GM/CC :
~A
# ...
  188.0000    63.9620    56.2710    54.1500    48.5400    25.3740   -30.9260     2.0640 
  188.1250    63.1410    60.8030    59.5480    66.3150    24.8070   -30.9070     2.1330 
  188.2500    65.1900    62.0640    61.8200    67.6480    24.4510   -31.0150     2.2080 
  188.3750    67.6100    59.2410    59.9090    59.5370    24.3360   -31.0360     2.2530 
  188.5000    67.4030    52.9340    54.1080    53.0040    24.3440   -30.9940     2.2640 
  188.6250    65.7810    45.1590    46.3080    48.8580    24.4840   -31.1060     2.2520 
  188.7500    66.3730    38.3880    39.2610    41.9960    24.8520   -31.2350     2.2180 
  188.8750    69.6130    33.7610    34.1970    32.1370    25.4050   -31.2620     2.1580 
  189.0000    72.3870    31.7830    31.5630    23.2090    25.9440   -31.3290     2.0840 
  189.1250    72.3060    33.0690    31.8970    20.1460    26.1120   -31.5090     2.0330 
  189.2500    69.0450    36.8990    34.7450    23.5130    26.1400   -31.5890     2.0160 
  189.3750    64.8410    42.5190    39.7600    34.1560    26.1900   -31.5950     2.0240 
  189.5000    62.8990    48.4840    45.8890    48.4890    26.2280   -31.7380     2.0390 
  189.6250    64.5150    52.2700    50.7130    60.5570    26.1430   -31.8360     2.0420 
  189.7500    66.7320    52.8180    52.4730    54.8190    25.9590   -31.7600     2.0280 
  189.8750    66.6490    50.7640    51.2640    43.7850    25.7450   -31.7700     2.0100 
  190.0000    65.3790    47.8840    48.6200    39.1760    25.4060   -31.9270     2.0160 
  190.1250    66.1910    46.2170    46.4900    41.9250    24.9080   -31.8920     2.0610 
  190.2500    68.1500    46.7500    46.0350    44.5800    24.5530   -31.8050     2.1260 
  190.3750    68.4090    50.2820    48.0730    44.0130    24.5590   -31.8970     2.1850 
  190.5000    67.0990    57.7830    53.5930    41.3880    24.8050   -31.9580     2.2210 
  190.6250    66.2850    71.8690    65.3990    47.7650    24.9190   -31.8890     2.2280 
  190.7500    65.6410    94.0590    85.6220    67.1040    24.9410   -31.9670     2.2180 
  190.8750    63.9640   127.0830   117.3440   112.8620    25.0170   -32.0540     2.1940 
  191.0000    60.5330   173.2080   162.3150   179.0210    25.1590   -31.9520     2.1520 
  191.1250    56.8200   228.0160   222.3020   226.9020    25.3200   -31.9610     2.1100 
  191.2500    53.0150   272.2130   288.1360   283.4690    25.5190   -32.1140     2.1030 
  191.3750    48.9030   309.4280   324.3490   346.4230    25.8030   -32.1200     2.0880 
  191.5000    46.7010   321.9070   330.8450   381.5660    25.9940   -31.9880     2.0810 
  191.6250    48.4060   309.3220   310.5710   356.1670    25.7550   -31.9960     2.0830 
  191.7500    51.4500   284.6550   279.9510   288.5220    25.1550   -32.0310     2.0920 
  191.8750    54.0980   254.8920   246.6670   249.5980    24.6070   -31.9700     2.1010 
  192.0000    56.7350   224.5320   214.8350   244.6730    24.3920   -31.8790     2.1240 
  192.1250    60.4600   196.4830   186.5690   227.9300    24.3440   -31.8330     2.1760 
  192.2500    63.9830   171.2650   161.6270   196.4470    24.2430   -31.7660     2.2060 
  192.3750    64.8490   149.2720   140.3520   163.0820    24.1880   -31.6570     2.2180 
  192.5000    62.9170   131.3020   123.5050   128.9540    24.2130   -31.5730     2.2210 
  192.6250    61.1280   119.3510   112.7920   103.8960    24.2890   -31.5460     2.2170 
  192.7500    61.6630   113.0940   107.5260    93.3650    24.3120   -31.4510     2.2080 
  192.8750    62.3860   112.2470   107.3020    92.7450    24.3150   -31.3200     2.1970 
  193.0000    62.1880   116.1130   111.3930   105.9430    24.3270   -31.3780     2.1860 
  193.1250    61.5990   124.0470   119.0870   119.7160    24.3950   -31.3190     2.1760 
  193.2500    60.3630   133.7600   128.2240   123.0850    24.4240   -31.1190     2.1710 
  193.3750    57.6540   143.6570   137.3110   120.3990    24.4010   -31.1160     2.1780 
  193.5000    55.0740   152.6330   145.4080   134.8690    24.3980   -31.2190     2.1950 
  193.6250    54.2240   160.3350   152.4200   150.7480    24.4330   -31.0700     2.2130 
  193.7500    55.4460   167.4360   159.1540   168.0120    24.4640   -30.9360     2.2210 
  193.8750    57.8690   174.0130   165.6900   175.8580    24.4870   -31.0070     2.2230 
  194.0000    59.4470   179.1170   170.9830   182.6040    24.5190   -30.9260     2.2230 
  194.1250    59.3860   180.0280   172.1690   193.8450    24.5380   -30.8210     2.2250 
  194.2500    59.3230   175.4870   167.8840   202.2300    24.5450   -30.8990     2.2160 
  194.3750    59.7230   165.5920   158.3400   210.9700    24.5470   -30.8210     2.1920 
  194.5000    59.3870   152.4700   145.8740   199.2770    24.5380   -30.6150     2.1690 
  194.6250    60.0650   139.8430   134.2600   166.1430    24.5080   -30.6660     2.1670 
  194.7500    62.6370   130.5810   126.0300   135.7900    24.4550   -30.7680     2.1760 
  194.8750    64.1580   125.8250   122.0320   122.2240    24.3950   -30.6730     2.1810 
  195.0000    61.9530   125.5950   122.1060   120.1680    24.3250   -30.5790     2.1810 
  195.1250    58.9780   129.4600   125.5840   146.0150    24.2380   -30.6530     2.1870 
  195.2500    58.5010   134.8670   129.8880   160.6910    24.1660   -30.6030     2.2030 
  195.3750    58.6420   139.3370   132.5020   148.0400    24.1390   -30.5110     2.2180 
  195.5000    56.4420   140.1920   130.8960   127.7530    24.1590   -30.5910     2.2230 
  195.6250    53.2620   134.5920   122.7330   131.4510    24.1750   -30.6260     2.2160 
  195.7500    51.5800   123.8810   110.0740   120.3200    24.1840   -30.4660     2.2120 
  195.8750    52.1030   110.2940    95.5280    97.7310    24.2040   -30.3370     2.2130 
  196.0000    54.1990    96.4310    81.6390    71.3050    24.2490   -30.3650     2.2130 
  196.1250    55.8770    84.3100    70.1900    59.7590    24.2760   -30.3010     2.2120 
  196.2500    55.4630    74.1120    60.9860    61.0890    24.2470   -30.1760     2.2190 
  196.3750    55.4800    65.7040    53.7040    63.4170    24.1730   -30.1920     2.2420 
  196.5000    58.3330    58.8310    47.9240    65.0490    24.0850   -30.1760     2.2760 
  196.6250    62.2080    53.2950    43.3860    58.4920    24.0750   -29.9850     2.3050 
  196.7500    63.3890    48.6490    39.6850    44.0690    24.1440   -29.9440     2.3210 
  196.8750    62.8020    44.8610    36.7900    29.8180    24.2880   -30.0350     2.3230 
  197.0000    63.7310    41.9250    34.6810    28.4740    24.5220   -29.9740     2.3140 
  197.1250    66.3940    39.9710    33.4920    32.8990    24.7740   -29.8690     2.2970 
  197.2500    68.1450    39.0510    33.3080    35.2670    24.7990   -29.9070     2.2820 
  197.3750    66.7230    39.5400    34.5300    39.4850    24.4950   -29.8770     2.2730 
  197.5000    63.5750    41.9540    37.7090    39.2680    24.1750   -29.7360     2.2710 
  197.6250    61.4450    47.7820    44.2880    39.7550    24.1000   -29.7740     2.2700 
  197.7500    60.9860    58.2230    55.1280    52.2050    24.0900   -29.8550     2.2610 
  197.8750    61.8860    74.9350    71.5290    88.6390    24.0740   -29.8220     2.2410 
  198.0000    62.0180    98.7400    94.4380   132.6130    24.0450   -29.7790     2.2220 
  198.1250    58.4970   128.7740   124.0130   136.8090    24.0350   -29.7530     2.2170 
  198.2500    53.1060   159.0250   154.7490   135.0350    24.0300   -29.7520     2.2190 
  198.3750    50.4960   183.6640   179.6340   138.9390    24.0280   -29.7640     2.2180 
  198.5000    52.2240   198.9830   193.1860   141.4720    24.0380   -29.7610     2.2130 
  198.6250    54.0500   203.2560   192.8350   138.5710    24.1540   -29.7440     2.2120 
  198.7500    53.7560   198.0140   181.2710   141.1250    24.4190   -29.6900     2.2160 
  198.8750    52.5030   181.4320   158.3800   150.3790    24.6750   -29.5730     2.2260 
  199.0000    51.6670   153.6130   127.3970   159.6530    24.7320   -29.5530     2.2400 
  199.1250    52.6690   119.7500    96.1270   131.0300    24.6490   -29.6370     2.2610 
