~V
VERS. 2.00: Ver 2.00
~W
STRT.M 55.0000:
STOP.M 249.0000:
STEP.M 0.1250:
NULL. -999.2500:
UWI. F11017:
~C
DEPT.M :
GR.API :
RML.OHMM :
RI. :
RXO.OHMM :
CALI.CM :
DEN.GM/CC :
SP.MV :
~A
# ...
  167.5000    52.7350   216.8980   199.0670   154.0290    24.3010     2.2190   -16.9670 
  167.6250    53.2180   222.3810   203.8200   170.9840    24.3330     2.2180   -16.8910 
  167.7500    52.9680   229.7160   210.3700   178.7180    24.3780     2.2140   -16.7990 
  167.8750    52.2840   238.5710   218.2920   180.5290    24.4270     2.2120   -16.6830 
  168.0000    51.0580   249.0050   227.5290   180.7190    24.4410     2.2130   -16.5390 
  168.1250    51.5950   261.4610   238.4340   186.1960    24.4030     2.2170   -16.3840 
  168.2500    53.9570   275.2490   250.5250   196.9420    24.3500     2.2210   -16.2380 
  168.3750    54.5020   289.1110   262.8570   219.1100    24.2990     2.2200   -16.1130 
  168.5000    52.1170   301.0920   273.8310   250.3760    24.2400     2.2170   -16.0080 
  168.6250    51.5500   308.3680   281.0340   264.7620    24.2230     2.2140   -15.9050 
  168.7500    54.9050   310.6520   284.0760   257.9180    24.2940     2.2130   -15.7870 
  168.8750    57.9310   308.4880   283.3250   251.9420    24.3990     2.2120   -15.6540 
  169.0000    56.9040   303.1190   279.8300   240.6760    24.4490     2.2120   -15.5250 
  169.1250    53.9530   295.2600   274.3370   232.6830    24.4440     2.2080   -15.4110 
  169.2500    53.5150   285.3490   267.2910   226.9300    24.4240     2.2030   -15.3130 
  169.3750    54.4940   272.9920   258.2430   223.8480    24.4080     2.2000   -15.2260 
  169.5000    55.5710   258.1370   246.8630   226.1620    24.3990     2.2010   -15.1600 
  169.6250    55.9250   241.4550   233.2600   215.3220    24.4030     2.2050   -15.1500 
  169.7500    54.4820   224.9560   219.0320   192.5780    24.4040     2.2120   -15.1880 
  169.8750    53.2830   210.3320   205.6860   167.1480    24.3830     2.2200   -15.2670 
  170.0000    53.3400   198.8750   194.5970   146.9550    24.3450     2.2270   -15.3550 
  170.1250    52.8220   191.8780   187.2370   133.7590    24.2880     2.2340   -15.4240 
  170.2500    49.9080   188.6680   183.3020   127.3720    24.2430     2.2400   -15.4810 
  170.3750    47.5330   188.8740   182.5510   129.1610    24.2390     2.2420   -15.5340 
  170.5000    48.5470   192.0310   184.5550   139.4610    24.2620     2.2410   -15.5820 
  170.6250    50.1990   198.0160   189.1490   152.0840    24.2880     2.2360   -15.6150 
  170.7500    50.7790   205.9780   195.4920   164.1660    24.3130     2.2300   -15.6370 
  170.8750    51.1040   215.6730   203.3160   171.3660    24.3470     2.2250   -15.6450 
  171.0000    52.1930   227.0990   212.5990   170.5160    24.3610     2.2200   -15.6400 
  171.1250    53.4360   240.9370   223.9900   167.2350    24.3160     2.2140   -15.6220 
  171.2500    53.4400   257.1960   237.6420   171.7480    24.2350     2.2100   -15.5820 
  171.3750    52.5290   275.4970   253.4400   186.7310    24.1450     2.2070   -15.5150 
  171.5000    51.5790   293.9530   270.0240   203.5680    24.0970     2.2070   -15.4270 
  171.6250    51.2580   306.9820   283.0260   239.0950    24.1410     2.2090   -15.3380 
  171.7500    52.0900   308.9000   287.3540   269.0660    24.1630     2.2100   -15.2770 
  171.8750    53.3890   295.0950   278.5070   293.9180    24.1000     2.2090   -15.2320 
  172.0000    54.7350   264.9500   254.9420   294.4000    23.9870     2.2080   -15.2030 
  172.1250    56.3310   223.8760   219.5100   254.5370    23.9070     2.2080   -15.1930 
  172.2500    57.3760   184.6870   183.1730   205.6250    23.8220     2.2130   -15.1870 
  172.3750    58.0010   154.4590   153.3160   159.9860    23.7310     2.2200   -15.1750 
  172.5000    58.5930   135.3350   133.4860   121.2140    23.7020     2.2280   -15.1700 
  172.6250    60.0450   127.4360   125.0280   102.8280    23.7860     2.2340   -15.1880 
  172.7500    61.5610   126.2280   123.8140    97.7020    23.8210     2.2360   -15.2090 
  172.8750    61.6950   128.7750   126.9380   104.7250    23.8110     2.2360   -15.2390 
  173.0000    60.8620   132.0550   131.3110   112.3080    23.7890     2.2360   -15.2800 
  173.1250    59.4590   132.5490   133.2750   115.6850    23.7740     2.2390   -15.3280 
  173.2500    57.2460   128.6190   130.7950   118.1530    23.7530     2.2460   -15.3770 
  173.3750    55.3530   120.0780   123.3320   119.0700    23.7340     2.2560   -15.4280 
  173.5000    54.3350   108.2950   111.9850   113.5250    23.7400     2.2680   -15.4650 
  173.6250    56.1900    95.8240    99.1700    97.0350    23.7650     2.2780   -15.4680 
  173.7500    58.9530    85.2290    87.7630    79.8740    23.8220     2.2840   -15.4600 
  173.8750    60.0330    77.8840    79.3230    65.9130    23.8830     2.2850   -15.4550 
  174.0000    59.2050    74.4760    74.6380    54.7720    23.8900     2.2810   -15.4610 
  174.1250    58.8300    75.8550    74.5860    48.5460    23.8580     2.2730   -15.4850 
  174.2500    61.1170    81.0430    78.2780    49.4290    23.8410     2.2650   -15.5100 
  174.3750    63.8840    89.3820    85.1600    53.1610    23.8360     2.2560   -15.5130 
  174.5000    64.2890    99.8110    94.2860    60.6360    23.8240     2.2490   -15.4640 
  174.6250    62.1810   110.6970   104.1460    73.3910    23.8150     2.2430   -15.3420 
  174.7500    59.6840   120.1580   112.8010    91.1310    23.8310     2.2390   -15.1650 
  174.8750    57.8740   127.1070   119.0670   101.9310    23.8840     2.2360   -14.9570 
  175.0000    57.2010   131.3730   122.6520   102.2720    23.9630     2.2340   -14.7270 
  175.1250    55.7050   133.5010   123.9680   104.1960    24.0350     2.2340   -14.4780 
  175.2500    54.3130   134.9290   124.4380   109.3750    24.0940     2.2330   -14.2380 
  175.3750    55.7280   136.2210   124.7020   115.4710    24.1540     2.2310   -14.0330 
  175.5000    59.4330   137.3630   124.8740   120.9970    24.2090     2.2290   -13.8850 
  175.6250    62.7220   137.8830   124.6190   124.9300    24.2090     2.2280   -13.8000 
  175.7500    63.5330   137.7080   123.8450   126.1970    24.1840     2.2300   -13.7500 
  175.8750    62.9870   137.1370   122.7970   124.5070    24.2290     2.2340   -13.7120 
  176.0000    61.1050   136.6970   121.9350   121.8320    24.3830     2.2400   -13.6770 
  176.1250    57.7090   136.9830   121.8110   119.8150    24.4930     2.2420   -13.6490 
  176.2500    54.9410   137.9330   122.3810   118.1150    24.5470     2.2400   -13.6160 
  176.3750    54.5330   139.0800   123.2460   119.1890    24.5810     2.2350   -13.5590 
  176.5000    56.0040   139.6500   123.6900   121.9320    24.6010     2.2290   -13.4730 
  176.6250    56.6650   138.6690   122.7440   120.7080    24.5950     2.2240   -13.3660 
  176.7500    55.7770   136.3510   120.4440   119.4050    24.5900     2.2220   -13.2600 
  176.8750    56.2070   133.6610   117.4940   119.9110    24.5880     2.2220   -13.1650 
  177.0000    57.9150   132.2790   115.2810   117.9940    24.5730     2.2240   -13.0830 
  177.1250    56.9590   134.8160   116.0650   109.8470    24.5440     2.2270   -13.0120 
  177.2500    53.9670   142.1210   120.7770   105.7350    24.5140     2.2290   -12.9440 
  177.3750    53.3270   154.4410   129.7740   114.1640    24.4950     2.2310   -12.8850 
  177.5000    55.4920   170.8300   142.4060   141.0110    24.5030     2.2320   -12.8450 
  177.6250    55.6520   188.5420   156.6090   180.6720    24.5800     2.2330   -12.8060 
  177.7500    52.3110   202.8940   168.6080   196.7820    24.6660     2.2340   -12.7360 
  177.8750    50.0460   209.7300   175.1000   199.1900    24.7210     2.2330   -12.6180 
  178.0000    53.0610   206.4150   173.8970   203.4910    24.7490     2.2320   -12.4520 
  178.1250    58.0790   192.2430   164.0290   200.5620    24.7610     2.2290   -12.2470 
  178.2500    59.0360   173.0780   149.6690   183.4080    24.7550     2.2290   -12.0390 
  178.3750    56.3810   153.5140   134.3320   160.1370    24.7410     2.2310   -11.8520 
  178.5000    54.2800   136.9780   120.9390   140.4680    24.7350     2.2350   -11.6940 
  178.6250    53.2290   125.6420   111.5500   126.6910    24.7270     2.2400   -11.5680 
