~V
VERS. 2.00: Ver 2.00
~W
STRT.M 55.0000:
STOP.M 286.0000:
STEP.M 0.1250:
NULL. -999.2500:
UWI. F11067:
~C
DEPT.M :
GR.API :
RML.OHMM :
RI. :
RXO.OHMM :
CALI.CM :
DEN.GM/CC :
SP.MV :
~A
# ...
  268.7500    54.9320    11.5760    10.6350    12.8650    24.7190     2.5030    -2.6350 
  268.8750    54.7470    11.7940    10.8460    12.9990    24.6950     2.5030    -2.6630 
  269.0000    56.7120    11.9770    11.0230    14.1590    24.6400     2.5030    -2.7100 
  269.1250    59.4080    12.0860    11.1440    13.6140    24.5870     2.5030    -2.7680 
  269.2500    58.8780    12.1250    11.2160    14.2070    24.5780     2.5010    -2.8030 
  269.3750    57.1400    12.1120    11.2560    15.7640    24.5020     2.5000    -2.8380 
  269.5000    56.5720    12.0750    11.2910    16.9170    24.3910     2.5030    -2.8870 
  269.6250    56.5840    12.0590    11.3810    15.0440    24.3550     2.5130    -2.9430 
  269.7500    55.2070    12.1070    11.5700    14.0590    24.4410     2.5210    -3.0220 
  269.8750    52.9900    12.2640    11.8940    14.3260    24.5780     2.5190    -3.0940 
  270.0000    51.3680    12.5620    12.3640    16.5740    24.7480     2.5040    -3.1470 
  270.1250    51.1100    13.0160    12.9580    22.7180    24.8370     2.4830    -3.2210 
  270.2500    51.4630    13.5140    13.5260    27.5870    24.8690     2.4690    -3.2910 
  270.3750    51.9240    13.9120    13.8890    24.5130    24.8620     2.4640    -3.3530 
  270.5000    51.4380    14.0560    13.8860    20.8430    24.8470     2.4660    -3.4160 
  270.6250    51.4590    13.7330    13.4160    19.7510    24.8390     2.4700    -3.4740 
  270.7500    52.6380    13.1960    12.6830    17.9210    24.8690     2.4750    -3.5090 
  270.8750    54.4390    12.8250    11.8970    16.7800    24.9130     2.4790    -3.5440 
  271.0000    54.3200    12.7310    11.2350    15.8560    24.9540     2.4820    -3.5840 
  271.1250    52.5360    12.6570    10.8390    14.6010    25.0060     2.4780    -3.6010 
  271.2500    52.6720    12.4850    10.6820    12.9750    25.0280     2.4680    -3.6130 
  271.3750    54.7860    12.3930    10.7180    11.7290    25.0330     2.4590    -3.6120 
  271.5000    56.0660    12.4780    10.8640    11.4180    25.0540     2.4590    -3.6060 
  271.6250    54.7260    12.6000    11.0210    13.0610    25.1150     2.4710    -3.6000 
  271.7500    52.9670    12.6760    11.1330    16.1170    25.1900     2.4810    -3.5940 
  271.8750    52.0940    12.7000    11.2190    18.0890    25.1980     2.4770    -3.5880 
  272.0000    52.2760    12.7160    11.3260    17.8580    25.1580     2.4580    -3.5820 
  272.1250    52.2940    12.8110    11.5250    15.2320    25.2020     2.4370    -3.5780 
  272.2500    50.5740    13.0350    11.8440    13.5170    25.2720     2.4360    -3.5930 
  272.3750    49.2180    13.4030    12.2870    12.9210    25.2680     2.4640    -3.6210 
  272.5000    50.3020    13.8910    12.8250    13.2130    25.1540     2.5110    -3.6590 
  272.6250    51.8430    14.4410    13.3920    16.1530    24.9360     2.5520    -3.6850 
  272.7500    50.7220    14.9640    13.9030    21.0390    24.8360     2.5690    -3.7060 
  272.8750    49.1440    15.4070    14.3020    24.3210    24.8000     2.5580    -3.7340 
  273.0000    48.8230    15.7430    14.5700    22.3830    24.7670     2.5310    -3.7630 
  273.1250    48.8170    15.9500    14.7050    17.7020    24.7400     2.5070    -3.8000 
  273.2500    49.1600    16.0550    14.7560    16.2760    24.8030     2.4970    -3.8240 
  273.3750    50.7170    16.0620    14.7320    17.3040    24.9050     2.4980    -3.8410 
  273.5000    52.5990    15.9830    14.6500    18.3990    24.9390     2.5010    -3.8580 
  273.6250    52.4870    15.8430    14.5440    17.8980    24.9170     2.4940    -3.9130 
  273.7500    50.9610    15.7010    14.4580    16.8970    24.9030     2.4740    -3.9830 
  273.8750    49.6170    15.6000    14.4070    15.2990    24.9100     2.4430    -4.0390 
  274.0000    49.1900    15.5600    14.3970    13.8930    24.9130     2.4140    -4.0900 
  274.1250    49.4870    15.5820    14.4250    13.6180    24.9190     2.4050    -4.1410 
  274.2500    49.7920    15.6270    14.4670    15.4540    24.9040     2.4200    -4.1880 
  274.3750    50.8780    15.6620    14.5130    17.0370    24.8240     2.4530    -4.2210 
  274.5000    52.5350    15.6650    14.5600    17.5950    24.7070     2.4890    -4.2400 
  274.6250    53.0020    15.6320    14.6020    17.6150    24.6330     2.5130    -4.2320 
  274.7500    51.5850    15.5850    14.6190    17.7590    24.6420     2.5230    -4.2100 
  274.8750    50.1850    15.5290    14.5830    16.4210    24.7010     2.5240    -4.1740 
  275.0000    50.4330    15.4560    14.4800    15.1070    24.7480     2.5250    -4.1240 
  275.1250    50.7350    15.3410    14.3060    14.3060    24.7610     2.5260    -4.0360 
  275.2500    50.5540    15.1900    14.1190    14.0730    24.7600     2.5210    -3.9380 
  275.3750    50.1520    15.0330    13.9790    14.6370    24.7590     2.5100    -3.8270 
  275.5000    50.4190    14.9110    13.9230    15.7200    24.7580     2.4960    -3.7070 
  275.6250    51.3480    14.8760    13.9730    16.7080    24.7590     2.4890    -3.5560 
  275.7500    51.3480    14.9300    14.0950    17.3710    24.7600     2.4920    -3.3830 
  275.8750    51.3480    15.0580    14.2530    17.8950    24.7470     2.5020    -3.2240 
  276.0000    51.3480    15.2250    14.4060    18.4800    24.6960     2.5140    -3.0600 
  276.1250    51.3480    15.3740    14.5000    19.1050    24.6120     2.5220    -2.9210 
  276.2500    51.3480    15.4570    14.5230    19.4830    24.5530     2.5230    -2.8010 
  276.3750    51.3480    15.4510    14.4780    19.7810    24.5600     2.5180    -2.6870 
  276.5000    51.3480    15.3570    14.3780    19.5960    24.5400     2.5070    -2.5690 
  276.6250    51.3480    15.1950    14.2490    18.0470    24.4130     2.4930    -2.4920 
  276.7500    51.3480    15.0140    14.1150    16.5770    24.3270     2.4820    -2.4430 
  276.8750    51.3480    14.8420    13.9860    15.4560    24.3340     2.4750    -2.3790 
  277.0000    51.3480    14.6950    13.8600    14.5800    24.4480     2.4730    -2.3340 
  277.1250    51.3480    14.5770    13.7170    13.9830    24.6380     2.4720    -2.2830 
  277.2500    51.3480    14.4560    13.5200    14.1860    24.7880     2.4720    -2.2350 
  277.3750    51.3480    14.2920    13.2470    14.8180    24.8510     2.4730    -2.2020 
  277.5000    51.3480    14.0550    12.9170    13.9180    24.8600     2.4800    -2.1910 
  277.6250    51.3480    13.7450    12.5920    12.3290    24.8570     2.4940    -2.1690 
  277.7500    51.3480    13.4280    12.3310    11.0790    24.8560     2.5110    -2.1430 
  277.8750    51.3480    13.1670    12.1620    11.2720    24.8350     2.5260    -2.1500 
  278.0000    51.3480    13.0130    12.0880    12.7340    24.7800     2.5360    -2.1580 
  278.1250    51.3480    13.0070    12.0970    13.7830    24.6830     2.5370    -2.1890 
  278.2500    51.3480    13.1100    12.1470    13.2010    24.6050     2.5290    -2.2280 
  278.3750    51.3480    13.2820    12.2220    11.9550    24.5260     2.5120    -2.2750 
  278.5000    51.3480    13.4670    12.2970    12.6570    24.4590     2.4900    -2.3170 
  278.6250    51.3480    13.5940    12.3490    15.4900    24.4200     2.4770    -2.3480 
  278.7500    51.3480    13.6400    12.3710    16.3630    24.4670     2.4800    -2.3830 
  278.8750    51.3480    13.6130    12.3630    16.5570    24.4960     2.5000    -2.4110 
  279.0000    51.3480    13.5480    12.3360    16.7790    24.3500     2.5270    -2.4670 
  279.1250    51.3480    13.4910    12.3110    16.7290    23.9680     2.5460    -2.5250 
  279.2500    51.3480    13.4660    12.3030    17.0080    23.5640     2.5520    -2.5600 
  279.3750    51.3480    13.4680    12.3140    17.8510    23.4370     2.5490    -2.5950 
  279.5000    51.3480    13.4840    12.3340    19.8360    23.7430     2.5420    -2.6350 
  279.6250    51.3480    13.4970    12.3540    22.0240    24.2200     2.5380    -2.6860 
  279.7500    51.3480    13.4990    12.3600    22.9020    24.5460     2.5340    -2.7380 
  279.8750    51.3480    13.4950    12.3520    22.6090    24.6730     2.5320    -2.7960 
