~V
VERS. 2.00: Ver 2.00
~W
STRT.M 58.0000:
STOP.M 272.0000:
STEP.M 0.1250:
NULL. -999.2500:
UWI. F11073:
~C
DEPT.M :
GR.API :
RML.OHMM :
RI. :
RXO.OHMM :
CALI.CM :
DEN.GM/CC :
SP.MV :
~A
# ...
  136.7500    61.3820    13.8350    12.2080    13.1340    23.4960     2.2350   -11.5360 
  136.8750    57.9990    14.0350    12.5200    13.0470    23.5430     2.2610   -11.4740 
  137.0000    56.8400    13.9860    12.5690    12.9000    23.5920     2.2600   -11.4780 
  137.1250    59.8810    13.7910    12.4140    12.8940    23.6470     2.2230   -11.4940 
  137.2500    62.6850    13.5990    12.2150    12.8750    23.6300     2.1840   -11.5000 
  137.3750    61.9320    13.4770    12.0580    12.7870    23.5780     2.1610   -11.5390 
  137.5000    58.8290    13.4380    11.9730    12.8250    23.5360     2.1510   -11.6070 
  137.6250    58.4000    13.4670    11.9540    13.5910    23.5340     2.1460   -11.6410 
  137.7500    60.7110    13.5190    11.9560    14.8980    23.5600     2.1420   -11.6870 
  137.8750    62.0960    13.5670    11.9600    15.8560    23.5950     2.1410   -11.7470 
  138.0000    59.9780    13.5850    11.9550    16.1330    23.5630     2.1460   -11.7610 
  138.1250    57.1730    13.5400    11.9290    15.7680    23.5010     2.1510   -11.7350 
  138.2500    57.6250    13.4380    11.8750    15.2850    23.4010     2.1510   -11.7280 
  138.3750    59.3790    13.2930    11.7930    14.9460    23.2790     2.1460   -11.7200 
  138.5000    60.4220    13.1310    11.6920    14.7300    23.1750     2.1440   -11.6460 
  138.6250    62.6250    12.9770    11.5930    14.6590    23.1110     2.1440   -11.5340 
  138.7500    66.4330    12.8510    11.5200    14.3450    23.0660     2.1440   -11.4350 
  138.8750    69.4200    12.7550    11.4760    13.8560    23.0600     2.1430   -11.4100 
  139.0000    69.4900    12.6510    11.4210    13.8470    23.0680     2.1450   -11.4390 
  139.1250    68.4030    12.4530    11.2700    13.8460    23.1070     2.1430   -11.3670 
  139.2500    68.1260    12.1370    10.9990    14.0000    23.1530     2.1370   -11.2990 
  139.3750    68.2700    11.7420    10.6470    13.9720    23.2120     2.1330   -11.3130 
  139.5000    68.8550    11.3600    10.2970    13.2910    23.2520     2.1390   -11.3790 
  139.6250    69.8110    11.1310    10.0680    12.4800    23.2630     2.1540   -11.4370 
  139.7500    70.3760    11.0890    10.0040    12.3950    23.2260     2.1720   -11.4100 
  139.8750    70.4530    11.1920    10.0920    13.0460    23.1390     2.1860   -11.3320 
  140.0000    70.4970    11.3410    10.2720    13.2150    23.0160     2.1910   -11.3000 
  140.1250    69.6440    11.4290    10.4530    12.6340    22.9610     2.1900   -11.3140 
  140.2500    68.9910    11.4310    10.5820    12.2930    22.9340     2.1920   -11.2420 
  140.3750    71.1730    11.3860    10.6650    12.1630    22.9240     2.2010   -11.0840 
  140.5000    75.0590    11.3420    10.7350    12.2420    22.9600     2.2090   -10.8860 
  140.6250    74.5810    11.2600    10.7720    12.6010    23.0930     2.2080   -10.6850 
  140.7500    71.8130    11.0030    10.6680    13.0170    23.2920     2.2010   -10.5350 
  140.8750    70.0880    10.4510    10.2980    13.0720    23.4830     2.1940   -10.3720 
  141.0000    70.3130     9.5950     9.6200    12.6650    23.5860     2.1920   -10.1240 
  141.1250    72.2540     8.5610     8.7020    11.3180    23.6150     2.2030    -9.8320 
  141.2500    75.0360     7.5990     7.7640     9.4230    23.6010     2.2280    -9.5720 
  141.3750    78.3390     6.8570     6.9460     8.0270    23.5970     2.2650    -9.3800 
  141.5000    80.8280     6.3780     6.3190     7.7130    23.5910     2.3000    -9.2520 
  141.6250    83.0900     6.1210     5.9050     7.4920    23.5890     2.3170    -9.1540 
  141.7500    85.5870     5.9140     5.5910     7.2530    23.5800     2.3200    -9.0960 
  141.8750    87.4690     5.6440     5.2870     7.0320    23.5580     2.3230    -9.0750 
  142.0000    88.5690     5.2850     4.9530     6.8170    23.5310     2.3270    -9.0750 
  142.1250    88.0750     4.9620     4.6560     6.4410    23.5050     2.3250    -9.2250 
  142.2500    88.0580     4.8610     4.5200     5.9350    23.4730     2.3220    -9.5370 
  142.3750    88.8640     5.1200     4.6540     5.6090    23.4450     2.3230    -9.8980 
  142.5000    89.1620     5.8220     5.1300     6.0880    23.4180     2.3250   -10.2660 
  142.6250    86.8310     7.0270     6.0460     7.9020    23.3940     2.3140   -10.6480 
  142.7500    80.1790     8.4980     7.2860    10.2370    23.3810     2.2930   -11.0210 
  142.8750    71.3090     9.9430     8.6730    11.7150    23.3920     2.2670   -11.4160 
  143.0000    65.5230    11.0340     9.9210    12.4020    23.3480     2.2410   -11.8780 
  143.1250    65.4870    11.5200    10.6880    13.0830    23.2630     2.2150   -12.3100 
  143.2500    67.3770    11.6480    11.0480    13.5100    23.2120     2.1910   -12.5780 
  143.3750    70.1300    11.6870    11.1980    13.3260    23.1960     2.1780   -12.7490 
  143.5000    73.2860    11.8240    11.3250    12.8320    23.1540     2.1790   -12.9050 
  143.6250    73.4100    12.0920    11.5060    12.7210    23.0600     2.1970   -13.1260 
  143.7500    70.4390    12.3680    11.6790    13.1470    22.9520     2.2330   -13.3840 
  143.8750    66.2400    12.5490    11.7540    13.0460    22.8310     2.2840   -13.5830 
  144.0000    62.8820    12.5800    11.6780    11.6790    22.7340     2.3190   -13.7420 
  144.1250    63.5600    12.4660    11.4570    10.7000    22.7980     2.2810   -13.9540 
  144.2500    68.1960    12.3120    11.2030    10.3960    22.9430     2.2010   -14.2180 
  144.3750    71.7100    12.1910    10.9920    10.2630    23.0250     2.1320   -14.4820 
  144.5000    69.8530    12.1450    10.8640    10.0720    22.9590     2.0940   -14.7010 
  144.6250    66.0330    12.1510    10.8180    10.0290    22.8520     2.0890   -14.7850 
  144.7500    65.1160    12.1170    10.7890    10.1090    22.8260     2.1010   -14.7470 
  144.8750    65.6220    11.9920    10.7300    10.1330    22.8410     2.1210   -14.6810 
  145.0000    66.5020    11.8310    10.6600    10.0430    22.7820     2.1350   -14.5370 
  145.1250    69.5890    11.8750    10.7240     9.9020    22.6470     2.1420   -14.2410 
  145.2500    72.9620    12.3200    11.0590    10.0480    22.5320     2.1520   -13.9570 
  145.3750    72.3920    13.2400    11.7380    10.6540    22.5510     2.1710   -13.7100 
  145.5000    66.6410    14.5250    12.7210    11.9800    22.7330     2.1960   -13.4510 
  145.6250    61.3420    15.7190    13.7260    15.7320    23.0330     2.2280   -13.1480 
  145.7500    60.4470    16.1240    14.1730    19.2920    23.2550     2.2640   -12.8380 
  145.8750    61.9450    15.2520    13.5800    16.8580    23.3650     2.2950   -12.5600 
  146.0000    64.3330    13.1870    11.9520    13.3360    23.3770     2.2970   -12.3650 
  146.1250    72.0010    10.6230     9.8330    10.9080    23.3420     2.2760   -12.1500 
  146.2500    82.7410     8.4800     7.9760     8.7780    23.3650     2.2710   -11.8810 
  146.3750    90.7250     7.1720     6.7100     7.1920    23.4170     2.2930   -11.6340 
  146.5000    91.9940     6.7550     6.1190     6.7340    23.4400     2.3230   -11.4810 
  146.6250    87.5640     7.1260     6.2040     7.0780    23.4380     2.3440   -11.4610 
  146.7500    82.0920     7.8290     6.6720     8.4830    23.4370     2.3620   -11.5030 
  146.8750    76.9200     8.4800     7.2460    11.6290    23.4420     2.3850   -11.4980 
  147.0000    75.1430     8.6850     7.5690    13.6890    23.4400     2.4090   -11.4640 
  147.1250    79.7430     8.1740     7.3070    10.2080    23.4370     2.4070   -11.5450 
  147.2500    87.4280     7.3150     6.6690     7.7340    23.4230     2.3790   -11.6410 
  147.3750    93.5570     6.4630     5.9360     6.8700    23.3960     2.3470   -11.6460 
  147.5000    93.3370     5.8220     5.3080     6.9320    23.3880     2.3270   -11.5560 
  147.6250    89.7980     5.4710     4.8910     6.8000    23.4120     2.3160   -11.4630 
  147.7500    90.4990     5.3170     4.6520     6.4490    23.4310     2.3100   -11.4490 
  147.8750    94.0530     5.3120     4.5640     6.0220    23.4420     2.3140   -11.5090 
