~V
VERS. 2.00: Ver 2.00
~W
STRT.M 57.0000:
STOP.M 226.0000:
STEP.M 0.1250:
NULL. -999.2500:
UWI. F11011:
~C
DEPT.M :
GR.API :
RML.OHMM :
RI. :
RXO.OHMM :
CALI.CM :
SP.MV :
DEN.GM/CC :
~A
# ...
  169.5000    67.3070    53.8280    49.4460    21.2490    24.6130   -18.1460     2.2870 
  169.6250    64.5150    60.5270    55.1500    21.7300    24.3560   -17.7710     2.2540 
  169.7500    62.6640    72.6850    68.0200    36.7360    24.2350   -17.3880     2.2270 
  169.8750    62.6170    88.9980    87.0990    64.6000    24.2050   -17.0800     2.2140 
  170.0000    63.0260   108.2630   109.5480    79.2900    24.2300   -16.7560     2.2140 
  170.1250    61.5020   127.6890   129.5820    87.7890    24.3760   -16.4790     2.2180 
  170.2500    61.2340   143.7810   143.6240    95.0170    24.5440   -16.1390     2.2200 
  170.3750    63.7420   155.3400   152.1340   105.2180    24.7280   -15.7950     2.2190 
  170.5000    66.0280   163.0940   156.9880   125.6010    24.8410   -15.3840     2.2160 
  170.6250    65.6870   166.6330   157.9820   152.9530    24.8950   -14.9310     2.2090 
  170.7500    63.9120   166.0690   155.0400   164.8650    24.8870   -14.4320     2.2020 
  170.8750    60.8240   161.9640   148.7780   159.3630    24.7070   -13.8490     2.2030 
  171.0000    56.3560   156.3750   141.2370   151.2980    24.3330   -13.3540     2.2260 
  171.1250    55.9960   152.4910   135.7210   142.6630    24.1570   -12.9340     2.2840 
  171.2500    61.0480   151.1610   133.8000   132.0150    24.1770   -12.5040     2.3680 
  171.3750    64.1700   149.7630   134.1710   129.4750    24.2610   -12.0440     2.4600 
  171.5000    59.7620   142.8930   131.8620   164.3490    24.2190   -11.6010     2.5390 
  171.6250    52.2580   124.4230   118.2770   250.7800    24.1240   -11.1340     2.5870 
  171.7500    49.0220    98.2350    94.5980   303.0580    24.0880   -10.6290     2.6080 
  171.8750    48.0650    71.0030    68.1290   205.6730    24.1650   -10.1520     2.6110 
  172.0000    47.1620    48.6320    46.2210    96.4130    24.2560    -9.6360     2.6100 
  172.1250    49.3600    34.2300    32.4760    47.7690    24.1690    -9.1470     2.6200 
  172.2500    55.2420    25.1620    24.0910    29.5720    24.0670    -8.7370     2.6460 
  172.3750    62.0260    19.4810    18.9400    25.0270    24.0800    -8.4000     2.6820 
  172.5000    66.5070    15.7100    15.4770    20.0970    24.1550    -8.0940     2.7130 
  172.6250    68.1650    13.0280    12.9270    16.0890    24.2690    -7.8600     2.7120 
  172.7500    70.3460    10.8440    10.8030    11.8200    24.5100    -7.7180     2.6710 
  172.8750    74.4600     9.0570     9.0360     8.6020    24.9500    -7.6160     2.5930 
  173.0000    78.5820     7.6550     7.6210     6.5130    25.2520    -7.5800     2.4960 
  173.1250    76.8750     6.6490     6.5650     5.3610    25.3070    -7.4990     2.4140 
  173.2500    70.3990     5.8690     5.7260     4.5200    25.4080    -7.4280     2.3690 
  173.3750    62.7350     5.2170     5.0370     3.9930    25.6780    -7.3080     2.3600 
  173.5000    56.7890     4.6450     4.4760     3.9180    25.5180    -7.1250     2.3620 
  173.6250    54.3230     4.2160     4.0980     3.7770    25.0710    -6.9720     2.3480 
  173.7500    53.5060     3.9970     3.9250     3.4160    25.1350    -6.8150     2.3180 
  173.8750    53.2380     4.0290     3.9850     3.4390    25.9860    -6.7430     2.2890 
  174.0000    52.3720     4.2780     4.2560     3.7930    26.7070    -6.7290     2.2770 
  174.1250    52.6870     4.6390     4.6700     4.1170    26.8030    -6.7340     2.2740 
  174.2500    54.2240     4.9660     5.0680     4.0620    26.8500    -6.7260     2.2520 
  174.3750    54.0210     5.1970     5.3320     4.0030    27.1200    -6.7620     2.2030 
  174.5000    51.4620     5.3410     5.4140     4.0720    27.2060    -6.8680     2.1420 
  174.6250    51.3130     5.4640     5.3700     4.2810    26.7330    -6.9670     2.1090 
  174.7500    54.3400     5.6350     5.3320     4.4080    26.3610    -7.1020     2.1210 
  174.8750    56.8360     5.8690     5.3530     4.4670    26.3740    -7.2120     2.1720 
  175.0000    56.0300     6.1450     5.4280     4.5590    26.3130    -7.3230     2.2430 
  175.1250    51.8410     6.4250     5.5350     4.6890    25.9240    -7.4380     2.3110 
  175.2500    47.9310     6.6730     5.6420     4.7320    25.2790    -7.5700     2.3630 
  175.3750    46.0440     6.8780     5.7310     4.8170    24.6700    -7.7310     2.3920 
  175.5000    47.9350     7.0440     5.7940     5.1400    24.2810    -7.9420     2.4000 
  175.6250    54.4340     7.1790     5.8240     5.2860    24.2250    -8.3180     2.3910 
  175.7500    62.6950     7.3120     5.8420     5.2990    24.4260    -8.7930     2.3830 
  175.8750    71.7180     7.4760     5.8810     5.2900    24.7100    -9.4210     2.3830 
  176.0000    78.5890     7.7080     5.9790     5.5490    24.9300   -10.1570     2.3920 
  176.1250    82.6840     8.0540     6.1720     5.7230    25.1220   -11.0820     2.3990 
  176.2500    87.0300     8.4870     6.4430     6.0980    25.3830   -12.1050     2.3940 
  176.3750    92.1580     8.9560     6.7600     6.7330    25.5110   -13.1280     2.3770 
  176.5000    94.6160     9.3760     7.0620     7.5900    25.6580   -14.1850     2.3570 
  176.6250    93.4150     9.6170     7.2480     7.3850    25.6990   -15.1900     2.3490 
  176.7500    94.4270     9.6330     7.2780     7.4700    25.4510   -16.1990     2.3570 
  176.8750    98.4630     9.4240     7.1590     7.4760    25.1660   -17.1820     2.3720 
  177.0000    99.4090     9.0630     6.9490     7.1220    25.0640   -18.1270     2.3830 
  177.1250    97.1380     8.7050     6.7460     6.3490    25.2260   -19.0840     2.3790 
  177.2500    97.2440     8.5100     6.6330     5.8770    25.4120   -20.1140     2.3620 
  177.3750    97.9400     8.5670     6.6480     6.2420    25.4050   -21.1930     2.3400 
  177.5000    95.8290     8.8840     6.7920     7.2470    25.3500   -22.2270     2.3220 
  177.6250    92.9020     9.4050     7.0630     7.9250    25.2320   -23.1680     2.3180 
  177.7500    91.7320     9.9640     7.4020     8.3400    25.0910   -23.9700     2.3270 
  177.8750    90.7870    10.4460     7.7520     8.5640    25.0090   -24.6640     2.3450 
  178.0000    88.8640    10.7740     8.0490     8.7790    24.9920   -25.2720     2.3650 
  178.1250    89.0790    10.9000     8.2300     9.2620    24.8980   -25.7350     2.3760 
  178.2500    90.1650    10.8870     8.3070    10.0660    24.8470   -25.9970     2.3750 
  178.3750    91.0260    10.7970     8.3080    10.0570    24.9280   -26.0860     2.3670 
  178.5000    92.5960    10.7050     8.2860     9.3900    25.0150   -26.0170     2.3600 
  178.6250    93.2180    10.7050     8.3230     8.8290    25.0160   -25.7040     2.3640 
  178.7500    90.8620    10.8210     8.4560     9.0430    24.9450   -25.2000     2.3790 
  178.8750    87.4500    11.0080     8.6520     9.3150    24.8110   -24.4090     2.4000 
  179.0000    87.7420    11.1280     8.8060     9.2560    24.6810   -23.4130     2.4190 
  179.1250    93.4080    10.9260     8.7150     9.6800    24.5850   -22.1810     2.4190 
  179.2500    99.5300    10.3380     8.3120    10.0460    24.5110   -20.8190     2.3970 
  179.3750   102.1630     9.4600     7.6650     9.3290    24.4430   -19.4040     2.3580 
  179.5000    97.2900     8.5290     6.9520     7.2920    24.3080   -18.0080     2.3200 
  179.6250    85.3960     7.8670     6.3900     6.2190    24.2440   -16.8970     2.3090 
  179.7500    73.6950     7.5800     6.0600     5.8170    24.2530   -16.0500     2.3300 
  179.8750    67.6220     7.6340     5.9730     5.8350    24.1390   -15.4700     2.3730 
  180.0000    67.7980     7.8970     6.0850     6.2140    23.9320   -15.1080     2.4230 
  180.1250    69.9290     8.1760     6.2950     6.1920    23.7690   -14.9610     2.4590 
  180.2500    70.1620     8.3100     6.4560     6.1560    23.7880   -14.9130     2.4670 
  180.3750    68.7180     8.2410     6.4950     6.3370    23.8770   -14.9890     2.4370 
  180.5000    66.5460     7.9900     6.3950     6.3820    23.8910   -15.1600     2.3690 
  180.6250    63.9790     7.6420     6.1830     6.1990    24.0000   -15.2910     2.2760 
