~V
VERS. 2.00: Ver 2.00
~W
STRT.M 55.0000:
STOP.M 274.0000:
STEP.M 0.1250:
NULL. -999.2500:
UWI. F11049:
~C
DEPT.M :
SP.MV :
GR.API :
RML.OHMM :
RI. :
RXO.OHMM :
CALI.CM :
DEN.GM/CC :
~A
# ...
  178.7500   -19.4360    67.0550   107.4620    92.5440   101.8430    24.5320     2.2780 
  178.8750   -19.4440    70.1480   108.5190    92.9450   104.7950    24.5240     2.2800 
  179.0000   -19.5170    72.4480   106.0290    90.9250    99.4630    24.5040     2.2830 
  179.1250   -19.6280    70.9210   100.1060    86.2920    84.8300    24.5040     2.2890 
  179.2500   -19.7120    68.7500    93.4050    80.8930    75.8040    24.5160     2.2930 
  179.3750   -19.7820    67.4900    87.7880    76.2210    74.1560    24.5290     2.2910 
  179.5000   -19.8820    65.9260    84.2120    73.1630    77.9360    24.5250     2.2860 
  179.6250   -20.0310    64.1150    83.2400    72.2910    78.9530    24.5070     2.2830 
  179.7500   -20.1010    64.5420    84.2310    73.1210    81.5890    24.5020     2.2810 
  179.8750   -20.1250    66.5870    86.6560    75.2340    80.5910    24.5060     2.2770 
  180.0000   -20.1790    67.5010    89.7800    78.0530    73.4470    24.5100     2.2710 
  180.1250   -20.2480    66.0310    92.4170    80.7290    76.9120    24.4710     2.2680 
  180.2500   -20.2550    65.4510    93.0940    82.0550    90.2100    24.4140     2.2680 
  180.3750   -20.2120    67.8480    90.4550    80.7740    94.6410    24.3860     2.2710 
  180.5000   -20.1840    71.3150    84.1410    76.2950    86.6020    24.4260     2.2760 
  180.6250   -20.2110    73.3430    75.2470    69.1520    71.1690    24.4610     2.2820 
  180.7500   -20.2320    75.1160    66.5440    61.6790    57.5250    24.4830     2.2880 
  180.8750   -20.1980    77.0120    59.8210    55.5200    49.0040    24.4960     2.2960 
  181.0000   -20.1640    77.7440    56.0640    51.6950    46.6850    24.5090     2.3030 
  181.1250   -20.2030    76.9050    55.8600    50.8590    47.2610    24.5250     2.3050 
  181.2500   -20.2610    77.5170    58.0950    52.1400    52.4410    24.5280     2.3000 
  181.3750   -20.2540    78.8090    61.9790    54.8950    58.3060    24.5180     2.2900 
  181.5000   -20.1680    78.5780    66.6420    58.4240    62.8160    24.5120     2.2800 
  181.6250   -20.0770    76.7040    71.1340    61.9630    66.0990    24.5180     2.2750 
  181.7500   -20.0060    75.5080    74.9130    64.9830    67.2830    24.5290     2.2760 
  181.8750   -19.9030    73.8300    78.0230    67.4330    70.0960    24.5280     2.2790 
  182.0000   -19.7640    71.0750    80.9330    69.6080    80.7150    24.5180     2.2810 
  182.1250   -19.6030    70.0050    84.6140    72.2090    89.9200    24.5200     2.2830 
  182.2500   -19.4490    71.4690    90.0390    76.0340    82.8760    24.5280     2.2860 
  182.3750   -19.3310    73.1610    98.1600    81.8970    79.6610    24.5250     2.2870 
  182.5000   -19.2620    71.7400   109.5500    90.4040    90.9520    24.5060     2.2820 
  182.6250   -19.2340    66.5760   124.2050   101.9760   118.9210    24.5020     2.2680 
  182.7500   -19.2180    60.5220   139.3710   114.8020   160.1780    24.5150     2.2520 
  182.8750   -19.2160    55.8690   151.2750   126.1430   181.6470    24.5280     2.2370 
  183.0000   -19.2120    55.1080   155.8670   132.6170   169.7530    24.5270     2.2310 
  183.1250   -19.2580    57.9350   149.8700   130.7090   151.6200    24.5140     2.2320 
  183.2500   -19.3760    61.7710   136.8550   122.2050   129.4210    24.5120     2.2350 
  183.3750   -19.4830    63.8940   120.2130   109.5000   102.4580    24.5230     2.2380 
  183.5000   -19.4970    63.4470   102.8990    95.2520    86.3030    24.5320     2.2450 
  183.6250   -19.4770    63.4810    86.8770    81.4180    77.5240    24.5290     2.2590 
  183.7500   -19.5390    65.8170    72.6010    68.6870    64.4290    24.5150     2.2800 
  183.8750   -19.5920    69.7690    60.4290    57.5180    50.6960    24.5050     2.3010 
  184.0000   -19.5810    72.8740    50.7850    48.4710    42.9140    24.5100     2.3180 
  184.1250   -19.5680    75.3010    44.5930    42.4460    37.0210    24.5210     2.3370 
  184.2500   -19.5580    76.5110    41.7020    39.2540    30.1490    24.5180     2.3580 
  184.3750   -19.5440    74.8840    42.3710    39.0880    27.2870    24.5170     2.3670 
  184.5000   -19.5550    72.5300    46.7600    42.1810    36.8780    24.5240     2.3520 
  184.6250   -19.5830    72.2150    55.4550    49.3050    53.8910    24.5250     2.3230 
  184.7500   -19.5970    71.2170    67.5580    59.8260    70.5930    24.5150     2.2980 
  184.8750   -19.6050    67.3210    82.3710    73.1760    79.3890    24.5060     2.2830 
  185.0000   -19.6080    62.7100    98.3610    87.9210    87.8940    24.5090     2.2730 
  185.1250   -19.5720    61.3480   112.0560   100.8370   102.3830    24.5220     2.2670 
  185.2500   -19.5670    61.3880   120.1270   108.7740   120.5360    24.5240     2.2620 
  185.3750   -19.6170    61.9670   120.8560   110.0490   143.4190    24.5130     2.2570 
  185.5000   -19.6310    62.8100   115.2310   105.2490   158.7090    24.5040     2.2510 
  185.6250   -19.5250    62.4110   107.0800    97.3460   133.5300    24.5060     2.2490 
  185.7500   -19.4530    60.8310   101.7560    91.1600   101.8930    24.5180     2.2520 
  185.8750   -19.4450    59.3960   102.4030    89.6810    96.8070    24.5250     2.2590 
  186.0000   -19.4030    59.3080   110.5550    94.5350   127.0480    24.5220     2.2630 
  186.1250   -19.2850    61.7400   127.8240   107.3970   149.7050    24.5130     2.2570 
  186.2500   -19.1580    64.6490   151.8720   126.5430   165.5570    24.5180     2.2430 
  186.3750   -19.0590    65.5810   179.8170   149.9110   185.4610    24.5240     2.2300 
  186.5000   -18.9740    62.0330   206.5910   173.6890   209.3570    24.5230     2.2240 
  186.6250   -18.8690    55.6090   224.3770   191.8620   216.0500    24.5160     2.2260 
  186.7500   -18.7360    50.2880   229.9190   200.9880   220.4780    24.5210     2.2320 
  186.8750   -18.6390    49.2070   221.7190   198.8770   227.6410    24.5280     2.2400 
  187.0000   -18.5640    54.5550   201.0600   185.3990   227.1470    24.5280     2.2490 
  187.1250   -18.4460    62.2550   172.3940   162.8850   193.7820    24.5200     2.2560 
  187.2500   -18.3100    66.4300   143.3690   138.1010   139.5460    24.5130     2.2650 
  187.3750   -18.1970    67.0170   117.3640   114.6210    96.1480    24.5200     2.2740 
  187.5000   -18.0990    67.8760    95.6550    94.2850    73.7820    24.5240     2.2830 
  187.6250   -18.0420    70.1430    79.2170    78.4560    67.5800    24.5160     2.2900 
  187.7500   -18.0000    72.1880    67.2260    66.6370    60.5250    24.5030     2.2990 
  187.8750   -17.8670    73.4490    59.5780    58.7630    49.2200    24.5000     2.3100 
  188.0000   -17.7670    74.0800    56.0810    54.6680    39.4780    24.5080     2.3170 
  188.1250   -17.8370    74.0400    56.9650    54.6110    39.1410    24.5180     2.3130 
  188.2500   -17.8580    73.0700    60.9210    57.5380    48.4560    24.5160     2.3030 
  188.3750   -17.7600    71.3280    67.0100    62.7300    60.3480    24.5130     2.2930 
  188.5000   -17.7230    69.5660    74.0740    69.1440    66.5390    24.5220     2.2850 
  188.6250   -17.7840    67.4230    80.9070    75.4650    70.3720    24.5280     2.2800 
  188.7500   -17.7250    65.0650    87.2800    81.0770    73.9060    24.5230     2.2780 
  188.8750   -17.7170    64.2480    94.2790    86.6590    79.8350    24.5070     2.2800 
  189.0000   -17.8190    66.2180   103.8710    93.8310    86.1030    24.4990     2.2800 
  189.1250   -17.8460    71.2580   119.2850   105.3580    95.4410    24.5060     2.2740 
  189.2500   -17.8460    75.6800   141.5280   122.2780   111.8730    24.5150     2.2630 
  189.3750   -17.9600    74.9140   171.4170   145.1940   145.9120    24.5060     2.2470 
  189.5000   -18.1290    68.4360   208.3700   173.3720   212.2790    24.4950     2.2320 
  189.6250   -18.2020    62.6890   248.9550   203.8280   282.8190    24.4970     2.2250 
  189.7500   -18.4090    61.5230   285.7270   231.1750   303.3330    24.5110     2.2280 
  189.8750   -18.6620    61.2900   313.1650   251.7190   300.5830    24.5220     2.2410 
