~V
VERS. 2.00: Ver 2.00
~W
STRT.M 47.0000:
STOP.M 272.0000:
STEP.M 0.1250:
NULL. -999.2500:
UWI. F11040:
~C
DEPT.M :
DEN.GM/CC :
GR.API :
RML.OHMM :
RI. :
RXO.OHMM :
CALI.CM :
SP.MV :
~A
# ...
  260.7500     2.4650    64.1050    14.3760    14.0850    20.2570    23.9670    -2.8180 
  260.8750     2.4650    66.8030    14.3100    14.0270    21.7600    23.9020    -2.7300 
  261.0000     2.4650    68.8430    14.2480    13.9720    22.4070    23.8350    -2.6880 
  261.1250     2.4670    69.1720    14.1700    13.8980    20.7010    23.8200    -2.6290 
  261.2500     2.4700    69.1720    14.0700    13.8020    20.2050    23.8320    -2.5520 
  261.3750     2.4710    69.1720    13.9480    13.6860    20.4660    23.8360    -2.5110 
  261.5000     2.4690    69.1720    13.8140    13.5600    20.8150    23.8250    -2.4760 
  261.6250     2.4630    69.1720    13.6910    13.4450    20.0560    23.8140    -2.4450 
  261.7500     2.4570    69.1720    13.5990    13.3600    19.0190    23.8200    -2.4320 
  261.8750     2.4530    69.1720    13.5540    13.3160    18.2850    23.8230    -2.3960 
  262.0000     2.4540    69.1720    13.5570    13.3160    18.3480    23.8220    -2.3260 
  262.1250     2.4600    69.1720    13.6020    13.3590    17.4920    23.8210    -2.2920 
  262.2500     2.4700    69.1720    13.6650    13.4180    16.4780    23.8340    -2.2450 
  262.3750     2.4810    69.1720    13.7250    13.4710    16.2130    23.8390    -2.2070 
  262.5000     2.4880    69.1720    13.7660    13.4980    16.4070    23.8200    -2.1940 
  262.6250     2.4860    69.1720    13.7670    13.4760    16.3580    23.8040    -2.1830 
  262.7500     2.4730    69.1720    13.7320    13.4120    16.0980    23.8180    -2.1740 
  262.8750     2.4500    69.1720    13.6700    13.3180    15.7800    23.8630    -2.1880 
  263.0000     2.4230    69.1720    13.6040    13.2190    15.3290    23.9170    -2.2390 
  263.1250     2.4030    69.1720    13.5750    13.1590    15.3710    23.9740    -2.3190 
  263.2500     2.3970    69.1720    13.6110    13.1640    14.9610    24.0630    -2.3840 
  263.3750     2.4050    69.1720    13.7270    13.2470    14.5750    24.1670    -2.3850 
  263.5000     2.4200    69.1720    13.9170    13.4050    14.5930    24.1440    -2.3460 
  263.6250     2.4360    69.1720    14.1580    13.6160    15.7720    24.0510    -2.3160 
  263.7500     2.4470    69.1720    14.3940    13.8280    17.1020    23.9670    -2.3070 
  263.8750     2.4510    69.1720    14.5880    14.0010    17.3650    23.9150    -2.3120 
  264.0000     2.4520    69.1720    14.7240    14.1040    17.1890    23.8870    -2.2930 
  264.1250     2.4520    69.1720    14.7980    14.1110    17.0330    23.8600    -2.2230 
  264.2500     2.4530    69.1720    14.8390    14.0540    17.1140    23.8240    -2.2210 
  264.3750     2.4570    69.1720    14.8640    13.9620    17.2820    23.8030    -2.2640 
  264.5000     2.4630    69.1720    14.8820    13.8690    17.6200    23.8050    -2.3080 
  264.6250     2.4680    69.1720    14.8930    13.8020    17.5790    23.8220    -2.3550 
  264.7500     2.4700    69.1720    14.8980    13.7630    17.5530    23.8740    -2.3700 
  264.8750     2.4700    69.1720    14.8960    13.7410    17.7450    23.9260    -2.3930 
  265.0000     2.4690    69.1720    14.8900    13.7250    17.5440    23.9560    -2.4260 
  265.1250     2.4720    69.1720    14.8790    13.7090    16.7330    23.9700    -2.4810 
  265.2500     2.4790    69.1720    14.8630    13.6940    16.6030    23.9660    -2.4880 
  265.3750     2.4860    69.1720    14.8440    13.6860    16.8290    23.9430    -2.4990 
  265.5000     2.4900    69.1720    14.8250    13.6870    16.7490    23.9330    -2.5440 
  265.6250     2.4890    69.1720    14.8130    13.6990    15.7300    23.9190    -2.5600 
  265.7500     2.4830    69.1720    14.8120    13.7170    14.7670    23.9060    -2.6280 
  265.8750     2.4760    69.1720    14.8220    13.7400    14.2040    23.8840    -2.6950 
  266.0000     2.4700    69.1720    14.8360    13.7620    13.1530    23.8820    -2.7720 
  266.1250     2.4640    69.1720    14.8500    13.7810    12.2940    23.9350    -2.8190 
  266.2500     2.4560    69.1720    14.8600    13.7960    11.8290    23.9730    -2.8440 
  266.3750     2.4460    69.1720    14.8660    13.8060    12.2590    23.9880    -2.8180 
  266.5000     2.4320    69.1720    14.8690    13.8100    13.0210    23.9990    -2.7440 
  266.6250     2.4230    69.1720    14.8690    13.8090    12.4300    24.0710    -2.7170 
  266.7500     2.4140    69.1720    14.8660    13.8030    11.7010    24.1570    -2.6540 
  266.8750     2.4080    69.1720    14.8620    13.7950    11.8990    24.2200    -2.5900 
  267.0000     2.4010    69.1720    14.8560    13.7860    13.2960    24.2050    -2.5020 
  267.1250     2.3910    69.1720    14.8520    13.7810    13.9680    24.2740    -2.4150 
  267.2500     2.3800    69.1720    14.8520    13.7810    13.4450    24.4470    -2.3820 
  267.3750     2.3750    69.1720    14.8520    13.7810    13.0440    24.6290    -2.4310 
  267.5000     2.3800    69.1720    14.8520    13.7810    12.7430    24.7570    -2.5230 
  267.6250     2.3950    69.1720    14.8520    13.7810    12.0210    24.7140    -2.5980 
  267.7500     2.4150    69.1720    14.8520    13.7810    12.2550    24.6380    -2.6770 
  267.8750     2.4310    69.1720    14.8520    13.7810    14.7090    24.3590    -2.7550 
  268.0000     2.4380    69.1720    14.8520    13.7810    15.5830    24.2540    -2.8490 
  268.1250     2.4280    69.1720    14.8520    13.7810    16.3340    24.2530    -2.9410 
  268.2500     2.3930    69.1720    14.8520    13.7810    15.8530    24.3740    -3.0360 
  268.3750     2.3380    69.1720    14.8520    13.7810    14.6250    24.5600    -3.0720 
  268.5000     2.2730    69.1720    14.8520    13.7810    12.6640    24.5220    -3.0830 
  268.6250     2.2070    69.1720    14.8520    13.7810    10.8720    23.9640    -3.0920 
  268.7500     2.1520    69.1720    14.8520    13.7810     8.4480    22.7920  -999.2500 
  268.8750     2.1090    69.1720    14.8520    13.7810     5.8300    21.0830  -999.2500 
  269.0000     2.0810    69.1720    14.8520    13.7810     4.9330    20.2950  -999.2500 
  269.1250     2.0640    69.1720    14.8520    13.7810     4.7030    20.0510  -999.2500 
  269.2500     2.0570    69.1720    14.8520    13.7810     4.7030    20.0430  -999.2500 
  269.3750     2.0560    69.1720    14.8520    13.7810     4.7030    20.0410  -999.2500 
  269.5000     2.0570    69.1720    14.8520    13.7810     4.7030    20.0410  -999.2500 
  269.6250     2.0590    69.1720    14.8520    13.7810     4.7020    20.0410  -999.2500 
  269.7500     2.0620    69.1720    14.8520    13.7810     4.7020    20.0410  -999.2500 
  269.8750     2.0640    69.1720    14.8520    13.7810     4.7020    20.0410  -999.2500 
  270.0000     2.0660    69.1720    14.8520    13.7810     4.7010    20.0410  -999.2500 
  270.1250     2.0670    69.1720    14.8520    13.7810     4.7020    20.0410  -999.2500 
  270.2500     2.0660    69.1720    14.8520    13.7810     4.7030    20.0400  -999.2500 
  270.3750     2.0650    69.1720    14.8520    13.7810     4.7030    20.0390  -999.2500 
  270.5000     2.0640    69.1720    14.8520    13.7810     4.7020    20.0380  -999.2500 
  270.6250     2.0650    69.1720    14.8520    13.7810     4.7010    20.0370  -999.2500 
  270.7500     2.0670    69.1720    14.8520    13.7810     4.7010    20.0360  -999.2500 
  270.8750     2.0670    69.1720    14.8520    13.7810     4.7010    20.0340  -999.2500 
  271.0000     2.0670    69.1720    14.8520    13.7810     4.7010    20.0320  -999.2500 
  271.1250     2.0650    69.1720    14.8520    13.7810     4.7000    20.0320  -999.2500 
  271.2500     2.0630    69.1720    14.8520    13.7810     4.7000    20.0320  -999.2500 
  271.3750     2.0610    69.1720    14.8520    13.7810     4.6990    20.0320  -999.2500 
  271.5000     2.0610    69.1720    14.8520    13.7810     4.6980    20.0320  -999.2500 
  271.6250     2.0600    69.1720    14.8520    13.7810     4.6980    20.0320  -999.2500 
  271.7500     2.0600    69.1720    14.8520    13.7810     4.6960    20.0320  -999.2500 
  271.8750  -999.2500    69.1720    14.8520    13.7810     4.6950    20.0320  -999.2500 
