~V
VERS. 2.00: Ver 2.00
~W
STRT.M 55.0000:
STOP.M 281.0000:
STEP.M 0.1250:
NULL. -999.2500:
UWI. F11051:
~C
DEPT.M :
SP.MV :
GR.API :
RML.OHMM :
RI. :
RXO.OHMM :
CALI.CM :
DEN.GM/CC :
~A
# ...
  111.2500   -18.5450    69.9560    10.6290     7.5310     8.8220    22.8690     2.1520 
  111.3750   -18.5730    73.2510    10.5050     7.5290     8.9290    22.8640     2.1530 
  111.5000   -18.6190    73.5430    10.3670     7.5160     8.9920    22.8610     2.1530 
  111.6250   -18.6430    68.7420    10.3080     7.5200     8.8740    22.8600     2.1570 
  111.7500   -18.6880    64.8180    10.3430     7.5590     8.7120    22.8590     2.1650 
  111.8750   -18.7190    64.8360    10.4400     7.6320     8.6660    22.8610     2.1750 
  112.0000   -18.7620    64.4890    10.5410     7.7230     8.7660    22.8640     2.1850 
  112.1250   -18.8370    58.8020    10.5960     7.7990     8.9590    22.8840     2.1900 
  112.2500   -18.8980    54.1800    10.6200     7.8380     9.1470    22.9300     2.1900 
  112.3750   -18.9710    55.3090    10.6210     7.8440     9.0410    22.9970     2.1860 
  112.5000   -19.0390    58.5150    10.5990     7.8360     8.6430    23.0380     2.1810 
  112.6250   -19.0840    58.0060    10.5710     7.8510     8.3690    23.0430     2.1770 
  112.7500   -19.0950    56.2510    10.5880     7.9000     8.3330    23.0440     2.1790 
  112.8750   -19.0650    56.4710    10.6650     7.9710     8.5110    23.0540     2.1880 
  113.0000   -19.0050    58.0590    10.7550     8.0200     8.6920    23.0770     2.1980 
  113.1250   -18.8850    58.5330    10.6970     7.9610     8.5060    23.1180     2.2010 
  113.2500   -18.7160    59.2220    10.3380     7.7380     8.3030    23.1340     2.1920 
  113.3750   -18.5110    61.6080     9.6020     7.3120     8.0440    23.1440     2.1770 
  113.5000   -18.2630    65.4650     8.5680     6.7020     7.7360    23.1560     2.1670 
  113.6250   -18.0010    69.7720     7.5100     6.0230     7.2680    23.1690     2.1720 
  113.7500   -17.7450    73.4080     6.7620     5.4740     6.2040    23.1670     2.1890 
  113.8750   -17.5210    75.9100     6.5450     5.2080     5.1750    23.2140     2.2100 
  114.0000   -17.3490    77.6090     6.9790     5.3260     4.9010    23.3160     2.2360 
  114.1250   -17.2370    76.8090     8.1700     5.9350     5.8630    23.3770     2.2720 
  114.2500   -17.2410    72.6310     9.7920     6.8920     8.8560    23.3250     2.3110 
  114.3750   -17.3130    66.6020    11.3730     7.9730    13.0270    23.1790     2.3350 
  114.5000   -17.4680    60.5710    12.2810     8.8110    12.1010    23.0790     2.3260 
  114.6250   -17.6700    57.4300    11.9370     8.9570     9.6540    23.0640     2.2800 
  114.7500   -17.8900    57.0690    10.8040     8.5200     8.5890    23.0930     2.2220 
  114.8750   -18.1190    58.9850     9.4690     7.7910     8.2790    23.1240     2.1780 
  115.0000   -18.2880    63.1020     8.3930     7.0760     7.5700    23.1570     2.1640 
  115.1250   -18.4110    69.0470     7.8500     6.6010     6.4450    23.2340     2.1800 
  115.2500   -18.4720    73.6900     7.7550     6.3850     5.8460    23.3380     2.2040 
  115.3750   -18.5060    73.3930     8.0440     6.4140     6.1950    23.3650     2.2150 
  115.5000   -18.5530    67.9480     8.6140     6.6430     7.0950    23.2690     2.2070 
  115.6250   -18.6190    64.1930     9.2660     6.9890     7.7090    23.1810     2.1880 
  115.7500   -18.6940    65.3040     9.7310     7.3040     7.8550    23.1080     2.1720 
  115.8750   -18.7830    65.8600     9.8750     7.4910     7.7530    23.0570     2.1640 
  116.0000   -18.8850    60.8150     9.7220     7.5150     7.7430    22.9980     2.1590 
  116.1250   -19.0010    56.2040     9.4230     7.4040     7.8250    22.9670     2.1520 
  116.2500   -19.1060    59.8510     9.1890     7.2760     7.9160    22.9570     2.1370 
  116.3750   -19.1920    65.7240     9.1610     7.2330     7.9090    22.9630     2.1180 
  116.5000   -19.2100    66.1610     9.4610     7.3720     7.9120    22.9960     2.1020 
  116.6250   -19.1700    62.7470    10.2270     7.8070     8.1270    23.0670     2.1020 
  116.7500   -19.0710    60.1280    11.2860     8.4610     8.7380    23.1400     2.1230 
  116.8750   -18.9130    58.7350    12.3060     9.1540     9.6890    23.2200     2.1660 
  117.0000   -18.7550    60.0740    12.7870     9.5720    10.6080    23.3270     2.2240 
  117.1250   -18.5240    65.2800    12.1320     9.2880    11.0970    23.4330     2.2770 
  117.2500   -18.2710    69.9140    10.6350     8.3980    10.1710    23.4900     2.3100 
  117.3750   -17.9910    73.9600     8.8580     7.2190     8.2250    23.4510     2.3210 
  117.5000   -17.6710    79.4110     7.3630     6.1190     6.0640    23.3520     2.3170 
  117.6250   -17.3740    83.8030     6.5590     5.4020     5.1080    23.3280     2.3050 
  117.7500   -17.1110    83.8780     6.3590     5.0810     4.6240    23.4840     2.2920 
  117.8750   -16.8980    80.6280     6.6400     5.1150     4.9820    23.5450     2.2780 
  118.0000   -16.7460    75.3180     7.2100     5.4080     5.5660    23.3890     2.2610 
  118.1250   -16.6670    69.8750     7.8000     5.8050     6.0370    23.0760     2.2410 
  118.2500   -16.6430    70.8710     8.1720     6.1190     6.4120    22.7640     2.2210 
  118.3750   -16.6650    78.9310     8.2590     6.2730     6.6270    22.5270     2.2040 
  118.5000   -16.7420    87.6000     8.1790     6.2980     6.6800    22.3710     2.1920 
  118.6250   -16.8780    87.6890     8.1700     6.3060     6.1340    22.2840     2.1840 
  118.7500   -17.0450    80.6380     8.3640     6.4000     6.6080    22.1460     2.1790 
  118.8750   -17.2440    71.7700     8.7480     6.6050     7.3010    21.9660     2.1740 
  119.0000   -17.4220    66.8870     9.2170     6.8840     7.6550    21.8080     2.1720 
  119.1250   -17.6250    69.8520     9.5860     7.1520     7.6070    21.7100     2.1680 
  119.2500   -17.8200    74.4370     9.7510     7.3350     7.5010    21.6640     2.1600 
  119.3750   -18.0090    74.4520     9.7340     7.4160     7.4920    21.7000     2.1450 
  119.5000   -18.2050    68.9360     9.6380     7.4210     7.5870    21.7290     2.1250 
  119.6250   -18.3390    63.0780     9.5930     7.3900     7.6020    21.6850     2.1070 
  119.7500   -18.4600    61.1160     9.6330     7.3530     7.4010    21.6440     2.0940 
  119.8750   -18.5300    61.4960     9.7260     7.3200     7.2040    21.7060     2.0890 
  120.0000   -18.5920    62.3270     9.8270     7.2970     7.2050    21.8090     2.0900 
  120.1250   -18.6220    63.5130     9.9540     7.2920     7.4020    21.8490     2.0960 
  120.2500   -18.5960    63.9950    10.1680     7.3100     7.5450    21.8730     2.1010 
  120.3750   -18.5480    64.0030    10.4340     7.3480     7.5830    21.9550     2.1020 
  120.5000   -18.4660    63.9750    10.6230     7.3910     7.6710    22.1530     2.1030 
  120.6250   -18.3750    64.3720    10.5680     7.4180     7.7850    22.3130     2.1070 
  120.7500   -18.2600    64.7570    10.3020     7.4240     7.8800    22.3940     2.1150 
  120.8750   -18.1260    65.2990     9.9640     7.4190     7.8570    22.4170     2.1230 
  121.0000   -17.9860    66.7820     9.7170     7.4180     7.7920    22.4470     2.1280 
  121.1250   -17.8220    66.1150     9.6540     7.4400     7.8310    22.4720     2.1260 
  121.2500   -17.6640    63.4700     9.6770     7.4820     7.9010    22.5010     2.1200 
  121.3750   -17.5150    61.3930     9.6910     7.5310     7.9400    22.5160     2.1140 
  121.5000   -17.3540    61.0240     9.6490     7.5540     7.8810    22.5330     2.1110 
  121.6250   -17.1880    63.8550     9.4660     7.4790     7.7450    22.5430     2.1130 
  121.7500   -17.0070    69.1250     9.0770     7.2650     7.5880    22.5400     2.1220 
  121.8750   -16.8080    73.7230     8.4510     6.8920     7.4130    22.5470     2.1410 
  122.0000   -16.5750    76.1700     7.6480     6.3890     7.0130    22.6480     2.1730 
  122.1250   -16.3180    81.8020     6.8750     5.8530     6.1680    22.9150     2.2120 
  122.2500   -16.0790    90.5350     6.3490     5.4090     5.4390    23.3070     2.2430 
  122.3750   -15.8260    95.1170     6.1400     5.1330     5.1280    23.6150     2.2590 
