~V
VERS. 2.00: Ver 2.00
~W
STRT.M 50.0000:
STOP.M 281.0000:
STEP.M 0.1250:
NULL. -999.2500:
UWI. F11064:
~C
DEPT.M :
SP.MV :
GR.API :
RML.OHMM :
RI. :
RXO.OHMM :
CALI.CM :
DEN.GM/CC :
~A
# ...
   83.7500   -16.2440    88.0150     6.7620     5.1520     6.2820    24.6440     2.2390 
   83.8750   -16.3440    83.9390     6.8550     5.2420     5.8800    23.6420     2.2180 
   84.0000   -16.4350    79.7360     7.0370     5.3720     5.7470    22.7760     2.2140 
   84.1250   -16.5180    76.6470     7.5540     5.6770     5.8780    22.4280     2.2260 
   84.2500   -16.5650    76.2020     8.5820     6.2860     6.2460    22.7910     2.2370 
   84.3750   -16.5930    76.3080    10.2260     7.3120     7.0640    23.8660     2.2320 
   84.5000   -16.6280    74.4850    12.3830     8.7610     8.8790    25.1910     2.2120 
   84.6250   -16.6580    71.2310    14.5120    10.3830    13.1860    25.7800     2.1850 
   84.7500   -16.6420    70.2630    15.7330    11.5400    15.5400    25.1480     2.1670 
   84.8750   -16.5800    71.5780    15.4580    11.6960    13.1140    23.5740     2.1670 
   85.0000   -16.5030    72.2290    13.8400    10.8110     9.6120    22.2790     2.1820 
   85.1250   -16.4250    69.7330    11.7450     9.3960     7.8490    21.7540     2.1970 
   85.2500   -16.3370    66.8100    10.0760     8.1350     7.4210    21.5170     2.2010 
   85.3750   -16.2090    65.3360     9.0860     7.2620     7.2270    21.1760     2.1970 
   85.5000   -16.0370    65.3590     8.7030     6.7930     7.1730    20.8220     2.1910 
   85.6250   -15.8500    66.5280     8.7590     6.6740     7.2240    20.7070     2.1850 
   85.7500   -15.6510    67.1790     8.9600     6.7270     7.3510    20.7670     2.1790 
   85.8750   -15.4300    67.3040     9.1700     6.8610     7.3750    20.8230     2.1750 
   86.0000   -15.1990    67.1600     9.3280     7.0090     7.3920    20.7960     2.1760 
   86.1250   -14.9640    67.3190     9.4220     7.1160     7.4610    20.7640     2.1800 
   86.2500   -14.7150    66.6890     9.4770     7.1710     7.4100    20.7510     2.1820 
   86.3750   -14.4610    65.5440     9.5020     7.1750     7.2670    20.7470     2.1820 
   86.5000   -14.2070    65.6740     9.5040     7.1380     7.3680    20.7280     2.1800 
   86.6250   -13.9840    65.5540     9.4860     7.0660     7.4650    20.6650     2.1780 
   86.7500   -13.7970    63.2860     9.4660     6.9760     7.4850    20.5830     2.1750 
   86.8750   -13.6290    60.0270     9.4610     6.8840     7.4790    20.5080     2.1720 
   87.0000   -13.4970    58.4690     9.4780     6.8100     7.4460    20.4600     2.1690 
   87.1250   -13.3970    60.0320     9.5050     6.7690     7.2460    20.4430     2.1650 
   87.2500   -13.3000    64.1950     9.5180     6.7520     7.1140    20.4340     2.1630 
   87.3750   -13.1990    70.1180     9.5000     6.7450     7.0480    20.4290     2.1650 
   87.5000   -13.1160    74.3970     9.4440     6.7290     7.0250    20.4180     2.1700 
   87.6250   -13.0760    73.7440     9.3600     6.6880     6.9490    20.3910     2.1700 
   87.7500   -13.0810    70.7180     9.2770     6.6240     6.9400    20.3640     2.1660 
   87.8750   -13.1230    68.4600     9.2150     6.5490     6.9610    20.3480     2.1620 
   88.0000   -13.1620    67.7450     9.1800     6.4810     7.0780    20.3610     2.1580 
   88.1250   -13.2240    67.6580     9.1640     6.4370     7.3260    20.4280     2.1530 
   88.2500   -13.3470    66.4330     9.1530     6.4130     7.3660    20.5010     2.1460 
   88.3750   -13.5020    63.0850     9.1340     6.4010     7.3730    20.5510     2.1400 
   88.5000   -13.6480    58.9190     9.1000     6.3910     7.3700    20.5520     2.1390 
   88.6250   -13.7710    57.7830     9.0420     6.3760     7.3500    20.5090     2.1400 
   88.7500   -13.8730    59.9450     8.9580     6.3540     7.3260    20.4640     2.1400 
   88.8750   -13.9650    61.4870     8.8540     6.3220     7.2930    20.4240     2.1390 
   89.0000   -14.0430    61.0670     8.7450     6.2770     7.2130    20.4080     2.1420 
   89.1250   -14.1030    60.9260     8.6700     6.2310     6.9230    20.4470     2.1500 
   89.2500   -14.1730    61.5770     8.6620     6.2100     6.5880    20.5460     2.1570 
   89.3750   -14.2380    60.6440     8.7170     6.2270     6.3220    20.7160     2.1580 
   89.5000   -14.2780    58.5330     8.7630     6.2560     6.1440    20.9590     2.1560 
   89.6250   -14.2960    58.4060     8.6520     6.2100     6.0510    21.3610     2.1560 
   89.7500   -14.3010    60.6840     8.3350     6.0360     6.3470    21.9550     2.1580 
   89.8750   -14.3120    65.0590     7.8590     5.7420     7.0730    22.6320     2.1650 
   90.0000   -14.3250    70.1100     7.3490     5.3960     7.3130    23.1250     2.1790 
   90.1250   -14.3560    74.2410     6.9750     5.1100     6.2850    23.0850     2.1880 
   90.2500   -14.4120    76.0240     6.7980     4.9460     5.9720    22.6740     2.1850 
   90.3750   -14.5230    74.4440     6.8020     4.9090     6.1020    22.4210     2.1740 
   90.5000   -14.7130    70.5640     6.9200     4.9670     6.2630    22.5100     2.1690 
   90.6250   -14.9640    70.1400     7.0520     5.0690     6.2020    22.8450     2.1730 
   90.7500   -15.2610    73.4400     7.1130     5.1530     5.9680    23.0310     2.1830 
   90.8750   -15.5760    75.7770     7.0900     5.1980     5.7090    22.5920     2.1970 
   91.0000   -15.8940    74.5230     7.0260     5.2150     5.5830    21.8260     2.2160 
   91.1250   -16.1470    74.2970     6.9870     5.2290     5.5620    21.5330     2.2380 
   91.2500   -16.3300    75.4090     6.9720     5.2390     5.5960    21.6990     2.2570 
   91.3750   -16.4620    73.9680     6.9330     5.2160     5.7290    22.0720     2.2660 
   91.5000   -16.5510    70.4600     6.8110     5.1280     6.0130    22.5560     2.2690 
   91.6250   -16.5520    71.4090     6.5580     4.9430     6.2050    23.3650     2.2770 
   91.7500   -16.4950    78.4100     6.2230     4.6940     6.2430    24.5100     2.2930 
   91.8750   -16.4200    86.5990     5.8710     4.4210     6.1940    25.7620     2.3110 
   92.0000   -16.3410    91.2330     5.5690     4.1700     6.2340    26.6410     2.3230 
   92.1250   -16.2800    91.4060     5.3830     3.9850     6.1950    26.8300     2.3270 
   92.2500   -16.2270    90.4850     5.3090     3.8750     5.9820    26.4770     2.3250 
   92.3750   -16.1790    89.6700     5.3430     3.8500     5.6470    25.5460     2.3130 
   92.5000   -16.1190    88.6450     5.4850     3.9170     5.3440    24.3170     2.2900 
   92.6250   -16.0530    86.8170     5.7610     4.0970     5.2570    23.3380     2.2620 
   92.7500   -15.9680    83.3930     6.1490     4.3670     5.2040    22.6550     2.2380 
   92.8750   -15.8700    78.4790     6.6290     4.7020     5.1750    22.0610     2.2200 
   93.0000   -15.7630    75.8790     7.1540     5.0630     5.2420    21.4870     2.2030 
   93.1250   -15.6350    74.9360     7.6340     5.3920     5.3970    21.1440     2.1880 
   93.2500   -15.4930    71.3610     7.9880     5.6470     5.5320    20.9890     2.1760 
   93.3750   -15.3320    67.0450     8.1500     5.7960     5.5970    20.9620     2.1700 
   93.5000   -15.1560    65.9390     8.0920     5.8210     5.6400    21.0780     2.1700 
   93.6250   -14.9880    66.0260     7.8930     5.7530     5.7110    21.3640     2.1730 
   93.7500   -14.8250    62.8860     7.8380     5.7470     5.8690    21.8560     2.1800 
   93.8750   -14.6860    59.7710     8.2440     5.9870     6.1650    22.4010     2.1910 
   94.0000   -14.5980    59.7290     9.4180     6.6700     6.8330    23.0010     2.2030 
   94.1250   -14.5900    61.5230    11.7040     8.0860     9.1830    23.7930     2.2180 
   94.2500   -14.6180    61.7980    14.7170    10.1210    15.9200    24.8680     2.2370 
   94.3750   -14.6700    60.6050    17.6360    12.3580    29.9170    26.0750     2.2440 
   94.5000   -14.7850    60.6540    19.1290    13.8890    38.5100    26.9010     2.2180 
   94.6250   -14.9630    62.9100    17.8180    13.5070    30.1930    26.6190     2.1600 
   94.7500   -15.1530    64.4800    14.8410    11.7320    20.6100    25.3430     2.1080 
   94.8750   -15.3020    64.0530    11.6870     9.5490    12.4960    23.8340     2.0820 
