~V
VERS. 2.00: Ver 2.00
~W
STRT.M 52.0000:
STOP.M 287.0000:
STEP.M 0.1250:
NULL. -999.2500:
UWI. F11078:
~C
DEPT.M :
GR.API :
RML.OHMM :
RI. :
RXO.OHMM :
CALI.CM :
DEN.GM/CC :
SP.MV :
~A
# ...
  198.2500    73.9070   134.5110   124.6400   112.5300    22.6280     2.2510   -28.8690 
  198.3750    70.2940   129.3080   121.1890   109.4320    22.6100     2.2440   -28.9910 
  198.5000    69.4070   119.5570   113.1210    93.0900    22.5860     2.2300   -29.0700 
  198.6250    71.4320   108.1980   102.9840    76.4930    22.5630     2.2130   -29.1400 
  198.7500    74.5570    97.1790    92.7260    66.8070    22.5570     2.2000   -29.1400 
  198.8750    77.1030    87.9750    84.0570    63.1790    22.5800     2.1930   -29.0470 
  199.0000    77.0200    81.6150    78.3280    63.7760    22.6000     2.1930   -28.8990 
  199.1250    74.7240    77.2320    74.8730    64.5250    22.5960     2.1990   -28.7540 
  199.2500    73.7180    73.8190    72.7170    65.5240    22.5960     2.2070   -28.5960 
  199.3750    74.8240    70.3150    70.6280    65.9480    22.6090     2.2160   -28.4060 
  199.5000    75.8680    65.9150    67.3820    60.3440    22.6220     2.2300   -28.1830 
  199.6250    76.5400    60.8810    63.0150    52.0600    22.6080     2.2490   -27.9480 
  199.7500    78.3060    55.8440    58.1760    43.5350    22.6250     2.2710   -27.7360 
  199.8750    81.5290    51.4910    53.6810    38.5090    22.7220     2.2920   -27.5470 
  200.0000    83.2080    48.4990    50.3280    38.1460    22.8040     2.3050   -27.3430 
  200.1250    82.1400    46.7770    48.1920    37.2680    22.8550     2.3080   -27.1450 
  200.2500    80.6620    46.1750    47.2120    36.5140    22.8710     2.3060   -27.0130 
  200.3750    80.4350    46.4390    47.1690    36.1080    22.8810     2.3040   -26.9680 
  200.5000    81.3400    47.4040    47.8870    39.0110    22.8840     2.3080   -26.9630 
  200.6250    82.5110    48.8420    49.0830    43.2790    22.8690     2.3160   -26.9680 
  200.7500    84.1040    50.8070    50.7380    46.0760    22.8420     2.3220   -26.9630 
  200.8750    83.7740    53.4580    52.9420    50.9330    22.8400     2.3200   -26.9610 
  201.0000    79.2020    57.1580    56.0060    59.1070    22.8710     2.3070   -26.9500 
  201.1250    73.2010    61.8970    59.9750    65.2410    22.8870     2.2870   -26.9180 
  201.2500    69.5670    67.7030    64.9020    67.7460    22.9450     2.2660   -26.8800 
  201.3750    69.5090    74.5520    70.7580    68.6410    23.1380     2.2490   -26.8930 
  201.5000    70.2530    82.5780    77.5910    71.2780    23.4050     2.2390   -26.9780 
  201.6250    68.9550    91.6410    85.2120    73.7960    23.6170     2.2360   -27.1110 
  201.7500    65.8020   101.8240    93.7450    75.7420    23.6820     2.2380   -27.2760 
  201.8750    62.3560   113.1430   103.4180    78.8330    23.6570     2.2460   -27.4160 
  202.0000    61.4640   125.2990   114.3560    85.2340    23.6910     2.2550   -27.5260 
  202.1250    62.1310   137.0240   125.5090   102.6220    23.8140     2.2620   -27.6490 
  202.2500    63.7760   146.7720   135.3470   125.1160    23.9130     2.2650   -27.7630 
  202.3750    64.6410   153.0320   142.1920   139.7380    23.9480     2.2660   -27.8200 
  202.5000    63.8130   154.2710   144.2540   133.4040    23.9210     2.2670   -27.7990 
  202.6250    65.0310   151.6370   142.4650   125.5450    23.8410     2.2690   -27.6870 
  202.7500    68.6750   146.2550   137.9080   121.3600    23.7250     2.2710   -27.4860 
  202.8750    71.7090   139.3340   131.7550   117.4070    23.6320     2.2720   -27.2850 
  203.0000    71.0730   131.9040   124.9210   113.9520    23.6180     2.2710   -27.1670 
  203.1250    68.7620   124.8740   118.2920   104.3370    23.6260     2.2710   -27.0770 
  203.2500    67.1400   118.8500   112.5260    88.3910    23.6400     2.2760   -26.9910 
  203.3750    66.0960   114.3160   108.1910    81.0020    23.6310     2.2840   -26.8800 
  203.5000    66.4580   111.8190   105.9160    87.8340    23.6240     2.2920   -26.7560 
  203.6250    68.0460   110.8700   105.3400   103.3370    23.6190     2.2950   -26.6970 
  203.7500    69.1710   110.8330   105.9640   107.4200    23.6080     2.2910   -26.7260 
  203.8750    69.1200   110.7890   106.9150   102.9650    23.5620     2.2820   -26.7680 
  204.0000    68.4680   109.5790   106.9270    98.1530    23.4290     2.2710   -26.7670 
  204.1250    67.8820   106.9240   105.4070    92.6970    23.2440     2.2610   -26.7680 
  204.2500    68.4650   103.0860   102.3850    84.7960    23.0460     2.2530   -26.7930 
  204.3750    70.9370    98.7410    98.4590    77.6060    22.9190     2.2490   -26.8370 
  204.5000    73.5070    94.7290    94.5480    75.8800    22.9780     2.2470   -26.8960 
  204.6250    74.1090    91.4240    91.2430    78.7520    23.1110     2.2470   -26.9180 
  204.7500    73.2920    88.7910    88.5970    82.1960    23.0780     2.2490   -26.8880 
  204.8750    73.7460    86.5870    86.3890    82.9560    22.8180     2.2530   -26.8930 
  205.0000    76.1130    84.5820    84.3580    80.8280    22.5980     2.2620   -26.9320 
  205.1250    77.5230    82.6950    82.3560    76.8550    22.4870     2.2720   -26.9120 
  205.2500    76.2930    81.1000    80.4930    72.9200    22.4600     2.2760   -26.8350 
  205.3750    73.7510    80.0850    79.0450    71.5790    22.4460     2.2690   -26.7430 
  205.5000    73.0030    80.0920    78.5150    73.9440    22.4320     2.2510   -26.5990 
  205.6250    72.8940    81.0970    79.0220    76.4070    22.4390     2.2290   -26.4480 
  205.7500    72.5780    83.0100    80.5840    78.4670    22.5350     2.2110   -26.3290 
  205.8750    72.5490    85.5690    83.0070    81.3200    22.8030     2.2000   -26.2140 
  206.0000    72.0460    88.3210    85.8510    84.7080    23.3090     2.1960   -26.1430 
  206.1250    72.3150    90.6570    88.3640    86.9280    23.7460     2.1940   -26.1460 
  206.2500    72.9590    92.1150    89.9810    86.4000    23.9450     2.1960   -26.1960 
  206.3750    71.9680    92.4400    90.3730    83.2820    23.9940     2.2020   -26.2700 
  206.5000    70.4890    91.6100    89.4260    79.0000    24.0000     2.2140   -26.4040 
  206.6250    71.4380    90.3710    87.8730    75.1470    23.9920     2.2270   -26.5820 
  206.7500    73.3510    89.4410    86.4640    69.6840    23.9670     2.2390   -26.7450 
  206.8750    72.0270    89.4490    85.9200    66.6830    23.9360     2.2480   -26.8430 
  207.0000    68.3690    90.8890    86.9110    69.8190    23.9150     2.2530   -26.8850 
  207.1250    67.3410    93.2890    89.0970    78.0270    23.9580     2.2570   -26.9080 
  207.2500    68.9030    96.0250    91.8910    87.9640    24.0430     2.2600   -26.9220 
  207.3750    70.8380    98.3690    94.4630    89.5120    24.0470     2.2600   -26.9430 
  207.5000    71.5790    99.5670    95.8450    82.2150    23.9000     2.2570   -26.9680 
  207.6250    71.9040    99.7000    95.9760    76.3430    23.7330     2.2540   -26.9520 
  207.7500    72.6450    99.1410    95.2330    75.8180    23.6600     2.2520   -26.9080 
  207.8750    73.2730    98.4520    94.2980    76.7940    23.6240     2.2520   -26.8620 
  208.0000    72.3510    98.2150    93.9320    76.8690    23.5850     2.2510   -26.8010 
  208.1250    70.6290    98.5080    94.2440    77.0080    23.6270     2.2460   -26.7590 
  208.2500    69.0990    99.1060    94.9570    78.2070    23.7060     2.2390   -26.7400 
  208.3750    67.6580    99.6350    95.6330    79.1500    23.7510     2.2360   -26.7060 
  208.5000    65.3090    99.6630    95.7860    78.2980    23.7560     2.2400   -26.6490 
  208.6250    63.7430    99.1600    95.3470    76.5350    23.7560     2.2480   -26.5600 
  208.7500    64.7760    98.2790    94.4460    72.9380    23.7550     2.2540   -26.4150 
  208.8750    67.6500    97.2850    93.3480    66.0960    23.7460     2.2520   -26.2580 
  209.0000    69.6980    96.4720    92.3660    62.3440    23.7220     2.2420   -26.0940 
  209.1250    69.6310    95.9530    91.6840    62.5090    23.6900     2.2300   -25.8840 
  209.2500    68.3920    95.7400    91.3520    64.4650    23.6620     2.2200   -25.6510 
  209.3750    66.4400    95.8170    91.3310    68.3020    23.6220     2.2130   -25.4420 
