~V
VERS. 2.00: Ver 2.00
~W
STRT.M 55.0000:
STOP.M 249.0000:
STEP.M 0.1250:
NULL. -999.2500:
UWI. F11017:
~C
DEPT.M :
GR.API :
RML.OHMM :
RI. :
RXO.OHMM :
CALI.CM :
DEN.GM/CC :
SP.MV :
~A
# ...
  156.2500    77.3690     7.5480     5.6450     4.7900    24.1970     2.3170    -5.8360 
  156.3750    75.6880     9.5380     7.0820     6.0710    24.1180     2.3000    -5.7200 
  156.5000    71.0440    11.9730     9.0650     8.4000    24.0680     2.2820    -5.7960 
  156.6250    65.2560    14.4200    11.3690    12.1960    24.0840     2.2650    -5.9770 
  156.7500    63.8680    16.2970    13.4530    15.6980    24.1140     2.2510    -6.1450 
  156.8750    65.9390    17.1360    14.7780    17.5190    24.1330     2.2440    -6.2630 
  157.0000    65.0390    16.7040    14.9310    17.6090    24.1770     2.2430    -6.3240 
  157.1250    61.4410    15.0130    13.7050    16.3660    24.2490     2.2510    -6.3260 
  157.2500    60.7530    12.7770    11.7650    14.0580    24.3050     2.2660    -6.2890 
  157.3750    61.9340    10.4890     9.6360    11.0620    24.3430     2.2830    -6.2120 
  157.5000    63.4460     8.4940     7.6980     8.3230    24.3700     2.2980    -6.1090 
  157.6250    69.5020     7.1030     6.2570     6.4150    24.3400     2.3110    -6.0080 
  157.7500    77.8620     6.3690     5.3540     4.9500    24.2530     2.3230    -5.9430 
  157.8750    81.0930     6.3810     5.0480     4.2570    24.1150     2.3360    -5.9320 
  158.0000    76.8450     7.1850     5.3800     4.5280    23.9620     2.3470    -5.9670 
  158.1250    72.0290     8.8220     6.4490     6.1510    23.8870     2.3510    -6.0370 
  158.2500    71.3900    10.8660     7.9990     9.1410    23.9450     2.3400    -6.1130 
  158.3750    71.4990    12.8200     9.7060    13.1110    24.1050     2.3180    -6.1840 
  158.5000    69.9170    14.0830    11.0970    19.3700    24.3080     2.2910    -6.2460 
  158.6250    68.3270    13.9670    11.5040    23.4460    24.4530     2.2710    -6.2920 
  158.7500    67.9410    12.7170    10.8990    19.1240    24.4980     2.2630    -6.3150 
  158.8750    67.6780    10.8900     9.6290    11.9810    24.4230     2.2680    -6.3100 
  159.0000    66.4590     9.1400     8.2380     8.4020    24.3080     2.2790    -6.2940 
  159.1250    66.6620     7.9460     7.1610     7.0100    24.2160     2.2890    -6.2860 
  159.2500    69.9180     7.2470     6.4400     6.3890    24.1430     2.2960    -6.2960 
  159.3750    75.7850     6.9020     6.0110     5.7400    24.0980     2.3020    -6.3370 
  159.5000    80.0720     6.7740     5.7930     5.2570    24.0950     2.3090    -6.4030 
  159.6250    78.2220     6.8010     5.7490     5.0140    24.1410     2.3170    -6.4880 
  159.7500    74.2700     6.9520     5.8410     4.9040    24.1910     2.3240    -6.5930 
  159.8750    71.7970     7.2520     6.0820     4.9970    24.2540     2.3280    -6.7300 
  160.0000    72.3360     7.7200     6.4850     5.3450    24.3530     2.3280    -6.8870 
  160.1250    74.5070     8.3620     7.0630     5.8740    24.4010     2.3220    -7.0320 
  160.2500    75.7090     9.0720     7.7300     6.6290    24.4080     2.3140    -7.1530 
  160.3750    73.2160     9.7370     8.3880     7.5990    24.4070     2.3060    -7.2420 
  160.5000    68.6650    10.2400     8.9200     8.4770    24.4120     2.3000    -7.3120 
  160.6250    68.4060    10.4580     9.1880     9.1820    24.4090     2.2990    -7.3690 
  160.7500    70.4560    10.4480     9.2150     9.2940    24.4100     2.3010    -7.4130 
  160.8750    71.2590    10.3070     9.0740     8.9530    24.4190     2.3050    -7.4420 
  161.0000    69.4610    10.1680     8.8840     8.5040    24.4180     2.3100    -7.4580 
  161.1250    67.8020    10.1930     8.7920     8.3930    24.4080     2.3150    -7.4810 
  161.2500    68.3070    10.4430     8.8690     8.5540    24.4090     2.3200    -7.5210 
  161.3750    70.8320    10.9440     9.1530     8.8730    24.4130     2.3220    -7.5760 
  161.5000    72.1370    11.6870     9.6560     9.3160    24.4080     2.3220    -7.6260 
  161.6250    69.1620    12.6630    10.3970     9.9950    24.4110     2.3190    -7.6640 
  161.7500    65.0890    13.7620    11.3010    10.9320    24.4180     2.3140    -7.7000 
  161.8750    63.9200    14.8930    12.3060    12.2270    24.4150     2.3070    -7.7420 
  162.0000    66.6510    15.9780    13.3480    13.8850    24.4070     2.2990    -7.8080 
  162.1250    68.1110    17.0040    14.3930    15.4780    24.4110     2.2940    -7.9190 
  162.2500    67.5570    18.1170    15.4990    16.6060    24.4130     2.2910    -8.0540 
  162.3750    67.5810    19.5410    16.8170    17.3600    24.3990     2.2910    -8.1980 
  162.5000    69.2890    21.4680    18.5220    18.2890    24.3740     2.2930    -8.3620 
  162.6250    70.5160    23.9060    20.7440    20.3930    24.3390     2.2910    -8.5590 
  162.7500    68.3760    26.2930    23.1380    24.2080    24.2980     2.2850    -8.7830 
  162.8750    63.5050    27.9130    25.1510    30.1500    24.2660     2.2740    -9.0170 
  163.0000    57.9130    28.0640    26.0950    39.4970    24.2600     2.2610    -9.2370 
  163.1250    56.1010    26.6450    25.1810    39.3920    24.2640     2.2500    -9.4130 
  163.2500    59.1620    24.1560    22.8790    29.0350    24.2680     2.2470    -9.5530 
  163.3750    63.0710    21.6640    20.0080    19.5080    24.2660     2.2510    -9.6710 
  163.5000    64.9290    20.5300    17.4360    14.6520    24.2690     2.2610    -9.7750 
  163.6250    66.8970    18.8090    15.8260    12.4430    24.2600     2.2730    -9.8780 
  163.7500    70.1160    18.3050    15.1310    11.6940    24.2380     2.2860    -9.9830 
  163.8750    73.4070    18.8430    15.2810    11.9440    24.2160     2.2960   -10.1130 
  164.0000    75.6300    20.3550    16.2450    13.4140    24.1930     2.3020   -10.2950 
  164.1250    76.9060    23.2910    18.3460    15.7690    24.1460     2.3040   -10.5650 
  164.2500    75.0070    28.1350    21.9410    19.8870    24.0890     2.3010   -10.9270 
  164.3750    68.6830    35.9290    27.9520    28.4190    24.0670     2.2930   -11.3720 
  164.5000    60.1620    48.1060    37.8150    45.2550    24.1340     2.2810   -11.8650 
  164.6250    54.1410    67.5750    54.5050    80.1310    24.2620     2.2650   -12.3650 
  164.7500    52.8070    94.5240    78.3560   129.2120    24.3410     2.2500   -12.8460 
  164.8750    55.5830   128.1560   108.5600   163.8160    24.3670     2.2370   -13.3030 
  165.0000    58.8030   165.0460   141.7190   181.7140    24.3610     2.2280   -13.7330 
  165.1250    58.3650   197.5710   170.5900   212.6870    24.3530     2.2240   -14.1240 
  165.2500    56.1330   218.7910   189.3550   230.1170    24.3530     2.2230   -14.4710 
  165.3750    55.3060   225.8650   196.1010   227.8110    24.3520     2.2250   -14.7690 
  165.5000    56.2200   221.3840   193.0060   212.0890    24.3530     2.2290   -15.0350 
  165.6250    57.2040   210.3880   183.8920   192.9040    24.3750     2.2340   -15.2700 
  165.7500    58.7760   198.7660   173.8540   179.6680    24.3940     2.2390   -15.4780 
  165.8750    59.3370   189.3850   165.5810   169.3050    24.3850     2.2420   -15.6650 
  166.0000    57.4600   184.1260   160.9170   155.9130    24.3570     2.2430   -15.8360 
  166.1250    55.0740   184.9870   161.8360   144.6890    24.3270     2.2410   -15.9930 
  166.2500    53.6390   191.1390   167.7330   141.4980    24.3040     2.2350   -16.1570 
  166.3750    53.6920   201.4520   177.7110   150.6850    24.3040     2.2270   -16.3270 
  166.5000    53.9660   213.6730   189.8280   180.9570    24.3580     2.2200   -16.4890 
  166.6250    52.1880   224.0760   200.8070   202.4760    24.4170     2.2160   -16.6310 
  166.7500    48.7640   229.8220   207.8810   214.9290    24.4420     2.2160   -16.7660 
  166.8750    47.4530   229.8820   209.8140   213.2490    24.4380     2.2170   -16.8920 
  167.0000    49.6120   225.4270   207.2290   207.7100    24.4160     2.2170   -16.9930 
  167.1250    50.4490   219.4990   202.4020   189.7470    24.3540     2.2170   -17.0510 
  167.2500    49.5020   215.4070   198.5640   170.2960    24.3010     2.2170   -17.0590 
  167.3750    50.4480   214.4940   197.3020   156.6560    24.2850     2.2190   -17.0260 
