~V
VERS. 2.00: Ver 2.00
~W
STRT.M 57.0000:
STOP.M 280.0000:
STEP.M 0.1250:
NULL. -999.2500:
UWI. F11041:
~C
DEPT.M :
SP.MV :
GR.API :
RML.OHMM :
RI. :
RXO.OHMM :
CALI.CM :
DEN.GM/CC :
~A
# ...
   90.7500    -3.6280    77.3140     8.1670     6.4040     7.2570    23.6660     2.2280 
   90.8750    -3.6760    75.8580     8.1980     6.3830     7.4480    23.6020     2.2320 
   91.0000    -3.7570    72.2920     8.3270     6.4420     7.6620    23.4870     2.2270 
   91.1250    -3.8900    67.3860     8.4960     6.5560     7.7540    23.4010     2.2170 
   91.2500    -4.0540    64.5120     8.6280     6.6680     7.7560    23.3810     2.2100 
   91.3750    -4.2400    66.0570     8.6940     6.7500     7.7440    23.4020     2.2060 
   91.5000    -4.4240    71.5520     8.7060     6.8030     7.6860    23.3890     2.2010 
   91.6250    -4.5460    75.4770     8.7480     6.8550     7.6140    23.3320     2.1910 
   91.7500    -4.5980    73.8380     8.9050     6.9450     7.6360    23.2950     2.1810 
   91.8750    -4.6140    70.0060     9.2260     7.1030     7.7610    23.3230     2.1760 
   92.0000    -4.5660    68.0710     9.7130     7.3530     7.8670    23.4300     2.1760 
   92.1250    -4.4500    68.5580    10.3050     7.7160     8.2690    23.6140     2.1780 
   92.2500    -4.3340    68.8090    10.8340     8.1230     9.5660    23.7820     2.1790 
   92.3750    -4.2230    69.6790    11.1270     8.4660    12.1430    23.8750     2.1810 
   92.5000    -4.1210    71.0420    11.0200     8.6040    14.5060    23.8920     2.1850 
   92.6250    -4.0390    70.7050    10.3860     8.3840    13.6330    23.8570     2.1920 
   92.7500    -3.9600    69.5430     9.4620     7.9050    10.8090    23.7490     2.2010 
   92.8750    -3.8400    68.6450     8.5110     7.3240     8.6810    23.5880     2.2080 
   93.0000    -3.6830    67.0790     7.7580     6.8000     7.8650    23.4860     2.2110 
   93.1250    -3.4720    65.0320     7.3590     6.4650     7.5810    23.5420     2.2050 
   93.2500    -3.1990    64.2800     7.2110     6.2950     7.2430    23.7300     2.1920 
   93.3750    -2.8900    65.2190     7.1890     6.2370     7.0110    23.8960     2.1800 
   93.5000    -2.5440    65.9600     7.1700     6.2260     6.9900    23.8520     2.1800 
   93.6250    -2.1700    66.3370     7.0560     6.2080     7.0830    23.6640     2.1980 
   93.7500    -1.7630    69.5970     6.8460     6.1520     6.8870    23.6310     2.2240 
   93.8750    -1.3380    76.7570     6.5850     6.0470     6.6000    23.7600     2.2480 
   94.0000    -0.8790    84.3260     6.3430     5.9020     6.5640    23.9190     2.2670 
   94.1250    -0.3650    87.6670     6.1860     5.7390     6.6350    24.0500     2.2780 
   94.2500     0.2070    89.3780     6.0990     5.5870     6.4980    24.1440     2.2860 
   94.3750     0.8200    93.1230     6.0250     5.4500     6.5200    24.2450     2.2960 
   94.5000     1.4270    97.1650     5.8900     5.3050     6.4920    24.3820     2.3090 
   94.6250     1.9880    97.8910     5.6250     5.1110     6.3680    24.4920     2.3250 
   94.7500     2.4550    97.4720     5.2810     4.8710     6.1870    24.5490     2.3460 
   94.8750     2.7840    98.3400     4.9470     4.6310     5.9760    24.6310     2.3690 
   95.0000     2.9880    98.0310     4.7220     4.4460     5.7260    24.7400     2.3910 
   95.1250     3.0580    94.5700     4.6990     4.3840     5.5890    24.8630     2.4020 
   95.2500     2.9930    92.3920     4.8500     4.4460     5.8310    24.9080     2.4050 
   95.3750     2.8190    93.6680     5.1220     4.6130     6.4390    24.8450     2.4040 
   95.5000     2.5840    95.2180     5.4420     4.8480     7.3970    24.7010     2.3940 
   95.6250     2.3300    93.8280     5.7400     5.1080     6.9390    24.6440     2.3690 
   95.7500     2.0580    91.9950     6.0130     5.3660     6.4480    24.4930     2.3370 
   95.8750     1.7590    89.4230     6.3020     5.6220     6.4380    24.2250     2.3120 
   96.0000     1.4350    85.3760     6.6190     5.8680     6.7210    23.9940     2.3010 
   96.1250     1.1310    80.3790     6.8970     6.0560     6.7120    23.9690     2.3030 
   96.2500     0.8690    78.6260     7.0260     6.1340     6.7520    23.9160     2.3090 
   96.3750     0.6450    80.5660     6.9260     6.0650     7.0290    23.8890     2.3130 
   96.5000     0.4320    84.5460     6.6160     5.8600     6.9750    24.0650     2.3190 
   96.6250     0.2110    87.9030     6.2570     5.6040     6.4380    24.4660     2.3290 
   96.7500     0.0320    89.2630     6.0700     5.4280     6.0260    24.7300     2.3340 
   96.8750    -0.1060    88.9660     6.1930     5.4270     6.1110    24.7100     2.3220 
   97.0000    -0.2530    85.9740     6.6930     5.6640     6.3870    24.4590     2.2950 
   97.1250    -0.4850    80.8450     7.5870     6.1910     6.7790    24.0890     2.2650 
   97.2500    -0.7820    76.6760     8.6350     6.8860     7.1730    23.8840     2.2420 
   97.3750    -1.1190    75.0140     9.5920     7.6010     7.5740    23.9460     2.2300 
   97.5000    -1.4630    75.9520    10.2260     8.1660     7.8470    24.0320     2.2260 
   97.6250    -1.7910    77.1910    10.3390     8.4050     7.9100    24.0140     2.2240 
   97.7500    -2.1200    75.3290    10.0550     8.3420     7.8080    23.9630     2.2180 
   97.8750    -2.3980    71.5390     9.5300     8.0530     7.6400    24.0200     2.2090 
   98.0000    -2.5870    69.0110     8.9330     7.6500     7.3600    24.0280     2.2020 
   98.1250    -2.6810    69.7880     8.4200     7.2570     7.1460    23.9480     2.2040 
   98.2500    -2.7040    71.3310     8.0530     6.9560     7.0920    23.8810     2.2100 
   98.3750    -2.6680    72.4010     7.8420     6.7740     7.1680    23.8370     2.2160 
   98.5000    -2.5950    72.3680     7.7600     6.7040     7.2310    23.7340     2.2200 
   98.6250    -2.5040    71.5850     7.7880     6.7230     7.3160    23.5350     2.2230 
   98.7500    -2.4250    71.1810     7.8980     6.7880     7.4240    23.3550     2.2250 
   98.8750    -2.3730    70.2610     8.0820     6.8870     7.5370    23.3280     2.2260 
   99.0000    -2.3580    68.8450     8.3140     7.0110     7.6500    23.3550     2.2230 
   99.1250    -2.3710    70.2830     8.5470     7.1430     7.7450    23.3750     2.2180 
   99.2500    -2.4200    73.5640     8.7220     7.2610     7.8430    23.3790     2.2160 
   99.3750    -2.5060    76.7520     8.7850     7.3380     7.8480    23.3770     2.2160 
   99.5000    -2.6220    79.4700     8.7030     7.3490     7.8230    23.3800     2.2160 
   99.6250    -2.7690    80.1330     8.4950     7.2810     7.8340    23.3890     2.2180 
   99.7500    -2.9310    78.2270     8.2840     7.1790     7.7650    23.3590     2.2220 
   99.8750    -3.1070    76.0960     8.1720     7.0910     7.3820    23.2840     2.2280 
  100.0000    -3.3070    75.9740     8.2180     7.0610     6.8790    23.2190     2.2320 
  100.1250    -3.5380    75.0020     8.4190     7.1210     6.8420    23.2400     2.2330 
  100.2500    -3.7870    73.4800     8.6620     7.2400     7.2580    23.2980     2.2300 
  100.3750    -4.0550    72.5130     8.8610     7.3780     7.6390    23.3460     2.2230 
  100.5000    -4.3460    70.1070     8.9770     7.5040     7.8350    23.3650     2.2120 
  100.6250    -4.6460    65.8650     8.9980     7.5890     7.9720    23.3720     2.1950 
  100.7500    -4.9210    63.7520     8.9600     7.6200     8.0360    23.3750     2.1760 
  100.8750    -5.1680    64.9440     8.8860     7.5930     8.0400    23.3840     2.1610 
  101.0000    -5.3610    67.0500     8.7970     7.5240     8.0150    23.4230     2.1560 
  101.1250    -5.4790    67.0830     8.7130     7.4480     7.9240    23.4930     2.1570 
  101.2500    -5.5270    65.0810     8.6510     7.3910     7.8330    23.5150     2.1610 
  101.3750    -5.4870    63.1350     8.6240     7.3560     7.7830    23.5400     2.1670 
  101.5000    -5.3690    62.5250     8.6290     7.3300     7.7600    23.5870     2.1770 
  101.6250    -5.1920    63.7290     8.6200     7.2770     7.7100    23.5950     2.1910 
  101.7500    -5.0060    66.8580     8.5320     7.1790     7.6290    23.5300     2.2050 
  101.8750    -4.7880    70.5770     8.3210     7.0250     7.4490    23.4850     2.2170 
