~V
VERS. 2.00: Ver 2.00
~W
STRT.M 50.0000:
STOP.M 276.0000:
STEP.M 0.1250:
NULL. -999.2500:
UWI. F11044:
~C
DEPT.M :
SP.MV :
GR.API :
RML.OHMM :
RI. :
RXO.OHMM :
CALI.CM :
DEN.GM/CC :
~A
# ...
  263.7500    -2.9310    54.7980     6.9860     5.6420     6.6300    24.8310     2.4280 
  263.8750    -3.0230    55.4380     7.0850     5.7590     6.4020    24.8790     2.4320 
  264.0000    -3.1400    55.8930     7.0940     5.8250     6.3980    24.9090     2.4210 
  264.1250    -3.1930    54.7660     7.0140     5.8240     6.4550    24.9160     2.4020 
  264.2500    -3.2100    52.7290     6.9190     5.8000     6.6910    24.9100     2.3850 
  264.3750    -3.2810    51.6210     6.8750     5.8020     7.1730    24.8900     2.3790 
  264.5000    -3.4030    52.3730     6.9210     5.8660     7.8860    24.8490     2.3870 
  264.6250    -3.5000    53.3300     7.0660     6.0090     8.5090    24.8130     2.4070 
  264.7500    -3.5150    53.9580     7.2540     6.1900     8.5850    24.8090     2.4250 
  264.8750    -3.4670    55.0190     7.4380     6.3740     8.5970    24.8240     2.4330 
  265.0000    -3.3710    55.6020     7.5860     6.5330     8.7530    24.8270     2.4290 
  265.1250    -3.2900    54.8700     7.6740     6.6460     8.7960    24.8080     2.4170 
  265.2500    -3.1880    54.8550     7.7160     6.7260     8.6720    24.7970     2.4080 
  265.3750    -3.0420    55.4400     7.7250     6.7850     8.4020    24.7940     2.4060 
  265.5000    -2.9090    55.1510     7.7160     6.8320     8.0130    24.7940     2.4100 
  265.6250    -2.7500    54.3310     7.6960     6.8700     7.7160    24.7940     2.4150 
  265.7500    -2.6240    54.6980     7.6750     6.9040     7.6370    24.7940     2.4170 
  265.8750    -2.5450    56.4660     7.6550     6.9390     7.6430    24.7940     2.4140 
  266.0000    -2.5180    56.8790     7.6390     6.9760     7.6450    24.7920     2.4090 
  266.1250    -2.5240    56.8790     7.6280     7.0110     7.6560    24.7400     2.4050 
  266.2500    -2.5470    56.8790     7.6200     7.0340     7.6950    24.6450     2.4030 
  266.3750    -2.6120    56.8790     7.6100     7.0330     7.7710    24.6060     2.4010 
  266.5000    -2.6330    56.8790     7.5920     7.0060     7.8530    24.7080     2.3990 
  266.6250    -2.6250    56.8790     7.5610     6.9570     7.9410    24.7930     2.3960 
  266.7500    -2.6010    56.8790     7.5210     6.9100     8.1110    24.8330     2.3980 
  266.8750    -2.5480    56.8790     7.4850     6.8880     8.1710    24.8350     2.4040 
  267.0000    -2.4980    56.8790     7.4720     6.9070     7.8240    24.8250     2.4130 
  267.1250    -2.4620    56.8790     7.5050     6.9780     7.6610    24.8370     2.4180 
  267.2500    -2.4310    56.8790     7.5810     7.0810     7.7070    24.8430     2.4170 
  267.3750    -2.3860    56.8790     7.6940     7.2010     7.9610    24.8460     2.4130 
  267.5000    -2.3510    56.8790     7.8390     7.3350     8.4810    24.8460     2.4120 
  267.6250    -2.4090    56.8790     8.0240     7.4980     9.3890    24.8460     2.4200 
  267.7500    -2.5020    56.8790     8.2610     7.7080    10.2130    24.8460     2.4340 
  267.8750    -2.5950    56.8790     8.5640     7.9850    10.8030    24.8420     2.4460 
  268.0000    -2.6650    56.8790     8.9330     8.3380    11.2830    24.8300     2.4540 
  268.1250    -2.7580    56.8790     9.3530     8.7700    12.0090    24.8150     2.4560 
  268.2500    -2.9060    56.8790     9.7770     9.2360    13.1690    24.8190     2.4580 
  268.3750    -3.0530    56.8790    10.1740     9.6860    14.3570    24.8110     2.4640 
  268.5000    -3.2360    56.8790    10.5280    10.0730    15.9190    24.7530     2.4730 
  268.6250    -3.3550    56.8790    10.8440    10.3750    21.3840    24.6930     2.4810 
  268.7500    -3.4030    56.8790    11.1570    10.6540    29.5750    24.7090     2.4850 
  268.8750    -3.4460    56.8790    11.5000    10.9760    28.2300    24.7540     2.4860 
  269.0000    -3.4800    56.8790    11.9010    11.3960    21.3080    24.7640     2.4880 
  269.1250    -3.4590    56.8790    12.3700    11.9440    18.5010    24.7710     2.4920 
  269.2500    -3.4350    56.8790    12.8570    12.5490    18.0840    24.7800     2.4960 
  269.3750    -3.4300    56.8790    13.2930    13.1170    17.6220    24.7700     2.4980 
  269.5000    -3.3710    56.8790    13.6090    13.5540    16.3780    24.7140     2.4950 
  269.6250    -3.2920    56.8790    13.7480    13.7740    14.6500    24.6130     2.4890 
  269.7500    -3.2680    56.8790    13.7830    13.8460    13.4550    24.5040     2.4800 
  269.8750    -3.2820    56.8790    13.8040    13.8670    13.0110    24.4120     2.4710 
  270.0000    -3.3190    56.8790    13.9080    13.9500    12.7950    24.3500     2.4660 
  270.1250    -3.3430    56.8790    14.1900    14.2110    12.3090    24.3270     2.4680 
  270.2500    -3.2870    56.8790    14.6130    14.6530    11.6240    24.3110     2.4780 
  270.3750    -3.2260    56.8790    15.1130    15.2360    12.1050    24.2990     2.4930 
  270.5000    -3.2490    56.8790    15.7400    15.8720    14.1040    24.3280     2.5090 
  270.6250    -3.3210    56.8790    16.5120    16.4240    17.5450    24.3150     2.5220 
  270.7500    -3.3510    56.8790    17.1420    16.8050    18.1350    24.2710     2.5320 
  270.8750    -3.3580    56.8790    17.3800    16.9850    15.8670    24.1870     2.5370 
  271.0000    -3.3130    56.8790    17.2560    16.9920    15.0150    24.1160     2.5340 
  271.1250    -3.3100    56.8790    17.0010    16.8760    16.4220    24.0480     2.5150 
  271.2500    -3.3610    56.8790    16.7180    16.7240    17.3780    23.9770     2.4840 
  271.3750    -3.3210    56.8790    16.3900    16.5830    15.9580    23.8560     2.4530 
  271.5000    -3.1780    56.8790    16.0470    16.4810    14.3440    23.7710     2.4340 
  271.6250    -3.0240    56.8790    15.7610    16.4290    13.5400    23.8950     2.4350 
  271.7500    -2.8990    56.8790    15.5810    16.4070    13.3540    24.1500     2.4430 
  271.8750    -2.8030    56.8790    15.5060    16.4030    14.3000    24.4320     2.4430 
  272.0000    -2.7100    56.8790    15.4930    16.4030    15.7970    24.6050     2.4290 
  272.1250    -2.5510    56.8790    15.4960    16.4030    14.8420    24.5880     2.4000 
  272.2500    -2.4090    56.8790    15.4970    16.4030    13.9150    24.5070     2.3710 
  272.3750    -2.3670    56.8790    15.4970    16.4030    14.0210    24.4000     2.3500 
  272.5000    -2.3830    56.8790    15.4970    16.4030    14.9210    24.2220     2.3400 
  272.6250    -2.4420    56.8790    15.4970    16.4030    14.0470    23.7620     2.3380 
  272.7500    -2.5530    56.8790    15.4970    16.4030    11.8850    22.7180     2.3360 
  272.8750    -2.5770    56.8790    15.4970    16.4030     9.1250    20.8010     2.3310 
  273.0000    -2.5370    56.8790    15.4970    16.4030     7.1360    18.3610     2.3180 
  273.1250    -2.5630    56.8790    15.4970    16.4030     6.8430    16.8730     2.3010 
  273.2500    -2.4920    56.8790    15.4970    16.4030     6.7830    16.2410     2.2830 
  273.3750    -2.3780    56.8790    15.4970    16.4030     6.7170    15.9250     2.2700 
  273.5000    -2.3130    56.8790    15.4970    16.4030     6.8170    15.7820     2.2670 
  273.6250    -2.2720    56.8790    15.4970    16.4030     6.8680    15.8470     2.2770 
  273.7500    -2.1940    56.8790    15.4970    16.4030     6.9090    15.9060     2.2950 
  273.8750    -2.2070    56.8790    15.4970    16.4030     6.8350    15.7930     2.3120 
  274.0000    -2.3570    56.8790    15.4970    16.4030     6.6500    15.6640     2.3180 
  274.1250    -2.4620    56.8790    15.4970    16.4030     6.6560    15.5690     2.3070 
  274.2500    -2.6300    56.8790    15.4970    16.4030     6.7100    15.4890     2.2860 
  274.3750    -2.8130    56.8790    15.4970    16.4030     6.7900    15.4360     2.2770 
  274.5000    -2.9350    56.8790    15.4970    16.4030     7.0110    15.4730     2.2530 
  274.6250    -2.9950    56.8790    15.4970    16.4030     7.0060    15.4860     2.2500 
  274.7500    -3.0240    56.8790    15.4970    16.4030     7.0310    15.4900     2.2450 
  274.8750    -3.0240    56.8790    15.4970    16.4030     7.1540    15.4890     2.2300 
