~V
VERS. 2.00: Ver 2.00
~W
STRT.M 55.0000:
STOP.M 277.0000:
STEP.M 0.1250:
NULL. -999.2500:
UWI. F11037:
~C
DEPT.M :
SP.MV :
GR.API :
RML.OHMM :
RI. :
RXO.OHMM :
CALI.CM :
DEN.GM/CC :
~A
# ...
   66.2500    -5.2790    73.9890    14.5860    11.0150    17.0170    24.0670     2.4260 
   66.3750    -5.7460    69.9740    16.4870    12.8800    15.4130    24.0420     2.4500 
   66.5000    -6.2260    65.4720    17.4240    14.1550    18.7320    24.0320     2.4740 
   66.6250    -6.8200    62.1330    16.7760    14.1570    28.1360    24.0590     2.4910 
   66.7500    -7.5450    62.2230    15.0510    13.1220    25.3910    24.0950     2.4880 
   66.8750    -8.0700    65.1170    12.9410    11.6020    16.7080    24.0790     2.4530 
   67.0000    -8.4290    68.7200    11.1060    10.1270    11.7420    24.0280     2.3910 
   67.1250    -8.7190    72.0270     9.9890     9.0470     9.7060    24.0370     2.3220 
   67.2500    -8.9990    74.5350     9.4390     8.3870     8.9620    23.9670     2.2700 
   67.3750    -9.2890    75.2110     9.2570     8.0990     8.8050    23.7010     2.2390 
   67.5000    -9.5250    73.7930     9.2360     8.0470     8.8270    23.3100     2.2200 
   67.6250    -9.5950    70.2420     9.2280     8.0530     9.1080    23.1170     2.2030 
   67.7500    -9.5280    66.0370     9.1880     8.0040     9.1910    23.0260     2.1860 
   67.8750    -9.6620    64.7770     9.1380     7.9160     9.1480    22.9820     2.1700 
   68.0000   -10.0610    66.0220     9.1030     7.8320     9.1660    22.9430     2.1610 
   68.1250   -10.4000    65.2660     9.1090     7.7680     9.4550    22.8860     2.1600 
   68.2500   -10.5990    64.0250     9.1740     7.7230     9.8530    22.8540     2.1630 
   68.3750   -10.8080    65.7950     9.3360     7.7260    10.0400    22.8710     2.1650 
   68.5000   -10.9380    69.3750     9.6300     7.8400    10.0090    22.8610     2.1590 
   68.6250   -11.0070    70.7700    10.0570     8.1280    10.0900    22.7240     2.1520 
   68.7500   -11.0780    70.1020    10.4840     8.5010    10.1260    22.5790     2.1590 
   68.8750   -11.0710    69.0250    10.7430     8.8240    10.0410    22.5550     2.1910 
   69.0000   -11.0440    68.3780    10.6830     8.9250     9.9050    22.6370     2.2430 
   69.1250   -11.0520    71.9110    10.2180     8.6370     9.8710    22.7830     2.2920 
   69.2500   -11.0940    77.5040     9.5600     8.1050     9.7360    22.9260     2.3140 
   69.3750   -11.1080    79.8810     8.9230     7.5310     9.4940    23.0840     2.3070 
   69.5000   -11.1500    78.0090     8.4700     7.0950     9.2410    23.1970     2.2820 
   69.6250   -11.2640    76.2110     8.2890     6.9350     8.6690    23.1480     2.2580 
   69.7500   -11.3490    77.5230     8.2810     7.0240     8.2990    22.9720     2.2410 
   69.8750   -11.5190    78.0690     8.3730     7.2960     8.1820    22.7150     2.2280 
   70.0000   -11.7350    76.4410     8.5140     7.6220     8.4810    22.4220     2.2140 
   70.1250   -11.8850    74.3680     8.6690     7.8410     8.9030    22.1430     2.1980 
   70.2500   -11.9590    72.2390     8.8030     7.9110     9.0210    22.1100     2.1840 
   70.3750   -12.0250    69.6770     8.8820     7.8590     9.0820    22.3570     2.1750 
   70.5000   -12.0530    68.0000     8.8900     7.7440     9.3760    22.7360     2.1710 
   70.6250   -12.0220    71.5360     8.8440     7.6380     9.7750    23.0190     2.1720 
   70.7500   -12.0870    75.7390     8.7980     7.5700     9.9240    23.1440     2.1780 
   70.8750   -12.0450    76.8760     8.7870     7.5380     9.9200    23.1850     2.1880 
   71.0000   -11.7970    76.2720     8.8160     7.5310    10.0510    23.2120     2.2000 
   71.1250   -11.6220    76.5130     8.8890     7.5560    10.0860    23.2110     2.2080 
   71.2500   -11.5330    76.1490     9.0070     7.6120    10.1220    23.2080     2.2090 
   71.3750   -11.4160    73.9870     9.1730     7.6840    10.1450    23.2380     2.2000 
   71.5000   -11.4110    71.2140     9.3720     7.7580    10.0110    23.3140     2.1860 
   71.6250   -11.3960    71.5360     9.5520     7.8180     9.7450    23.4210     2.1720 
   71.7500   -11.3120    72.5080     9.6650     7.8500     9.6680    23.5110     2.1670 
   71.8750   -11.3260    72.7980     9.6910     7.8460     9.7670    23.5710     2.1700 
   72.0000   -11.3870    72.8740     9.6460     7.8140     9.8500    23.6020     2.1790 
   72.1250   -11.4850    72.8270     9.5670     7.7710     9.8270    23.6100     2.1880 
   72.2500   -11.6390    71.9590     9.4890     7.7420     9.9480    23.6110     2.1910 
   72.3750   -11.7790    70.1170     9.4250     7.7410    10.1610    23.6110     2.1870 
   72.5000   -11.8600    70.5870     9.3820     7.7680    10.2200    23.6050     2.1780 
   72.6250   -11.8940    73.9700     9.3960     7.7830    10.2280    23.5870     2.1670 
   72.7500   -11.9500    75.9990     9.4520     7.7560    10.2630    23.5600     2.1600 
   72.8750   -12.0200    76.1850     9.4920     7.6990    10.2630    23.5360     2.1590 
   73.0000   -12.1770    76.7450     9.5070     7.6640    10.1350    23.5040     2.1650 
   73.1250   -12.3760    79.2660     9.5640     7.7200    10.0650    23.5100     2.1760 
   73.2500   -12.5170    80.7200     9.6560     7.8690    10.0220    23.5600     2.1860 
   73.3750   -12.7080    79.1820     9.7210     8.0580    10.0160    23.6150     2.1910 
   73.5000   -12.8620    75.8160     9.7340     8.2010    10.0530    23.5810     2.1900 
   73.6250   -12.9620    73.5550     9.6720     8.1940     9.9460    23.4470     2.1840 
   73.7500   -12.9990    72.8960     9.5130     8.0570     9.8670    23.3230     2.1790 
   73.8750   -13.0040    74.3530     9.2940     7.8510     9.8000    23.2200     2.1780 
   74.0000   -12.9240    76.8150     9.1070     7.6440     9.7130    23.0620     2.1810 
   74.1250   -12.7360    77.4060     8.9960     7.4980     9.6400    22.7750     2.1850 
   74.2500   -12.6690    76.5200     8.9140     7.4230     9.7310    22.5130     2.1880 
   74.3750   -12.6350    76.3690     8.8650     7.4150    10.2200    22.4440     2.1870 
   74.5000   -12.7060    77.0210     8.8870     7.4680    10.9440    22.5210     2.1850 
   74.6250   -13.1020    75.9570     9.0130     7.5850    11.4270    22.5650     2.1820 
   74.7500   -13.5750    72.9190     9.1820     7.7320    11.5230    22.5790     2.1780 
   74.8750   -14.0480    71.0590     9.3310     7.8670    11.0160    22.6200     2.1740 
   75.0000   -14.6050    70.9730     9.4260     7.9470    10.5020    22.7330     2.1690 
   75.1250   -15.1550    70.3690     9.4750     7.9560    10.3970    22.8450     2.1660 
   75.2500   -15.6140    69.0420     9.5050     7.9280    10.4970    22.8900     2.1650 
   75.3750   -16.0400    69.2430     9.5100     7.8860    10.6640    22.9160     2.1680 
   75.5000   -16.3980    71.5760     9.4650     7.8430    10.8310    22.9910     2.1720 
   75.6250   -16.6460    72.0920     9.3580     7.8000    10.8580    23.1850     2.1760 
   75.7500   -16.8430    70.7320     9.2360     7.7560    10.8370    23.4190     2.1780 
   75.8750   -17.0180    70.2120     9.1610     7.7170    10.7210    23.6380     2.1790 
   76.0000   -17.1510    70.2310     9.1750     7.6970    10.5180    23.8060     2.1810 
   76.1250   -17.2350    68.4840     9.2690     7.7100    10.6800    23.8740     2.1830 
   76.2500   -17.3440    67.7080     9.3570     7.7550    11.0350    23.8730     2.1860 
   76.3750   -17.4390    70.1090     9.3790     7.8210    11.2820    23.8170     2.1870 
   76.5000   -17.5190    73.0130     9.3290     7.8830    11.0710    23.7520     2.1850 
   76.6250   -17.4460    72.9950     9.2460     7.8950    10.6920    23.6960     2.1810 
   76.7500   -17.3290    72.0210     9.1690     7.8540    10.5080    23.6320     2.1760 
   76.8750   -17.2680    71.1920     9.0880     7.7870    10.6050    23.5400     2.1730 
   77.0000   -17.1890    69.4300     8.9910     7.7320    10.7360    23.4770     2.1720 
   77.1250   -17.1620    67.7970     8.9190     7.7150    10.7630    23.5000     2.1720 
   77.2500   -17.2200    67.8550     8.9360     7.7210    10.6850    23.5500     2.1730 
   77.3750   -17.3760    67.6080     9.0510     7.7140    10.6640    23.6030     2.1760 
