~V
VERS. 2.00: Ver 2.00
~W
STRT.M 57.0000:
STOP.M 276.0000:
STEP.M 0.1250:
NULL. -999.2500:
UWI. F11063:
~C
DEPT.M :
DEN.GM/CC :
GR.API :
RML.OHMM :
RI. :
RXO.OHMM :
CALI.CM :
SP.MV :
~A
# ...
  113.2500     2.3750    61.1920    13.2900    11.4160     9.0910    24.2270   -17.8040 
  113.3750     2.2720    61.1760    11.1140     9.7020     7.7230    24.1160   -17.7740 
  113.5000     2.2030    61.7520     9.5180     8.3410     7.5520    24.0060   -17.7650 
  113.6250     2.1810    63.5500     8.7010     7.5300     7.5360    23.9610   -17.7340 
  113.7500     2.1770    65.9120     8.3850     7.1170     7.4540    23.8960   -17.6460 
  113.8750     2.1740    68.8880     8.3800     6.9760     7.3370    23.7880   -17.5110 
  114.0000     2.1650    72.1230     8.5210     6.9750     7.1990    23.5610   -17.3740 
  114.1250     2.1550    72.3510     8.6790     6.9920     7.4720    23.2450   -17.2370 
  114.2500     2.1500    70.0310     8.7680     6.9730     8.0690    23.0220   -17.0840 
  114.3750     2.1550    68.1290     8.7730     6.9330     8.5970    22.8750   -16.9130 
  114.5000     2.1650    69.6710     8.7230     6.9120     8.6860    22.7660   -16.7640 
  114.6250     2.1760    73.6670     8.6820     6.9500     8.1150    22.7210   -16.6630 
  114.7500     2.1790    74.3450     8.6920     7.0240     7.8450    22.7760   -16.5900 
  114.8750     2.1760    71.7610     8.7170     7.0610     7.7510    23.0060   -16.5350 
  115.0000     2.1730    69.1000     8.6390     6.9650     7.0300    23.4240   -16.4650 
  115.1250     2.1800    70.4400     8.2730     6.6370     6.3390    23.7650   -16.3460 
  115.2500     2.1950    74.9120     7.6340     6.1430     6.1290    23.8620   -16.1900 
  115.3750     2.2190    80.8930     6.8430     5.5800     6.0800    23.7640   -16.0020 
  115.5000     2.2480    85.6540     6.1050     5.0680     5.5840    23.7650   -15.8060 
  115.6250     2.2680    85.5280     5.6850     4.7490     5.2280    23.9340   -15.6450 
  115.7500     2.2680    82.2580     5.6470     4.6580     5.2680    24.0680   -15.5800 
  115.8750     2.2470    79.6480     5.9900     4.8150     5.6150    24.1190   -15.6470 
  116.0000     2.2170    79.3710     6.6490     5.2070     6.0890    24.1100   -15.8610 
  116.1250     2.1880    77.8140     7.5040     5.7950     6.6000    24.0360   -16.2150 
  116.2500     2.1630    71.5130     8.3260     6.4260     7.2490    23.9230   -16.6600 
  116.3750     2.1460    64.2640     8.9570     6.9770     7.5570    23.8230   -17.1470 
  116.5000     2.1430    62.4500     9.3070     7.3690     7.5530    23.7560   -17.5940 
  116.6250     2.1510    64.4810     9.3080     7.5410     7.4890    23.7840   -17.9340 
  116.7500     2.1570    64.1490     9.0900     7.5450     7.4710    23.8710   -18.1430 
  116.8750     2.1540    64.7680     8.7760     7.4170     7.4940    23.9620   -18.1880 
  117.0000     2.1450    68.8260     8.4740     7.1950     7.3860    24.0370   -18.0700 
  117.1250     2.1370    71.6790     8.2570     6.9120     7.0530    24.0870   -17.8090 
  117.2500     2.1330    69.8370     8.1300     6.6380     6.7190    24.1120   -17.4480 
  117.3750     2.1320    66.3150     8.0990     6.4390     6.6310    24.0920   -17.0310 
  117.5000     2.1350    65.8920     8.1760     6.3700     6.7640    24.0360   -16.6110 
  117.6250     2.1380    67.1590     8.3960     6.4830     7.0610    23.9220   -16.1930 
  117.7500     2.1400    68.0980     8.7210     6.7320     7.3290    23.8000   -15.7780 
  117.8750     2.1410    69.2450     9.0820     7.0560     7.5670    23.7340   -15.3680 
  118.0000     2.1430    70.7420     9.3780     7.3670     7.8680    23.7460   -14.9510 
  118.1250     2.1470    72.1590     9.4530     7.5270     7.6130    23.7910   -14.5320 
  118.2500     2.1550    72.1020     9.2660     7.4750     7.0640    23.6620   -14.0970 
  118.3750     2.1690    71.2000     8.8310     7.2040     6.9600    23.2920   -13.6300 
  118.5000     2.1870    72.0870     8.2330     6.7700     7.0520    22.8200   -13.1140 
  118.6250     2.2070    77.9200     7.5900     6.2560     6.9610    22.3900   -12.5450 
  118.7500     2.2280    88.0240     7.0260     5.7710     6.6650    22.1420   -11.9510 
  118.8750     2.2430    96.1110     6.6240     5.3820     6.3280    22.1160   -11.3810 
  119.0000     2.2460    96.7380     6.4240     5.1370     5.8710    22.2970   -10.8680 
  119.1250     2.2360    91.6740     6.4480     5.0780     5.2870    22.7190   -10.4300 
  119.2500     2.2270    88.9010     6.6030     5.1510     5.1830    23.1590   -10.0560 
  119.3750     2.2230    90.2490     6.7980     5.2940     5.5690    23.4970    -9.7470 
  119.5000     2.2240    92.5710     6.9250     5.4250     6.0360    23.7610    -9.5130 
  119.6250     2.2260    94.6450     6.8860     5.4670     6.0750    23.9970    -9.3640 
  119.7500     2.2300    95.1320     6.7200     5.4270     5.6260    24.1740    -9.2630 
  119.8750     2.2370    92.3780     6.4950     5.3400     5.4860    24.2680    -9.1810 
  120.0000     2.2440    87.0610     6.2850     5.2490     5.6020    24.2380    -9.0860 
  120.1250     2.2430    83.9820     6.1740     5.1940     5.7850    24.0190    -8.9680 
  120.2500     2.2360    85.9060     6.1760     5.1860     6.1620    23.7960    -8.8270 
  120.3750     2.2300    90.4020     6.2770     5.2220     6.1160    23.6760    -8.6710 
  120.5000     2.2320    92.6960     6.4420     5.2860     5.6530    23.7040    -8.5120 
  120.6250     2.2380    91.7230     6.6210     5.3560     5.3940    23.7870    -8.3930 
  120.7500     2.2460    90.3260     6.7350     5.3990     5.4970    23.8260    -8.3200 
  120.8750     2.2590    91.1090     6.7100     5.3770     5.7060    23.8690    -8.2610 
  121.0000     2.2720    92.9440     6.5170     5.2570     5.6130    23.9460    -8.2010 
  121.1250     2.2740    94.2190     6.1870     5.0360     5.3600    24.0820    -8.1510 
  121.2500     2.2690    94.6760     5.8510     4.7820     5.0420    24.2020    -8.1060 
  121.3750     2.2640    95.1260     5.6110     4.5510     4.8120    24.2310    -8.0760 
  121.5000     2.2650    97.5130     5.5080     4.3850     4.7530    24.1780    -8.0670 
  121.6250     2.2650   101.1790     5.5050     4.3080     4.7610    24.0850    -8.0420 
  121.7500     2.2610   101.5420     5.4810     4.2820     4.8400    23.9950    -8.0030 
  121.8750     2.2560    98.2440     5.3790     4.2730     4.8790    23.8450    -7.9630 
  122.0000     2.2570    93.9150     5.2480     4.2730     4.7060    23.6480    -7.9390 
  122.1250     2.2690    92.7730     5.3090     4.3660     4.6070    23.4430    -7.9310 
  122.2500     2.2910    92.1270     5.8040     4.6840     4.7780    23.2960    -7.9630 
  122.3750     2.3230    89.2460     6.8950     5.3670     5.1470    23.2220    -8.0180 
  122.5000     2.3680    84.1170     8.5380     6.4910     5.6690    23.2290    -8.0670 
  122.6250     2.4350    78.1240    10.3290     7.9440     6.7160    23.3020    -8.1050 
  122.7500     2.5020    75.4310    11.4410     9.1180     8.4630    23.3950    -8.1400 
  122.8750     2.5400    77.5790    11.2530     9.3760     8.7520    23.4340    -8.1890 
  123.0000     2.5240    83.5580     9.8600     8.5600     7.1140    23.3930    -8.2560 
  123.1250     2.4520    87.3760     8.1550     7.2040     6.7260    23.4000    -8.3520 
  123.2500     2.3690    86.5770     6.9810     6.0520     6.6660    23.4460    -8.4670 
  123.3750     2.3010    84.6300     6.5000     5.3380     6.4840    23.4070    -8.6040 
  123.5000     2.2590    83.7980     6.5670     5.0750     6.2680    23.3020    -8.7570 
  123.6250     2.2420    84.4020     6.9310     5.1980     6.1050    23.1960    -8.9170 
  123.7500     2.2390    82.9170     7.2320     5.4620     5.9810    23.1140    -9.0590 
  123.8750     2.2460    79.7790     7.2750     5.6850     5.9490    23.0530    -9.1690 
  124.0000     2.2580    79.1420     7.0360     5.7500     6.0430    23.0310    -9.2630 
  124.1250     2.2660    83.5680     6.6330     5.6230     6.2090    23.0390    -9.3350 
  124.2500     2.2670    89.3060     6.2520     5.4010     6.2530    23.0460    -9.3670 
  124.3750     2.2630    91.7620     5.9800     5.1650     6.2120    23.0350    -9.3490 
