~V
VERS. 2.00: Ver 2.00
~W
STRT.M 53.0000:
STOP.M 220.0000:
STEP.M 0.1250:
NULL. -999.2500:
UWI. F11005:
~C
DEPT.M :
DEN.GM/CC :
GR.API :
RML.OHMM :
RI. :
RXO.OHMM :
CALI.CM :
SP.MV :
~A
# ...
  120.5000     2.2200    78.3000     9.5130     8.0040     8.3230    25.1010   -18.0230 
  120.6250     2.1870    74.9680     8.9240     7.5210     7.6450    24.9140   -18.5210 
  120.7500     2.1730    71.1180     8.7720     7.3320     8.1540    24.7370   -18.8790 
  120.8750     2.1750    67.9360     9.0540     7.4750     8.3450    24.5290   -19.1190 
  121.0000     2.1880    66.7560     9.5810     7.8690     8.4800    24.3710   -19.2250 
  121.1250     2.2050    66.7280     9.9870     8.2600     8.7150    24.3180   -19.0470 
  121.2500     2.2260    66.8490     9.9780     8.3330     9.1320    24.3180   -18.5290 
  121.3750     2.2470    69.9970     9.4620     7.9590     9.4700    24.3310   -17.6890 
  121.5000     2.2670    77.2600     8.5640     7.2330     9.2310    24.3370   -16.6060 
  121.6250     2.2760    84.5300     7.5710     6.4060     7.6910    24.3530   -15.3910 
  121.7500     2.2700    88.7360     6.7950     5.7330     5.9360    24.4030   -14.2290 
  121.8750     2.2510    90.6460     6.3930     5.3330     4.9710    24.5240   -13.2430 
  122.0000     2.2250    90.9470     6.4040     5.2460     5.0120    24.6070   -12.4720 
  122.1250     2.2070    88.2910     6.8090     5.4880     5.3980    24.5970   -11.9680 
  122.2500     2.2020    84.1760     7.3910     5.9130     5.9720    24.5140   -11.7150 
  122.3750     2.2080    82.2620     7.9640     6.3840     6.4930    24.4100   -11.6870 
  122.5000     2.2160    85.3530     8.3440     6.7400     6.7670    24.3740   -11.7930 
  122.6250     2.2210    91.2640     8.3260     6.7960     6.4350    24.4950   -11.9100 
  122.7500     2.2230    92.6580     7.9460     6.5520     5.9230    24.7590   -11.9890 
  122.8750     2.2250    90.4620     7.3270     6.0890     5.8720    25.0680   -11.9840 
  123.0000     2.2340    90.7630     6.6940     5.5740     5.6890    25.2620   -11.8840 
  123.1250     2.2620    96.7680     6.3930     5.2580     5.1240    25.3650   -11.7230 
  123.2500     2.3110   101.0930     6.6260     5.2910     4.7360    25.3570   -11.5220 
  123.3750     2.3750    97.5160     7.4860     5.7650     4.9880    25.2380   -11.2820 
  123.5000     2.4400    86.7950     8.8800     6.6980     6.4690    25.0900   -11.0550 
  123.6250     2.4790    77.0460    10.3960     7.9340    10.2230    25.0330   -10.9490 
  123.7500     2.4840    74.8450    11.3730     8.9020    12.6760    24.9370   -10.9110 
  123.8750     2.4610    78.7580    11.3760     9.0720    11.1670    24.8310   -10.8740 
  124.0000     2.4230    83.2000    10.3910     8.3320     9.4790    24.7890   -10.8660 
  124.1250     2.3860    86.8490     8.8280     7.0880     6.5160    24.8790   -10.9750 
  124.2500     2.3550    91.6840     7.3810     5.9480     5.2830    24.9990   -11.1860 
  124.3750     2.3270    96.4260     6.3920     5.1550     4.9220    25.0880   -11.4400 
  124.5000     2.2990    97.8140     6.0140     4.8010     5.1520    25.1560   -11.7210 
  124.6250     2.2630    93.5090     6.4970     5.0290     5.2390    25.2220   -12.0610 
  124.7500     2.2190    88.4770     7.9060     5.8830     5.6720    25.3640   -12.4230 
  124.8750     2.1710    85.2070    10.3740     7.5420     7.4000    25.5110   -12.8200 
  125.0000     2.1300    82.7510    13.7460    10.1270    12.4450    25.5990   -13.2690 
  125.1250     2.1100    79.6890    17.0710    13.3320    19.9170    25.6720   -13.6570 
  125.2500     2.1120    78.1850    18.8580    15.6400    24.0650    25.7020   -13.9380 
  125.3750     2.1340    80.4470    18.2290    15.6010    24.5440    25.6870   -14.1600 
  125.5000     2.1690    83.6170    15.4760    13.3000    19.9300    25.6330   -14.3400 
  125.6250     2.2060    85.7830    11.9440    10.3270    12.3840    25.5310   -14.3710 
  125.7500     2.2360    88.2800     9.0800     7.9820     7.1510    25.4440   -14.2520 
  125.8750     2.2530    90.1070     7.2830     6.4620     5.6920    25.4070   -13.9860 
  126.0000     2.2560    90.0950     6.4250     5.6430     5.3670    25.4320   -13.5890 
  126.1250     2.2530    89.5850     6.2730     5.4130     5.3880    25.4030   -13.1500 
  126.2500     2.2570    91.0440     6.4310     5.5070     5.4330    25.3660   -12.7240 
  126.3750     2.2750    93.3530     6.7070     5.7660     5.5060    25.3400   -12.3020 
  126.5000     2.3030    94.5730     6.9650     6.0490     5.5490    25.3550   -11.8650 
  126.6250     2.3250    95.6430     7.1030     6.2400     5.6030    25.3700   -11.4970 
  126.7500     2.3300    96.0060     7.1140     6.3100     5.6220    25.3670   -11.2870 
  126.8750     2.3160    94.7760     7.0120     6.2670     5.4690    25.3490   -11.2230 
  127.0000     2.2910    92.7400     6.8320     6.1420     5.2210    25.3820   -11.2250 
  127.1250     2.2710    91.4370     6.6090     5.9660     5.1030    25.4290   -11.2690 
  127.2500     2.2630    91.3390     6.3770     5.7710     5.2050    25.3900   -11.3100 
  127.3750     2.2680    91.8220     6.1510     5.5700     5.5000    25.2220   -11.2820 
  127.5000     2.2780    93.3990     5.9540     5.3770     5.7390    25.0290   -11.1730 
  127.6250     2.2870    94.0060     5.8530     5.2380     5.5460    24.8960   -10.9910 
  127.7500     2.2960    92.6240     5.9120     5.2150     5.2360    24.8770   -10.7410 
  127.8750     2.3110    89.8150     6.1750     5.3650     5.3340    24.9110   -10.4130 
  128.0000     2.3340    87.4590     6.6130     5.6890     5.6330    24.9070   -10.0560 
  128.1250     2.3580    87.1430     7.0970     6.1100     6.3660    24.8600    -9.6970 
  128.2500     2.3690    88.2250     7.4400     6.4520     7.5420    24.8380    -9.3500 
  128.3750     2.3640    90.5950     7.5370     6.5800     8.3180    24.8930    -9.0830 
  128.5000     2.3460    93.5040     7.3980     6.4600     6.4290    25.0440    -8.9520 
  128.6250     2.3280    95.2110     7.1430     6.1800     5.3020    25.2120    -8.9110 
  128.7500     2.3150    95.2440     6.9450     5.9220     5.0430    25.3090    -8.8770 
  128.8750     2.3080    94.1210     6.8750     5.7720     5.5470    25.3500    -8.8770 
  129.0000     2.3010    92.8680     6.9320     5.7540     6.1260    25.3650    -8.9060 
  129.1250     2.2960    91.1880     7.1130     5.8700     6.0850    25.3640    -8.9390 
  129.2500     2.3040    89.5500     7.4410     6.1040     5.5950    25.3600    -9.0270 
  129.3750     2.3330    86.7530     8.0340     6.5160     5.8690    25.3580    -9.1350 
  129.5000     2.3860    82.0790     9.0650     7.2210     6.9510    25.3590    -9.1740 
  129.6250     2.4530    77.9370    10.8090     8.4640     8.4040    25.3530    -9.1190 
  129.7500     2.5130    74.2330    13.1770    10.2930    11.2050    25.3250    -9.0470 
  129.8750     2.5530    67.9770    15.9180    12.6430    15.9980    25.2650    -9.0090 
  130.0000     2.5690    62.1670    18.5350    15.1540    18.5940    25.2100    -8.9780 
  130.1250     2.5670    61.2090    20.2520    17.0490    18.1840    25.1860    -8.9260 
  130.2500     2.5590    59.7760    20.8530    17.8970    18.2030    25.2250    -8.8570 
  130.3750     2.5510    54.8790    20.4950    17.7580    18.1140    25.2710    -8.8030 
  130.5000     2.5410    49.8170    19.6360    17.0740    16.8480    25.3230    -8.7890 
  130.6250     2.5270    50.1270    18.8110    16.3680    15.5280    25.3370    -8.8260 
  130.7500     2.5090    53.0210    18.3030    15.9110    14.6850    25.3410    -8.9320 
  130.8750     2.4900    56.2670    18.1410    15.7430    14.2070    25.3330    -9.0630 
  131.0000     2.4730    59.1820    18.2550    15.8310    14.0360    25.2810    -9.2000 
  131.1250     2.4640    61.1040    18.5520    16.1220    14.6220    25.1650    -9.3470 
  131.2500     2.4610    63.3400    18.8860    16.4750    15.0080    25.0150    -9.4970 
  131.3750     2.4620    65.9870    19.1650    16.7990    14.6960    24.8080    -9.6520 
  131.5000     2.4650    67.6040    19.3080    17.0180    14.5900    24.6000    -9.7880 
  131.6250     2.4640    67.6120    19.2220    17.0450    14.9480    24.4930    -9.8920 
