~V
VERS. 2.00: Ver 2.00
~W
STRT.M 57.0000:
STOP.M 278.0000:
STEP.M 0.1250:
NULL. -999.2500:
UWI. F11043:
~C
DEPT.M :
SP.MV :
GR.API :
RML.OHMM :
RI. :
RXO.OHMM :
CALI.CM :
DEN.GM/CC :
~A
# ...
  237.0000   -17.3400    67.5840   124.9720   106.8200    94.3290    24.0130     2.1990 
  237.1250   -17.1370    64.6930   120.0780   103.7820    71.5540    24.0160     2.1960 
  237.2500   -16.9650    64.3650   114.3800    99.7700    58.4360    24.0180     2.1890 
  237.3750   -16.8470    64.1700   109.4000    96.0360    54.0020    24.0350     2.1830 
  237.5000   -16.7720    63.6580   106.4270    93.6880    53.2650    24.0810     2.1830 
  237.6250   -16.7190    65.0710   106.7970    93.8470    53.6690    24.1310     2.1880 
  237.7500   -16.6530    66.8570   110.4530    96.5890    59.4610    24.1450     2.1920 
  237.8750   -16.5470    66.7030   117.2940   102.0280    78.6550    24.1430     2.1970 
  238.0000   -16.4180    64.1980   126.3820   109.5870   104.8300    24.1480     2.2090 
  238.1250   -16.3280    61.8950   135.4620   117.5680   114.5440    24.1520     2.2220 
  238.2500   -16.2900    61.1910   141.7610   123.6310   104.0640    24.1600     2.2300 
  238.3750   -16.2840    61.3790   143.4250   126.1770    91.8850    24.1600     2.2400 
  238.5000   -16.2600    62.1150   139.9480   124.6130    83.3840    24.1540     2.2550 
  238.6250   -16.1820    63.1830   132.0540   119.1350    70.5970    24.1460     2.2700 
  238.7500   -16.0400    64.0590   122.8300   112.0220    66.6980    24.1480     2.2730 
  238.8750   -15.8430    64.4480   114.3970   105.0270    68.9450    24.1510     2.2610 
  239.0000   -15.6430    64.5300   108.3680    99.6540    70.5780    24.1440     2.2440 
  239.1250   -15.4890    63.8350   106.0200    97.3020    71.0110    24.1460     2.2300 
  239.2500   -15.3470    61.5300   105.9920    97.1290    76.3520    24.1530     2.2240 
  239.3750   -15.1460    60.9110   106.1690    97.4090    91.2450    24.1540     2.2260 
  239.5000   -14.8620    64.7430   103.9240    95.8240   111.9350    24.1610     2.2330 
  239.6250   -14.5310    69.3000    97.0040    90.2240   114.4640    24.1620     2.2410 
  239.7500   -14.2460    69.1750    87.4600    82.1090    96.3720    24.1620     2.2440 
  239.8750   -14.0560    66.6900    78.3060    73.9520    70.9510    24.1650     2.2390 
  240.0000   -13.9770    65.8280    72.2510    68.1560    54.6190    24.1680     2.2290 
  240.1250   -13.9720    66.0230    71.5460    66.9600    52.7270    24.1670     2.2190 
  240.2500   -13.9830    64.8040    75.5310    70.0820    65.8570    24.1660     2.2140 
  240.3750   -14.0080    63.2260    83.4340    76.9900    90.7840    24.1640     2.2090 
  240.5000   -14.0750    63.3810    93.6780    86.3420   109.1980    24.1590     2.2030 
  240.6250   -14.1680    64.4260   103.1310    95.3930   108.1770    24.1600     2.1980 
  240.7500   -14.2430    64.2430   108.3000   100.8460   101.6980    24.1640     2.1980 
  240.8750   -14.3490    63.4930   107.1320   100.5790    96.9950    24.1760     2.2030 
  241.0000   -14.5020    62.7380    99.9690    94.5030    97.1480    24.1950     2.2160 
  241.1250   -14.6350    62.7400    89.0710    84.3170    87.1460    24.1970     2.2390 
  241.2500   -14.6970    65.3090    78.0720    73.5900    66.8410    24.1810     2.2620 
  241.3750   -14.7140    70.9400    68.8830    64.3650    51.1140    24.1880     2.2710 
  241.5000   -14.7160    75.6640    62.6240    57.8270    49.1320    24.2270     2.2590 
  241.6250   -14.7630    72.8450    60.5720    55.0750    51.0360    24.2310     2.2340 
  241.7500   -14.8930    66.6930    62.7220    55.9910    52.6080    24.2100     2.2160 
  241.8750   -15.0270    65.0190    69.7910    61.2630    57.0280    24.1950     2.2080 
  242.0000   -15.0880    68.2480    82.6080    71.8850    65.5820    24.1860     2.2140 
  242.1250   -15.0190    69.4340   102.5060    89.2930    89.2060    24.1800     2.2420 
  242.2500   -14.9290    65.2310   126.2850   110.3770   142.9500    24.1840     2.2910 
  242.3750   -14.8710    59.0470   147.4080   129.4210   258.3540    24.1870     2.3470 
  242.5000   -14.8440    55.4990   156.1620   138.5800   341.8170    24.1720     2.3860 
  242.6250   -14.8360    55.7300   145.7870   131.7050   233.8390    24.1720     2.3790 
  242.7500   -14.8190    57.4110   127.6020   116.6430   139.4830    24.1820     2.3440 
  242.8750   -14.7610    59.7090   110.9490   101.1440    95.4860    24.1840     2.3090 
  243.0000   -14.6480    62.6860    99.9450    89.7870    85.3560    24.1900     2.2970 
  243.1250   -14.5480    64.5590    95.2970    84.0270    88.2840    24.2060     2.3080 
  243.2500   -14.4870    63.7020    94.1050    81.5240    97.4090    24.1980     2.3240 
  243.3750   -14.4580    61.4580    94.3730    80.5770   102.3170    24.1900     2.3390 
  243.5000   -14.4470    61.5950    94.5790    79.9120    91.5450    24.2140     2.3550 
  243.6250   -14.3890    63.7110    94.1370    79.0350    77.0840    24.2200     2.3600 
  243.7500   -14.2120    64.6840    93.6810    78.3140    74.4030    24.2020     2.3380 
  243.8750   -13.9390    63.2000    93.8110    78.2210    78.8370    24.1900     2.2970 
  244.0000   -13.6290    61.3130    94.7450    78.9850    87.4920    24.2050     2.2660 
  244.1250   -13.3790    62.2910    96.5370    80.6800    85.4190    24.1980     2.2680 
  244.2500   -13.1470    64.6250    99.1830    83.1580    79.2550    24.1770     2.2930 
  244.3750   -12.8510    65.7500   103.0690    86.6350    73.7100    24.1810     2.3320 
  244.5000   -12.4570    65.6530   107.9760    91.0140    68.5570    24.1890     2.3810 
  244.6250   -11.9920    65.6490   110.3970    93.8790    76.6590    24.1890     2.4370 
  244.7500   -11.5390    64.9250   104.2760    90.2900    83.4380    24.1990     2.4920 
  244.8750   -11.1720    61.8610    86.2850    76.4480    98.7570    24.2020     2.5370 
  245.0000   -10.9310    57.0080    61.0810    55.0510    86.1200    24.1820     2.5660 
  245.1250   -10.6840    52.6250    38.8700    35.1710    50.4870    24.1870     2.5690 
  245.2500   -10.3480    50.0920    23.7440    21.5100    21.9670    24.2030     2.5420 
  245.3750   -10.0270    50.2850    14.8730    13.4800    10.7070    24.1880     2.4830 
  245.5000    -9.8140    53.8280    10.2620     9.1840     7.3310    24.1750     2.4120 
  245.6250    -9.7340    58.6670     8.4600     7.2540     6.7930    24.1880     2.3630 
  245.7500    -9.7590    60.9390     7.9350     6.4040     6.7090    24.2060     2.3420 
  245.8750    -9.8270    59.4090     7.8590     6.1990     6.6190    24.1940     2.3380 
  246.0000    -9.8330    57.0180     7.8410     6.3410     6.5060    24.1820     2.3430 
  246.1250    -9.7980    57.3490     7.8410     6.6030     6.6700    24.1900     2.3540 
  246.2500    -9.8450    59.3860     7.8470     6.8270     7.0940    24.1890     2.3690 
  246.3750    -9.9750    61.5420     7.8800     6.9780     7.7710    24.2050     2.3820 
  246.5000   -10.1260    62.8070     7.9810     7.0670     8.2350    24.2070     2.3890 
  246.6250   -10.2870    63.4320     8.2840     7.1160     8.1370    24.1900     2.3910 
  246.7500   -10.3940    63.5850     8.3750     7.1420     8.0880    24.1980     2.3890 
  246.8750   -10.4280    63.4520     8.4490     7.1520     8.2870    24.2060     2.3810 
  247.0000   -10.4680    63.5790     8.4770     7.1510     8.4880    24.1900     2.3660 
  247.1250   -10.5940    63.8170     8.4300     7.1550     8.7520    24.1940     2.3570 
  247.2500   -10.7640    63.3030     8.2520     7.1830     9.0610    24.2050     2.3630 
  247.3750   -10.8830    63.2810     8.1560     7.2430     9.6520    24.1910     2.3810 
  247.5000   -10.9130    64.9070     8.2690     7.3330    10.6790    24.1880     2.3950 
  247.6250   -10.8370    65.9760     8.5020     7.4420    12.4170    24.2060     2.3910 
  247.7500   -10.7600    63.4050     8.7470     7.5610    13.0800    24.1990     2.3800 
  247.8750   -10.7670    59.6620     9.0000     7.6880    12.2680    24.1920     2.3710 
  248.0000   -10.7970    58.6710     9.2420     7.8100    11.6140    24.2070     2.3670 
  248.1250   -10.7770    59.9590     9.4150     7.8900    11.4490    24.2030     2.3650 
