~V
VERS. 2.00: Ver 2.00
~W
STRT.M 53.0000:
STOP.M 287.0000:
STEP.M 0.1250:
NULL. -999.2500:
UWI. F11059:
~C
DEPT.M :
GR.API :
RML.OHMM :
RI. :
RXO.OHMM :
CALI.CM :
DEN.GM/CC :
SP.MV :
~A
# ...
  278.0000    51.7500    14.6020    14.1310    20.5960    24.5020     2.5120   -11.7130 
  278.1250    51.7500    14.9700    14.3930    22.1560    24.4700     2.5170   -11.7660 
  278.2500    51.7500    15.2130    14.5400    21.8420    24.4150     2.5230   -11.8040 
  278.3750    51.7500    15.3310    14.6240    17.7760    24.2730     2.5270   -11.8260 
  278.5000    51.7500    15.3760    14.6810    14.4070    24.0660     2.5280   -11.8280 
  278.6250    51.7500    15.3820    14.7130    13.0910    23.9200     2.5300   -11.8290 
  278.7500    51.7500    15.3770    14.7250    13.3380    23.8810     2.5350   -11.8120 
  278.8750    51.7500    15.3790    14.7260    15.3770    23.9050     2.5430   -11.7890 
  279.0000    51.7500    15.3890    14.7210    16.3540    23.9490     2.5500   -11.7670 
  279.1250    51.7500    15.3990    14.7080    18.5060    24.0660     2.5550   -11.7590 
  279.2500    51.7500    15.3990    14.6920    22.2920    24.2570     2.5540   -11.7800 
  279.3750    51.7500    15.3890    14.6860    27.3010    24.4340     2.5500   -11.8040 
  279.5000    51.7500    15.3760    14.6890    30.7170    24.4950     2.5480   -11.8180 
  279.6250    51.7500    15.3660    14.6980    28.8280    24.5040     2.5500   -11.8400 
  279.7500    51.7500    15.3580    14.7110    25.8640    24.5180     2.5580   -11.8850 
  279.8750    51.7500    15.3520    14.7210    23.8780    24.5670     2.5730   -11.9170 
  280.0000    51.7500    15.3460    14.7220    23.9770    24.5920     2.5860   -11.9230 
  280.1250    51.7500    15.3440    14.7130    25.2600    24.5960     2.5910   -11.9450 
  280.2500    51.7500    15.3460    14.6920    29.2720    24.5910     2.5850   -11.9510 
  280.3750    51.7500    15.3530    14.6610    28.7590    24.5900     2.5660   -11.9530 
  280.5000    51.7500    15.3580    14.6350    27.7220    24.5910     2.5420   -11.9500 
  280.6250    51.7500    15.3610    14.6280    27.0510    24.5880     2.5190   -11.9470 
  280.7500    51.7500    15.3600    14.6410    27.2060    24.5630     2.5060   -11.9390 
  280.8750    51.7500    15.3560    14.6610    24.5030    24.5020     2.5050   -11.9340 
  281.0000    51.7500    15.3510    14.6740    22.3890    24.4350     2.5150   -11.9480 
  281.1250    51.7500    15.3440    14.6820    19.9790    24.3910     2.5300   -11.9620 
  281.2500    51.7500    15.3340    14.6890    17.6110    24.3600     2.5450   -11.9760 
  281.3750    51.7500    15.3210    14.6980    17.2820    24.3380     2.5570   -11.9800 
  281.5000    51.7500    15.3100    14.7000    19.2670    24.3120     2.5650   -11.9990 
  281.6250    51.7500    15.3070    14.6790    20.2430    24.2790     2.5690   -12.0110 
  281.7500    51.7500    15.3110    14.6320    20.2510    24.2560     2.5700   -12.0030 
  281.8750    51.7500    15.3190    14.5800    19.6500    24.1790     2.5620   -11.9810 
  282.0000    51.7500    15.3220    14.5450    18.9510    23.9050     2.5450   -11.9580 
  282.1250    51.7500    15.3060    14.5380    17.9460    23.4100     2.5190   -11.9350 
  282.2500    51.7500    15.2580    14.5580    16.5150    22.8930     2.4800   -11.9230 
  282.3750    51.7500    15.1680    14.5890    13.6730    22.1990     2.4170   -11.8950 
  282.5000    51.7500    15.0770    14.6060    10.6860    21.1810     2.3240   -11.8480 
  282.6250    51.7500    15.0190    14.6060     8.8240    20.0620     2.2040   -11.8160 
  282.7500    51.7500    15.0030    14.6060     7.9060    19.1150     2.0720   -11.7930 
  282.8750    51.7500    15.0050    14.6060     7.6410    18.5320     1.9580   -11.7860 
  283.0000    51.7500    15.0060    14.6060     7.5250    18.1510     1.8780   -11.7830 
  283.1250    51.7500    15.0060    14.6060     7.5560    17.9490     1.8340   -11.7650 
  283.2500    51.7500    15.0060    14.6060     7.5940    17.8840     1.8160   -11.7230 
  283.3750    51.7500    15.0060    14.6060     7.5960    17.8850     1.8120   -11.7080 
  283.5000    51.7500    15.0060    14.6060     7.5970    17.8860     1.8120   -11.7220 
  283.6250    51.7500    15.0060    14.6060     7.5970    17.8850     1.8130   -11.7210 
  283.7500    51.7500    15.0060    14.6060     7.5960    17.8880     1.8160   -11.7210 
  283.8750    51.7500    15.0060    14.6060     7.5950    17.8880     1.8190   -11.7350 
  284.0000    51.7500    15.0060    14.6060     7.5950    17.8890     1.8200   -11.7490 
  284.1250    51.7500    15.0060    14.6060     7.5950    17.8880     1.8200   -11.7480 
  284.2500    51.7500    15.0060    14.6060     7.5940    17.8870     1.8190   -11.7570 
  284.3750    51.7500    15.0060    14.6060     7.5950    17.8860     1.8180   -11.7790 
  284.5000    51.7500    15.0060    14.6060     7.5960    17.8860     1.8170   -11.7760 
  284.6250    51.7500    15.0060    14.6060     7.5960    17.8870     1.8170   -11.7800 
  284.7500    51.7500    15.0060    14.6060     7.5950    17.8860     1.8160   -11.7840 
  284.8750    51.7500    15.0060    14.6060     7.5920    17.8820     1.8160   -11.7500 
  285.0000    51.7500    15.0060    14.6060     7.5910    17.8820     1.8160   -11.7340 
  285.1250    51.7500    15.0060    14.6060     7.5920    17.8850     1.8160   -11.7480 
  285.2500    51.7500    15.0060    14.6060     7.5910    17.8840     1.8160   -11.7620 
  285.3750    51.7500    15.0060    14.6060     7.5930    17.8860     1.8180  -999.2500 
  285.5000    51.7500    15.0060    14.6060     7.5940    17.8870     1.8170  -999.2500 
  285.6250    51.7500    15.0060    14.6060     7.5940    17.8870  -999.2500  -999.2500 
  285.7500    51.7500    15.0060    14.6060     7.5920    17.8840  -999.2500  -999.2500 
  285.8750    51.7500    15.0060    14.6060     7.5910    17.8790  -999.2500  -999.2500 
  286.0000    51.7500    15.0060    14.6060     7.5920    17.8730  -999.2500  -999.2500 
  286.1250    51.7500    15.0060    14.6060     7.5930    17.8630  -999.2500  -999.2500 
  286.2500    51.7500    15.0060    14.6060     7.5910    17.8500  -999.2500  -999.2500 
  286.3750    51.7500    15.0060    14.6060     7.5920    17.8580  -999.2500  -999.2500 
  286.5000    51.7500    15.0060    14.6060     7.5940    17.8760  -999.2500  -999.2500 
  286.6250    51.7500    15.0060    14.6060     7.5930    17.8680  -999.2500  -999.2500 
  286.7500    51.7500    15.0060    14.6060     7.5880    17.8420  -999.2500  -999.2500 
  286.8750    51.7500    15.0060    14.6060     7.5860    17.8140  -999.2500  -999.2500 
  287.0000    51.7500    15.0060    14.6060     7.5820    17.7920  -999.2500  -999.2500 
