~V
VERS. 2.00: Ver 2.00
~W
STRT.M 55.0000:
STOP.M 274.0000:
STEP.M 0.1250:
NULL. -999.2500:
UWI. F11049:
~C
DEPT.M :
SP.MV :
GR.API :
RML.OHMM :
RI. :
RXO.OHMM :
CALI.CM :
DEN.GM/CC :
~A
# ...
  111.2500   -13.7930    70.8830     7.1490     5.7360     5.5610    24.0990     2.2300 
  111.3750   -13.5910    70.2960     7.2810     5.8670     5.7960    24.1190     2.2390 
  111.5000   -13.2860    70.6020     7.3390     5.9630     5.9620    24.1300     2.2550 
  111.6250   -12.8780    70.5730     7.3200     6.0000     6.2560    24.1350     2.2810 
  111.7500   -12.4880    75.3600     7.2820     5.9980     6.6320    24.1440     2.3140 
  111.8750   -12.0620    85.9950     7.2410     5.9680     6.1950    24.1460     2.3490 
  112.0000   -11.5630    95.9760     7.1860     5.9110     4.9000    24.1420     2.3800 
  112.1250   -11.0880    96.9180     7.0600     5.8070     5.0790    24.1360     2.4010 
  112.2500   -10.6800    93.4640     6.7890     5.6260     6.0380    24.1390     2.4150 
  112.3750   -10.3270    92.6130     6.3340     5.3480     5.3640    24.1440     2.4190 
  112.5000   -10.0720    93.4630     5.7460     4.9980     4.1210    24.1420     2.4020 
  112.6250    -9.9490    91.8780     5.1890     4.6610     3.4040    24.1330     2.3640 
  112.7500    -9.9030    92.7170     4.8600     4.4460     3.5590    24.1290     2.3340 
  112.8750    -9.9300    97.9160     4.9030     4.4450     3.6890    24.1300     2.3260 
  113.0000   -10.0340   100.1280     5.3670     4.7100     3.4090    24.1400     2.3380 
  113.1250   -10.2010    92.5240     6.1920     5.2490     3.7660    24.1430     2.3620 
  113.2500   -10.4020    84.5460     7.0610     5.8870     5.1090    24.1390     2.3890 
  113.3750   -10.6210    81.7260     7.6700     6.4300     6.4940    24.1320     2.4120 
  113.5000   -10.8010    82.3500     7.7580     6.6760     5.7220    24.1240     2.4220 
  113.6250   -10.9290    84.9030     7.1820     6.4520     4.5960    24.1140     2.4060 
  113.7500   -11.0440    88.4830     6.2960     5.9410     3.9910    24.1100     2.3740 
  113.8750   -11.1550    92.6950     5.4480     5.3620     4.0080    24.1100     2.3460 
  114.0000   -11.2390    96.0320     4.9020     4.9090     4.0970    24.1150     2.3340 
  114.1250   -11.3100    98.4780     4.8220     4.7160     3.6770    24.1230     2.3340 
  114.2500   -11.3940    99.8970     5.0620     4.7250     3.4630    24.1240     2.3340 
  114.3750   -11.4910    99.5430     5.4430     4.8380     3.7150    24.1170     2.3330 
  114.5000   -11.6030    97.6420     5.7200     4.9220     4.7010    24.1150     2.3290 
  114.6250   -11.7370    96.9750     5.5750     4.8050     5.3510    24.1200     2.3290 
  114.7500   -11.8890    99.9510     4.9890     4.4710     4.7660    24.1250     2.3340 
  114.8750   -12.0550   103.3660     4.1580     4.0070     3.2370    24.1230     2.3450 
  115.0000   -12.2240   104.1130     3.4590     3.5860     2.4120    24.1150     2.3620 
  115.1250   -12.4110   104.6790     3.4120     3.4640     2.4370    24.1130     2.3780 
  115.2500   -12.6780   106.2470     4.2370     3.7790     2.8910    24.1190     2.3930 
  115.3750   -13.0590   105.7530     6.1130     4.6750     4.3710    24.1240     2.4110 
  115.5000   -13.5410    99.1370     9.0650     6.2760     8.9410    24.1230     2.4350 
  115.6250   -14.1050    88.2410    13.4870     8.5950    24.4240    24.1120     2.4630 
  115.7500   -14.7640    78.7320    16.3770    10.8590    34.0390    24.1080     2.4730 
  115.8750   -15.5230    74.0480    17.2540    12.0890    24.0030    24.1100     2.4340 
  116.0000   -16.3160    73.8830    15.9340    11.8370    13.5490    24.1190     2.3450 
  116.1250   -17.1050    74.9380    13.5530    10.5780    11.0270    24.1120     2.2540 
  116.2500   -17.8260    74.4290    11.5500     9.2940    10.7340    24.0940     2.1990 
  116.3750   -18.4100    72.2770    10.3180     8.3330    10.6760    24.0810     2.1770 
  116.5000   -18.8660    70.7950     9.7800     7.7480    10.4290    24.0860     2.1740 
  116.6250   -19.1890    72.5360     9.7290     7.4870    10.3320    24.1110     2.1750 
  116.7500   -19.3840    75.4210     9.8460     7.3890    10.2430    24.1210     2.1740 
  116.8750   -19.4640    75.5710     9.9960     7.3820    10.1530    24.1180     2.1730 
  117.0000   -19.4500    70.7370    10.1180     7.4250    10.1600    24.1050     2.1730 
  117.1250   -19.3060    64.2600    10.2140     7.5050    10.2730    24.0830     2.1740 
  117.2500   -19.1050    61.9720    10.3320     7.6090    10.3430    24.0830     2.1730 
  117.3750   -18.9210    65.6640    10.5030     7.7270    10.5220    24.1050     2.1660 
  117.5000   -18.7340    71.2890    10.6910     7.8370    10.7890    24.1110     2.1570 
  117.6250   -18.4150    71.2900    10.7370     7.8550    10.9790    24.0900     2.1530 
  117.7500   -18.0040    67.6580    10.4890     7.6940    11.0090    24.0630     2.1580 
  117.8750   -17.6070    64.7690     9.8730     7.2980    10.8770    24.0630     2.1710 
  118.0000   -17.1950    66.8140     8.9520     6.6980    10.2230    24.0630     2.1900 
  118.1250   -16.7520    74.7720     7.9470     6.0100     8.6030    24.0470     2.2140 
  118.2500   -16.3490    83.8430     7.1530     5.4130     6.6520    24.0330     2.2420 
  118.3750   -15.9820    88.1760     6.7430     5.0160     5.6950    24.0470     2.2670 
  118.5000   -15.6730    85.8840     6.7770     4.8750     5.7970    24.0570     2.2800 
  118.6250   -15.5230    82.6220     7.2750     5.0380     6.5860    24.0450     2.2760 
  118.7500   -15.5020    81.7000     8.0330     5.4220     7.5690    24.0210     2.2630 
  118.8750   -15.5580    80.9040     8.8570     5.9460     8.8120    24.0150     2.2500 
  119.0000   -15.6660    78.2970     9.5430     6.4930     9.6140    24.0270     2.2400 
  119.1250   -15.7840    74.3040     9.9030     6.9170     9.7270    24.0530     2.2330 
  119.2500   -15.8750    72.1590    10.0050     7.1790    10.0090    24.0540     2.2280 
  119.3750   -15.9480    71.8150     9.9790     7.3110    10.3050    24.0330     2.2260 
  119.5000   -15.9750    70.6670     9.9590     7.3800    10.4250    24.0150     2.2260 
  119.6250   -15.8360    67.8800     9.9950     7.4260    10.3990    24.0180     2.2280 
  119.7500   -15.5560    66.4520     9.9680     7.4120    10.2920    24.0390     2.2320 
  119.8750   -15.1900    68.0810     9.7320     7.2540    10.1790    24.0600     2.2380 
  120.0000   -14.7650    71.4180     9.2110     6.9030     9.7370    24.0630     2.2460 
  120.1250   -14.2560    74.9590     8.4430     6.3860     8.2210    24.0450     2.2570 
  120.2500   -13.6900    79.0260     7.6600     5.8540     6.4200    24.0250     2.2670 
  120.3750   -13.1420    82.4580     7.0330     5.4170     5.7380    24.0290     2.2770 
  120.5000   -12.6150    83.6690     6.6400     5.1280     5.7800    24.0590     2.2850 
  120.6250   -12.1480    83.4820     6.4810     4.9950     5.8690    24.0740     2.2910 
  120.7500   -11.7500    85.6660     6.4070     4.9370     5.8430    24.0850     2.2990 
  120.8750   -11.4270    90.2720     6.3040     4.8850     5.7210    24.0930     2.3080 
  121.0000   -11.1970    94.3010     6.0910     4.7830     5.5320    24.0970     2.3140 
  121.1250   -11.0440    97.9170     5.7330     4.5870     5.1040    24.0950     2.3120 
  121.2500   -10.9280   104.0840     5.3100     4.3290     4.7430    24.0910     2.3100 
  121.3750   -10.8570   108.7480     4.8900     4.0480     4.4620    24.0920     2.3130 
  121.5000   -10.8780   107.6160     4.5460     3.7940     4.1040    24.0960     2.3250 
  121.6250   -10.9570   105.3640     4.3820     3.6350     3.9560    24.0990     2.3440 
  121.7500   -11.0540   106.3850     4.4190     3.5900     3.8410    24.1000     2.3590 
  121.8750   -11.2070   107.9230     4.6420     3.6620     4.0360    24.0990     2.3670 
  122.0000   -11.4260   104.5190     4.9960     3.8360     4.4480    24.0960     2.3660 
  122.1250   -11.7060    96.1280     5.3880     4.0770     5.1550    24.0970     2.3610 
  122.2500   -12.0480    89.3730     5.7210     4.3190     5.5810    24.0920     2.3590 
  122.3750   -12.4070    86.0540     5.9460     4.5180     5.9010    24.0830     2.3620 
