~V
VERS. 2.00: Ver 2.00
~W
STRT.M 60.0000:
STOP.M 279.0000:
STEP.M 0.1250:
NULL. -999.2500:
UWI. F11060:
~C
DEPT.M :
GR.API :
RML.OHMM :
RI. :
RXO.OHMM :
CALI.CM :
DEN.GM/CC :
SP.MV :
~A
# ...
  195.0000    71.0830    44.6760    40.1390    23.7770    23.9170     2.2470    -5.4080 
  195.1250    70.2740    51.8200    45.7110    27.7500    24.2120     2.2540    -5.5920 
  195.2500    65.8830    61.0620    53.3700    33.4160    24.4340     2.2620    -5.7940 
  195.3750    60.3100    71.2140    62.1820    40.7960    24.6150     2.2630    -6.0970 
  195.5000    57.8720    80.6960    70.7280    52.3460    24.8030     2.2560    -6.4060 
  195.6250    58.5970    87.7370    77.2580    64.9970    24.9570     2.2460    -6.5820 
  195.7500    59.6420    92.5860    81.6770    67.4830    25.0540     2.2370    -6.8040 
  195.8750    60.8150    96.2470    84.6860    63.8760    25.0500     2.2280    -7.0170 
  196.0000    61.1480    99.8230    87.2300    60.2910    24.9890     2.2210    -7.1160 
  196.1250    58.7820   103.9790    89.9960    59.8760    24.8400     2.2170    -7.2160 
  196.2500    55.8000   108.4880    93.0660    61.6220    24.6200     2.2150    -7.3800 
  196.3750    55.7830   112.8400    96.1600    67.5520    24.4930     2.2180    -7.5300 
  196.5000    58.9880   116.5110    98.8860    76.2290    24.5550     2.2280    -7.5890 
  196.6250    62.2210   119.1830   100.9190    83.5480    24.6270     2.2400    -7.7070 
  196.7500    63.3560   121.2450   102.4640    87.6090    24.6560     2.2430    -7.8530 
  196.8750    62.7540   122.8970   103.6900    89.9980    24.6600     2.2340    -7.9020 
  197.0000    61.0740   124.1600   104.6650    96.1520    24.6560     2.2210    -7.9700 
  197.1250    57.8930   124.9890   105.3760   110.6610    24.6570     2.2140    -8.0970 
  197.2500    54.9790   125.7850   106.0430   118.1890    24.6540     2.2130    -8.1050 
  197.3750    53.9660   127.4050   107.2450   114.3800    24.5870     2.2140    -7.9860 
  197.5000    54.9200   131.1250   110.0050   103.5820    24.3850     2.2100    -7.9050 
  197.6250    55.5850   138.9720   116.1080   100.7060    24.0560     2.1960    -7.8300 
  197.7500    54.7710   151.3470   126.0310   109.9760    23.8320     2.1750    -7.6200 
  197.8750    52.9400   168.4050   139.9650   132.0220    23.7610     2.1560    -7.4100 
  198.0000    51.2600   189.0650   157.1090   157.8860    23.8440     2.1470    -7.2490 
  198.1250    49.3470   209.1540   174.4160   195.6360    24.0330     2.1530    -6.9810 
  198.2500    47.6050   222.0480   186.7570   208.0220    24.3310     2.1660    -6.7460 
  198.3750    46.8490   222.8120   189.9960   207.7120    24.6610     2.1820    -6.6630 
  198.5000    47.2010   211.1820   183.0380   198.2590    25.0490     2.1970    -6.6530 
  198.6250    47.3770   191.5660   168.1420   176.8910    25.3920     2.2090    -6.5900 
  198.7500    47.3500   171.7470   151.7040   149.8420    25.6600     2.2170    -6.5900 
  198.8750    48.8000   155.0380   137.0630   131.3220    25.8200     2.2170    -6.6920 
  199.0000    52.0160   142.2080   125.4180   121.7900    25.8760     2.2120    -6.7170 
  199.1250    55.5900   132.8910   116.6650   111.3460    25.8690     2.2070    -6.7590 
  199.2500    58.8660   125.2660   109.3060   100.2790    25.7580     2.2100    -6.8680 
  199.3750    60.6700   118.5420   102.7450    92.5710    25.5640     2.2190    -6.9630 
  199.5000    59.2400   112.7450    97.0610    85.1030    25.4580     2.2290    -6.9700 
  199.6250    56.5590   109.1730    93.2850    80.3090    25.4240     2.2350    -6.9000 
  199.7500    55.1600   108.6920    92.0240    81.2530    25.4210     2.2350    -6.8520 
  199.8750    54.5120   112.0140    93.8190    84.4120    25.4760     2.2290    -6.6890 
  200.0000    53.8250   119.4410    98.8840   106.7120    25.6340     2.2190    -6.5270 
  200.1250    52.7130   131.4100   107.5300   119.0530    25.6800     2.2090    -6.4810 
  200.2500    51.8900   146.4820   118.6060   122.8090    25.6210     2.2030    -6.3750 
  200.3750    51.7750   163.6570   131.3000   111.7820    25.5180     2.2000    -6.1320 
  200.5000    53.3030   182.0060   144.8470   130.4240    25.4500     2.1980    -5.8940 
  200.6250    54.3770   200.9380   158.7740   159.3410    25.4060     2.1950    -5.8170 
  200.7500    51.8280   219.5890   172.4920   180.2590    25.3570     2.1910    -5.6550 
  200.8750    47.9770   235.5770   184.3970   179.6090    25.3110     2.1860    -5.5150 
  201.0000    47.1030   243.5980   191.0480   176.3280    25.2950     2.1830    -5.4570 
  201.1250    49.5320   235.1830   186.5770   174.8790    25.3740     2.1820    -5.2900 
  201.2500    50.6160   213.7690   172.1490   171.5170    25.5510     2.1800    -5.0500 
  201.3750    49.7420   186.8270   151.9650   143.1090    25.6940     2.1790    -4.8640 
  201.5000    49.0010   161.7070   131.5330   104.3860    25.7400     2.1800    -4.7340 
  201.6250    50.1030   143.0020   115.4510    82.1830    25.6950     2.1870    -4.4670 
  201.7500    51.5710   129.3310   103.7410    80.6170    25.5910     2.1950    -4.1920 
  201.8750    52.3690   118.4960    94.9900    88.0480    25.4670     2.2010    -3.9570 
  202.0000    52.5840   108.3210    87.3830    87.8790    25.3900     2.2050    -3.6190 
  202.1250    52.3920    97.7310    79.6710    76.5950    25.4480     2.2140    -3.1850 
  202.2500    52.9110    87.3590    71.8810    61.7030    25.6140     2.2340    -2.8390 
  202.3750    53.4720    78.3270    64.7220    49.5660    25.8010     2.2650    -2.5070 
  202.5000    52.6280    71.4230    58.8950    42.2930    25.8810     2.3140    -1.9980 
  202.6250    50.9160    66.3320    54.4120    38.4740    25.7170     2.3940    -1.4850 
  202.7500    50.1860    60.6710    49.5760    36.2590    25.2600     2.4920    -1.0410 
  202.8750    51.2150    52.4910    42.8100    36.3210    24.6780     2.5740    -0.4700 
  203.0000    53.5280    41.5810    33.8970    37.1700    24.3320     2.6030     0.1230 
  203.1250    55.8660    30.1880    24.7040    33.0460    24.2420     2.5750     0.5680 
  203.2500    57.3730    20.8850    17.2540    18.6570    24.1920     2.5260     1.0370 
  203.3750    59.3170    14.4430    13.5340    10.0710    24.1620     2.4740     1.5620 
  203.5000    62.7500    10.5200    10.3320     6.7030    24.1690     2.4310     2.0000 
  203.6250    66.3440     8.5320     8.2320     6.5740    24.2210     2.4070     2.3230 
  203.7500    66.9270     7.4640     7.0180     7.1480    24.2890     2.3930     2.6770 
  203.8750    64.9780     6.8880     6.3400     7.0930    24.3160     2.3890     2.9840 
  204.0000    62.1160     6.5200     5.9460     6.3820    24.2860     2.4020     3.2000 
  204.1250    58.6730     6.2000     5.6760     5.6340    24.1680     2.4330     3.4350 
  204.2500    56.2380     5.8880     5.4400     4.9900    24.0010     2.4610     3.6990 
  204.3750    56.7920     5.6200     5.2470     4.6260    23.8830     2.4730     3.8910 
  204.5000    57.3540     5.4250     5.1160     4.6150    23.8450     2.4780     3.9670 
  204.6250    54.3680     5.3240     5.0530     4.7160    23.8480     2.4930     4.0580 
  204.7500    51.1100     5.3000     5.0310     4.7180    23.8450     2.5170     4.1060 
  204.8750    49.9760     5.3430     5.0320     4.7310    23.8320     2.5350     4.0030 
  205.0000    50.8410     5.4320     5.0390     4.7590    23.8120     2.5290     3.8790 
  205.1250    52.5030     5.5320     5.0340     4.8650    23.8150     2.4930     3.7760 
  205.2500    54.6240     5.6160     5.0190     5.0910    23.8380     2.4560     3.5690 
  205.3750    55.3400     5.6930     5.0070     5.3650    23.8780     2.4370     3.2710 
  205.5000    55.8160     5.8080     5.0230     5.4540    23.9400     2.4360     3.0090 
  205.6250    61.5240     6.0500     5.1210     5.4300    24.0490     2.4400     2.7370 
  205.7500    70.7800     6.4720     5.3380     5.8640    24.1740     2.4370     2.3580 
  205.8750    78.9140     7.1010     5.7030     6.6810    24.2580     2.4250     2.0110 
  206.0000    82.8780     7.8960     6.2020     7.5660    24.2910     2.4110     1.6820 
  206.1250    84.8070     8.7180     6.7600     8.5390    24.2840     2.3990     1.2070 
