~V
VERS. 2.00: Ver 2.00
~W
STRT.M 55.0000:
STOP.M 286.0000:
STEP.M 0.1250:
NULL. -999.2500:
UWI. F11067:
~C
DEPT.M :
GR.API :
RML.OHMM :
RI. :
RXO.OHMM :
CALI.CM :
DEN.GM/CC :
SP.MV :
~A
# ...
  145.0000    80.3820     8.4240     8.3630     9.2330    24.6400     2.3510    -1.9990 
  145.1250    83.2310     8.5840     8.6650     8.7400    24.6180     2.3440    -2.0960 
  145.2500    83.4600     9.0050     9.0960    10.5720    24.5600     2.3430    -2.1840 
  145.3750    78.7810     9.4140     9.3500    13.1460    24.5160     2.3460    -2.2440 
  145.5000    74.2860     9.5410     9.2240    13.6740    24.5510     2.3490    -2.2870 
  145.6250    75.2310     9.2470     8.8010    11.0600    24.6910     2.3550    -2.2990 
  145.7500    79.1270     8.8280     8.5060     9.6940    24.7930     2.3750    -2.2970 
  145.8750    81.6000     8.6800     8.6960     9.2930    24.8350     2.4170    -2.3100 
  146.0000    80.1200     9.2260     9.7190    10.2650    24.8560     2.4770    -2.2990 
  146.1250    73.7990    11.0490    12.1940    15.5620    24.8950     2.5330    -2.2730 
  146.2500    65.9350    14.1260    16.1260    24.9420    24.9330     2.5630    -2.2550 
  146.3750    60.3180    18.1200    21.0200    34.0220    24.9490     2.5570    -2.2510 
  146.5000    57.6950    22.0530    25.3210    35.4260    24.9300     2.5190    -2.2840 
  146.6250    56.9070    24.0980    26.3230    35.2110    24.8320     2.4600    -2.3220 
  146.7500    57.8980    23.5710    24.0590    33.5570    24.6740     2.4020    -2.3500 
  146.8750    62.5020    20.8430    20.0330    26.3890    24.5580     2.3560    -2.3650 
  147.0000    69.9170    17.0760    15.8800    17.3590    24.5110     2.3270    -2.3520 
  147.1250    76.4340    13.5970    12.6540    13.0170    24.5160     2.3170    -2.3210 
  147.2500    80.3330    11.0040    10.4340    10.7500    24.5450     2.3150    -2.2800 
  147.3750    82.6300     9.3830     9.1530     9.4340    24.5880     2.3110    -2.2330 
  147.5000    84.2600     8.6400     8.6780     7.4470    24.5970     2.3010    -2.1720 
  147.6250    83.0360     8.6790     8.9310     7.9710    24.5570     2.2850    -2.1200 
  147.7500    78.2020     9.2290     9.6070    10.3080    24.4990     2.2760    -2.0550 
  147.8750    71.9670    10.2060    10.5320    12.5530    24.4740     2.2850    -1.9690 
  148.0000    68.3010    11.4260    11.5790    13.3850    24.4710     2.3200    -1.9010 
  148.1250    68.1490    12.6240    12.7280    13.2840    24.4560     2.3820    -1.8350 
  148.2500    67.0610    13.7810    14.0340    14.6870    24.4460     2.4500    -1.7650 
  148.3750    64.5030    15.0990    15.5500    18.5270    24.4940     2.5060    -1.7090 
  148.5000    62.0070    16.6830    17.2160    23.7320    24.5850     2.5370    -1.6390 
  148.6250    60.6440    18.3350    18.6970    25.9220    24.6480     2.5400    -1.5590 
  148.7500    58.8040    19.7020    19.6590    23.5510    24.6690     2.5300    -1.5170 
  148.8750    56.0190    20.5720    20.0440    20.5570    24.6750     2.5220    -1.4740 
  149.0000    53.7680    20.9810    20.1100    19.3700    24.6760     2.5270    -1.4220 
  149.1250    54.3000    21.2620    20.3330    19.8500    24.6770     2.5490    -1.3840 
  149.2500    56.1320    21.8450    21.0040    22.0530    24.6870     2.5790    -1.3460 
  149.3750    56.7620    22.9140    22.1600    24.3210    24.6960     2.6090    -1.2880 
  149.5000    54.8560    24.4180    23.6510    26.6390    24.7060     2.6320    -1.2430 
  149.6250    52.6420    26.1020    25.1820    27.7490    24.7160     2.6460    -1.1840 
  149.7500    52.2440    27.5910    26.4370    29.2060    24.7200     2.6520    -1.1030 
  149.8750    54.3500    28.6470    27.2370    28.7610    24.7240     2.6500    -1.0550 
  150.0000    58.5310    29.1660    27.5430    29.0790    24.7280     2.6390    -1.0260 
  150.1250    60.8680    29.1480    27.4590    29.4980    24.7270     2.6180    -0.9980 
  150.2500    59.0920    28.8900    27.2940    29.0610    24.7260     2.5940    -0.9690 
  150.3750    55.6620    28.6100    27.2320    28.1840    24.7250     2.5790    -0.9400 
  150.5000    54.8140    28.4560    27.3290    27.1460    24.7230     2.5840    -0.9110 
  150.6250    56.8380    28.4440    27.4900    28.7370    24.7240     2.6120    -0.9210 
  150.7500    57.2180    28.3930    27.4790    31.8610    24.7180     2.6440    -0.9400 
  150.8750    55.1380    28.0980    27.0930    30.8120    24.7090     2.6620    -0.9320 
  151.0000    53.6210    27.4080    26.2440    26.6840    24.6790     2.6580    -0.9230 
  151.1250    55.1480    26.2680    24.9960    24.6440    24.6480     2.6330    -0.9310 
  151.2500    57.3560    24.9320    23.6710    23.8850    24.6150     2.6070    -0.9480 
  151.3750    57.6520    23.6350    22.5080    21.9820    24.5940     2.5880    -0.9650 
  151.5000    56.1040    22.5680    21.6530    20.2310    24.6210     2.5810    -0.9910 
  151.6250    55.0270    21.8790    21.2090    19.5880    24.7070     2.5830    -0.9940 
  151.7500    53.9300    21.5180    21.0870    20.4620    24.7900     2.5930    -1.0020 
  151.8750    52.9320    21.4690    21.2670    21.1530    24.8240     2.6090    -1.0300 
  152.0000    51.7930    21.7300    21.7460    21.0330    24.8370     2.6300    -1.0400 
  152.1250    50.1500    22.3300    22.5200    21.9570    24.8500     2.6480    -1.0520 
  152.2500    49.4000    23.1120    23.3790    24.3070    24.8620     2.6570    -1.0460 
  152.3750    50.1980    23.8780    24.0670    26.2300    24.8700     2.6510    -1.0610 
  152.5000    51.5680    24.3760    24.3120    26.4020    24.8740     2.6320    -1.0800 
  152.6250    51.9910    24.2990    23.8550    24.9620    24.8710     2.6050    -1.0860 
  152.7500    53.3250    23.6850    22.8960    22.7390    24.8600     2.5810    -1.0910 
  152.8750    57.1330    22.6890    21.7070    21.2680    24.8450     2.5640    -1.0960 
  153.0000    62.0130    21.5600    20.5810    19.6660    24.8360     2.5570    -1.1020 
  153.1250    64.2950    20.5800    19.7600    18.7250    24.8280     2.5600    -1.1100 
  153.2500    62.7170    19.8690    19.2580    18.3460    24.8030     2.5680    -1.1260 
  153.3750    60.8040    19.4410    19.0420    18.3820    24.7590     2.5760    -1.1300 
  153.5000    62.1430    19.2660    19.0510    19.1420    24.7030     2.5770    -1.1140 
  153.6250    65.5630    19.3320    19.2560    19.6650    24.7010     2.5660    -1.0970 
  153.7500    68.0680    19.5560    19.5780    19.6520    24.7460     2.5510    -1.0750 
  153.8750    69.4110    19.8630    19.9210    20.1060    24.8170     2.5430    -1.0460 
  154.0000    70.3010    20.1210    20.1080    20.4700    24.8330     2.5490    -1.0170 
  154.1250    69.9140    20.0830    19.8550    20.9890    24.7810     2.5680    -0.9770 
  154.2500    69.3960    19.6410    19.1460    20.5730    24.7360     2.5810    -0.9320 
  154.3750    68.2900    18.8170    18.1320    19.0160    24.7220     2.5770    -0.8660 
  154.5000    65.5880    17.7960    17.1040    16.5550    24.7220     2.5550    -0.7920 
  154.6250    64.9150    16.9160    16.4060    15.8170    24.7090     2.5280    -0.7400 
  154.7500    68.5220    16.4130    16.1230    16.3770    24.6490     2.5130    -0.6840 
  154.8750    73.5000    16.3460    16.2070    17.3540    24.5290     2.5150    -0.6270 
  155.0000    74.9960    16.6130    16.4940    17.1970    24.4430     2.5330    -0.5750 
  155.1250    69.7740    16.9800    16.7180    17.0090    24.4090     2.5560    -0.5140 
  155.2500    62.6590    17.1830    16.6920    15.9960    24.4000     2.5700    -0.4720 
  155.3750    59.0280    17.1190    16.3980    14.7760    24.3950     2.5720    -0.4640 
  155.5000    61.3860    16.8340    15.9650    13.8790    24.3990     2.5620    -0.4690 
  155.6250    66.0280    16.5030    15.6170    13.8800    24.4050     2.5460    -0.4420 
  155.7500    67.1580    16.3140    15.4700    14.5190    24.3970     2.5340    -0.4390 
  155.8750    65.4120    16.3340    15.5280    15.1800    24.3650     2.5330    -0.4490 
  156.0000    62.0820    16.5420    15.7450    15.1500    24.3040     2.5420    -0.4540 
  156.1250    57.4220    16.8750    16.0530    16.5450    24.2730     2.5570    -0.4940 
