~V
VERS. 2.00: Ver 2.00
~W
STRT.M 58.0000:
STOP.M 277.0000:
STEP.M 0.1250:
NULL. -999.2500:
UWI. F11038:
~C
DEPT.M :
GR.API :
RML.OHMM :
RI. :
RXO.OHMM :
CALI.CM :
DEN.GM/CC :
SP.MV :
~A
# ...
  103.0000    69.3470     9.9210     8.3460    11.0780    24.3010     2.1860   -28.8520 
  103.1250    69.1130     9.8310     8.2740    10.9170    24.2900     2.1870   -28.8740 
  103.2500    67.9450     9.7540     8.2030    10.3780    24.2850     2.1880   -28.8580 
  103.3750    66.6770     9.7200     8.1610     9.9390    24.2770     2.1890   -28.8320 
  103.5000    67.9740     9.7380     8.1600     9.8360    24.1870     2.1910   -28.7540 
  103.6250    72.2370     9.7840     8.1950     9.9630    24.0100     2.1910   -28.6310 
  103.7500    74.6570     9.8060     8.2240    10.1390    23.8330     2.1870   -28.4600 
  103.8750    74.0760     9.7710     8.2140    10.0850    23.6850     2.1800   -28.2630 
  104.0000    73.5300     9.6670     8.1480     9.7160    23.5370     2.1720   -28.0480 
  104.1250    76.8250     9.5150     8.0300     8.9300    23.4540     2.1670   -27.8080 
  104.2500    80.5670     9.3660     7.9020     8.3560    23.3760     2.1660   -27.5230 
  104.3750    81.6400     9.2550     7.7910     8.0750    23.3180     2.1660   -27.1450 
  104.5000    79.7980     9.1940     7.7120     7.9690    23.3950     2.1650   -26.6670 
  104.6250    78.3240     9.1670     7.6660     8.0390    23.6400     2.1650   -26.0770 
  104.7500    79.3350     9.1320     7.6200     7.9430    23.8360     2.1690   -25.4000 
  104.8750    80.3950     9.0590     7.5490     7.8030    23.8220     2.1810   -24.6550 
  105.0000    79.8020     8.9430     7.4460     7.9090    23.7690     2.2020   -23.8990 
  105.1250    79.8080     8.8040     7.3290     8.2240    23.7680     2.2270   -23.2240 
  105.2500    82.4400     8.6790     7.2210     8.1640    23.7610     2.2470   -22.6740 
  105.3750    85.2390     8.5880     7.1370     8.0740    23.7480     2.2550   -22.2950 
  105.5000    85.6720     8.5410     7.0840     8.5890    23.7430     2.2520   -22.1100 
  105.6250    83.2670     8.5430     7.0700     9.3790    23.6800     2.2420   -22.1720 
  105.7500    80.3640     8.5910     7.0910     9.3940    23.5780     2.2310   -22.4600 
  105.8750    77.5520     8.6950     7.1590     8.9040    23.4990     2.2200   -22.9730 
  106.0000    74.8710     8.8680     7.2830     8.7670    23.5000     2.2100   -23.6660 
  106.1250    73.7680     9.1160     7.4680     9.7170    23.6290     2.1990   -24.4590 
  106.2500    73.5580     9.3890     7.6810    10.2210    23.8640     2.1870   -25.2350 
  106.3750    72.6290     9.6150     7.8760    10.5650    24.1500     2.1750   -25.9230 
  106.5000    70.0310     9.7130     7.9890    10.9190    24.4200     2.1650   -26.4530 
  106.6250    67.2840     9.6050     7.9370    10.9420    24.6900     2.1640   -26.7560 
  106.7500    67.4460     9.3460     7.7500    10.6550    24.8740     2.1730   -26.8910 
  106.8750    70.1780     9.0240     7.4900    10.3210    24.9810     2.1890   -26.9140 
  107.0000    73.1800     8.7380     7.2360     9.7240    24.9930     2.2060   -26.9270 
  107.1250    74.1160     8.5840     7.0700     8.8980    24.9060     2.2120   -27.0450 
  107.2500    74.2330     8.5470     7.0030     8.5680    24.7760     2.2040   -27.2700 
  107.3750    73.3110     8.5720     7.0070     8.8350    24.6630     2.1860   -27.5390 
  107.5000    71.4310     8.5850     7.0300     9.0610    24.6160     2.1650   -27.8020 
  107.6250    68.4760     8.5180     7.0230     8.9090    24.6220     2.1520   -27.9830 
  107.7500    65.6460     8.3920     6.9780     8.5270    24.6100     2.1450   -28.0250 
  107.8750    65.8180     8.2710     6.9240     8.1890    24.6580     2.1400   -27.8580 
  108.0000    69.3140     8.2300     6.9140     7.9750    24.9110     2.1380   -27.4190 
  108.1250    73.3920     8.3320     7.0020     8.5210    25.0680     2.1440   -26.5910 
  108.2500    76.0780     8.5210     7.1530     8.4010    24.9770     2.1610   -25.4490 
  108.3750    77.2700     8.6990     7.3030     8.4660    24.7070     2.1870   -24.0830 
  108.5000    78.5840     8.7530     7.3610     9.0070    24.4600     2.2140   -22.5580 
  108.6250    81.5970     8.5540     7.2050     9.3720    24.4160     2.2320   -20.9130 
  108.7500    89.7620     8.1370     6.8490     8.5220    24.5640     2.2410   -19.2360 
  108.8750   102.0850     7.5800     6.3610     7.1570    24.7830     2.2430   -17.5930 
  109.0000   109.1820     6.9950     5.8360     6.2330    24.9000     2.2450   -16.0500 
  109.1250   104.7940     6.5100     5.3780     5.9210    24.8880     2.2510   -14.6770 
  109.2500    97.6640     6.1810     5.0330     5.5530    24.8370     2.2590   -13.5410 
  109.3750    96.3850     6.0370     4.8250     5.2370    24.7650     2.2670   -12.7260 
  109.5000   100.3500     6.0910     4.7620     5.2470    24.6820     2.2720   -12.3550 
  109.6250   102.3620     6.3670     4.8740     5.5050    24.5720     2.2730   -12.6530 
  109.7500   100.7330     6.8000     5.1360     5.9820    24.4480     2.2670   -13.5060 
  109.8750    95.2080     7.3260     5.5210     6.9670    24.3390     2.2570   -14.8150 
  110.0000    85.8960     7.8620     5.9680     8.1190    24.2650     2.2410   -16.4130 
  110.1250    78.0220     8.3480     6.4100     9.1370    24.2420     2.2210   -18.1370 
  110.2500    76.4700     8.8070     6.8400     9.8070    24.2480     2.1990   -19.7540 
  110.3750    78.6440     9.2930     7.2940    10.3050    24.2750     2.1810   -21.0940 
  110.5000    79.6960     9.8160     7.7810    10.5580    24.2810     2.1780   -21.9680 
  110.6250    78.8570    10.2540     8.2250    11.1850    24.2510     2.2040   -22.0890 
  110.7500    80.5020    10.4020     8.4660    13.6300    24.2040     2.2530   -21.5500 
  110.8750    84.8540    10.0870     8.3330    17.4070    24.1260     2.3110   -20.4610 
  111.0000    89.1300     9.2890     7.7690    15.1770    23.9940     2.3530   -18.9860 
  111.1250    92.8250     8.1950     6.9230     8.8240    23.8720     2.3590   -17.3040 
  111.2500    95.4650     7.1920     6.1210     6.3740    23.8160     2.3390   -15.5860 
  111.3750    97.7320     6.5080     5.5360     5.6330    23.8540     2.3060   -13.9850 
  111.5000   100.4040     6.2150     5.2360     5.4080    24.0260     2.2710   -12.6210 
  111.6250   102.6750     6.2700     5.2260     5.4610    24.2760     2.2440   -11.6390 
  111.7500   105.6020     6.4430     5.3530     5.9340    24.3960     2.2230   -10.9550 
  111.8750   108.0750     6.5830     5.4900     6.3500    24.3620     2.2150   -10.4510 
  112.0000   110.0240     6.6020     5.5460     6.4670    24.3510     2.2220   -10.0280 
  112.1250   111.5230     6.4690     5.4710     6.1300    24.4160     2.2480    -9.6430 
  112.2500   111.8670     6.2640     5.3150     5.9730    24.4440     2.2790    -9.3150 
  112.3750   111.3780     6.0550     5.1320     5.8360    24.4320     2.3040    -9.0120 
  112.5000   109.4500     5.8870     4.9700     5.7280    24.4270     2.3170    -8.7380 
  112.6250   106.9920     5.7700     4.8580     5.6180    24.4080     2.3150    -8.4760 
  112.7500   106.1860     5.6710     4.7720     5.4940    24.3590     2.3080    -8.2620 
  112.8750   106.8270     5.5850     4.7010     5.4640    24.3040     2.3020    -8.1210 
  113.0000   110.1530     5.5520     4.6690     5.4590    24.2820     2.2990    -8.0580 
  113.1250   115.4090     5.6660     4.7490     5.4110    24.2410     2.3060    -8.0710 
  113.2500   119.1910     5.9420     4.9590     5.3340    24.1640     2.3260    -8.1130 
  113.3750   117.0330     6.3370     5.2830     5.7290    24.0940     2.3580    -8.1790 
  113.5000   108.7800     6.7300     5.6480     7.2460    24.1140     2.3880    -8.2520 
  113.6250   102.3530     6.9310     5.9020     8.8390    24.3120     2.3910    -8.3380 
  113.7500   102.7990     6.8810     5.9540     7.8870    24.4930     2.3620    -8.3950 
  113.8750   109.3300     6.6300     5.8200     6.2670    24.6480     2.3120    -8.4470 
  114.0000   117.1510     6.3060     5.6010     5.6720    24.7480     2.2630    -8.5240 
  114.1250   118.5630     6.0640     5.4180     5.5330    24.6820     2.2390    -8.6300 
