~V
VERS. 2.00: Ver 2.00
~W
STRT.M 52.0000:
STOP.M 269.0000:
STEP.M 0.1250:
NULL. -999.2500:
UWI. F11071:
~C
DEPT.M :
GR.API :
RML.OHMM :
RI. :
RXO.OHMM :
CALI.CM :
DEN.GM/CC :
SP.MV :
~A
# ...
  119.5000    65.2510     8.7210     7.3800     9.1340    25.1700     2.1230   -20.0670 
  119.6250    66.6920     8.7110     7.3830     9.2730    25.1320     2.1280   -20.3400 
  119.7500    67.4130     8.6570     7.3620     9.3770    25.0890     2.1330   -20.3970 
  119.8750    70.6680     8.5580     7.3110     9.2430    25.0070     2.1390   -20.2010 
  120.0000    76.5740     8.4250     7.2280     8.8910    24.9390     2.1480   -19.8170 
  120.1250    80.5180     8.2740     7.1100     8.5380    24.9090     2.1590   -19.3450 
  120.2500    80.9370     8.1230     6.9740     8.3390    24.8540     2.1660   -18.8920 
  120.3750    80.1730     7.9860     6.8380     8.2060    24.7890     2.1650   -18.4570 
  120.5000    79.6700     7.8780     6.7230     8.0580    24.7630     2.1600   -18.0160 
  120.6250    80.0570     7.8110     6.6510     7.8800    24.7850     2.1560   -17.6040 
  120.7500    81.3770     7.7760     6.6210     7.8320    24.8280     2.1600   -17.2990 
  120.8750    82.3260     7.7590     6.6190     7.9060    24.8600     2.1710   -17.1180 
  121.0000    81.3610     7.7380     6.6240     7.9700    24.8660     2.1880   -17.0280 
  121.1250    80.0900     7.6900     6.6170     7.9050    24.8600     2.2010   -17.0380 
  121.2500    82.2010     7.6220     6.5930     7.8030    24.8690     2.2020   -17.1040 
  121.3750    84.9970     7.5680     6.5620     7.6890    24.9120     2.1890   -17.1970 
  121.5000    83.2910     7.5890     6.5620     7.5880    25.0000     2.1730   -17.2290 
  121.6250    77.0660     7.7680     6.6820     7.9750    25.0820     2.1810   -17.0180 
  121.7500    71.7450     8.0700     6.9260     8.5190    25.1430     2.2280   -16.4970 
  121.8750    70.0020     8.3870     7.2290     8.8940    25.1530     2.3060   -15.6860 
  122.0000    72.4980     8.5540     7.4610     9.6840    25.1140     2.3870   -14.6720 
  122.1250    78.9340     8.3610     7.4180    12.0560    25.1100     2.4320   -13.4720 
  122.2500    87.4340     7.8370     7.0560    13.8410    25.1390     2.4320   -12.1910 
  122.3750    96.9490     7.1050     6.4540    10.7420    25.1640     2.3980   -10.8770 
  122.5000   105.1480     6.3410     5.7710     6.5790    25.1440     2.3550    -9.6180 
  122.6250   108.8530     5.7200     5.1620     5.3470    25.0880     2.3230    -8.5700 
  122.7500   111.2800     5.2760     4.6870     4.9000    25.1080     2.3070    -7.7840 
  122.8750   115.8080     4.9890     4.3600     4.7200    25.2060     2.3060    -7.2540 
  123.0000   123.1750     4.8300     4.1600     4.5160    25.2920     2.3130    -6.9570 
  123.1250   126.4550     4.8090     4.0750     4.3980    25.3010     2.3180    -6.8880 
  123.2500   123.6030     4.9160     4.0890     4.3400    25.2820     2.3150    -6.9410 
  123.3750   116.8620     5.1530     4.2170     4.5120    25.2730     2.2980    -7.0770 
  123.5000   108.3600     5.4950     4.4610     4.8450    25.2710     2.2730    -7.2860 
  123.6250   101.6840     5.8780     4.8010     4.9960    25.2790     2.2460    -7.5820 
  123.7500    99.1490     6.2120     5.1540     5.2870    25.2790     2.2260    -7.9120 
  123.8750    99.3970     6.4370     5.4410     5.6550    25.2310     2.2170    -8.2600 
  124.0000    99.2780     6.5290     5.6010     5.7360    25.1280     2.2160    -8.5860 
  124.1250    98.9710     6.4940     5.5940     5.7760    25.0140     2.2210    -8.8640 
  124.2500   100.2790     6.4070     5.4830     5.5310    24.9240     2.2280    -9.1200 
  124.3750   100.0070     6.3250     5.3330     5.1810    24.8320     2.2350    -9.3810 
  124.5000    96.8030     6.2980     5.2100     5.0200    24.7800     2.2400    -9.6970 
  124.6250    95.2020     6.3750     5.1880     5.2630    24.8160     2.2410   -10.1400 
  124.7500    96.4320     6.5430     5.2770     5.4890    24.8810     2.2330   -10.7070 
  124.8750    96.2860     6.7710     5.4560     5.9530    24.9100     2.2170   -11.3390 
  125.0000    91.9750     7.0030     5.6640     6.7230    24.9360     2.1990   -11.9310 
  125.1250    87.5480     7.1580     5.8060     6.9890    24.9810     2.1970   -12.3460 
  125.2500    87.1590     7.1950     5.8380     6.9160    25.0480     2.2180   -12.5960 
  125.3750    89.8230     7.1070     5.7650     6.5200    25.1060     2.2570   -12.7000 
  125.5000    91.9860     6.9280     5.6250     6.0820    25.1510     2.2980   -12.6820 
  125.6250    93.9580     6.7370     5.4780     5.9610    25.1740     2.3190   -12.4790 
  125.7500    96.0590     6.6250     5.3820     6.0520    25.1590     2.3170   -12.1260 
  125.8750    96.5130     6.6390     5.3680     5.9440    25.1250     2.2980   -11.7140 
  126.0000    93.4240     6.7730     5.4410     5.7910    25.0880     2.2740   -11.3700 
  126.1250    89.3120     6.9620     5.5850     5.7330    25.0670     2.2530   -11.1670 
  126.2500    87.2690     7.1070     5.7370     6.2480    25.0510     2.2380   -11.0000 
  126.3750    86.7940     7.1490     5.8410     6.8280    25.0590     2.2260   -10.7790 
  126.5000    87.6710     7.0610     5.8570     6.6770    25.0880     2.2160   -10.4540 
  126.6250    88.9580     6.8300     5.7460     6.0600    25.1460     2.2110   -10.0620 
  126.7500    90.2990     6.5070     5.5320     5.6750    25.2080     2.2150    -9.6670 
  126.8750    93.8350     6.1370     5.2480     5.5150    25.2540     2.2290    -9.2850 
  127.0000    99.5210     5.7790     4.9410     5.4680    25.2710     2.2470    -8.9040 
  127.1250   102.1990     5.5170     4.6840     5.2450    25.2590     2.2570    -8.5920 
  127.2500   100.7080     5.3990     4.5230     4.8630    25.2190     2.2550    -8.4460 
  127.3750    98.8940     5.4520     4.4970     4.6320    25.1460     2.2470    -8.4870 
  127.5000    99.9700     5.6680     4.6200     4.7710    25.0710     2.2460    -8.6540 
  127.6250   102.1570     6.0020     4.8840     5.0600    25.0730     2.2620    -8.8560 
  127.7500   102.6000     6.3200     5.1850     5.2170    25.1380     2.2820    -9.0350 
  127.8750   100.6020     6.5030     5.4200     5.6530    25.1950     2.2910    -9.1770 
  128.0000    97.1550     6.4680     5.4890     6.0590    25.1730     2.2860    -9.2700 
  128.1250    97.3450     6.1980     5.3280     5.6130    25.1020     2.2780    -9.2790 
  128.2500   102.1750     5.8530     5.0630     5.0100    25.0590     2.2830    -9.1630 
  128.3750   106.9100     5.5880     4.8230     4.7270    25.0240     2.3090    -8.9790 
  128.5000   105.7630     5.5250     4.7100     4.6290    24.9920     2.3450    -8.8180 
  128.6250    98.6250     5.7520     4.8190     4.9670    24.9600     2.3700    -8.7650 
  128.7500    92.0170     6.1700     5.1160     6.3610    24.9620     2.3680    -8.8370 
  128.8750    87.4760     6.6530     5.5360     7.7550    24.9840     2.3420    -8.9820 
  129.0000    82.6220     7.0500     5.9670     7.8850    25.0000     2.3030    -9.1850 
  129.1250    76.4180     7.2000     6.2480     6.8440    24.9690     2.2740    -9.4390 
  129.2500    72.3080     7.1050     6.3090     6.5820    24.8890     2.2630    -9.7000 
  129.3750    71.8810     6.8250     6.1500     6.5200    24.7990     2.2710    -9.9110 
  129.5000    74.8260     6.4710     5.8520     6.2160    24.7530     2.2870   -10.0270 
  129.6250    79.7610     6.1860     5.5480     5.6890    24.7460     2.2990   -10.0270 
  129.7500    84.6770     6.0530     5.3390     5.1450    24.7490     2.3000    -9.9570 
  129.8750    87.9330     6.0930     5.2620     4.9670    24.7440     2.2930    -9.8820 
  130.0000    87.2380     6.2710     5.3120     5.3720    24.7330     2.2840    -9.7890 
  130.1250    84.7330     6.4980     5.4430     6.1780    24.7450     2.2800    -9.6470 
  130.2500    83.9740     6.6640     5.5600     6.5140    24.7960     2.2820    -9.5450 
  130.3750    84.1890     6.7320     5.6120     5.9870    24.8220     2.2870    -9.5430 
  130.5000    85.1960     6.7470     5.6140     5.5100    24.8080     2.2880    -9.6480 
  130.6250    87.5600     6.8610     5.6600     5.8350    24.7470     2.2790    -9.8180 
