~V
VERS. 2.00: Ver 2.00
~W
STRT.M 53.0000:
STOP.M 220.0000:
STEP.M 0.1250:
NULL. -999.2500:
UWI. F11005:
~C
DEPT.M :
DEN.GM/CC :
GR.API :
RML.OHMM :
RI. :
RXO.OHMM :
CALI.CM :
SP.MV :
~A
   53.0000  -999.2500  -999.2500  -999.2500  -999.2500  -999.2500  -999.2500     0.0000 
   53.1250  -999.2500  -999.2500  -999.2500  -999.2500  -999.2500  -999.2500     0.0000 
   53.2500  -999.2500  -999.2500  -999.2500  -999.2500  -999.2500  -999.2500     0.0000 
   53.3750  -999.2500  -999.2500  -999.2500  -999.2500  -999.2500  -999.2500   123.4810 
   53.5000     2.0480  -999.2500  -999.2500  -999.2500  -999.2500  -999.2500   162.0030 
   53.6250     2.0480  -999.2500  -999.2500  -999.2500  -999.2500  -999.2500   157.9330 
   53.7500     2.0420  -999.2500  -999.2500  -999.2500  -999.2500  -999.2500   153.2910 
   53.8750     2.0220     0.0000     0.0000     0.0000     0.0000     0.0000   148.0720 
   54.0000     1.9990     0.0000     0.0000     0.0000     0.0000     0.0000   142.3780 
   54.1250     1.9790     0.0000     2.2210     0.0000     0.0000     0.0000   136.4580 
   54.2500     1.9650    25.6590     8.9700     0.5240     0.4800    12.6570   130.6460 
   54.3750     1.9640    50.9470     9.0860     1.0480     0.9760    25.3610   125.1760 
   54.5000     1.9750    44.9150     8.9870     1.0980     0.9760    25.2760   120.2060 
   54.6250     1.9950    45.5260     8.7680     1.0750     1.0100    25.3670   115.7020 
   54.7500     2.0140    48.9230     8.6050     1.0560     0.9990    25.3590   111.4490 
   54.8750     2.0260    51.6490     8.4950     1.0530     0.9750    25.2530   107.4600 
   55.0000     2.0300    53.1470     8.4060     1.0620     0.9950    25.2270   103.7560 
   55.1250     2.0290    54.9550     8.3310     1.0730     1.0200    25.3110   100.4430 
   55.2500     2.0300    54.3980     8.2540     1.0830     1.0120    25.3660    97.4700 
   55.3750     2.0310    51.8620     8.1610     1.0900     1.0220    25.3300    94.8000 
   55.5000     2.0320    49.2110     8.0400     1.0910     1.0570    25.1440    92.3140 
   55.6250     2.0330    48.9630     7.8760     1.0850     1.1810    24.8750    89.6720 
   55.7500     2.0360    50.3910     7.6810     1.0740     1.2660    24.8080    86.7920 
   55.8750     2.0460    52.1770     7.4730     1.0610     1.1980    24.9940    83.8040 
   56.0000     2.0670    53.4270     7.2750     1.0480     1.0720    25.3190    80.8330 
   56.1250     2.1090    54.4810     7.1220     1.0400     1.0170    25.7060    77.8610 
   56.2500     2.1670    55.7890     7.0180     1.0390     0.9740    25.8590    74.8670 
   56.3750     2.2290    55.5850     6.9480     1.0430     0.9340    25.8580    71.9260 
   56.5000     2.2810    52.8170     6.8830     1.0510     0.9000    25.8230    69.1620 
   56.6250     2.3080    49.4580     6.7850     1.0550     0.8850    25.7890    66.8780 
   56.7500     2.3180    47.1360     6.6400     1.0540     0.9000    25.7890    65.0940 
   56.8750     2.3240    45.4740     6.4550     1.0450     0.9540    25.8080    63.8040 
   57.0000     2.3400    45.3560     6.2520     1.0320     1.0190    25.8220    62.9780 
   57.1250     2.3720    48.0000     6.0580     1.0140     1.0780    25.7940    62.6590 
   57.2500     2.4120    50.6430     5.8920     0.9960     1.1110    25.6980    62.7780 
   57.3750     2.4520    50.2600     5.7610     0.9810     1.1110    25.5330    63.3190 
   57.5000     2.4880    47.4730     5.6600     0.9690     1.1650    25.3460    64.2250 
   57.6250     2.5140    45.0690     5.5820     0.9570     1.2530    25.1620    65.3970 
   57.7500     2.5330    45.2120     5.5190     0.9360     1.3290    25.0280    66.6670 
   57.8750     2.5450    46.1370     5.4690     0.9020     1.3310    24.9260    67.9330 
   58.0000     2.5490    46.1550     5.4050     0.8490     1.3600    24.7900    69.0770 
   58.1250     2.5450    46.8270     5.1870     0.7670     1.4840    24.6600    69.8940 
   58.2500     2.5440    50.5960     4.6530     0.6470     1.6550    24.4780    70.2040 
   58.3750     2.5600    55.4800     3.7350     0.4920     1.7960    24.2760    69.7350 
   58.5000     2.6020    57.2530     2.5710     0.3260     1.9010    24.0990    68.1170 
   58.6250     2.6530    54.8260     1.5030     0.1940     1.9410    23.7270    64.6560 
   58.7500     2.6690    52.4140     0.7590     0.1120     1.9350    23.4460    59.2550 
   58.8750     2.6090    52.2380     0.3810     0.0770     1.9390    23.3330    51.6990 
   59.0000     2.4600    54.1900     0.3300     0.0890     2.0520    23.3830    42.0990 
   59.1250     2.2390    56.9510     0.6700     0.1940     2.4760    23.6160    30.9790 
   59.2500     2.0150    60.1150     1.4670     0.4580     3.5520    24.1500    19.5190 
   59.3750     1.8300    64.0860     2.8620     1.0050     5.2440    25.3550     8.3920 
   59.5000     1.7040    67.7000     4.7660     1.9550     7.0260    27.4650    -1.8790 
   59.6250     1.6420    66.9970     6.5130     3.2670     7.9090    30.1930   -10.5240 
   59.7500     1.6260    63.1170     7.3780     4.4450     8.3600    32.3760   -17.1550 
   59.8750     1.6470    61.3110     7.2570     5.1650     9.3820    33.8540   -21.3700 
   60.0000     1.7050    63.8590     6.6000     5.4450     9.9800    33.9840   -23.2280 
   60.1250     1.8000    68.1150     5.9670     5.4420     7.9020    32.1720   -23.0650 
   60.2500     1.9150    73.2100     5.5320     5.3220     5.9400    29.0210   -21.9220 
   60.3750     2.0350    80.6950     5.2530     5.1390     5.3830    26.5270   -20.2550 
   60.5000     2.1420    90.6170     5.0940     4.9570     5.4720    25.2140   -18.3960 
   60.6250     2.2130    98.4860     5.0750     4.8580     5.4890    24.8890   -16.6630 
   60.7500     2.2490   102.2170     5.1650     4.8600     5.1260    24.7350   -15.2480 
   60.8750     2.2550   101.0230     5.3240     4.9500     5.1980    24.3650   -14.2440 
   61.0000     2.2420    98.6050     5.4950     5.0870     6.2960    24.0350   -13.7000 
   61.1250     2.2190   100.6620     5.6410     5.2430     7.0940    23.9900   -13.7340 
   61.2500     2.1970   102.5200     5.7980     5.4290     6.8250    24.1370   -14.2520 
   61.3750     2.1790    99.5520     6.0500     5.7040     6.1420    24.3180   -15.1420 
   61.5000     2.1660    92.7080     6.4870     6.1370     6.5740    24.2380   -16.1620 
   61.6250     2.1560    85.5980     7.1710     6.7920     7.3790    24.0840   -16.9730 
   61.7500     2.1490    78.6300     7.9390     7.5480     8.5270    23.9380   -17.4680 
   61.8750     2.1500    71.9310     8.5340     8.1780     9.3990    23.9800   -17.6590 
   62.0000     2.1650    69.6420     8.6870     8.3750     9.7310    24.0800   -17.5070 
   62.1250     2.2010    76.2110     8.2030     7.8760     9.2200    24.1760   -16.8740 
   62.2500     2.2460    90.1250     7.3510     6.9640     7.7280    24.4010   -15.8490 
   62.3750     2.2860   106.5720     6.4110     5.9470     5.8250    24.8030   -14.5730 
   62.5000     2.3110   116.0460     5.5970     5.0590     4.7280    25.0800   -13.2430 
   62.6250     2.3190   113.7600     5.0490     4.4420     4.3910    25.0740   -12.0350 
   62.7500     2.3270   108.9840     4.7650     4.0830     4.3630    24.9640   -11.0320 
   62.8750     2.3490   107.9640     4.8140     4.0180     4.3910    24.8610   -10.2840 
   63.0000     2.3900   108.1900     5.3340     4.3330     4.6390    24.7370    -9.8920 
   63.1250     2.4390   103.7210     6.6940     5.2980     5.3220    24.4570    -9.9790 
   63.2500     2.4760    96.0880     9.0470     7.0610     7.0000    23.9780   -10.4180 
   63.3750     2.4850    86.6200    12.3790     9.7670    11.1440    23.4770   -11.1560 
   63.5000     2.4620    75.8210    16.0020    13.1400    19.3040    23.1430   -12.1520 
   63.6250     2.4100    67.4370    18.1270    15.6270    22.1030    23.2320   -13.3650 
   63.7500     2.3440    65.5340    17.8610    15.7780    16.7630    23.5740   -14.6890 
   63.8750     2.2710    67.3210    15.6460    13.9110    12.3990    23.9270   -16.0580 
   64.0000     2.1960    67.4670    12.8270    11.4520     9.9550    24.1640   -17.3770 
   64.1250     2.1330    66.1560    10.7440     9.5740     8.2260    24.3630   -18.5650 
