~V
VERS. 2.00: Ver 2.00
~W
STRT.M 51.0000:
STOP.M 252.0000:
STEP.M 0.1250:
NULL. -999.2500:
UWI. F11020:
~C
DEPT.M :
DEN.GM/CC :
GR.API :
RML.OHMM :
RI. :
RXO.OHMM :
CALI.CM :
SP.MV :
~A
# ...
   73.5000     2.3670    97.8440     6.8060     5.5290     4.6700    24.5850   -19.3820 
   73.6250     2.3590    96.0660     6.9780     5.6940     4.9760    24.3680   -19.4320 
   73.7500     2.3420    93.7480     7.0640     5.7760     5.2620    24.3210   -19.5230 
   73.8750     2.3210    90.3240     7.0410     5.7530     5.2900    24.5530   -19.6630 
   74.0000     2.3050    89.7540     6.9360     5.6540     5.1470    24.9190   -19.8740 
   74.1250     2.2960    93.7780     6.8130     5.5370     4.9970    25.1700   -20.1540 
   74.2500     2.2900    96.9540     6.7610     5.4870     5.0870    25.1920   -20.4880 
   74.3750     2.2790    93.8390     6.8620     5.5820     5.5080    25.0820   -20.8100 
   74.5000     2.2640    85.4760     7.1570     5.8640     6.4360    24.9490   -21.0790 
   74.6250     2.2540    75.9690     7.6130     6.2980     7.8020    24.9100   -21.2470 
   74.7500     2.2630    70.6300     8.0810     6.7440     9.4570    25.0120   -21.2940 
   74.8750     2.2810    70.1340     8.3560     7.0060    10.9380    25.1980   -21.2600 
   75.0000     2.2880    71.9760     8.3460     6.9960    10.2520    25.3450   -21.1530 
   75.1250     2.2680    74.4410     8.1160     6.7770     7.3920    25.3550   -20.9980 
   75.2500     2.2380    78.1110     7.8370     6.5120     6.3730    25.2520   -20.7870 
   75.3750     2.2220    82.0460     7.6470     6.3300     6.3910    25.1340   -20.5340 
   75.5000     2.2230    82.4280     7.5600     6.2480     6.3860    25.0720   -20.2390 
   75.6250     2.2360    78.8500     7.5380     6.2270     6.0210    25.0510   -19.9610 
   75.7500     2.2610    76.7800     7.5100     6.2000     5.9200    25.0650   -19.7010 
   75.8750     2.2930    79.7980     7.4020     6.0970     5.8310    25.1320   -19.4530 
   76.0000     2.3230    85.3900     7.1760     5.8820     5.4930    25.2400   -19.2140 
   76.1250     2.3380    90.8820     6.8400     5.5620     5.0090    25.3140   -18.9890 
   76.2500     2.3410    95.2970     6.4420     5.1820     4.6780    25.3100   -18.7930 
   76.3750     2.3500    96.4570     6.0910     4.8490     4.5150    25.2640   -18.6610 
   76.5000     2.3680    96.2530     5.9320     4.6970     4.4990    25.2230   -18.6400 
   76.6250     2.3900    99.3450     6.1370     4.8920     4.5860    25.2110   -18.7640 
   76.7500     2.4110   103.5300     6.8910     5.6110     5.1620    25.2220   -19.0840 
   76.8750     2.4370    99.2070     8.2070     6.8640     7.3690    25.2240   -19.5870 
   77.0000     2.4750    84.1030    10.0250     8.5950    14.3870    25.1970   -20.2480 
   77.1250     2.5100    67.1620    11.9660    10.4440    30.3010    25.1570   -21.0480 
   77.2500     2.5000    58.5720    13.1770    11.5970    42.7890    25.1350   -21.9660 
   77.3750     2.4320    58.7850    13.0990    11.5230    29.6990    25.1130   -22.9520 
   77.5000     2.3440    65.2290    11.9880    10.4650    13.5480    25.0500   -23.9480 
   77.6250     2.2780    70.4500    10.5780     9.1220     7.9820    24.9320   -24.8930 
   77.7500     2.2400    70.1070     9.4470     8.0450     7.4250    24.8330   -25.7370 
   77.8750     2.2150    67.7920     8.6920     7.3250     7.7140    24.8270   -26.4630 
   78.0000     2.1980    67.4770     8.2460     6.9010     7.7200    24.8940   -27.0670 
   78.1250     2.1950    68.7720     8.0760     6.7390     7.5030    24.9840   -27.5430 
   78.2500     2.2170    69.1570     8.2630     6.9170     7.1780    25.0930   -27.9150 
   78.3750     2.2700    69.4240     8.8610     7.4870     6.9330    25.1950   -28.2450 
   78.5000     2.3490    68.3830     9.9060     8.4820     7.6990    25.2710   -28.5980 
   78.6250     2.4340    64.1200    11.2830     9.7930    11.2630    25.2940   -29.0050 
   78.7500     2.4740    59.8760    12.6040    11.0510    17.9550    25.2510   -29.4750 
   78.8750     2.4350    58.4800    13.3130    11.7260    21.0210    25.1760   -29.9780 
   79.0000     2.3400    58.0840    13.1390    11.5610    15.1890    25.1130   -30.5010 
   79.1250     2.2470    56.1110    12.2770    10.7400    10.4250    25.1270   -31.0290 
   79.2500     2.1960    54.5180    11.2170     9.7300     9.0980    25.2190   -31.5350 
   79.3750     2.1770    54.5410    10.3850     8.9380     8.8670    25.3050   -31.9910 
   79.5000     2.1730    54.1210     9.8830     8.4600     8.7950    25.3400   -32.3670 
   79.6250     2.1770    52.9680     9.6310     8.2200     8.7320    25.3360   -32.6530 
   79.7500     2.1880    53.3230     9.4860     8.0820     8.6700    25.2840   -32.8560 
   79.8750     2.2110    54.5300     9.4080     8.0070     8.7130    25.1890   -33.0140 
   80.0000     2.2420    55.8010     9.5410     8.1340     8.8900    25.0950   -33.1350 
   80.1250     2.2740    57.1090    10.0990     8.6660     9.2080    25.0750   -33.2330 
   80.2500     2.3070    57.3180    11.2520     9.7640    10.6410    25.1670   -33.3190 
   80.3750     2.3520    55.4220    12.8040    11.2420    15.4560    25.3270   -33.3780 
   80.5000     2.4060    53.5030    14.3180    12.6840    24.7670    25.4180   -33.4300 
   80.6250     2.4380    54.0360    15.0970    13.4260    30.3770    25.3670   -33.4810 
   80.7500     2.4030    55.9990    14.5970    12.9490    21.0450    25.2000   -33.5290 
   80.8750     2.3230    56.1400    13.2780    11.6940    12.9710    25.0610   -33.5790 
   81.0000     2.2500    56.0150    11.7770    10.2630    10.2660    24.9970   -33.6340 
   81.1250     2.2100    57.7990    10.5740     9.1180     9.7240    24.9830   -33.7100 
   81.2500     2.1990    59.7290     9.8820     8.4590     9.6130    24.9830   -33.8190 
   81.3750     2.2000    59.5170     9.5520     8.1440     9.4410    24.9830   -33.9860 
   81.5000     2.2060    58.1050     9.4160     8.0160     9.2050    24.9830   -34.1960 
   81.6250     2.2100    57.4330     9.3490     7.9510     9.0150    24.9930   -34.4470 
   81.7500     2.2030    58.2890     9.3180     7.9220     8.8730    25.0510   -34.7530 
   81.8750     2.1860    59.0480     9.3400     7.9430     8.7500    25.1770   -35.1040 
   82.0000     2.1690    58.5920     9.4070     8.0060     8.8110    25.3050   -35.5040 
   82.1250     2.1640    55.8720     9.4680     8.0640     9.0350    25.3380   -35.9240 
   82.2500     2.1670    52.2860     9.4650     8.0610     9.4790    25.3090   -36.3360 
   82.3750     2.1680    51.3620     9.3860     7.9870     9.9130    25.3510   -36.7170 
   82.5000     2.1580    52.5280     9.2580     7.8650    10.0530    25.4530   -37.0650 
   82.6250     2.1360    54.3510     9.1350     7.7480     9.8020    25.5380   -37.3550 
   82.7500     2.1090    56.9590     9.0680     7.6840     9.6350    25.5630   -37.5550 
   82.8750     2.0890    59.3730     9.0570     7.6740     9.7540    25.5660   -37.6640 
   83.0000     2.0830    60.0700     9.0700     7.6860    10.0660    25.6010   -37.6810 
   83.1250     2.0830    58.7060     9.0750     7.6910    10.4180    25.7240   -37.5920 
   83.2500     2.0800    57.1190     9.0730     7.6890    10.6960    25.8910   -37.3980 
   83.3750     2.0790    55.8920     9.0930     7.7070    10.5520    25.9840   -37.1230 
   83.5000     2.0910    54.6580     9.1420     7.7550    10.1490    26.0280   -36.7650 
   83.6250     2.1060    53.5120     9.1900     7.8000     9.8650    26.1220   -36.3500 
   83.7500     2.1070    53.2330     9.1970     7.8060     9.6110    26.3500   -35.9040 
   83.8750     2.1000    54.1750     9.1930     7.8030     9.2340    26.5820   -35.4260 
   84.0000     2.1060    55.5090     9.2340     7.8420     8.8590    26.5830   -34.9130 
   84.1250     2.1350    55.0590     9.3320     7.9360     8.8980    26.3110   -34.4010 
   84.2500     2.1690    52.5330     9.4410     8.0390     9.2350    26.0400   -33.9200 
   84.3750     2.1870    52.0680     9.4780     8.0750     9.3690    25.9510   -33.4470 
   84.5000     2.1840    55.7420     9.4130     8.0130     9.2830    26.0000   -32.9930 
   84.6250     2.1700    59.7150     9.2730     7.8800     9.1120    26.0820   -32.5520 
