~V
VERS. 2.00: Ver 2.00
~W
STRT.M 62.0000:
STOP.M 236.0000:
STEP.M 0.1250:
NULL. -999.2500:
UWI. F11006:
~C
DEPT.M :
GR.API :
RML.OHMM :
RI. :
RXO.OHMM :
CALI.CM :
SP.MV :
DEN.GM/CC :
~A
# ...
   84.5000    94.0920     6.0780     4.6180     6.3210    23.1580   -15.5260     2.1910 
   84.6250    91.6070     6.4390     4.8610     6.6670    23.1570   -15.2840     2.1940 
   84.7500    86.7510     6.7060     5.0860     6.7950    23.3060   -15.3300     2.1920 
   84.8750    83.5320     6.8260     5.2340     6.8240    23.3900   -15.6560     2.1870 
   85.0000    83.6160     6.8010     5.2850     6.9190    23.3650   -16.1090     2.1770 
   85.1250    84.1980     6.6840     5.2470     7.0670    23.2210   -16.5500     2.1630 
   85.2500    85.1480     6.5950     5.1920     7.2090    22.9950   -16.8910     2.1460 
   85.3750    87.0100     6.6670     5.1970     7.4240    22.7700   -17.1790     2.1290 
   85.5000    86.1840     7.0730     5.3720     7.7350    22.5990   -17.4550     2.1210 
   85.6250    80.4890     8.1030     5.9270     8.1580    22.5420   -17.6690     2.1380 
   85.7500    76.7060     9.7620     6.9460     8.6810    22.6880   -17.8300     2.1900 
   85.8750    78.1460    11.8910     8.4390    10.4560    23.0090   -17.9610     2.2780 
   86.0000    81.8090    14.0250    10.1910    15.9710    23.4200   -18.1400     2.3820 
   86.1250    82.6850    15.2530    11.5780    27.8900    23.7560   -18.4220     2.4620 
   86.2500    80.5010    15.1430    12.0580    31.8960    23.6780   -18.7400     2.4880 
   86.3750    76.9590    13.7940    11.4970    21.6120    23.0690   -19.0140     2.4550 
   86.5000    75.4650    11.8020    10.2100    11.9320    22.3470   -19.2110     2.3800 
   86.6250    78.2300     9.9650     8.7640     9.4980    22.0140   -19.3710     2.2960 
   86.7500    80.1150     8.6820     7.5900     9.0540    21.8440   -19.5380     2.2280 
   86.8750    78.0820     7.9710     6.8000     8.9290    21.7300   -19.7190     2.1820 
   87.0000    76.6090     7.7000     6.3710     8.5630    21.6690   -19.8520     2.1550 
   87.1250    79.0200     7.7250     6.2550     8.0830    21.6570   -19.8360     2.1440 
   87.2500    80.7910     7.8320     6.2880     7.8690    21.6600   -19.6790     2.1400 
   87.3750    79.1810     7.8820     6.3510     8.1740    21.6850   -19.3970     2.1440 
   87.5000    77.2480     7.7650     6.3340     8.6740    21.7690   -18.9800     2.1560 
   87.6250    81.8420     7.4050     6.1460     8.8380    21.9720   -18.3820     2.1770 
   87.7500    90.6510     6.9340     5.8410     8.1200    22.3620   -17.6790     2.1970 
   87.8750    98.4060     6.5370     5.5320     6.6080    23.0060   -16.9370     2.2050 
   88.0000   100.8980     6.4060     5.3610     5.5230    23.7140   -16.2180     2.1910 
   88.1250    96.5950     6.7090     5.4920     5.6110    23.9540   -15.5500     2.1630 
   88.2500    90.0240     7.2990     5.8890     6.3840    23.6380   -14.9010     2.1550 
   88.3750    84.7150     7.9430     6.4280     7.4460    23.2310   -14.2380     2.1910 
   88.5000    83.1390     8.3450     6.8910     8.9020    23.0560   -13.5970     2.2720 
   88.6250    85.7110     8.2070     6.9850    10.7030    23.1090   -13.0490     2.3660 
   88.7500    89.1330     7.6450     6.6970    10.6970    23.1470   -12.5780     2.4290 
   88.8750    94.0040     6.8930     6.1530     7.7930    23.0820   -12.1640     2.4420 
   89.0000    99.8380     6.2090     5.5530     5.8330    22.9350   -11.7830     2.4140 
   89.1250   101.3600     5.7860     5.0860     5.5750    22.8750   -11.4270     2.3740 
   89.2500    96.5240     5.6040     4.8030     5.8080    22.8780   -11.1810     2.3400 
   89.3750    90.5200     5.6280     4.7050     5.9750    22.9250   -11.1450     2.3130 
   89.5000    90.1930     5.8370     4.7800     6.0820    22.9600   -11.3670     2.2830 
   89.6250    94.9360     6.2780     5.0520     5.9660    22.9710   -11.9100     2.2480 
   89.7500    95.6400     6.9480     5.5030     5.9930    22.8900   -12.7000     2.2130 
   89.8750    89.3990     7.8200     6.1380     7.3810    22.6660   -13.6340     2.1890 
   90.0000    80.3970     8.7580     6.8940     9.1610    22.4450   -14.6350     2.1800 
   90.1250    77.5990     9.4260     7.5560     9.6900    22.3630   -15.6760     2.1950 
   90.2500    79.4100     9.5640     7.8660    10.1020    22.4140   -16.6990     2.2240 
   90.3750    80.8630     9.1150     7.6940    11.1800    22.5550   -17.6200     2.2570 
   90.5000    82.2170     8.3100     7.1270    12.1820    22.7530   -18.3200     2.2790 
   90.6250    86.7100     7.7050     6.4970     9.5190    23.0920   -18.4640     2.2790 
   90.7500    91.0160     7.8400     6.2140     6.9880    23.3780   -17.7210     2.2750 
   90.8750    91.2750     9.1330     6.5980     7.1750    23.4970   -15.7660     2.2920 
   91.0000    87.0010    11.9300     7.9890    10.5940    23.6360   -13.0650     2.3510 
   91.1250    81.2050    16.7060    11.0660    20.7380    23.8810   -11.5240     2.4540 
   91.2500    76.6470    22.7090    15.7060    33.9490    24.0330   -10.7670     2.5680 
   91.3750    74.1790    28.4420    21.0660    43.1070    24.0970   -10.1360     2.6620 
   91.5000    72.6250    31.7060    25.2820    47.4600    24.0910    -9.7390     2.7180 
   91.6250    69.1580    30.2510    25.8400    46.3610    24.0750    -9.9020     2.7210 
   91.7500    66.6420    25.5520    23.1550    40.7160    23.9610   -10.9820     2.6810 
   91.8750    68.1600    19.7820    18.8010    29.9170    23.6890   -13.3160     2.6040 
   92.0000    72.6000    14.8210    14.5170    18.5700    23.3150   -16.4290     2.5010 
   92.1250    76.7100    11.6820    11.4330    12.2070    23.0950   -18.4110     2.3910 
   92.2500    77.6850     9.8830     9.4190    10.2120    23.0530   -19.6080     2.2960 
   92.3750    75.7910     9.0020     8.2230     9.6460    23.0870   -20.7040     2.2270 
   92.5000    73.7000     8.6670     7.5910     9.3300    23.1560   -21.6590     2.1850 
   92.6250    75.7830     8.6190     7.3530     9.0860    23.2150   -22.3650     2.1700 
   92.7500    80.0930     8.6480     7.2930     9.2060    23.3010   -22.7900     2.1700 
   92.8750    81.1080     8.7110     7.3360     9.3180    23.3330   -22.9650     2.1790 
   93.0000    78.4250     8.8210     7.4560     9.1910    23.3220   -22.9600     2.1930 
   93.1250    76.7220     9.0110     7.6580     9.0920    23.2840   -22.7930     2.2120 
   93.2500    76.0960     9.2420     7.9090     9.4390    23.2680   -22.5460     2.2330 
   93.3750    74.9290     9.4470     8.1540    10.4850    23.2990   -22.2370     2.2480 
   93.5000    74.1350     9.5480     8.3210    12.0680    23.4250   -21.8640     2.2500 
   93.6250    74.9960     9.4660     8.3210    11.5580    23.4140   -21.4390     2.2340 
   93.7500    75.9700     9.2480     8.1740    10.1040    23.2940   -21.0240     2.2120 
   93.8750    76.3620     8.9640     7.9320     9.5170    23.1310   -20.6190     2.1940 
   94.0000    78.7090     8.7000     7.6690     9.4370    23.0040   -20.2170     2.1870 
   94.1250    81.1380     8.5310     7.4610     9.4120    22.9590   -19.9060     2.1950 
   94.2500    78.9180     8.4520     7.3300     9.5130    22.9210   -19.6980     2.2060 
   94.3750    75.1030     8.4280     7.2610     9.7040    22.8620   -19.5660     2.2160 
   94.5000    75.3950     8.4150     7.2260     9.7880    22.7610   -19.5120     2.2210 
   94.6250    80.7980     8.3790     7.1960     9.5560    22.6450   -19.5900     2.2210 
   94.7500    85.3180     8.3290     7.1660     9.2340    22.5130   -19.7430     2.2190 
   94.8750    86.4220     8.3030     7.1560     8.9150    22.3520   -19.9380     2.2200 
   95.0000    85.1830     8.3490     7.1960     8.8830    22.2450   -20.1400     2.2230 
   95.1250    83.1930     8.5110     7.3270     9.1620    22.2000   -20.2060     2.2280 
   95.2500    83.4410     8.7360     7.5240     9.7750    22.1880   -20.0890     2.2300 
   95.3750    84.9860     8.9240     7.7190    10.3960    22.2170   -19.7940     2.2260 
   95.5000    83.4650     8.9300     7.7950    10.3450    22.2670   -19.3000     2.2150 
   95.6250    81.4570     8.5810     7.5810    10.2440    22.4310   -18.5270     2.2040 
