~V
VERS. 2.00: Ver 2.00
~W
STRT.M 50.0000:
STOP.M 276.0000:
STEP.M 0.1250:
NULL. -999.2500:
UWI. F11044:
~C
DEPT.M :
SP.MV :
GR.API :
RML.OHMM :
RI. :
RXO.OHMM :
CALI.CM :
DEN.GM/CC :
~A
# ...
  207.5000    -8.5580    82.6100     7.1880     5.3750     6.8050    24.8340     2.3850 
  207.6250    -8.7490    82.2270     7.4250     5.5260     7.3860    24.9250     2.3810 
  207.7500    -8.9650    83.9840     7.6650     5.7080     7.9800    24.9760     2.3860 
  207.8750    -9.1770    86.6980     7.9400     5.9230     7.9500    24.9950     2.3970 
  208.0000    -9.4370    87.5140     8.3260     6.2010     7.7130    24.9830     2.4120 
  208.1250    -9.7360    84.9320     8.9570     6.6320     8.6260    24.9660     2.4260 
  208.2500    -9.9020    81.5960     9.8580     7.2610    11.0310    24.9610     2.4400 
  208.3750   -10.0040    81.2990    11.0130     8.1170    13.4460    24.9610     2.4510 
  208.5000   -10.1740    82.6970    12.3330     9.1900    14.6920    24.9620     2.4600 
  208.6250   -10.3090    81.6490    13.6110    10.4050    17.7700    24.9650     2.4650 
  208.7500   -10.3540    78.8700    14.5940    11.5220    20.4330    24.9500     2.4610 
  208.8750   -10.3890    77.7750    15.0880    12.2910    20.8110    24.9410     2.4490 
  209.0000   -10.4370    79.1720    15.0240    12.5530    19.7710    24.9400     2.4320 
  209.1250   -10.4590    81.9130    14.4720    12.2760    19.1160    24.9510     2.4140 
  209.2500   -10.5270    84.0650    13.8070    11.7620    17.1890    24.9650     2.3990 
  209.3750   -10.6130    84.8110    13.3150    11.2670    14.8690    24.9620     2.3890 
  209.5000   -10.6810    84.2870    13.1950    11.0020    14.0990    24.9530     2.3820 
  209.6250   -10.8470    85.2830    13.5740    11.1300    15.4000    24.9490     2.3780 
  209.7500   -11.1260    86.3770    14.2860    11.5820    16.3810    24.9560     2.3750 
  209.8750   -11.4200    86.0030    15.1750    12.2730    16.8500    24.9620     2.3720 
  210.0000   -11.6550    85.2320    16.0640    13.0690    17.6720    24.9360     2.3670 
  210.1250   -11.8570    84.5470    16.7730    13.7840    18.4500    24.9000     2.3560 
  210.2500   -12.0790    83.2990    17.2970    14.3250    19.1390    24.8860     2.3400 
  210.3750   -12.3430    82.4340    17.7670    14.7260    19.7510    24.9020     2.3200 
  210.5000   -12.6360    82.5230    18.4690    15.1540    20.3480    24.9630     2.3020 
  210.6250   -12.8380    84.3000    19.9950    16.0300    20.8990    25.0570     2.2990 
  210.7500   -12.9310    86.4630    22.7710    17.7650    23.1760    25.1240     2.3160 
  210.8750   -13.0000    86.7700    27.2240    20.8540    27.2760    25.0990     2.3470 
  211.0000   -13.1110    81.9180    33.5820    25.7700    36.6390    25.0000     2.3730 
  211.1250   -13.3030    73.8480    41.7710    32.9480    67.3850    24.9260     2.3740 
  211.2500   -13.4640    68.3120    50.3760    41.2020    84.6350    24.9370     2.3530 
  211.3750   -13.5280    65.5480    57.9930    48.9750    75.5300    25.0100     2.3190 
  211.5000   -13.5470    63.8110    63.6420    54.9360    65.0980    25.0970     2.2860 
  211.6250   -13.6160    64.2010    67.1350    58.6580    66.1500    25.1410     2.2580 
  211.7500   -13.6940    64.1670    69.7580    61.4580    73.0540    25.1860     2.2340 
  211.8750   -13.7540    62.7690    72.1570    64.1100    84.6610    25.2360     2.2140 
  212.0000   -13.8160    62.3040    74.2530    66.6270    94.2600    25.2590     2.2030 
  212.1250   -13.8740    65.1210    75.1900    68.1150    96.2030    25.2360     2.2000 
  212.2500   -13.9480    66.6880    74.6200    68.1210    87.6650    25.1980     2.2030 
  212.3750   -14.0460    64.7920    72.6260    66.7370    78.4800    25.2030     2.2060 
  212.5000   -14.1430    62.3550    69.6480    64.4170    76.5540    25.2350     2.2070 
  212.6250   -14.2540    61.8680    66.2240    61.6340    75.3060    25.2380     2.2100 
  212.7500   -14.4510    63.1540    62.9820    58.8940    75.1150    25.2240     2.2190 
  212.8750   -14.6920    64.9390    60.4050    56.6060    72.5880    25.2100     2.2330 
  213.0000   -14.8740    66.1200    58.8650    55.2400    67.6000    25.1660     2.2500 
  213.1250   -14.9750    66.2580    59.0740    55.4530    63.2900    25.1560     2.2620 
  213.2500   -15.0700    65.3010    61.2480    57.1560    64.8660    25.1860     2.2640 
  213.3750   -15.2080    63.7990    64.9140    60.1020    77.7560    25.2340     2.2570 
  213.5000   -15.3870    63.6320    68.6300    63.6410    95.4140    25.2520     2.2450 
  213.6250   -15.4690    65.1330    70.5540    66.5850    93.6280    25.2730     2.2390 
  213.7500   -15.4450    64.3250    70.5200    67.9930    84.0910    25.2790     2.2420 
  213.8750   -15.4260    61.6510    68.9970    67.5640    81.7990    25.2560     2.2520 
  214.0000   -15.5160    61.2880    66.6340    65.7920    82.8290    25.2150     2.2620 
  214.1250   -15.6950    63.4270    64.3460    63.7380    79.7720    25.1660     2.2650 
  214.2500   -15.8360    64.3630    62.6400    62.2310    73.5020    25.1700     2.2600 
  214.3750   -15.9340    64.0840    61.4380    61.2800    69.9030    25.2140     2.2500 
  214.5000   -16.0410    64.5440    60.4240    60.4940    74.1870    25.2440     2.2390 
  214.6250   -16.2340    66.6680    59.4170    59.4810    90.5220    25.2560     2.2320 
  214.7500   -16.4580    68.9020    58.7220    58.4330    85.9150    25.2470     2.2340 
  214.8750   -16.6680    69.0310    59.0490    58.0180    67.3800    25.2350     2.2470 
  215.0000   -16.8560    66.7710    61.3360    59.2010    58.9830    25.2270     2.2660 
  215.1250   -17.0380    66.0100    67.2550    63.7750    61.2180    25.1760     2.2800 
  215.2500   -17.2150    67.2990    77.3880    72.6220    81.5760    25.1500     2.2810 
  215.3750   -17.3860    67.2600    92.5490    86.6960   120.4590    25.2330     2.2700 
  215.5000   -17.5610    64.7760   112.5880   106.3590   172.4210    25.3310     2.2550 
  215.6250   -17.7760    63.0520   138.4660   131.5350   196.2900    25.3330     2.2450 
  215.7500   -18.0230    62.4720   170.5360   159.1760   253.0130    25.2290     2.2370 
  215.8750   -18.2410    60.6970   206.3320   186.6520   288.6690    25.2280     2.2260 
  216.0000   -18.3370    58.1860   239.3470   211.6400   338.1740    25.3320     2.2090 
  216.1250   -18.4090    58.7660   261.9100   231.5400   391.7310    25.4190     2.1900 
  216.2500   -18.6320    61.1630   274.5780   245.2590   400.0680    25.4370     2.1770 
  216.3750   -18.9410    61.6120   278.2790   251.2420   367.5460    25.4730     2.1740 
  216.5000   -19.1450    58.7400   272.6840   248.7640   366.4000    25.4950     2.1810 
  216.6250   -19.1800    56.4870   257.6690   237.3140   344.7690    25.4410     2.1930 
  216.7500   -19.2120    56.8070   237.4610   220.4250   327.0230    25.3590     2.2060 
  216.8750   -19.3360    58.5600   215.1680   200.9660   272.3710    25.2930     2.2180 
  217.0000   -19.5870    61.1790   193.5970   181.7590   221.1260    25.1890     2.2260 
  217.1250   -19.7850    64.4330   175.2260   165.3220   194.3190    25.0250     2.2290 
  217.2500   -19.7770    66.8410   160.2530   152.0560   182.0700    24.9010     2.2280 
  217.3750   -19.6820    66.5390   148.3790   141.8600   159.4100    24.7910     2.2260 
  217.5000   -19.6960    63.8490   138.9500   134.1880   138.3930    24.5820     2.2230 
  217.6250   -19.7810    62.3460   131.4380   128.4370   132.8440    24.5070     2.2230 
  217.7500   -19.7930    63.0280   124.9480   123.5570   132.0430    24.6470     2.2230 
  217.8750   -19.7320    65.8640   119.1590   119.1370   129.5180    24.9350     2.2210 
  218.0000   -19.6510    69.6680   113.9090   114.9510   136.1520    25.1200     2.2180 
  218.1250   -19.5260    71.2710   109.2500   110.9310   133.2700    25.1240     2.2120 
  218.2500   -19.4110    69.2290   105.1330   107.1730   119.2920    25.0840     2.2040 
  218.3750   -19.3680    66.1450   101.5320   103.8230   108.3940    25.0790     2.1960 
  218.5000   -19.3500    65.1460    98.2800   100.8000   103.5610    25.1750     2.1900 
  218.6250   -19.3760    64.7140    95.0980    97.7150   105.2550    25.1990     2.1900 
