~V
VERS. 2.00: Ver 2.00
~W
STRT.M 49.0000:
STOP.M 284.0000:
STEP.M 0.1250:
NULL. -999.2500:
UWI. F11034:
~C
DEPT.M :
GR.API :
RML.OHMM :
RI. :
RXO.OHMM :
CALI.CM :
DEN.GM/CC :
SP.MV :
~A
# ...
  262.7500    55.8230    12.2570    11.6910    18.5790    24.9820     2.4810    -4.7040 
  262.8750    56.7290    12.1540    11.6280    19.6730    24.9750     2.4750    -4.6760 
  263.0000    57.2920    11.9440    11.4540    18.1920    24.9500     2.4650    -4.6610 
  263.1250    58.1650    11.6250    11.1680    15.7060    24.9630     2.4570    -4.6440 
  263.2500    59.5520    11.2200    10.7840    13.1890    24.9970     2.4510    -4.6130 
  263.3750    59.6730    10.7770    10.3400    11.5670    25.0250     2.4440    -4.5720 
  263.5000    58.2800    10.3690     9.9000    11.1270    25.0120     2.4320    -4.5500 
  263.6250    58.5200    10.0580     9.5340    11.3930    24.9890     2.4110    -4.5330 
  263.7500    61.0410     9.8810     9.2880    12.3020    24.9590     2.3880    -4.5200 
  263.8750    64.5570     9.8540     9.1870    14.4470    24.9490     2.3650    -4.5040 
  264.0000    67.6060     9.9820     9.2450    20.0110    24.9340     2.3550    -4.4700 
  264.1250    68.8370    10.2080     9.4130    27.1550    24.8710     2.3590    -4.4180 
  264.2500    67.7180    10.4760     9.6410    34.6910    24.7700     2.3790    -4.3720 
  264.3750    65.2480    10.7290     9.8770    40.8370    24.7330     2.4070    -4.3270 
  264.5000    64.0130    10.9170    10.0700    33.7630    24.7310     2.4350    -4.2760 
  264.6250    64.6460    11.0310    10.2000    21.2740    24.6290     2.4570    -4.2320 
  264.7500    65.5710    11.0840    10.2680    14.1090    24.3760     2.4710    -4.1980 
  264.8750    65.1690    11.0940    10.2850    11.3870    24.0990     2.4760    -4.1720 
  265.0000    63.3620    11.0770    10.2590    10.5220    24.0190     2.4740    -4.1480 
  265.1250    61.1160    11.0410    10.2020    10.2710    24.1110     2.4630    -4.1370 
  265.2500    58.4910    10.9950    10.1230    10.0480    24.2860     2.4470    -4.1370 
  265.3750    56.0820    10.9560    10.0450     9.7730    24.5540     2.4300    -4.1560 
  265.5000    55.4400    10.9530     9.9970     9.5120    24.7740     2.4150    -4.1700 
  265.6250    56.9440    11.0060    10.0040     9.3690    24.8910     2.4070    -4.1830 
  265.7500    58.9210    11.1130    10.0700     9.4730    24.9320     2.4080    -4.1790 
  265.8750    59.3850    11.2480    10.1760     9.6700    24.9640     2.4140    -4.1470 
  266.0000    58.4950    11.3460    10.2690     9.8010    24.9970     2.4230    -4.1120 
  266.1250    58.3560    11.3540    10.2970     9.9400    25.0000     2.4310    -4.0820 
  266.2500    59.9420    11.2500    10.2340    10.1220    24.9530     2.4390    -4.0440 
  266.3750    61.8880    11.0520    10.0790    10.3330    24.8880     2.4430    -3.9980 
  266.5000    62.6360    10.8100     9.8670    10.4580    24.8410     2.4460    -3.9580 
  266.6250    62.1860    10.5860     9.6530    10.4230    24.8080     2.4440    -3.9280 
  266.7500    61.4500    10.4180     9.4720    10.2250    24.7920     2.4380    -3.9090 
  266.8750    61.1350    10.3120     9.3390    10.0040    24.7790     2.4270    -3.9100 
  267.0000    60.7150    10.2620     9.2600     9.8030    24.7610     2.4180    -3.9090 
  267.1250    59.7460    10.2460     9.2160     9.6860    24.7570     2.4150    -3.8940 
  267.2500    58.7250    10.2580     9.2030     9.6410    24.7930     2.4210    -3.8660 
  267.3750    58.7710    10.3030     9.2250     9.6480    24.8240     2.4320    -3.8140 
  267.5000    60.2490    10.4030     9.3040     9.6380    24.8360     2.4400    -3.7420 
  267.6250    60.8600    10.5640     9.4440     9.6290    24.8680     2.4440    -3.6630 
  267.7500    59.4860    10.7750     9.6380     9.7310    24.9110     2.4430    -3.5960 
  267.8750    57.8140    11.0080     9.8610     9.9790    24.9470     2.4440    -3.5490 
  268.0000    58.6540    11.2100    10.0690    10.3370    24.9830     2.4510    -3.5320 
  268.1250    61.3340    11.3350    10.2130    10.6860    25.0120     2.4630    -3.5310 
  268.2500    62.7720    11.3570    10.2650    10.8780    25.0320     2.4760    -3.5250 
  268.3750    61.6950    11.2750    10.2170    10.8860    25.0450     2.4850    -3.5170 
  268.5000    59.3520    11.1110    10.0790    10.6700    25.0590     2.4890    -3.4960 
  268.6250    57.4890    10.9170     9.8980    10.3420    25.0720     2.4880    -3.4620 
  268.7500    56.9970    10.7310     9.7110    10.0850    25.0890     2.4860    -3.4200 
  268.8750    56.6340    10.5720     9.5390    10.0670    25.1150     2.4840    -3.3620 
  269.0000    55.8670    10.4470     9.3940    10.2120    25.1300     2.4840    -3.3040 
  269.1250    55.4000    10.3420     9.2730    10.3420    25.1350     2.4860    -3.2690 
  269.2500    55.5210    10.2510     9.1730    10.4520    25.1320     2.4910    -3.2550 
  269.3750    56.5760    10.1760     9.0940    10.5260    25.1200     2.4940    -3.2700 
  269.5000    58.2470    10.1390     9.0500    10.5290    25.1010     2.4930    -3.3040 
  269.6250    59.4220    10.1580     9.0530    10.5440    25.1040     2.4890    -3.3390 
  269.7500    59.1210    10.2420     9.1110    10.6340    25.1200     2.4830    -3.3580 
  269.8750    57.9430    10.3820     9.2220    10.7490    25.1200     2.4810    -3.3810 
  270.0000    57.7220    10.5470     9.3650    10.7760    25.0850     2.4850    -3.3920 
  270.1250    58.6560    10.6950     9.5060    10.6710    25.0190     2.4930    -3.3920 
  270.2500    59.2570    10.8010     9.6190    10.4860    24.8880     2.5010    -3.3950 
  270.3750    58.1390    10.8660     9.6950    10.2990    24.6490     2.5040    -3.3880 
  270.5000    55.9920    10.9050     9.7390    10.1500    24.5330     2.5010    -3.3810 
  270.6250    54.9100    10.9380     9.7680    10.0690    24.6720     2.4950    -3.3980 
  270.7500    55.7940    10.9620     9.7830    10.1050    24.8990     2.4900    -3.4330 
  270.8750    57.5640    10.9680     9.7800    10.3250    25.0670     2.4870    -3.4570 
  271.0000    59.1770    10.9340     9.7430    10.4740    25.1550     2.4880    -3.4730 
  271.1250    60.0950    10.8650     9.6760    10.3770    25.1930     2.4900    -3.4870 
  271.2500    59.8790    10.7790     9.6000    10.2170    25.2040     2.4910    -3.5130 
  271.3750    60.0180    10.7040     9.5380    10.0510    25.2000     2.4920    -3.5490 
  271.5000    61.5520    10.6790     9.5200     9.8390    25.1860     2.4920    -3.5730 
  271.6250    63.0020    10.7100     9.5480     9.7210    25.1650     2.4940    -3.5880 
  271.7500    62.5140    10.7810     9.6120     9.8570    25.1510     2.4990    -3.6160 
  271.8750    60.4930    10.8620     9.6920    10.2620    25.1470     2.5060    -3.6470 
  272.0000    58.8720    10.9310     9.7750    10.7620    25.1460     2.5130    -3.6940 
  272.1250    57.6960    10.9860     9.8500    11.1210    25.1460     2.5170    -3.7310 
  272.2500    57.2930    11.0400     9.9200    11.2930    25.1460     2.5200    -3.7510 
  272.3750    57.6820    11.0990     9.9870    11.3240    25.1460     2.5220    -3.7680 
  272.5000    58.1910    11.1600    10.0510    11.2620    25.1460     2.5230    -3.7890 
  272.6250    57.9050    11.2140    10.1130    11.1520    25.1460     2.5250    -3.8080 
  272.7500    56.9850    11.2540    10.1690    11.0470    25.1480     2.5270    -3.8250 
  272.8750    56.8450    11.2840    10.2160    10.9920    25.1580     2.5280    -3.8650 
  273.0000    58.0130    11.3030    10.2510    11.1130    25.1820     2.5250    -3.8930 
  273.1250    58.5070    11.3150    10.2800    11.4080    25.1890     2.5180    -3.9120 
  273.2500    56.6300    11.3230    10.3070    11.7320    25.1580     2.5110    -3.9420 
  273.3750    55.6120    11.3320    10.3410    11.9820    25.1040     2.5070    -3.9830 
  273.5000    55.4780    11.3440    10.3820    12.1900    25.0950     2.5050    -4.0190 
  273.6250    55.4780    11.3510    10.4250    12.4640    25.1090     2.5050    -4.0470 
  273.7500    55.4780    11.3430    10.4640    12.8170    25.1140     2.5050    -4.0790 
  273.8750    55.4780    11.3110    10.4910    13.1690    25.0890     2.5050    -4.1000 
