~V
VERS. 2.00: Ver 2.00
~W
STRT.M 53.0000:
STOP.M 276.0000:
STEP.M 0.1250:
NULL. -999.2500:
UWI. F11074:
~C
DEPT.M :
DEN.GM/CC :
SP.MV :
GR.API :
RML.OHMM :
RI. :
RXO.OHMM :
CALI.CM :
~A
# ...
  233.0000     2.2350    -7.8740    78.6110    93.3850    82.6340    51.2710    25.0690 
  233.1250     2.2260    -7.9220    78.0320    90.4610    82.0680    54.8990    25.0690 
  233.2500     2.2200    -7.9440    77.7810    83.9090    77.8830    61.3420    25.0690 
  233.3750     2.2200    -7.9470    75.9990    75.1470    71.0510    71.4090    25.0690 
  233.5000     2.2230    -7.9350    73.5480    65.6370    62.8860    77.2050    25.0690 
  233.6250     2.2240    -7.8980    74.2150    56.7700    54.8080    77.4570    25.0690 
  233.7500     2.2230    -7.8770    75.3590    49.3210    47.7450    63.3670    25.0690 
  233.8750     2.2260    -7.8740    76.1970    44.2270    42.4870    45.3230    25.0690 
  234.0000     2.2340    -7.8740    77.9310    42.7170    40.1970    34.3080    25.0690 
  234.1250     2.2440    -7.8860    78.5480    46.2830    42.5650    50.0430    25.0690 
  234.2500     2.2450    -7.9250    76.7960    53.7250    48.8940    67.0460    25.0690 
  234.3750     2.2390    -7.9880    75.8620    63.0630    57.6930    73.0650    25.0690 
  234.5000     2.2320    -8.0690    76.1210    70.6660    65.7710    67.6720    25.0690 
  234.6250     2.2300    -8.1940    74.3270    72.3090    68.7890    60.9210    25.0690 
  234.7500     2.2310    -8.3250    72.6040    70.2020    67.7690    58.8170    25.0690 
  234.8750     2.2330    -8.4520    73.8260    67.9910    65.8740    61.1090    25.0690 
  235.0000     2.2340    -8.5940    75.4900    67.5540    65.2520    67.4850    25.0690 
  235.1250     2.2370    -8.7650    75.0800    68.1900    65.5970    72.0160    25.0690 
  235.2500     2.2430    -8.9450    74.1100    68.2170    65.4250    73.4920    25.0690 
  235.3750     2.2520    -9.1060    72.6910    67.1210    64.2450    69.7220    25.0690 
  235.5000     2.2620    -9.2710    71.8920    65.2410    62.3230    64.5660    25.0690 
  235.6250     2.2690    -9.4440    74.1150    63.5340    60.5060    63.4330    25.0690 
  235.7500     2.2720    -9.6040    75.2980    62.6000    59.4350    67.3160    25.0690 
  235.8750     2.2720    -9.7550    73.2110    62.3950    59.1440    68.7520    25.0690 
  236.0000     2.2700    -9.8940    70.3560    62.6920    59.4060    60.3520    25.0690 
  236.1250     2.2630   -10.0200    71.8670    63.7370    60.3010    55.3410    25.0690 
  236.2500     2.2470   -10.1320    74.5890    65.9070    62.1420    56.8600    25.0690 
  236.3750     2.2250   -10.2430    75.4650    69.2790    65.1370    68.2800    25.0600 
  236.5000     2.2060   -10.3580    75.5670    73.1300    68.8230    78.4320    25.0200 
  236.6250     2.2000   -10.4740    75.3610    75.7450    71.7880    75.8870    24.9010 
  236.7500     2.2040   -10.5960    75.2340    76.3030    73.0180    71.6700    24.7480 
  236.8750     2.2130   -10.7090    76.7100    75.3990    72.7060    73.9130    24.6310 
  237.0000     2.2210   -10.8340    78.8530    74.5240    72.0270    77.5520    24.5560 
  237.1250     2.2220   -11.0000    79.0950    75.1160    72.3410    73.3840    24.4160 
  237.2500     2.2180   -11.1540    76.9570    77.2860    73.9130    63.4120    24.0950 
  237.3750     2.2130   -11.2990    75.7500    81.1300    76.8160    57.1160    23.5190 
  237.5000     2.2100   -11.4680    75.7130    86.9780    81.3610    51.8820    22.6830 
  237.6250     2.2070   -11.6580    75.0230    95.3700    88.1910    46.7760    22.0970 
  237.7500     2.2020   -11.8410    74.0230   104.9780    96.3410    47.7160    21.9620 
  237.8750     2.1970   -12.0280    73.3130   113.7020   104.1490    54.3190    22.0570 
  238.0000     2.1940   -12.2310    71.5060   119.1690   109.6740    63.6270    22.1430 
  238.1250     2.1910   -12.4650    68.9620   119.6250   111.3220    74.5570    22.3020 
  238.2500     2.1860   -12.7200    68.9000   117.2300   110.5140    87.7560    22.6540 
  238.3750     2.1810   -12.9790    69.5860   114.0520   108.8140   107.0200    23.0640 
  238.5000     2.1800   -13.2380    68.1330   111.4330   107.3460   130.1510    23.2970 
  238.6250     2.1840   -13.4890    66.7670   109.9350   106.6130   143.0920    23.4030 
  238.7500     2.1910   -13.7360    68.7800   109.1160   106.3260   142.3020    23.5280 
  238.8750     2.1960   -13.9790    70.9830   108.5620   106.1730   133.6870    23.6610 
  239.0000     2.1970   -14.1780    70.8340   107.9660   105.9280   125.4880    23.7710 
  239.1250     2.1990   -14.3160    72.0080   107.2830   105.5410   126.0860    23.8840 
  239.2500     2.2050   -14.4070    74.8800   106.8240   105.2440   122.6950    23.9700 
  239.3750     2.2130   -14.4390    75.6030   107.0470   105.3810   118.7050    24.0150 
  239.5000     2.2210   -14.3800    72.1020   108.4530   106.3690   122.9730    24.0530 
  239.6250     2.2260   -14.2140    68.4370   111.5600   108.6860   130.3280    24.1430 
  239.7500     2.2290   -13.9650    68.7710   115.8350   111.9510   137.2760    24.2690 
  239.8750     2.2290   -13.6570    72.3750   120.6760   115.6570   138.1290    24.3450 
  240.0000     2.2220   -13.3480    75.6970   125.6330   119.3860   135.5550    24.3660 
  240.1250     2.2080   -13.0600    75.1590   130.8670   123.2180   137.0960    24.3660 
  240.2500     2.1940   -12.7960    73.6370   136.7490   127.5090   149.0340    24.3660 
  240.3750     2.1890   -12.6010    73.3830   143.0750   132.1800   163.6870    24.3660 
  240.5000     2.1950   -12.4940    73.5890   148.6660   136.3670   174.6100    24.3670 
  240.6250     2.2080   -12.5200    72.2910   151.3500   138.3710   174.4620    24.3940 
  240.7500     2.2240   -12.6430    70.7690   151.1120   138.0340   168.1500    24.4590 
  240.8750     2.2380   -12.8220    71.8770   149.3080   136.2570   165.3080    24.5320 
  241.0000     2.2440   -13.0130    73.9870   147.8430   134.5010   162.2710    24.5690 
  241.1250     2.2370   -13.1820    72.3830   148.1390   134.0930   166.9900    24.5740 
  241.2500     2.2240   -13.3120    69.3810   149.5930   134.8550   184.5940    24.5740 
  241.3750     2.2130   -13.4000    68.8850   151.2100   136.1480   186.8810    24.5740 
  241.5000     2.2070   -13.4520    70.3640   152.4370   137.4820   168.9710    24.5740 
  241.6250     2.2090   -13.4510    68.9230   154.0170   139.2590   152.3140    24.5740 
  241.7500     2.2150   -13.4030    67.4840   156.9810   142.1790   155.9680    24.5740 
  241.8750     2.2200   -13.3380    68.9070   160.9820   146.0820   177.4880    24.5740 
  242.0000     2.2210   -13.2450    71.2970   163.6840   149.3890   205.7470    24.5740 
  242.1250     2.2210   -13.1260    71.4550   159.9920   148.4420   223.0120    24.5740 
  242.2500     2.2230   -13.0190    72.1450   148.6020   141.6210   211.1160    24.5730 
  242.3750     2.2290   -12.8980    74.7640   131.7520   129.5730   178.2220    24.5650 
  242.5000     2.2380   -12.7620    77.9130   113.9530   115.1240   132.0950    24.5450 
  242.6250     2.2550   -12.6270    80.1720   100.1490   102.3490    99.5250    24.5170 
  242.7500     2.2760   -12.4940    79.7610    92.1670    93.9100    83.7810    24.5070 
  242.8750     2.2890   -12.3520    75.4190    90.7850    91.2110    84.5150    24.5040 
  243.0000     2.2870   -12.2380    70.0970    96.0990    94.7610    94.0180    24.5030 
  243.1250     2.2740   -12.1600    67.1630   108.3540   104.8270   104.8070    24.5040 
  243.2500     2.2640   -12.0760    67.3850   124.3000   118.1970   121.2640    24.5040 
  243.3750     2.2660   -12.0010    69.8250   140.1790   131.5580   137.4770    24.5060 
  243.5000     2.2810   -11.9380    71.8570   151.7720   141.5660   152.5610    24.5250 
  243.6250     2.3150   -11.8590    71.5650   156.4210   146.1110   161.1770    24.5750 
  243.7500     2.3620   -11.7710    70.4470   157.4640   147.8010   175.2450    24.6240 
  243.8750     2.4260   -11.6780    69.6790   156.8210   148.5400   211.6530    24.6430 
  244.0000     2.5060   -11.5540    67.8280   153.1870   147.8060   263.9330    24.6460 
  244.1250     2.5910   -11.4170    65.5490   140.7320   140.7730   288.0370    24.6460 
