~V
VERS. 2.00: Ver 2.00
~W
STRT.M 59.0000:
STOP.M 291.0000:
STEP.M 0.1250:
NULL. -999.2500:
UWI. F11077:
~C
DEPT.M :
DEN.GM/CC :
GR.API :
RML.OHMM :
RI. :
RXO.OHMM :
CALI.CM :
SP.MV :
~A
# ...
  205.2500     2.2750    80.8370    45.0860    49.4140    46.4940    25.4280   -22.1100 
  205.3750     2.2850    77.1080    43.1980    47.6080    47.3840    25.3620   -22.0890 
  205.5000     2.2980    77.3370    41.1810    45.6160    47.9430    25.3130   -22.0880 
  205.6250     2.3110    81.5300    39.3030    43.6940    43.6230    25.2560   -22.0640 
  205.7500     2.3200    85.6730    37.9140    42.1910    38.4610    25.1840   -22.0420 
  205.8750     2.3210    85.0430    37.1640    41.2840    35.7760    25.1150   -22.0420 
  206.0000     2.3160    80.2390    36.8410    40.7970    36.5200    25.0560   -22.0610 
  206.1250     2.3100    76.9840    36.6100    40.4270    39.9210    25.0200   -22.1390 
  206.2500     2.3050    77.9820    36.1130    39.8200    42.3790    25.0090   -22.2540 
  206.3750     2.3030    79.7380    35.2500    38.8540    38.9080    24.9990   -22.3830 
  206.5000     2.3030    78.9560    34.3440    37.8250    33.7360    24.9480   -22.5260 
  206.6250     2.3040    77.3850    33.8600    37.1800    31.3180    24.8370   -22.6790 
  206.7500     2.3050    77.5490    34.3210    37.4420    30.6920    24.7170   -22.8380 
  206.8750     2.3020    79.6890    36.0420    38.9500    31.0240    24.7420   -23.0060 
  207.0000     2.2970    82.0730    38.8350    41.5790    34.5210    25.0480   -23.1790 
  207.1250     2.2900    82.4600    42.2460    44.9260    40.9540    25.5400   -23.3390 
  207.2500     2.2820    80.0870    45.4600    48.1770    48.8680    26.0590   -23.4360 
  207.3750     2.2750    77.3530    47.6240    50.4270    55.5040    26.4810   -23.4710 
  207.5000     2.2710    77.0600    48.4110    51.2710    57.3870    26.6740   -23.4700 
  207.6250     2.2690    78.9540    48.0950    50.9290    52.6070    26.6560   -23.4270 
  207.7500     2.2690    80.0260    47.5420    50.2320    45.6620    26.6070   -23.3860 
  207.8750     2.2680    78.1020    47.7780    50.2070    42.9060    26.5890   -23.3540 
  208.0000     2.2660    74.3640    49.4290    51.5360    45.7000    26.5670   -23.3250 
  208.1250     2.2620    71.0610    52.6680    54.4750    49.7590    26.5540   -23.3070 
  208.2500     2.2550    69.7770    57.2060    58.8500    53.9770    26.5520   -23.3040 
  208.3750     2.2480    70.1150    62.1320    63.8400    60.2760    26.5540   -23.3150 
  208.5000     2.2460    69.7710    66.0900    68.0920    70.2080    26.5570   -23.3500 
  208.6250     2.2570    67.5930    67.9020    70.3860    76.5110    26.5620   -23.4160 
  208.7500     2.2800    65.9200    66.6960    69.7270    75.8350    26.5680   -23.4710 
  208.8750     2.3040    68.0180    62.6480    66.1150    69.6360    26.5900   -23.4990 
  209.0000     2.3150    71.4580    57.1980    60.8670    61.6990    26.6760   -23.5040 
  209.1250     2.3090    71.5710    51.7260    55.3510    53.3750    26.8150   -23.4940 
  209.2500     2.2910    68.7410    47.5180    50.9110    45.8360    26.9330   -23.5120 
  209.3750     2.2740    67.7530    45.3670    48.4210    41.7310    26.9780   -23.5670 
  209.5000     2.2640    70.2020    45.3500    48.0420    42.0020    26.9630   -23.6290 
  209.6250     2.2600    72.9320    47.3930    49.7730    44.2390    26.9220   -23.7260 
  209.7500     2.2540    73.1570    51.2080    53.4300    48.3470    26.8920   -23.8930 
  209.8750     2.2400    71.0990    55.9940    58.3040    55.3230    26.8960   -24.1070 
  210.0000     2.2200    68.8040    60.4300    63.0500    62.1630    26.9250   -24.3190 
  210.1250     2.2000    67.6430    63.4120    66.4620    66.9110    26.9460   -24.4990 
  210.2500     2.1860    68.4310    64.3530    67.7910    69.9700    26.8860   -24.6350 
  210.3750     2.1820    70.4570    63.7200    67.3640    70.2590    26.6950   -24.7140 
  210.5000     2.1880    71.6160    62.8170    66.4460    63.7260    26.3920   -24.7870 
  210.6250     2.2000    70.7400    62.6390    66.0670    55.6280    26.0650   -24.8330 
  210.7500     2.2110    68.3820    63.7930    66.9340    55.4650    25.8500   -24.8010 
  210.8750     2.2180    66.3280    66.1790    69.0870    65.5230    25.7760   -24.7440 
  211.0000     2.2200    66.3620    68.9890    71.8390    72.3840    25.8000   -24.7280 
  211.1250     2.2160    68.4100    71.3840    74.4060    72.8160    25.8940   -24.7540 
  211.2500     2.2090    70.5010    72.5880    75.9890    70.8560    26.0300   -24.8090 
  211.3750     2.2030    71.3690    72.3670    76.2350    70.7030    26.1810   -24.9100 
  211.5000     2.2020    72.0970    71.1940    75.4840    72.9920    26.3160   -25.0340 
  211.6250     2.2080    73.4160    69.5460    74.1580    75.1820    26.3990   -25.1600 
  211.7500     2.2200    74.6110    67.7590    72.5890    74.3250    26.3710   -25.3070 
  211.8750     2.2320    74.8010    66.0180    70.9720    71.1490    26.2330   -25.4480 
  212.0000     2.2390    72.9150    64.4510    69.4550    69.2920    26.0740   -25.5660 
  212.1250     2.2280    69.4220    63.1610    68.1530    68.6680    25.9240   -25.6890 
  212.2500     2.1950    67.2570    62.2170    67.1630    68.3770    25.8000   -25.8310 
  212.3750     2.1500    68.1400    61.6330    66.5320    68.1080    25.6990   -25.9540 
  212.5000     2.1100    70.3080    61.4120    66.2860    69.0690    25.5960   -26.0670 
  212.6250     2.0950    72.2660    61.6980    66.5740    71.0970    25.5100   -26.2250 
  212.7500     2.1100    74.3900    62.8410    67.7290    72.6380    25.4220   -26.4360 
  212.8750     2.1400    75.8780    65.2290    70.1280    73.8840    25.3000   -26.6790 
  213.0000     2.1670    74.9140    69.0190    73.9480    77.3490    25.1810   -26.9710 
  213.1250     2.1780    71.8590    74.2580    79.2720    89.9270    25.1140   -27.2970 
  213.2500     2.1700    68.7050    80.7840    85.9610   113.8150    25.1190   -27.6550 
  213.3750     2.1500    66.1820    88.0750    93.4560   127.3380    25.1960   -28.0790 
  213.5000     2.1260    64.2600    95.2290   100.7670   122.0440    25.2930   -28.4340 
  213.6250     2.1070    64.0310   101.2510   106.8520   115.8380    25.3550   -28.5430 
  213.7500     2.1020    66.0830   104.7680   110.3570   118.1660    25.3700   -28.2850 
  213.8750     2.1100    67.4080   104.7610   110.3300   125.1610    25.3470   -27.6810 
  214.0000     2.1280    65.4330   101.6040   107.1590   124.2310    25.3040   -26.8860 
  214.1250     2.1440    63.4360    96.4290   101.9130   119.4620    25.2720   -26.0030 
  214.2500     2.1530    65.1150    91.0160    96.3210   110.4570    25.2640   -25.0520 
  214.3750     2.1600    68.6040    87.0330    92.1120   100.4660    25.2460   -24.0480 
  214.5000     2.1690    69.9180    85.2470    90.2080    93.2910    25.1830   -23.0930 
  214.6250     2.1820    68.7860    85.6450    90.7210    93.0780    25.0890   -22.3390 
  214.7500     2.1980    66.7470    87.5330    93.0230    96.4030    25.0210   -21.8840 
  214.8750     2.2140    64.4510    89.5320    95.6960   100.8350    25.0160   -21.7250 
  215.0000     2.2270    63.2660    90.0230    96.9620   105.6220    25.0440   -21.6980 
  215.1250     2.2360    64.6100    87.9340    95.5640   108.9390    25.0670   -21.7050 
  215.2500     2.2390    67.7540    82.9190    90.9270   107.1940    25.0700   -21.6910 
  215.3750     2.2380    71.1020    75.7100    83.6390    98.4170    25.0770   -21.6380 
  215.5000     2.2360    73.2910    67.7920    75.2430    85.0250    25.0950   -21.5580 
  215.6250     2.2370    74.2330    60.1780    66.8840    72.8840    25.1100   -21.4490 
  215.7500     2.2450    75.3050    53.4900    59.3470    63.6830    25.1160   -21.3130 
  215.8750     2.2580    78.2370    47.8910    52.9340    56.7140    25.1170   -21.1620 
  216.0000     2.2710    80.8610    43.2670    47.6040    53.3540    25.1170   -20.9780 
  216.1250     2.2800    80.0710    39.6940    43.4630    49.5900    25.1160   -20.7420 
  216.2500     2.2840    77.2830    37.4850    40.8160    44.0790    25.1150   -20.5000 
  216.3750     2.2800    76.2140    37.0270    40.0090    38.5880    25.1150   -20.2380 
