~V
VERS. 2.00: Ver 2.00
~W
STRT.M 50.0000:
STOP.M 270.0000:
STEP.M 0.1250:
NULL. -999.2500:
UWI. F11070:
~C
DEPT.M :
DEN.GM/CC :
GR.API :
RML.OHMM :
RI. :
RXO.OHMM :
CALI.CM :
SP.MV :
~A
# ...
   83.7500     2.2300    67.2060     8.8940     6.6520     8.5540    25.1610   -23.6730 
   83.8750     2.2650    75.3390     8.7520     6.5470     7.7420    24.9020   -23.0940 
   84.0000     2.3090    80.6460     8.6740     6.4620     8.3860    24.6540   -22.7910 
   84.1250     2.3540    82.1630     8.5830     6.3660    10.9620    24.4490   -22.7360 
   84.2500     2.3790    86.0410     8.4280     6.2360    11.1660    24.1910   -22.8150 
   84.3750     2.3680    91.6900     8.2440     6.1010     8.7250    23.9580   -23.1640 
   84.5000     2.3290    94.1910     8.1360     6.0260     7.1860    23.8750   -23.7120 
   84.6250     2.2850    89.8750     8.2430     6.0940     7.1330    23.9810   -24.3510 
   84.7500     2.2480    83.4650     8.5650     6.2980     7.9590    24.1760   -25.1580 
   84.8750     2.2160    77.8750     9.0290     6.5990     8.7360    24.4980   -26.1710 
   85.0000     2.1840    72.7170     9.4800     6.9100     9.2710    25.0750   -27.1720 
   85.1250     2.1490    67.3300     9.6990     7.1020     9.5800    25.8590   -28.0590 
   85.2500     2.1180    63.0430     9.6560     7.1460     9.5230    26.3790   -28.9240 
   85.3750     2.1030    62.1170     9.4390     7.0760     9.3950    26.3730   -29.6240 
   85.5000     2.1100    63.6460     9.1930     6.9600     9.3910    26.1810   -30.1450 
   85.6250     2.1270    63.8310     9.0560     6.8670     9.6260    26.3460   -30.6590 
   85.7500     2.1370    62.4570     9.0620     6.8310     9.8250    26.7170   -31.0900 
   85.8750     2.1360    60.9510     9.1820     6.8440     9.9930    26.8210   -31.3300 
   86.0000     2.1320    60.9760     9.3460     6.8770    10.1340    26.4650   -31.5300 
   86.1250     2.1390    60.9070     9.4570     6.8910    10.1540    26.0140   -31.7630 
   86.2500     2.1550    59.2920     9.4760     6.8650    10.0090    25.6460   -31.8470 
   86.3750     2.1690    57.5990     9.4300     6.8080     9.9560    25.3440   -31.8760 
   86.5000     2.1740    58.2250     9.3720     6.7410     9.9460    25.1610   -31.8710 
   86.6250     2.1720    61.0580     9.3560     6.6960     9.8410    25.2640   -31.6470 
   86.7500     2.1660    62.2650     9.3710     6.6850     9.9090    25.6830   -31.3130 
   86.8750     2.1570    61.2300     9.3770     6.7050    10.1350    26.1910   -30.9880 
   87.0000     2.1440    59.9260     9.3320     6.7390    10.1120    26.4550   -30.6380 
   87.1250     2.1380    59.5260     9.2280     6.7660     9.9820    26.2040   -30.1700 
   87.2500     2.1430    59.6100     9.1250     6.7910     9.8220    25.8930   -29.6830 
   87.3750     2.1530    59.5830     9.0840     6.8350     9.7460    25.7260   -29.0720 
   87.5000     2.1600    59.1990     9.1330     6.9140     9.7710    25.7010   -28.1840 
   87.6250     2.1600    58.3680     9.2310     6.9990     9.6930    25.7750   -27.1330 
   87.7500     2.1600    56.5070     9.2450     7.0070     9.6730    25.8940   -26.0080 
   87.8750     2.1640    55.1930     9.0490     6.8490     9.5080    25.9370   -24.6730 
   88.0000     2.1780    58.3370     8.5700     6.4770     8.6770    25.8040   -23.1430 
   88.1250     2.2130    70.7420     7.8140     5.8980     7.2040    25.4420   -21.6960 
   88.2500     2.2660    87.5930     6.9830     5.2550     5.6850    25.0950   -20.2800 
   88.3750     2.3190   101.0780     6.2400     4.6610     4.7940    24.9190   -18.9320 
   88.5000     2.3510   107.0240     5.6920     4.1990     4.5200    24.8630   -17.8510 
   88.6250     2.3540   108.6520     5.4090     3.9380     4.5970    24.8380   -16.9620 
   88.7500     2.3450   112.2950     5.3300     3.8490     4.9570    24.8380   -16.1930 
   88.8750     2.3370   115.1730     5.4320     3.9180     5.4790    24.8180   -15.7080 
   89.0000     2.3320   112.3690     5.7030     4.1280     5.5390    24.7240   -15.5130 
   89.1250     2.3300   103.3050     6.1560     4.4770     5.5460    24.6380   -15.4040 
   89.2500     2.3290    93.4800     6.7130     4.9120     5.9720    24.5380   -15.4090 
   89.3750     2.3310    85.3000     7.2670     5.3650     6.8510    24.3900   -15.5090 
   89.5000     2.3380    79.1030     7.6640     5.7330     8.0780    24.2940   -15.5550 
   89.6250     2.3330    77.0200     7.6870     5.8550     7.7230    24.3240   -15.6150 
   89.7500     2.3110    78.7100     7.3530     5.7130     6.8970    24.4680   -15.7440 
   89.8750     2.2840    83.1370     6.7720     5.3590     6.2120    24.6120   -15.8510 
   90.0000     2.2740    87.8520     6.1300     4.9100     5.6330    24.6550   -15.8540 
   90.1250     2.2850    94.2520     5.6760     4.5370     5.1820    24.6110   -15.9220 
   90.2500     2.2990   103.4940     5.5390     4.3510     4.8350    24.6450   -16.0310 
   90.3750     2.3040   109.5400     5.7700     4.4120     4.7360    24.6670   -16.0980 
   90.5000     2.2980   105.6120     6.3230     4.7170     5.1280    24.6220   -16.2200 
   90.6250     2.2780    91.6730     7.0330     5.1950     6.2140    24.5850   -16.3830 
   90.7500     2.2530    80.8240     7.5580     5.6150     7.3070    24.5180   -16.4490 
   90.8750     2.2370    79.7890     7.6250     5.7650     7.3160    24.3500   -16.4270 
   91.0000     2.2430    88.2780     7.1510     5.5340     6.1070    24.0680   -16.4700 
   91.1250     2.2720   101.6750     6.3170     4.9800     4.9070    23.8880   -16.4820 
   91.2500     2.3040   112.5000     5.5460     4.3820     4.3760    23.8760   -16.4480 
   91.3750     2.3230   118.9630     5.0690     3.9180     4.2050    23.9140   -16.4970 
   91.5000     2.3290   120.3960     4.9560     3.6780     4.1700    23.9250   -16.5370 
   91.6250     2.3260   116.2470     5.1690     3.6940     4.3170    23.9250   -16.6050 
   91.7500     2.3200   108.2350     5.4840     3.8490     5.0360    23.8950   -16.8720 
   91.8750     2.3120    98.1840     5.7770     4.0680     6.5170    23.8210   -17.2990 
   92.0000     2.3090    91.2480     6.0650     4.3350     7.6690    23.7560   -17.7450 
   92.1250     2.3180    89.1610     6.6680     4.7870     6.5510    23.7610   -18.3770 
   92.2500     2.3370    87.4010     8.0120     5.6410     6.0410    23.8210   -19.1910 
   92.3750     2.3640    82.6560    10.4860     7.1770     7.8590    23.9380   -19.9970 
   92.5000     2.3980    75.1610    14.2020     9.5990    13.9250    24.1080   -20.8640 
   92.6250     2.4420    68.7180    18.5370    12.7830    28.6090    24.3240   -21.7880 
   92.7500     2.4760    65.4070    21.4820    15.4170    42.2300    24.5340   -22.6360 
   92.8750     2.4740    64.7220    21.2410    15.9940    43.6480    24.6220   -23.4940 
   93.0000     2.4290    65.0020    17.9690    14.2300    29.3620    24.5600   -24.4950 
   93.1250     2.3580    66.1890    13.9430    11.5020    15.7610    24.5220   -25.5050 
   93.2500     2.2900    68.4240    11.0530     9.2740    10.5940    24.7400   -26.3870 
   93.3750     2.2370    68.8700     9.5060     7.8370     9.6290    25.0690   -27.2600 
   93.5000     2.2000    66.5620     8.9620     7.0870     9.8940    25.4260   -28.0590 
   93.6250     2.1800    63.6080     9.0750     6.9010     9.9230    25.6530   -28.5750 
   93.7500     2.1700    62.9750     9.3980     6.9920     9.7410    25.8720   -28.9780 
   93.8750     2.1660    63.6310     9.7160     7.1880     9.5610    26.0490   -29.2980 
   94.0000     2.1670    63.8070     9.9200     7.3620     9.3550    26.1040   -29.3890 
   94.1250     2.1710    63.1100     9.9600     7.4360     9.3500    25.9920   -29.3300 
   94.2500     2.1720    62.8590     9.8650     7.4160     9.4890    25.7990   -29.3370 
   94.3750     2.1660    63.0120     9.6510     7.3130     9.5570    25.4930   -29.2300 
   94.5000     2.1560    63.7810     9.3680     7.1490     9.4600    25.0700   -28.9560 
   94.6250     2.1600    65.4380     9.0930     6.9610     9.3720    24.6260   -28.7020 
   94.7500     2.1760    66.6110     8.8870     6.7920     9.3510    24.4430   -28.3880 
   94.8750     2.1860    66.3860     8.7780     6.6690     9.2180    24.8270   -27.9360 
