~V
VERS. 2.00: Ver 2.00
~W
STRT.M 52.0000:
STOP.M 278.0000:
STEP.M 0.1250:
NULL. -999.2500:
UWI. F11035:
~C
DEPT.M :
DEN.GM/CC :
GR.API :
RML.OHMM :
RI. :
RXO.OHMM :
CALI.CM :
SP.MV :
~A
# ...
   63.2500     2.0700    77.4690     9.7610     8.9050     9.7320    22.3870   -23.1210 
   63.3750     2.0670    76.1540     9.7410     9.0110     9.6490    22.5550   -23.3250 
   63.5000     2.0870    72.7010     9.3890     8.7690     9.7800    22.7850   -23.3430 
   63.6250     2.1320    71.8540     8.7420     8.2010    10.0980    23.0120   -23.1330 
   63.7500     2.1790    76.2080     8.0600     7.5350     9.2160    23.1910   -22.7520 
   63.8750     2.2100    83.8590     7.5420     6.9460     7.4150    23.2590   -22.2550 
   64.0000     2.2130    88.9690     7.2960     6.5440     6.6390    23.1400   -21.7320 
   64.1250     2.1900    87.1850     7.3460     6.3950     6.9820    22.9190   -21.3440 
   64.2500     2.1610    81.9900     7.5340     6.4130     7.5140    22.8270   -21.0950 
   64.3750     2.1410    78.9860     7.7310     6.5170     7.7400    22.8150   -20.9910 
   64.5000     2.1350    79.8020     7.8320     6.6090     7.6460    22.8280   -21.0620 
   64.6250     2.1400    78.5890     7.7770     6.5850     7.3070    22.8520   -21.3550 
   64.7500     2.1510    75.7490     7.6460     6.4680     7.3290    22.8850   -21.7910 
   64.8750     2.1630    75.4130     7.5550     6.3480     7.5280    22.9180   -22.2740 
   65.0000     2.1770    77.8190     7.6430     6.3510     7.7650    22.9360   -22.7010 
   65.1250     2.1880    78.2520     8.1000     6.6530     8.2210    22.9540   -22.9460 
   65.2500     2.1930    75.7040     8.9320     7.2950     8.5050    22.9590   -23.0630 
   65.3750     2.1880    74.0600    10.0540     8.2710     9.1620    22.9230   -23.0730 
   65.5000     2.1730    74.7760    11.2270     9.4420    10.6320    22.8500   -23.0080 
   65.6250     2.1530    75.4610    11.9890    10.4140    12.6360    22.8040   -22.8790 
   65.7500     2.1340    74.0120    12.0870    10.8000    13.3730    22.7310   -22.7410 
   65.8750     2.1180    71.2090    11.5140    10.4880    12.7890    22.5850   -22.6640 
   66.0000     2.1040    69.5790    10.5130     9.6830    12.0830    22.4090   -22.6550 
   66.1250     2.0920    70.8370     9.4560     8.7410    10.7630    22.3000   -22.7740 
   66.2500     2.0800    71.5330     8.6080     7.9380     9.5520    22.2500   -23.0110 
   66.3750     2.0730    69.4710     8.0330     7.3550     8.9820    22.2320   -23.3740 
   66.5000     2.0750    66.7840     7.7040     6.9970     8.8790    22.2340   -23.8460 
   66.6250     2.0870    68.5510     7.5890     6.8600     8.7110    22.2370   -24.4090 
   66.7500     2.1050    72.1340     7.5960     6.8540     8.6330    22.2360   -24.9460 
   66.8750     2.1230    72.6530     7.6760     6.9240     8.7470    22.2840   -25.3710 
   67.0000     2.1350    70.4630     7.7800     7.0130     8.9170    22.3770   -25.6970 
   67.1250     2.1360    69.5430     7.8640     7.0750     9.0600    22.4570   -25.9060 
   67.2500     2.1270    70.2000     7.9120     7.0960     9.1540    22.4640   -26.0090 
   67.3750     2.1140    71.1480     7.9450     7.0990     9.0470    22.4070   -26.0150 
   67.5000     2.1040    73.3790     8.0040     7.1310     8.9650    22.3510   -25.9420 
   67.6250     2.1100    75.2800     8.1450     7.2650     9.1640    22.2980   -25.8370 
   67.7500     2.1360    74.2220     8.3660     7.4980     9.2950    22.2310   -25.7660 
   67.8750     2.1740    71.6460     8.6340     7.7780     9.5370    22.1890   -25.7600 
   68.0000     2.2100    69.5640     8.8810     8.0190    10.1770    22.1950   -25.8010 
   68.1250     2.2210    67.3520     9.0080     8.1010    11.1230    22.2540   -25.8400 
   68.2500     2.2040    64.6380     8.9880     8.0210    10.4100    22.3090   -25.8640 
   68.3750     2.1700    64.3130     8.8440     7.8320     8.9790    22.3600   -25.9020 
   68.5000     2.1420    67.3650     8.6330     7.6130     8.2070    22.4290   -25.9090 
   68.6250     2.1470    69.4860     8.4210     7.4380     8.4480    22.5140   -25.8760 
   68.7500     2.1790    68.8780     8.2400     7.3260     8.9480    22.6050   -25.7910 
   68.8750     2.2160    66.7230     8.0880     7.2630     9.2970    22.7040   -25.6270 
   69.0000     2.2390    66.4130     7.9650     7.2210     9.1020    22.8460   -25.3380 
   69.1250     2.2320    71.7130     7.8980     7.1670     8.6930    22.9730   -24.9150 
   69.2500     2.2100    77.8300     7.9100     7.1010     8.2610    22.9850   -24.4270 
   69.3750     2.1880    79.7550     8.0050     7.0600     7.9070    22.9320   -23.9240 
   69.5000     2.1770    77.0900     8.1630     7.0890     7.9590    22.9310   -23.4220 
   69.6250     2.1800    74.7610     8.3460     7.2320     8.6910    22.9650   -22.8810 
   69.7500     2.1870    73.8220     8.5240     7.4400     8.8920    22.9450   -22.3310 
   69.8750     2.1910    71.7300     8.6870     7.6390     8.6340    22.7960   -21.8740 
   70.0000     2.1890    70.5730     8.8180     7.7470     8.4790    22.5610   -21.6190 
   70.1250     2.1780    73.3630     8.8710     7.7010     8.4030    22.3320   -21.6550 
   70.2500     2.1630    75.5050     8.8310     7.5500     8.4370    22.2150   -21.8530 
   70.3750     2.1490    74.6090     8.7150     7.3520     8.4080    22.2130   -22.0610 
   70.5000     2.1390    74.5260     8.5770     7.1630     8.5220    22.3290   -22.2810 
   70.6250     2.1360    76.3390     8.4960     7.0320     8.8150    22.5000   -22.5550 
   70.7500     2.1350    75.7480     8.4840     6.9690     9.0030    22.6010   -22.8610 
   70.8750     2.1340    73.3870     8.5020     6.9660     9.0750    22.6490   -23.1240 
   71.0000     2.1360    73.4210     8.4950     6.9960     9.1430    22.6680   -23.3160 
   71.1250     2.1380    76.9060     8.4260     7.0150     9.0960    22.6720   -23.4150 
   71.2500     2.1420    78.8790     8.3230     6.9910     8.8680    22.6810   -23.4290 
   71.3750     2.1440    78.6970     8.2100     6.9130     8.5640    22.7080   -23.4440 
   71.5000     2.1440    78.0460     8.0960     6.7900     8.6490    22.7640   -23.4300 
   71.6250     2.1420    77.2480     7.9740     6.6520     8.6390    22.8020   -23.3400 
   71.7500     2.1380    75.5460     7.8590     6.5410     8.5800    22.8340   -23.2160 
   71.8750     2.1350    74.2160     7.7870     6.4860     8.5470    22.8690   -23.0640 
   72.0000     2.1340    76.2840     7.8010     6.5000     8.5380    22.9080   -22.8470 
   72.1250     2.1360    78.7020     7.9170     6.5890     8.5360    22.9180   -22.5270 
   72.2500     2.1420    76.5120     8.0680     6.7200     8.7210    22.9090   -22.2100 
   72.3750     2.1510    71.3570     8.1920     6.8690     8.8780    22.9060   -21.9160 
   72.5000     2.1600    68.9430     8.2520     7.0120     8.6620    22.9030   -21.6660 
   72.6250     2.1670    71.6600     8.2400     7.1270     8.5880    22.8960   -21.4910 
   72.7500     2.1700    75.9300     8.1820     7.1930     8.8560    22.8920   -21.3560 
   72.8750     2.1710    78.3240     8.0770     7.1850     8.8980    22.8420   -21.2530 
   73.0000     2.1690    77.1380     7.9160     7.0910     8.6860    22.7120   -21.1640 
   73.1250     2.1670    74.3750     7.7030     6.9200     8.0890    22.6300   -21.0850 
   73.2500     2.1650    74.1650     7.4950     6.7280     7.8390    22.6160   -20.9810 
   73.3750     2.1610    77.4160     7.3470     6.5620     7.7980    22.6070   -20.8120 
   73.5000     2.1560    82.7210     7.2970     6.4510     7.9230    22.5240   -20.5800 
   73.6250     2.1520    87.1820     7.3550     6.4270     8.0560    22.3730   -20.2760 
   73.7500     2.1540    88.1700     7.4650     6.4660     8.2300    22.2880   -19.9030 
   73.8750     2.1690    85.7040     7.5690     6.5360     8.2670    22.3210   -19.4500 
   74.0000     2.2000    83.8700     7.6110     6.5900     8.0910    22.5090   -18.9450 
   74.1250     2.2410    87.0960     7.5310     6.5580     8.4110    22.9230   -18.4350 
   74.2500     2.2740    92.2170     7.3400     6.4300     8.7130    23.4050   -17.8880 
   74.3750     2.2910    94.9010     7.0650     6.2240     8.0500    23.7850   -17.2980 
