~V
VERS. 2.00: Ver 2.00
~W
STRT.M 52.0000:
STOP.M 282.0000:
STEP.M 0.1250:
NULL. -999.2500:
UWI. F11052:
~C
DEPT.M :
SP.MV :
GR.API :
RML.OHMM :
RI. :
RXO.OHMM :
CALI.CM :
DEN.GM/CC :
~A
# ...
  198.2500   -22.5670    56.9830    90.4150    89.2100    82.9890    25.8700     2.3110 
  198.3750   -22.7800    57.8310   101.2660   101.0970    83.0460    25.8610     2.3020 
  198.5000   -23.0820    63.1240   108.9300   108.3290    80.4180    25.8140     2.2990 
  198.6250   -23.3600    66.7800   114.0110   111.2820    89.1170    25.7610     2.2980 
  198.7500   -23.5910    66.3250   119.6830   113.9800   104.1530    25.7580     2.2950 
  198.8750   -23.8170    62.4740   128.8350   119.7760   106.2440    25.7740     2.2830 
  199.0000   -24.0500    59.2830   143.5840   131.4830    89.3050    25.7820     2.2610 
  199.1250   -24.1610    59.0910   163.7320   150.8640    90.9810    25.7580     2.2310 
  199.2500   -24.2810    57.8330   181.3230   171.6170   139.3380    25.7120     2.2020 
  199.3750   -24.3920    53.2140   186.2140   182.9410   257.2960    25.6740     2.1850 
  199.5000   -24.4010    48.5950   172.0680   174.4070   429.3770    25.6650     2.1840 
  199.6250   -24.4780    50.8600   141.4970   145.0100   348.4470    25.6560     2.2000 
  199.7500   -24.5550    57.0440   109.5980   111.8610   165.3490    25.6910     2.2230 
  199.8750   -24.5540    61.8790    84.9500    85.2130    78.2860    25.7680     2.2430 
  200.0000   -24.5550    64.0460    70.0320    68.3220    54.8770    25.8390     2.2570 
  200.1250   -24.5770    65.1240    64.7410    61.3430    47.9390    25.8650     2.2610 
  200.2500   -24.5770    65.6280    65.7280    60.9390    44.6880    25.8470     2.2580 
  200.3750   -24.5540    64.8440    71.5250    66.0860    44.8780    25.8290     2.2490 
  200.5000   -24.5490    65.8140    79.8860    75.3070    56.2610    25.8370     2.2360 
  200.6250   -24.4680    69.6470    85.8130    83.8480    90.9700    25.8880     2.2280 
  200.7500   -24.3490    70.9890    84.7640    84.6970   129.1330    25.8890     2.2300 
  200.8750   -24.2530    67.7360    75.3480    75.1560   133.8140    25.8200     2.2460 
  201.0000   -24.1550    64.1120    60.5540    59.5850    92.7150    25.7250     2.2740 
  201.1250   -24.1580    65.3470    46.9600    45.7890    48.7850    25.6940     2.3080 
  201.2500   -24.1790    67.9440    38.8290    37.1170    26.3140    25.7060     2.3440 
  201.3750   -24.2800    67.5770    36.3530    33.4920    21.3310    25.6600     2.3780 
  201.5000   -24.3890    64.9030    37.7990    33.8170    29.8480    25.5330     2.4040 
  201.6250   -24.4350    63.7700    41.3750    37.0260    45.3700    25.4560     2.4100 
  201.7500   -24.5590    65.3530    44.7930    40.8990    53.6310    25.5390     2.3930 
  201.8750   -24.6820    66.7380    46.2830    43.4190    51.6260    25.7760     2.3590 
  202.0000   -24.7470    66.2110    44.8940    43.0240    46.3750    25.9930     2.3190 
  202.1250   -24.6760    65.7420    40.6470    39.3460    41.5110    26.0530     2.2870 
  202.2500   -24.4880    65.8860    35.3210    34.2910    36.9420    26.0150     2.2730 
  202.3750   -24.1290    66.7730    29.8740    29.0380    31.9050    25.9240     2.2840 
  202.5000   -23.6990    68.9230    24.8000    24.2940    25.1010    25.7860     2.3200 
  202.6250   -23.2580    73.6410    20.7020    20.5810    19.3360    25.6220     2.3740 
  202.7500   -22.6750    77.7210    17.8480    17.8340    15.0540    25.3950     2.4230 
  202.8750   -22.0370    78.9810    16.2030    15.9870    13.6060    25.2940     2.4480 
  203.0000   -21.4180    79.9100    15.3940    14.9140    13.9640    25.3990     2.4450 
  203.1250   -20.7940    81.8360    15.0630    14.4860    14.3480    25.5240     2.4280 
  203.2500   -20.2250    82.1080    14.8090    14.2830    13.8280    25.5310     2.4260 
  203.3750   -19.7120    79.5910    14.3340    13.9630    13.3990    25.4920     2.4460 
  203.5000   -19.1920    76.2110    13.4700    13.2540    14.0710    25.4350     2.4800 
  203.6250   -18.6070    76.4850    12.1980    12.0320    14.3940    25.3800     2.5090 
  203.7500   -18.0270    80.3430    10.8050    10.5990    11.1430    25.3800     2.5190 
  203.8750   -17.4150    85.9310     9.5510     9.2380     8.4170    25.3530     2.5100 
  204.0000   -16.7820    91.8350     8.6540     8.1620     7.7310    25.3790     2.4880 
  204.1250   -16.2660    97.5590     8.3320     7.5670     7.7250    25.4290     2.4670 
  204.2500   -15.8230   100.6660     8.5260     7.4390     7.3530    25.3300     2.4560 
  204.3750   -15.5340    98.2960     9.1690     7.7700     7.2560    25.1290     2.4570 
  204.5000   -15.3460    91.4080    10.1400     8.4960     8.5660    25.0140     2.4590 
  204.6250   -15.3380    84.4890    11.3180     9.5420    11.3190    25.0680     2.4470 
  204.7500   -15.4630    80.9170    12.6100    10.7280    14.7020    25.1580     2.4160 
  204.8750   -15.6060    80.2700    14.1060    11.9960    15.2660    25.2010     2.3740 
  205.0000   -15.7890    81.0500    16.0090    13.4520    13.1590    25.2000     2.3410 
  205.1250   -15.9240    79.5510    18.5440    15.4620    14.7090    25.0850     2.3470 
  205.2500   -15.9410    77.3220    21.2810    18.0430    18.9980    25.0250     2.3980 
  205.3750   -15.8330    77.3860    23.2970    20.6280    22.1050    25.0430     2.4840 
  205.5000   -15.5800    79.6370    23.4160    21.7960    27.1470    25.0730     2.5790 
  205.6250   -15.1160    80.3440    20.6460    19.6160    35.3030    25.0760     2.6400 
  205.7500   -14.5540    77.2870    16.2640    15.3730    30.8920    25.0340     2.6480 
  205.8750   -14.0050    72.6660    11.7740    11.0340    16.6290    24.9320     2.6070 
  206.0000   -13.4530    69.4400     8.3370     7.7670     6.9630    24.7380     2.5440 
  206.1250   -12.9450    67.6770     6.4950     5.8830     4.9000    24.4470     2.4980 
  206.2500   -12.5070    65.8820     5.6800     4.8650     4.4200    24.3490     2.4850 
  206.3750   -12.1250    65.9140     5.4790     4.4400     4.4830    24.4550     2.4970 
  206.5000   -11.8810    68.7460     5.5590     4.3850     4.5410    24.6790     2.5170 
  206.6250   -11.8040    72.0250     5.7030     4.5360     4.5910    24.8220     2.5270 
  206.7500   -11.8600    74.1760     5.8460     4.7590     4.5980    24.8640     2.5260 
  206.8750   -12.0080    77.6500     6.0500     5.0480     4.5850    24.7570     2.5150 
  207.0000   -12.2020    82.8800     6.3930     5.4330     4.8260    24.5450     2.4990 
  207.1250   -12.3650    85.3990     6.8960     5.9260     5.4360    24.3810     2.4820 
  207.2500   -12.4730    84.5100     7.4090     6.4260     6.2100    24.3880     2.4690 
  207.3750   -12.5580    81.5580     7.7650     6.7980     6.7470    24.5040     2.4600 
  207.5000   -12.5720    78.3110     7.8480     6.9160     6.9150    24.6710     2.4560 
  207.6250   -12.6210    77.3110     7.6150     6.6960     6.9630    24.7660     2.4560 
  207.7500   -12.6550    80.5890     7.2360     6.2900     6.7540    24.9180     2.4550 
  207.8750   -12.6430    85.7100     6.8590     5.8450     6.2860    25.0480     2.4520 
  208.0000   -12.6640    86.7900     6.6050     5.4830     5.9840    25.1840     2.4480 
  208.1250   -12.7130    84.0850     6.5870     5.3180     5.8630    25.3470     2.4450 
  208.2500   -12.8400    83.2000     6.7990     5.3600     5.9230    25.4280     2.4430 
  208.3750   -13.0490    83.7380     7.2250     5.6020     6.1030    25.4420     2.4400 
  208.5000   -13.3180    83.9320     7.7990     6.0090     6.6090    25.4140     2.4370 
  208.6250   -13.5960    85.1150     8.4060     6.5120     7.5790    25.4460     2.4320 
  208.7500   -13.8910    85.2890     8.9220     6.9890     8.4730    25.5220     2.4290 
  208.8750   -14.1760    83.0360     9.2980     7.3590     8.3100    25.5440     2.4280 
  209.0000   -14.4020    82.2130     9.5530     7.6090     8.2110    25.5620     2.4310 
  209.1250   -14.6410    86.5920     9.7550     7.7840     8.3060    25.5780     2.4330 
  209.2500   -14.8340    89.4740     9.9800     7.9540     8.5630    25.6080     2.4260 
  209.3750   -14.9340    87.4940    10.2430     8.1440     8.6560    25.6210     2.4090 
