~V
VERS. 2.00: Ver 2.00
~W
STRT.M 55.0000:
STOP.M 249.0000:
STEP.M 0.1250:
NULL. -999.2500:
UWI. F11017:
~C
DEPT.M :
GR.API :
RML.OHMM :
RI. :
RXO.OHMM :
CALI.CM :
DEN.GM/CC :
SP.MV :
~A
# ...
  111.2500    89.7650     6.3430     5.7830     5.2030    23.4190     2.2360   -10.1800 
  111.3750    84.3740     6.6800     6.0800     5.5660    23.3540     2.2350   -10.6550 
  111.5000    78.3920     6.9510     6.3240     5.8400    23.2970     2.2330   -11.1380 
  111.6250    73.9180     7.0980     6.4500     6.2030    23.2500     2.2340   -11.5860 
  111.7500    70.8820     7.1450     6.4710     6.4230    23.1980     2.2390   -11.9790 
  111.8750    70.9540     7.1270     6.4170     6.6080    23.1370     2.2500   -12.3170 
  112.0000    73.4040     7.0820     6.3250     6.7140    23.0870     2.2620   -12.6150 
  112.1250    76.0650     7.0380     6.2290     6.8070    23.0610     2.2700   -12.8830 
  112.2500    77.3460     7.0110     6.1550     7.1480    23.0680     2.2680   -13.1270 
  112.3750    76.5420     7.0290     6.1260     7.8320    23.1170     2.2520   -13.3570 
  112.5000    73.2840     7.1660     6.1910     7.8330    23.2140     2.2250   -13.5770 
  112.6250    67.9660     7.6640     6.5060     7.6280    23.3120     2.1930   -13.7840 
  112.7500    61.9540     8.7380     7.2200     7.7250    23.4070     2.1710   -13.9750 
  112.8750    57.0530    10.6010     8.5200     8.7500    23.5940     2.1740   -14.1430 
  113.0000    55.7460    13.2910    10.5280    10.6060    23.8980     2.2130   -14.2930 
  113.1250    58.4340    16.4630    13.1600    14.2660    24.1830     2.2930   -14.4400 
  113.2500    60.0280    19.1370    15.7140    20.2120    24.3660     2.3870   -14.6220 
  113.3750    58.1190    20.3500    17.3700    27.9050    24.3890     2.4570   -14.8570 
  113.5000    54.7520    19.4490    17.3690    32.9080    24.2730     2.4730   -15.1460 
  113.6250    56.8760    16.4630    15.3570    28.9030    24.0580     2.4250   -15.4930 
  113.7500    63.3430    13.0400    12.6280    20.4620    23.7390     2.3520   -15.8750 
  113.8750    68.3030    10.2890    10.1920    12.7040    23.3430     2.2810   -16.2710 
  114.0000    67.9990     8.6170     8.5060     9.1680    23.0300     2.2270   -16.6520 
  114.1250    63.8410     7.9960     7.6630     8.4920    22.9110     2.1970   -16.9870 
  114.2500    61.8290     7.9200     7.3350     8.5750    22.8810     2.1840   -17.2650 
  114.3750    62.3660     8.1060     7.3250     8.6800    22.8480     2.1800   -17.4750 
  114.5000    62.7660     8.3370     7.4530     8.6730    22.7710     2.1780   -17.6090 
  114.6250    62.1600     8.4510     7.5590     8.4800    22.6520     2.1760   -17.6530 
  114.7500    61.8210     8.4350     7.5710     8.5240    22.5220     2.1750   -17.6450 
  114.8750    61.2610     8.3360     7.5030     8.6330    22.4080     2.1760   -17.6280 
  115.0000    60.1250     8.2190     7.4090     8.6080    22.3440     2.1790   -17.6450 
  115.1250    60.3710     8.1410     7.3470     8.5120    22.3710     2.1840   -17.7250 
  115.2500    61.4350     8.1090     7.3320     8.5670    22.4370     2.1870   -17.8400 
  115.3750    61.2170     8.1100     7.3520     8.8680    22.4880     2.1910   -17.9730 
  115.5000    61.7820     8.1300     7.3770     9.0890    22.4900     2.1950   -18.1230 
  115.6250    65.2730     8.1640     7.3820     9.1670    22.4380     2.2000   -18.3030 
  115.7500    67.5520     8.2020     7.3610     9.1790    22.4070     2.2050   -18.5130 
  115.8750    65.6030     8.2260     7.3170     9.1820    22.4590     2.2060   -18.7360 
  116.0000    62.1750     8.2150     7.2560     9.1290    22.5850     2.2020   -18.9480 
  116.1250    61.1330     8.1460     7.1810     8.8790    22.7170     2.1900   -19.1160 
  116.2500    60.8430     8.0310     7.0960     8.6380    22.8540     2.1770   -19.2470 
  116.3750    61.4050     7.8920     7.0070     8.5880    22.9970     2.1660   -19.3390 
  116.5000    62.3240     7.7510     6.9140     8.6090    23.1720     2.1590   -19.3800 
  116.6250    61.6660     7.6260     6.8200     8.6030    23.3960     2.1580   -19.3490 
  116.7500    59.1690     7.5260     6.7300     8.3590    23.7040     2.1550   -19.2780 
  116.8750    57.4370     7.4600     6.6530     8.1520    23.9750     2.1480   -19.2060 
  117.0000    60.4870     7.4360     6.6020     7.9760    24.1020     2.1330   -19.1660 
  117.1250    66.0690     7.4530     6.5920     7.7130    24.0170     2.1150   -19.1930 
  117.2500    68.1550     7.4860     6.6140     7.5890    23.7970     2.1000   -19.2600 
  117.3750    65.4580     7.5210     6.6550     7.6580    23.5450     2.0950   -19.3420 
  117.5000    61.1140     7.5510     6.7000     7.9800    23.3540     2.1010   -19.4340 
  117.6250    58.3350     7.5820     6.7380     8.3460    23.2650     2.1140   -19.5380 
  117.7500    57.4070     7.6260     6.7740     8.6190    23.2360     2.1280   -19.6450 
  117.8750    59.4650     7.6900     6.8130     8.7130    23.2220     2.1370   -19.7310 
  118.0000    62.6560     7.7670     6.8590     8.9490    23.1330     2.1430   -19.7750 
  118.1250    61.7430     7.8260     6.8960     9.2090    23.0220     2.1480   -19.7390 
  118.2500    59.4580     7.8350     6.9050     9.0690    22.9260     2.1540   -19.6360 
  118.3750    59.7210     7.7690     6.8700     8.5240    22.9180     2.1630   -19.4920 
  118.5000    63.0760     7.6330     6.7890     7.9670    22.9500     2.1720   -19.3410 
  118.6250    66.8980     7.4780     6.6890     7.5970    22.9650     2.1770   -19.2180 
  118.7500    69.6210     7.3990     6.6350     7.3810    22.9870     2.1750   -19.1270 
  118.8750    69.2260     7.4840     6.6910     7.3120    23.0670     2.1660   -19.0550 
  119.0000    63.6080     7.7760     6.9030     7.4630    23.2040     2.1590   -18.9840 
  119.1250    55.2260     8.2570     7.2830     7.6240    23.3310     2.1690   -18.9100 
  119.2500    50.9400     8.7560     7.7180     7.6960    23.4230     2.2000   -18.8290 
  119.3750    53.1710     9.1070     8.0810     7.8820    23.4740     2.2450   -18.7280 
  119.5000    58.1000     9.1780     8.2480     8.0600    23.3920     2.2840   -18.5940 
  119.6250    61.3550     8.8960     8.1160     7.9450    23.1940     2.2900   -18.3840 
  119.7500    64.1130     8.4440     7.7870     7.4340    22.8720     2.2640   -18.0920 
  119.8750    65.4440     8.0090     7.3970     7.0140    22.5850     2.2230   -17.7130 
  120.0000    62.4640     7.7520     7.0810     6.8130    22.3590     2.1900   -17.2390 
  120.1250    56.6150     7.7830     6.9560     6.8640    22.1930     2.1810   -16.6540 
  120.2500    54.8220     8.0150     7.0040     7.0110    22.1070     2.1890   -15.9800 
  120.3750    56.3200     8.3490     7.1790     7.2740    22.2010     2.2090   -15.2470 
  120.5000    56.2860     8.6850     7.4150     7.5690    22.4710     2.2330   -14.4910 
  120.6250    53.7260     8.9500     7.6550     7.8150    22.6440     2.2570   -13.7630 
  120.7500    54.3560     9.1800     7.8970     7.9600    22.7110     2.2770   -13.0620 
  120.8750    58.0870     9.4670     8.1950     7.9340    22.7240     2.2910   -12.3860 
  121.0000    59.9660     9.9230     8.6290     7.9440    22.7650     2.2990   -11.7460 
  121.1250    58.8950    10.6510     9.2880     8.2800    22.8430     2.3050   -11.1650 
  121.2500    58.8790    11.5520    10.1230     9.0510    22.9490     2.3170   -10.6820 
  121.3750    59.2420    12.4750    11.0320    10.3450    23.0310     2.3370   -10.3180 
  121.5000    58.0820    13.2290    11.8690    11.8030    23.0440     2.3630   -10.0740 
  121.6250    57.7910    13.6020    12.4280    12.1460    22.9920     2.3880    -9.9460 
  121.7500    59.0290    13.6080    12.6560    11.7280    22.9380     2.4060    -9.9120 
  121.8750    58.0680    13.2890    12.5380    11.1870    22.9240     2.4140    -9.9770 
  122.0000    54.8140    12.6890    12.0910    10.7280    22.9110     2.4140   -10.1320 
  122.1250    53.2780    11.8920    11.2830    11.0500    22.8900     2.4060   -10.3770 
  122.2500    55.0650    10.8730    10.2010    11.3090    22.8890     2.3930   -10.6560 
  122.3750    58.0640     9.7430     8.9390    10.7000    22.9180     2.3750   -10.9460 
