~V
VERS. 2.00: Ver 2.00
~W
STRT.M 50.0000:
STOP.M 220.0000:
STEP.M 0.1250:
NULL. -999.2500:
UWI. F11004:
~C
DEPT.M :
SP.MV :
GR.API :
RML.OHMM :
RI. :
RXO.OHMM :
CALI.CM :
DEN.GM/CC :
~A
# ...
   61.2500   -13.8190   107.1530     5.2970     5.0670     6.9490    24.4630     2.4370 
   61.3750   -14.5940    93.3670     7.4950     6.7130    11.2110    24.3480     2.5200 
   61.5000   -15.5260    81.0740    10.9110     9.5650    17.0360    24.2570     2.5880 
   61.6250   -16.5610    73.4050    15.0280    13.4340    23.8750    24.2240     2.6200 
   61.7500   -17.7160    67.4840    18.7480    17.4430    32.4810    24.1990     2.6180 
   61.8750   -18.9930    62.9300    20.3780    19.7220    38.7550    24.1740     2.5830 
   62.0000   -20.3620    62.0810    18.5780    18.5490    31.5760    24.2120     2.5080 
   62.1250   -21.8400    64.4480    15.2210    15.6710    21.1220    24.2830     2.4090 
   62.2500   -23.3460    67.1810    11.9930    12.6890    12.6320    24.3360     2.3130 
   62.3750   -24.7420    66.7120     9.7210    10.3780     9.2450    24.4000     2.2420 
   62.5000   -25.9710    63.8520     8.6130     9.0010     8.6100    24.4970     2.2060 
   62.6250   -27.0940    63.9850     8.2120     8.2830     8.7520    24.4960     2.1900 
   62.7500   -28.0980    67.9230     8.2380     8.0510     9.0050    24.3490     2.1860 
   62.8750   -28.9210    72.1800     8.4800     8.1440     9.0680    24.2420     2.1910 
   63.0000   -29.5420    71.4160     8.7970     8.4320     9.0170    24.3440     2.2020 
   63.1250   -30.0100    65.4750     9.1080     8.7850     9.0400    24.3740     2.2080 
   63.2500   -30.3410    58.5430     9.4050     9.1650     9.2440    24.1080     2.2060 
   63.3750   -30.6230    53.6830     9.6820     9.5450     9.6260    23.6650     2.2000 
   63.5000   -30.9540    53.9910     9.8990     9.8630    10.0340    23.3860     2.2000 
   63.6250   -31.3030    57.5980    10.0140    10.0550    10.2890    23.3310     2.1990 
   63.7500   -31.6520    61.8040     9.9970    10.0720    10.3530    23.3940     2.1940 
   63.8750   -32.0080    63.6160     9.8510     9.9110    10.2900    23.5000     2.1840 
   64.0000   -32.3920    61.2620     9.6200     9.6180    10.2270    23.6900     2.1750 
   64.1250   -32.7390    58.5150     9.3980     9.3060    10.2180    24.0050     2.1660 
   64.2500   -33.0410    57.5540     9.2490     9.0460    10.1650    24.4010     2.1570 
   64.3750   -33.3070    56.9910     9.2060     8.8840    10.0370    24.7200     2.1470 
   64.5000   -33.4410    56.0310     9.2920     8.8550     9.9790    24.7210     2.1460 
   64.6250   -33.4310    55.1660     9.4730     8.9220    10.0530    24.4370     2.1560 
   64.7500   -33.3210    55.9010     9.7280     9.0500    10.1390    24.0530     2.1710 
   64.8750   -33.1470    56.9840    10.0370     9.1980    10.1290    23.7870     2.1850 
   65.0000   -32.8600    56.2640    10.3640     9.3160    10.0870    23.7200     2.1910 
   65.1250   -32.5240    55.9880    10.6440     9.3760    10.0250    23.7020     2.1880 
   65.2500   -32.1650    59.3840    10.8320     9.3660     9.8320    23.6410     2.1760 
   65.3750   -31.7850    65.3240    10.9200     9.2890     9.5580    23.4980     2.1600 
   65.5000   -31.3600    67.8010    10.9280     9.1590     9.4690    23.2960     2.1550 
   65.6250   -30.9450    65.5390    10.9140     9.0130     9.6250    23.1480     2.1660 
   65.7500   -30.5840    62.5230    10.8990     8.8800     9.9280    23.1260     2.1840 
   65.8750   -30.2520    61.3310    10.8850     8.7810    10.2300    23.2160     2.1950 
   66.0000   -29.9200    60.9460    10.8680     8.7340    10.3610    23.3460     2.1890 
   66.1250   -29.5860    61.2000    10.8640     8.7340    10.3420    23.4550     2.1780 
   66.2500   -29.2420    63.1760    10.8890     8.7750    10.2810    23.5320     2.1680 
   66.3750   -28.8530    64.9950    10.9400     8.8460    10.2850    23.5730     2.1620 
   66.5000   -28.4740    62.8280    10.9770     8.9260    10.3090    23.5410     2.1590 
   66.6250   -28.0980    58.4050    10.9510     8.9760    10.2540    23.4680     2.1580 
   66.7500   -27.6540    56.1420    10.8340     8.9640    10.2520    23.4290     2.1570 
   66.8750   -27.1610    57.8520    10.6240     8.8830    10.5060    23.4750     2.1530 
   67.0000   -26.7370    60.8490    10.3620     8.7440    10.9450    23.5460     2.1470 
   67.1250   -26.3240    62.3880    10.1300     8.6000    11.1510    23.5270     2.1430 
   67.2500   -25.9260    62.0650     9.9780     8.4870    11.0670    23.4610     2.1440 
   67.3750   -25.6040    62.6880     9.9160     8.4220    10.9740    23.5980     2.1460 
   67.5000   -25.3870    65.3020     9.9150     8.4030    11.0440    24.1850     2.1460 
   67.6250   -25.1940    66.1410     9.9060     8.3930    11.1160    24.8880     2.1380 
   67.7500   -25.0240    62.9170     9.8400     8.3610    11.0130    25.2500     2.1200 
   67.8750   -24.8640    59.5070     9.7080     8.2780    10.4740    25.0400     2.0980 
   68.0000   -24.6040    61.8780     9.5490     8.1340     9.6740    24.4590     2.0920 
   68.1250   -24.3320    66.2960     9.4310     7.9710     9.3120    23.9410     2.1090 
   68.2500   -24.0880    68.2790     9.3850     7.8230     9.5690    23.6340     2.1400 
   68.3750   -23.8380    68.8490     9.3980     7.7140    10.1850    23.5030     2.1660 
   68.5000   -23.4890    70.3560     9.4270     7.6620    10.7910    23.4650     2.1810 
   68.6250   -23.1020    70.2810     9.4720     7.6690    11.1910    23.4770     2.1960 
   68.7500   -22.7180    68.4660     9.6260     7.7850    11.2470    23.5200     2.2200 
   68.8750   -22.3470    67.5390    10.0300     8.0840    10.9780    23.5740     2.2550 
   69.0000   -22.0110    68.6170    10.7960     8.6640    10.6460    23.5880     2.3040 
   69.1250   -21.6810    70.1610    11.7290     9.4260    11.0770    23.5470     2.3610 
   69.2500   -21.3700    71.8350    12.5280    10.1800    12.9090    23.5040     2.4110 
   69.3750   -21.1130    73.4450    12.8430    10.6390    14.8270    23.5170     2.4280 
   69.5000   -20.9660    73.8760    12.3630    10.4660    13.4030    23.5600     2.3860 
   69.6250   -20.8930    72.4490    11.3700     9.8050    10.6670    23.5370     2.3120 
   69.7500   -20.8240    69.0360    10.2140     8.9120     9.2650    23.4190     2.2470 
   69.8750   -20.6850    64.0450     9.1840     8.0260     9.3980    23.2510     2.2140 
   70.0000   -20.5050    61.8940     8.4140     7.2840     9.8520    23.0960     2.2160 
   70.1250   -20.3330    63.3380     7.8000     6.6610     9.8820    22.9950     2.2300 
   70.2500   -20.1260    67.6590     7.2630     6.1290     9.6730    22.9760     2.2440 
   70.3750   -19.9210    74.5630     6.8020     5.6950     9.3390    23.0440     2.2520 
   70.5000   -19.8020    83.3940     6.5690     5.4600     8.7150    23.1340     2.2530 
   70.6250   -19.7530    90.0340     6.6620     5.4700     8.1070    23.1400     2.2410 
   70.7500   -19.8000    88.7190     7.1010     5.7500     8.0440    23.0500     2.2180 
   70.8750   -20.0110    79.6040     7.7770     6.2620     8.6440    22.9560     2.1950 
   71.0000   -20.2960    69.3360     8.4600     6.8960     9.4130    22.9720     2.1810 
   71.1250   -20.5170    63.4570     8.9090     7.4440     9.8450    23.0990     2.1780 
   71.2500   -20.6610    62.5740     9.0350     7.7640     9.8540    23.2860     2.1830 
   71.3750   -20.6630    64.8470     8.9280     7.8310     9.5560    23.4430     2.1960 
   71.5000   -20.3780    69.0750     8.8100     7.7520     9.2180    23.5090     2.2100 
   71.6250   -19.8300    71.5190     8.8040     7.6780     8.9940    23.5270     2.2190 
   71.7500   -19.0760    70.2090     8.8290     7.6160     8.8810    23.5360     2.2240 
   71.8750   -18.1170    68.5770     8.6940     7.4820     8.9470    23.5430     2.2280 
   72.0000   -16.9500    72.3510     8.1780     7.1280     8.6980    23.5640     2.2370 
   72.1250   -15.7300    81.4210     7.3550     6.5640     7.3670    23.6830     2.2500 
   72.2500   -14.5290    93.6300     6.4270     5.8930     5.4770    23.9730     2.2670 
   72.3750   -13.3740   103.9780     5.6510     5.2720     4.2320    24.3840     2.2860 
