~V
VERS. 2.00: Ver 2.00
~W
STRT.M 50.0000:
STOP.M 270.0000:
STEP.M 0.1250:
NULL. -999.2500:
UWI. F11070:
~C
DEPT.M :
DEN.GM/CC :
GR.API :
RML.OHMM :
RI. :
RXO.OHMM :
CALI.CM :
SP.MV :
~A
# ...
  173.7500     2.3970    85.7820    19.8600    16.9470    16.4770    23.6420   -25.4750 
  173.8750     2.3600    84.0780    22.0850    18.5240    18.3630    23.9600   -25.5180 
  174.0000     2.3120    81.9910    26.1260    21.4970    19.2490    24.2090   -25.5820 
  174.1250     2.2710    77.7300    33.2830    27.2440    23.3980    24.3620   -25.6750 
  174.2500     2.2500    71.8000    43.9940    36.6830    38.2980    24.4560   -25.7680 
  174.3750     2.2450    66.7410    58.6670    50.6660    72.7290    24.5470   -25.8380 
  174.5000     2.2490    63.6690    76.6980    68.7760   105.0420    24.5900   -25.8930 
  174.6250     2.2650    63.5900    95.4700    88.4090    91.9110    24.5900   -25.9400 
  174.7500     2.2840    65.2770   111.0080   105.3970    84.8950    24.6030   -26.0030 
  174.8750     2.2960    66.5760   120.7350   117.2230    98.9430    24.6420   -26.0650 
  175.0000     2.2970    66.0520   122.8180   122.3070   127.4870    24.7030   -26.0820 
  175.1250     2.2960    63.3890   113.3880   112.9260   127.5910    24.7470   -26.0480 
  175.2500     2.2990    61.4990    95.3790    87.2540   114.9740    24.7620   -26.0180 
  175.3750     2.2980    62.1780    75.1940    70.9840   102.5100    24.7520   -26.0330 
  175.5000     2.2900    66.3480    59.2520    56.1630    75.8080    24.7000   -26.0820 
  175.6250     2.2800    71.5240    51.6940    47.6970    46.3450    24.5490   -26.1750 
  175.7500     2.2690    73.8700    51.7100    46.1920    33.8960    24.3610   -26.2710 
  175.8750     2.2520    71.8140    59.5370    52.5160    47.7970    24.2060   -26.3800 
  176.0000     2.2250    66.6050    76.1120    67.8340    88.6550    24.1620   -26.5390 
  176.1250     2.2000    61.7070   104.6480    94.5690   148.1800    24.2550   -26.7620 
  176.2500     2.1900    59.7810   142.2820   128.3930   163.1140    24.4230   -26.9690 
  176.3750     2.1930    59.6380   180.5190   161.0580   154.1000    24.6530   -27.1220 
  176.5000     2.2000    58.6230   205.4830   182.0860   149.9100    24.9490   -27.2350 
  176.6250     2.2080    57.1380   210.1880   186.3620   161.4340    25.1100   -27.3030 
  176.7500     2.2180    58.7730   208.7070   184.3660   184.8580    25.0980   -27.3750 
  176.8750     2.2270    62.0090   209.9260   183.5890   195.8380    24.9750   -27.4420 
  177.0000     2.2310    62.2520   217.2850   187.5700   187.6260    24.7890   -27.4910 
  177.1250     2.2310    58.8950   231.6160   197.5060   171.8700    24.5940   -27.5260 
  177.2500     2.2290    57.8520   247.1900   209.2580   184.6090    24.4000   -27.5910 
  177.3750     2.2230    58.7420   255.1680   216.6300   228.7270    24.2960   -27.6750 
  177.5000     2.2180    57.5150   247.1150   213.3560   273.1740    24.1520   -27.7590 
  177.6250     2.2170    56.4600   220.8460   195.8400   237.5830    23.9420   -27.8400 
  177.7500     2.2170    61.4230   188.4420   171.2230   180.9470    23.8360   -27.9020 
  177.8750     2.2220    68.9950   157.9860   145.8660   138.0290    23.8740   -27.9460 
  178.0000     2.2360    71.7760   133.3410   124.0670   118.6410    23.9470   -27.9720 
  178.1250     2.2580    68.9570   116.1510   108.2350   107.0030    24.0010   -27.9860 
  178.2500     2.2780    67.3390   104.5070    97.2470    89.8640    24.0280   -27.9880 
  178.3750     2.2880    68.1440    97.3150    90.3730    76.6510    23.9830   -27.9710 
  178.5000     2.2870    68.0980    93.2300    86.5780    71.4930    23.9150   -27.9480 
  178.6250     2.2760    65.8540    90.5410    84.4230    78.0760    23.9540   -27.9240 
  178.7500     2.2590    63.1860    87.0590    81.8490    89.1820    24.1470   -27.8900 
  178.8750     2.2480    62.4240    81.6250    77.6770    92.3320    24.5230   -27.8520 
  179.0000     2.2480    64.1380    74.3380    71.7110    79.3540    24.7940   -27.8140 
  179.1250     2.2620    67.5490    66.9040    65.1330    62.6820    24.8520   -27.7480 
  179.2500     2.2790    70.6420    61.5100    59.9110    55.6000    24.7800   -27.6670 
  179.3750     2.2930    70.9680    59.4960    57.3900    51.2250    24.6930   -27.6000 
  179.5000     2.3020    68.5960    61.5140    58.4260    49.6710    24.7070   -27.5270 
  179.6250     2.3040    66.9290    68.0190    63.8440    60.0880    24.8050   -27.4430 
  179.7500     2.2990    67.4430    76.8400    71.8070    84.8660    24.9630   -27.3500 
  179.8750     2.2900    67.9930    84.9540    79.6110   110.1610    25.1240   -27.2340 
  180.0000     2.2810    65.6470    88.4200    83.6890   117.9000    25.2520   -27.0930 
  180.1250     2.2780    63.3720    83.6740    80.5050   106.4930    25.3510   -26.9270 
  180.2500     2.2810    65.6450    74.1770    72.4830    79.6970    25.4190   -26.7730 
  180.3750     2.2880    71.2320    64.2250    63.2240    54.0970    25.4340   -26.6370 
  180.5000     2.3000    75.1260    56.9560    55.8220    40.9400    25.4410   -26.5320 
  180.6250     2.3090    73.6730    54.0300    52.2340    44.3310    25.4640   -26.4590 
  180.7500     2.3120    71.7310    54.4000    51.8250    48.1240    25.4270   -26.4130 
  180.8750     2.3080    71.0210    57.2500    54.0160    54.0120    25.3120   -26.3900 
  181.0000     2.3020    69.8440    61.5900    57.9820    63.5260    25.1390   -26.3310 
  181.1250     2.2960    68.7110    65.9610    62.4610    70.5350    24.9710   -26.2070 
  181.2500     2.2890    68.0260    68.7440    65.8160    72.3000    24.9390   -26.0280 
  181.3750     2.2840    66.7860    68.8960    66.8750    71.1130    24.9860   -25.8040 
  181.5000     2.2820    64.7570    66.2290    65.1530    69.4110    25.0240   -25.5310 
  181.6250     2.2830    64.5100    61.4370    60.9510    66.8970    25.0090   -25.1770 
  181.7500     2.2840    67.2040    56.3670    56.0350    60.1250    24.9510   -24.7590 
  181.8750     2.2910    72.2770    52.1530    51.6090    50.4340    24.8740   -24.3090 
  182.0000     2.3070    76.5870    49.4660    48.4670    43.0150    24.7960   -23.9070 
  182.1250     2.3230    75.5790    48.7850    47.1840    43.4800    24.7540   -23.5820 
  182.2500     2.3260    70.3190    49.6310    47.3860    45.1170    24.7270   -23.3340 
  182.3750     2.3190    65.3300    51.7080    48.8440    47.3130    24.7370   -23.1860 
  182.5000     2.3110    65.8760    54.7490    51.3450    50.7100    24.7860   -23.1380 
  182.6250     2.3090    72.4430    58.7650    54.8710    54.4620    24.8490   -23.1990 
  182.7500     2.3090    75.9180    63.7250    59.2600    55.1500    24.8970   -23.3520 
  182.8750     2.3060    71.9330    69.7890    64.5760    61.3900    24.9740   -23.5780 
  183.0000     2.3010    65.5160    76.8190    70.6880    73.2900    25.1190   -23.8100 
  183.1250     2.2950    65.2560    83.8890    76.8270    86.6380    25.1890   -23.9760 
  183.2500     2.2910    68.7910    89.4230    81.6300    95.3150    25.2070   -24.0840 
  183.3750     2.2870    69.6370    92.2350    84.0060    95.9030    25.1820   -24.1470 
  183.5000     2.2840    67.5960    92.2500    83.7670    90.6160    25.1210   -24.2250 
  183.6250     2.2830    66.2990    90.9290    82.0240    77.4370    25.0280   -24.3300 
  183.7500     2.2830    66.7940    90.7780    81.0350    65.0900    24.9510   -24.4290 
  183.8750     2.2800    66.4080    93.2650    82.1930    66.7250    24.8990   -24.5190 
  184.0000     2.2750    63.3240    98.9050    86.1030    80.4090    24.9430   -24.6150 
  184.1250     2.2650    61.7960   107.3870    92.7520   101.4010    25.0120   -24.7740 
  184.2500     2.2560    62.3870   116.3370   100.2910   115.5790    25.0370   -24.9690 
  184.3750     2.2500    63.2570   123.4810   106.8880   114.5820    25.0390   -25.1830 
  184.5000     2.2490    63.4510   127.0990   110.9340   107.3080    25.0410   -25.3840 
  184.6250     2.2520    63.0120   126.4870   111.3990   105.6970    25.0200   -25.5830 
  184.7500     2.2590    62.9450   123.8100   109.7350   102.4840    24.9980   -25.7810 
  184.8750     2.2700    63.3170   120.6850   107.2820   101.6640    25.0050   -25.9930 
