~V
VERS. 2.00: Ver 2.00
~W
STRT.M 60.0000:
STOP.M 274.0000:
STEP.M 0.1250:
NULL. -999.2500:
UWI. F11079:
~C
DEPT.M :
GR.API :
RML.OHMM :
RI. :
RXO.OHMM :
CALI.CM :
DEN.GM/CC :
SP.MV :
~A
# ...
  105.0000    66.5110     9.9130     8.5290    10.1560    24.3940     2.1390   -14.5090 
  105.1250    65.9960     9.8490     8.4890    10.0580    24.3270     2.1330   -14.4420 
  105.2500    64.7690     9.7190     8.4150    10.1500    24.3140     2.1290   -14.3510 
  105.3750    61.9430     9.5810     8.3300    10.2030    24.3400     2.1280   -14.2000 
  105.5000    60.2610     9.4830     8.2600     9.8110    24.3090     2.1310   -13.9980 
  105.6250    61.8410     9.4420     8.2260     9.6330    24.2270     2.1360   -13.7350 
  105.7500    63.6560     9.4320     8.2240     9.6650    24.0830     2.1400   -13.4290 
  105.8750    64.0620     9.4330     8.2500     9.6640    23.9700     2.1410   -13.0630 
  106.0000    64.9990     9.4380     8.2940     9.5350    23.9800     2.1340   -12.6030 
  106.1250    66.9580     9.4470     8.3430     9.6210    24.0930     2.1160   -12.0110 
  106.2500    68.5600     9.4600     8.3810     9.7260    24.2060     2.0970   -11.2950 
  106.3750    68.6030     9.4650     8.3890     9.6640    24.2760     2.0860   -10.4820 
  106.5000    67.5820     9.4200     8.3400     9.4920    24.2950     2.0860    -9.5590 
  106.6250    68.5390     9.2870     8.2060     9.1810    24.2670     2.0980    -8.5120 
  106.7500    70.3200     9.1130     8.0290     8.7900    24.2140     2.1220    -7.3270 
  106.8750    73.3990     8.9570     7.8550     8.5690    24.1870     2.1560    -6.0320 
  107.0000    79.6020     8.8360     7.7010     8.0220    24.2310     2.2020    -4.7090 
  107.1250    86.8720     8.6940     7.5350     7.7050    24.2380     2.2590    -3.4560 
  107.2500    89.9210     8.4470     7.3050     8.3540    24.1580     2.3270    -2.3510 
  107.3750    89.6900     8.0460     6.9810     9.5320    24.0000     2.3920    -1.4170 
  107.5000    91.8900     7.5190     6.5760     7.2500    23.8590     2.4270    -0.6890 
  107.6250    95.3140     6.9850     6.1580     5.7770    23.8000     2.4150    -0.2060 
  107.7500    95.7070     6.5690     5.8090     5.2570    23.8280     2.3830     0.0330 
  107.8750    96.1760     6.3270     5.5810     5.5800    23.8970     2.3540     0.0570 
  108.0000    98.0000     6.2680     5.4990     5.8700    23.9610     2.3330    -0.0630 
  108.1250    97.4870     6.3910     5.5870     5.6780    24.0210     2.3150    -0.3090 
  108.2500    94.0090     6.6210     5.7860     5.6380    24.0520     2.3010    -0.6350 
  108.3750    90.1840     6.9150     6.0530     5.8100    23.9870     2.2920    -1.0200 
  108.5000    86.3010     7.2460     6.3550     6.3580    23.8740     2.2880    -1.4390 
  108.6250    83.2080     7.5930     6.6720     6.8210    23.8280     2.2860    -1.8940 
  108.7500    83.4170     7.9120     6.9740     7.2260    23.8410     2.2780    -2.3580 
  108.8750    85.4820     8.1540     7.2210     7.5650    23.9170     2.2690    -2.8680 
  109.0000    84.7580     8.2900     7.3770     7.9150    24.0510     2.2580    -3.4730 
  109.1250    82.1830     8.3090     7.4120     8.5650    24.1570     2.2450    -4.1420 
  109.2500    81.9880     8.2740     7.3700     9.0900    24.2250     2.2280    -4.8110 
  109.3750    83.4870     8.2430     7.2980     8.8940    24.2640     2.2130    -5.4750 
  109.5000    83.9650     8.2750     7.2500     8.2690    24.2510     2.2050    -6.1610 
  109.6250    83.0530     8.4220     7.2850     8.4520    24.1690     2.2010    -6.8790 
  109.7500    81.2680     8.6580     7.4060     9.2100    24.0890     2.1940    -7.6150 
  109.8750    78.2040     8.9490     7.5970     9.9990    24.0380     2.1820    -8.3140 
  110.0000    74.9650     9.2620     7.8360    10.3930    23.9650     2.1710    -8.9340 
  110.1250    74.5670     9.5840     8.1080    10.0200    23.7950     2.1630    -9.4980 
  110.2500    74.6890     9.9280     8.4060     9.5240    23.6430     2.1540   -10.0430 
  110.3750    72.3230    10.2920     8.7240     9.2780    23.5630     2.1430   -10.5750 
  110.5000    68.4430    10.6330     9.0320     9.0850    23.6110     2.1410   -11.0670 
  110.6250    67.4950    10.8270     9.2430     9.0840    23.8020     2.1690   -11.5080 
  110.7500    68.6320    10.7940     9.2920     9.2060    23.9740     2.2170   -11.9320 
  110.8750    67.8670    10.5190     9.1510     9.4110    24.0410     2.2560   -12.3730 
  111.0000    62.9710    10.0790     8.8540     9.4360    24.0490     2.2530   -12.8390 
  111.1250    58.2520     9.6140     8.4880     9.4330    24.0340     2.2110   -13.2610 
  111.2500    58.7020     9.2450     8.1590     9.4390    24.0040     2.1720   -13.6210 
  111.3750    62.7920     9.0110     7.9210     9.4820    24.0000     2.1500   -13.9000 
  111.5000    66.0600     8.9050     7.7850     9.6900    24.1010     2.1430   -14.0930 
  111.6250    66.1390     8.8930     7.7390    10.0010    24.4050     2.1420   -14.1910 
  111.7500    64.5650     8.9100     7.7310    10.1360    24.8420     2.1360   -14.1610 
  111.8750    62.7030     8.9380     7.7370    10.0800    25.1110     2.1210   -13.9940 
  112.0000    62.1320     8.9700     7.7510    10.1520    24.9630     2.1010   -13.7290 
  112.1250    63.3960     8.9810     7.7690    10.3690    24.6610     2.0840   -13.4440 
  112.2500    64.3460     8.9600     7.7860    10.2890    24.8320     2.0710   -13.1620 
  112.3750    64.0230     8.9150     7.8000     9.8390    25.2970     2.0630   -12.8760 
  112.5000    63.4670     8.8760     7.8190     9.2520    25.4000     2.0650   -12.5960 
  112.6250    65.4020     8.8880     7.8500     8.9780    24.9480     2.0880   -12.3080 
  112.7500    68.9050     8.9590     7.8930     8.9920    24.3610     2.1200   -12.0780 
  112.8750    71.2260     9.0660     7.9440     9.2720    23.9390     2.1440   -11.9310 
  113.0000    70.8310     9.1640     7.9910     9.2890    23.7300     2.1580   -11.8110 
  113.1250    70.5350     9.1970     8.0060     8.9830    23.6670     2.1700   -11.6620 
  113.2500    70.5830     9.1620     7.9760     8.7980    23.6530     2.1830   -11.4760 
  113.3750    69.2550     9.0680     7.8910     8.8740    23.6860     2.1970   -11.2770 
  113.5000    67.6320     8.9260     7.7480     8.9480    23.7320     2.2100   -11.0620 
  113.6250    68.1990     8.7440     7.5500     8.7870    23.6490     2.2180   -10.8550 
  113.7500    70.3420     8.5520     7.3410     8.5430    23.5000     2.2220   -10.6090 
  113.8750    71.5470     8.4170     7.1890     8.6180    23.5010     2.2220   -10.3300 
  114.0000    70.0840     8.4580     7.1890     9.0520    23.7510     2.2210   -10.0880 
  114.1250    66.6960     8.9080     7.5080     9.4490    24.0130     2.2270    -9.9080 
  114.2500    64.3410     9.8390     8.2070     9.6470    24.1450     2.2380    -9.7750 
  114.3750    64.3120    11.2380     9.3140     9.7080    24.1550     2.2510    -9.6870 
  114.5000    64.2410    12.9010    10.7400     9.8270    24.1720     2.2580    -9.6390 
  114.6250    62.7830    14.2830    12.1210     9.6140    24.2740     2.2640    -9.6510 
  114.7500    63.4090    14.8400    12.9230     9.4540    24.3480     2.2780    -9.7650 
  114.8750    66.1170    14.3460    12.8230     9.4340    24.3590     2.2880    -9.9470 
  115.0000    67.6130    13.0320    11.9130     9.3560    24.3360     2.2690   -10.1410 
  115.1250    64.3460    11.4630    10.6260     9.2590    24.3800     2.2140   -10.3430 
  115.2500    61.7280    10.1650     9.4600     9.5260    24.4940     2.1620   -10.5420 
  115.3750    63.1460     9.2920     8.5890    10.0440    24.5680     2.1360   -10.7320 
  115.5000    67.0910     8.8160     8.0380    10.2730    24.5510     2.1300   -10.9130 
  115.6250    67.9750     8.6630     7.7890    10.0840    24.4960     2.1270   -11.0350 
  115.7500    66.2240     8.6540     7.7110    10.0620    24.5170     2.1240   -11.0510 
  115.8750    65.0330     8.6920     7.7260    10.4120    24.5290     2.1200   -10.9940 
  116.0000    66.2290     8.7190     7.7730    10.5860    24.4260     2.1130   -10.9030 
  116.1250    67.5930     8.7050     7.8070    10.3580    24.2800     2.1070   -10.7630 
