~V
VERS. 2.00: Ver 2.00
~W
STRT.M 50.0000:
STOP.M 278.0000:
STEP.M 0.1250:
NULL. -999.2500:
UWI. F11029:
~C
DEPT.M :
SP.MV :
DEN.GM/CC :
GR.API :
RML.OHMM :
RI. :
RXO.OHMM :
CALI.CM :
~A
# ...
  140.0000    -2.4450     2.4150    58.8400    12.0220    10.9740    12.1230    25.1230 
  140.1250    -2.3480     2.3770    66.9190     9.7390     8.9840     9.1920    25.0640 
  140.2500    -2.2580     2.3340    73.8100     7.7420     7.2420     6.1510    24.6880 
  140.3750    -2.1530     2.3030    79.5070     6.3620     5.9260     4.6590    24.2140 
  140.5000    -2.0840     2.2930    85.4160     5.6120     5.0600     4.1760    23.8880 
  140.6250    -2.1170     2.3020    89.1070     5.3150     4.6270     4.1950    23.8530 
  140.7500    -2.2370     2.3130    90.2070     5.2190     4.4450     4.2310    24.0240 
  140.8750    -2.4320     2.3210    92.8900     5.2320     4.4100     4.2550    24.4120 
  141.0000    -2.6430     2.3260    97.1970     5.2760     4.4340     4.2660    24.9270 
  141.1250    -2.8210     2.3310    97.7990     5.3160     4.4620     4.2620    25.2550 
  141.2500    -3.0180     2.3370    95.2840     5.3470     4.4780     4.2800    25.3720 
  141.3750    -3.2920     2.3440    93.8330     5.3690     4.4860     4.3320    25.3450 
  141.5000    -3.5970     2.3500    94.5670     5.3760     4.4870     4.3990    25.2600 
  141.6250    -3.7520     2.3550    94.7510     5.3530     4.4740     4.4960    25.1400 
  141.7500    -3.7430     2.3620    93.9790     5.3020     4.4370     4.4990    25.0780 
  141.8750    -3.6390     2.3710    92.7470     5.2310     4.3720     4.4510    25.0460 
  142.0000    -3.5150     2.3820    91.3010     5.1600     4.2860     4.3780    25.0270 
  142.1250    -3.4230     2.3920    91.3590     5.1180     4.2060     4.3420    25.0400 
  142.2500    -3.3600     2.3970    92.1050     5.1220     4.1530     4.2710    25.0710 
  142.3750    -3.2440     2.3970    91.1820     5.1760     4.1380     4.2440    25.0250 
  142.5000    -3.0460     2.3940    87.7680     5.2720     4.1610     4.3200    24.9150 
  142.6250    -2.9070     2.3940    85.6020     5.3840     4.2080     4.4710    24.8220 
  142.7500    -2.8880     2.3970    87.1860     5.4800     4.2560     4.5320    24.7630 
  142.8750    -2.9360     2.4020    91.8260     5.5410     4.2900     4.5390    24.7290 
  143.0000    -3.0540     2.4040    96.0410     5.5630     4.3010     4.5760    24.7350 
  143.1250    -3.1650     2.3960    98.2600     5.5500     4.2860     4.6060    24.8160 
  143.2500    -3.1620     2.3800    99.5830     5.5300     4.2610     4.5590    24.9450 
  143.3750    -3.0880     2.3580   101.4270     5.5190     4.2390     4.4840    25.0780 
  143.5000    -3.0480     2.3370   102.6250     5.5270     4.2260     4.4260    25.1980 
  143.6250    -3.1260     2.3200    99.4520     5.5580     4.2250     4.4550    25.1690 
  143.7500    -3.2740     2.3090    93.5590     5.5970     4.2290     4.5850    25.0530 
  143.8750    -3.4600     2.3030    89.2220     5.6320     4.2330     4.6680    24.9230 
  144.0000    -3.5640     2.3030    88.6140     5.6530     4.2340     4.6730    24.8220 
  144.1250    -3.5650     2.3110    90.3190     5.6600     4.2320     4.6050    24.7940 
  144.2500    -3.5830     2.3260    90.8080     5.6650     4.2330     4.5940    24.7590 
  144.3750    -3.6910     2.3470    89.3110     5.6800     4.2400     4.6120    24.7240 
  144.5000    -3.8820     2.3690    87.3810     5.7080     4.2550     4.6110    24.6890 
  144.6250    -3.9820     2.3830    86.7770     5.7430     4.2750     4.5530    24.6410 
  144.7500    -3.9010     2.3860    88.3930     5.7660     4.2910     4.4570    24.6080 
  144.8750    -3.6920     2.3800    90.5100     5.7600     4.2950     4.3900    24.6720 
  145.0000    -3.5020     2.3710    92.3720     5.7160     4.2780     4.3530    24.7770 
  145.1250    -3.3690     2.3660    94.8580     5.6240     4.2310     4.4190    24.8170 
  145.2500    -3.2140     2.3680    96.2430     5.4970     4.1590     4.4590    24.7510 
  145.3750    -2.9780     2.3720    94.2870     5.3530     4.0670     4.4020    24.6860 
  145.5000    -2.6210     2.3750    90.9720     5.2120     3.9630     4.2180    24.6410 
  145.6250    -2.2730     2.3740    93.0170     5.0970     3.8610     4.1130    24.6230 
  145.7500    -2.0600     2.3710    99.2930     5.0170     3.7720     4.0680    24.6240 
  145.8750    -1.9500     2.3700   103.2650     4.9760     3.7070     4.0580    24.6180 
  146.0000    -1.8600     2.3710   101.7190     4.9690     3.6720     4.0210    24.5900 
  146.1250    -1.7810     2.3730    97.6370     4.9940     3.6730     3.9660    24.5520 
  146.2500    -1.7910     2.3740    96.0450     5.0410     3.6990     4.0640    24.5280 
  146.3750    -1.9290     2.3750    96.7420     5.1060     3.7460     4.2230    24.5220 
  146.5000    -2.1780     2.3780    97.2420     5.1800     3.8050     4.3420    24.5410 
  146.6250    -2.3870     2.3900    95.3800     5.2470     3.8660     4.3540    24.5560 
  146.7500    -2.4550     2.4060    92.3670     5.2950     3.9180     4.3600    24.5620 
  146.8750    -2.4520     2.4210    88.8910     5.3170     3.9550     4.3640    24.5630 
  147.0000    -2.4840     2.4310    84.2050     5.3180     3.9720     4.3580    24.5550 
  147.1250    -2.6560     2.4300    81.4340     5.3040     3.9690     4.3830    24.5050 
  147.2500    -2.8530     2.4250    83.9080     5.2820     3.9490     4.2920    24.3570 
  147.3750    -2.9970     2.4180    90.3890     5.2500     3.9120     4.1450    24.0710 
  147.5000    -3.0750     2.4130    95.7420     5.2040     3.8650     4.0460    23.7030 
  147.6250    -3.1610     2.4120    96.0060     5.1460     3.8130     3.9520    23.3620 
  147.7500    -3.3550     2.4120    93.8270     5.0970     3.7660     3.9180    23.2370 
  147.8750    -3.6010     2.4090    92.1730     5.0820     3.7390     3.9170    23.2550 
  148.0000    -3.8060     2.4040    92.5470     5.1240     3.7480     4.0290    23.2760 
  148.1250    -3.8530     2.4020    93.5860     5.2300     3.8160     4.1080    23.2320 
  148.2500    -3.7970     2.4110    92.7120     5.3530     3.9180     4.1380    23.1680 
  148.3750    -3.6950     2.4290    90.9320     5.4420     4.0140     4.0790    23.0970 
  148.5000    -3.5790     2.4460    90.6350     5.4570     4.0590     4.0470    22.9760 
  148.6250    -3.4700     2.4460    91.0860     5.3940     4.0260     3.8290    22.8370 
  148.7500    -3.3600     2.4290    90.9880     5.3250     3.9600     3.6430    22.8410 
  148.8750    -3.2560     2.4020    91.3950     5.3180     3.9230     3.6480    23.0420 
  149.0000    -3.1360     2.3770    93.0840     5.4140     3.9600     4.1820    23.2530 
  149.1250    -3.0660     2.3630    93.0820     5.6040     4.0920     5.1350    23.3350 
  149.2500    -3.0730     2.3560    91.8640     5.8090     4.2680     5.7320    23.3490 
  149.3750    -3.1220     2.3500    93.5870     5.9750     4.4360     5.8400    23.3450 
  149.5000    -3.1940     2.3440    99.6560     6.0850     4.5660     5.4480    23.3600 
  149.6250    -3.2940     2.3350   104.3400     6.1810     4.6630     5.3460    23.4090 
  149.7500    -3.3850     2.3230   103.6280     6.3220     4.7840     5.2300    23.4570 
  149.8750    -3.4610     2.3090    99.1890     6.5280     4.9620     5.7170    23.4940 
  150.0000    -3.6070     2.2960    94.9850     6.7750     5.1910     6.0080    23.5020 
  150.1250    -3.7960     2.2900    94.3710     6.9920     5.4150     5.6880    23.4730 
  150.2500    -3.9700     2.2910    95.4680     7.1290     5.5750     5.6250    23.4480 
  150.3750    -4.1480     2.2980    95.1810     7.1740     5.6460     5.7160    23.4280 
  150.5000    -4.3260     2.3040    93.0790     7.1530     5.6420     5.7980    23.4190 
  150.6250    -4.5420     2.3060    91.7050     7.1210     5.6060     5.7060    23.3940 
  150.7500    -4.7900     2.3050    91.2000     7.1290     5.5980     5.7270    23.3880 
  150.8750    -5.0180     2.3040    91.0650     7.1950     5.6450     5.8870    23.3970 
  151.0000    -5.1260     2.3060    90.4550     7.3120     5.7510     5.9680    23.4050 
  151.1250    -5.0970     2.3110    88.0250     7.4570     5.9030     5.9610    23.4240 
