~V
VERS. 2.00: Ver 2.00
~W
STRT.M 60.0000:
STOP.M 274.0000:
STEP.M 0.1250:
NULL. -999.2500:
UWI. F11079:
~C
DEPT.M :
GR.API :
RML.OHMM :
RI. :
RXO.OHMM :
CALI.CM :
DEN.GM/CC :
SP.MV :
~A
# ...
  127.5000    77.2580     8.5170     7.2930     7.7280    22.3520     2.1320   -10.3570 
  127.6250    74.7500     8.4790     7.2460     7.8860    22.6190     2.1270   -10.1770 
  127.7500    71.8790     8.4290     7.1890     7.8710    22.9820     2.1230    -9.9130 
  127.8750    70.7050     8.3800     7.1440     7.8290    23.3310     2.1270    -9.5970 
  128.0000    72.3650     8.3320     7.1120     7.8200    23.5850     2.1390    -9.2790 
  128.1250    74.4790     8.2640     7.0670     7.8830    23.6440     2.1570    -8.9760 
  128.2500    74.5730     8.1640     6.9870     7.8870    23.5730     2.1700    -8.6540 
  128.3750    74.6640     8.0460     6.8760     7.6530    23.4830     2.1720    -8.3100 
  128.5000    77.9030     7.9370     6.7620     7.3940    23.3720     2.1650    -7.9750 
  128.6250    82.7490     7.8820     6.6860     7.1380    23.1830     2.1580    -7.6510 
  128.7500    80.7180     7.8770     6.6560     6.9990    23.0340     2.1520    -7.3140 
  128.8750    73.2610     7.8860     6.6550     7.0990    23.0650     2.1440    -6.9040 
  129.0000    69.2420     7.8540     6.6450     7.3970    23.1570     2.1310    -6.3480 
  129.1250    73.1290     7.7130     6.5690     7.5120    23.1650     2.1190    -5.6050 
  129.2500    79.4390     7.4910     6.4280     7.3110    23.0650     2.1180    -4.7410 
  129.3750    85.3030     7.2710     6.2690     6.8820    22.9290     2.1320    -3.7620 
  129.5000    90.0930     7.1690     6.1740     6.5250    22.8580     2.1610    -2.6760 
  129.6250    92.4980     7.3150     6.2560     6.4370    22.8910     2.2030    -1.5140 
  129.7500    92.9780     7.6750     6.5200     6.7520    22.9890     2.2510    -0.3390 
  129.8750    94.1770     8.1450     6.9140     7.2960    23.0780     2.3040     0.7480 
  130.0000    96.7330     8.5370     7.3110     7.8640    23.1200     2.3620     1.6800 
  130.1250   100.0880     8.5600     7.4790     7.7120    23.1880     2.4090     2.4210 
  130.2500   102.5220     8.1580     7.3030     7.4900    23.4080     2.4290     3.0120 
  130.3750   103.3000     7.4240     6.7920     6.5260    23.7940     2.4280     3.4570 
  130.5000   102.9860     6.5580     6.0820     5.7240    24.1730     2.4200     3.7590 
  130.6250   104.3440     5.7930     5.3670     4.9780    24.3680     2.4110     3.9320 
  130.7500   108.0510     5.2230     4.7780     4.6580    24.4000     2.3950     4.0390 
  130.8750   111.7850     4.8460     4.3480     4.5220    24.3470     2.3740     4.1360 
  131.0000   113.1000     4.6140     4.0610     4.5620    24.2990     2.3550     4.2450 
  131.1250   111.1410     4.4860     3.8930     4.5460    24.2550     2.3430     4.3470 
  131.2500   110.0870     4.4030     3.7950     4.4520    24.1530     2.3360     4.4360 
  131.3750   111.1860     4.3440     3.7440     4.4340    23.9880     2.3370     4.5070 
  131.5000   113.7190     4.3040     3.7240     4.5730    23.8390     2.3470     4.5600 
  131.6250   116.5890     4.2930     3.7220     4.8120    23.7160     2.3590     4.5840 
  131.7500   117.8360     4.3040     3.7250     4.9660    23.5510     2.3650     4.5410 
  131.8750   115.4480     4.3220     3.7270     4.9670    23.3730     2.3650     4.4290 
  132.0000   112.0140     4.3340     3.7250     4.8780    23.2480     2.3630     4.2650 
  132.1250   113.0060     4.3330     3.7170     4.7740    23.3050     2.3630     4.0840 
  132.2500   116.1030     4.3310     3.7070     4.8310    23.5420     2.3640     3.8940 
  132.3750   115.1360     4.3430     3.6960     4.8570    23.9000     2.3670     3.6950 
  132.5000   109.9000     4.3770     3.6880     4.7610    24.2290     2.3700     3.4810 
  132.6250   107.2840     4.4310     3.6880     4.7010    24.3840     2.3670     3.2490 
  132.7500   107.3360     4.4990     3.6950     4.7070    24.4270     2.3560     3.0220 
  132.8750   107.8610     4.5770     3.7040     4.7360    24.4300     2.3450     2.8140 
  133.0000   109.2970     4.6600     3.7100     4.7650    24.4340     2.3370     2.6060 
  133.1250   110.2910     4.7260     3.7090     4.7630    24.4520     2.3320     2.3510 
  133.2500   108.1320     4.7490     3.6970     4.7550    24.4770     2.3300     2.0470 
  133.3750   104.7570     4.7130     3.6660     4.7430    24.4980     2.3310     1.6830 
  133.5000   105.1880     4.6360     3.6200     4.7290    24.5130     2.3310     1.2550 
  133.6250   106.6560     4.6010     3.5940     4.7260    24.4880     2.3250     0.7310 
  133.7500   104.3210     4.6990     3.6480     4.7590    24.3860     2.3140     0.0940 
  133.8750   100.5140     4.9950     3.8360     4.9270    24.3050     2.2950    -0.6850 
  134.0000    98.3200     5.5070     4.1960     5.4540    24.2560     2.2680    -1.5610 
  134.1250    93.3600     6.2070     4.7430     6.5420    24.1130     2.2260    -2.4330 
  134.2500    82.8310     6.9460     5.3830     7.7250    23.8430     2.1830    -3.2310 
  134.3750    70.6850     7.6000     6.0180     8.2980    23.6260     2.1510    -3.8930 
  134.5000    61.8860     8.0880     6.5550     8.4690    23.5840     2.1340    -4.3710 
  134.6250    59.7700     8.3770     6.9140     8.4680    23.6270     2.1260    -4.5710 
  134.7500    61.3950     8.5220     7.1150     8.3190    23.6190     2.1180    -4.4730 
  134.8750    64.2350     8.5150     7.1550     8.0830    23.5740     2.1090    -4.0400 
  135.0000    66.4070     8.3010     7.0110     7.7550    23.4440     2.1060    -3.3110 
  135.1250    69.7690     7.7870     6.6210     7.2610    23.1500     2.1180    -2.3550 
  135.2500    76.6400     7.0650     6.0530     6.4450    22.8140     2.1470    -1.2950 
  135.3750    85.6130     6.2740     5.4030     5.4310    22.5920     2.1950    -0.2210 
  135.5000    94.7530     5.5660     4.7810     4.7340    22.3890     2.2570     0.7940 
  135.6250   101.3810     5.0590     4.2890     4.3300    22.1210     2.3150     1.6650 
  135.7500   102.7700     4.7290     3.9310     4.2550    21.8960     2.3560     2.3710 
  135.8750    99.8300     4.5360     3.6970     4.2720    21.8050     2.3770     2.8890 
  136.0000    95.6750     4.4370     3.5640     4.3260    21.8770     2.3840     3.2390 
  136.1250    94.2550     4.4020     3.5220     4.3920    22.0990     2.3860     3.4480 
  136.2500    94.8710     4.3970     3.5330     4.4630    22.3620     2.3870     3.5620 
  136.3750    97.1020     4.4030     3.5750     4.5000    22.7070     2.3860     3.6160 
  136.5000   101.1130     4.3950     3.6220     4.5320    23.2190     2.3820     3.6400 
  136.6250   104.4630     4.3510     3.6480     4.5890    23.6840     2.3760     3.6620 
  136.7500   104.8450     4.2820     3.6550     4.4940    23.8930     2.3680     3.7030 
  136.8750   100.9080     4.2160     3.6530     4.2690    23.7650     2.3560     3.7620 
  137.0000    96.3030     4.1820     3.6620     4.1130    23.4070     2.3480     3.8150 
  137.1250    98.2420     4.2090     3.7050     4.1760    22.8560     2.3540     3.8200 
  137.2500   103.2740     4.2890     3.7810     4.3740    22.4160     2.3670     3.7890 
  137.3750   104.1870     4.3980     3.8800     4.6270    22.1950     2.3720     3.7210 
  137.5000   101.6950     4.4980     3.9810     4.8140    22.1440     2.3650     3.6350 
  137.6250   100.8090     4.5430     4.0460     4.6090    22.1680     2.3560     3.5170 
  137.7500   101.4630     4.5180     4.0450     4.3300    22.1920     2.3530     3.3570 
  137.8750   100.5940     4.4200     3.9580     4.2010    22.2470     2.3560     3.1500 
  138.0000    99.7050     4.2580     3.7830     4.1640    22.4100     2.3610     2.9010 
  138.1250   102.9490     4.0370     3.5230     4.1190    22.7360     2.3650     2.6150 
  138.2500   108.2680     3.7740     3.2250     4.0000    23.1790     2.3640     2.2860 
  138.3750   112.0760     3.4970     2.9320     3.8620    23.6300     2.3600     1.9160 
  138.5000   112.8860     3.2780     2.7080     3.8280    24.1870     2.3550     1.4950 
  138.6250   110.8280     3.3120     2.6820     3.8530    24.5910     2.3510     1.0070 
