~V
VERS. 2.00: Ver 2.00
~W
STRT.M 62.0000:
STOP.M 218.0000:
STEP.M 0.1250:
NULL. -999.2500:
UWI. F11008:
~C
DEPT.M :
DEN.GM/CC :
GR.API :
RML.OHMM :
RI. :
RXO.OHMM :
CALI.CM :
SP.MV :
~A
# ...
  140.7500     2.5160    68.3580    18.8260    16.5650    17.0560    26.2770   -11.9120 
  140.8750     2.5000    69.7360    19.0080    16.7630    18.1200    26.3250   -12.0170 
  141.0000     2.4890    70.8140    19.1450    16.9410    18.3050    26.4140   -12.0190 
  141.1250     2.4870    68.1890    19.1540    16.9900    18.7860    26.5500   -12.0190 
  141.2500     2.4940    67.8680    19.0510    16.9050    19.1190    26.6200   -12.0460 
  141.3750     2.5060    73.3110    18.8750    16.7280    19.0670    26.6480   -12.0090 
  141.5000     2.5200    78.3020    18.6700    16.5150    18.0790    26.6570   -11.8540 
  141.6250     2.5280    74.2760    18.4560    16.3070    16.8080    26.6460   -11.6510 
  141.7500     2.5300    68.1460    18.2220    16.0970    16.1080    26.5970   -11.4780 
  141.8750     2.5270    65.8150    17.9480    15.8530    16.1700    26.5990   -11.3610 
  142.0000     2.5200    65.7060    17.6300    15.5550    16.3620    26.6890   -11.2620 
  142.1250     2.5130    64.1240    17.2930    15.2090    15.3150    26.8320   -11.1210 
  142.2500     2.5090    61.8300    16.9930    14.8660    14.6040    26.8900   -10.9840 
  142.3750     2.5090    59.5980    16.7780    14.5750    14.1140    26.8730   -10.9060 
  142.5000     2.5120    58.4010    16.6720    14.3710    14.1520    26.8780   -10.8530 
  142.6250     2.5170    60.4210    16.6770    14.2820    14.7110    26.8760   -10.7340 
  142.7500     2.5220    65.3930    16.7320    14.2710    14.6500    26.8180   -10.5540 
  142.8750     2.5280    68.9280    16.7870    14.3060    14.2630    26.6590   -10.3690 
  143.0000     2.5350    70.3920    16.8120    14.3490    14.3550    26.4770   -10.2300 
  143.1250     2.5430    72.0220    16.7890    14.3610    14.7680    26.3280   -10.0790 
  143.2500     2.5500    72.4800    16.7310    14.3280    14.9080    26.2710    -9.8430 
  143.3750     2.5560    68.9010    16.6360    14.2450    15.0600    26.3230    -9.5470 
  143.5000     2.5610    63.5660    16.4890    14.1090    14.6620    26.4340    -9.2780 
  143.6250     2.5640    62.4170    16.2670    13.9090    13.7040    26.5070    -9.0980 
  143.7500     2.5640    63.7800    15.9970    13.6700    13.2160    26.5640    -8.9640 
  143.8750     2.5590    63.7350    15.7200    13.4240    13.3210    26.6280    -8.8160 
  144.0000     2.5520    62.7490    15.4910    13.2130    13.0010    26.7040    -8.6620 
  144.1250     2.5480    62.7750    15.3670    13.0880    12.3700    26.7740    -8.6280 
  144.2500     2.5500    63.9830    15.3340    13.0460    12.2460    26.8280    -8.6890 
  144.3750     2.5560    63.7510    15.3560    13.0650    12.5740    26.8540    -8.7730 
  144.5000     2.5600    61.2750    15.3840    13.1030    13.5150    26.8580    -8.8630 
  144.6250     2.5580    58.5550    15.3720    13.1130    13.4920    26.8530    -8.9740 
  144.7500     2.5510    58.8920    15.3240    13.0840    12.7750    26.8720    -9.1160 
  144.8750     2.5440    63.2590    15.2630    13.0350    12.2830    26.9190    -9.2770 
  145.0000     2.5400    68.4670    15.2210    13.0060    12.7830    26.9840    -9.4310 
  145.1250     2.5420    69.9870    15.2250    13.0400    13.4970    27.0940    -9.5850 
  145.2500     2.5460    68.7180    15.2630    13.1260    14.0950    27.2550    -9.7540 
  145.3750     2.5500    66.1910    15.3140    13.2300    14.4030    27.3310    -9.9510 
  145.5000     2.5530    64.1960    15.3620    13.3140    15.0040    27.3810   -10.1750 
  145.6250     2.5480    65.6540    15.3960    13.3560    15.4180    27.5300   -10.4270 
  145.7500     2.5360    68.9830    15.4240    13.3810    15.0430    27.7650   -10.6730 
  145.8750     2.5190    69.9150    15.4540    13.4180    14.6110    27.9420   -10.9050 
  146.0000     2.5030    67.7190    15.4870    13.4910    14.7360    27.9940   -11.1270 
  146.1250     2.4910    67.4270    15.5150    13.6050    15.0880    27.9790   -11.2880 
  146.2500     2.4840    68.7660    15.5290    13.7310    15.4490    28.0430   -11.3620 
  146.3750     2.4790    67.6850    15.5330    13.8530    15.8100    28.1780   -11.3730 
  146.5000     2.4750    64.5890    15.5460    13.9750    15.7860    28.3330   -11.3110 
  146.6250     2.4740    62.6940    15.5960    14.1320    15.4530    28.4640   -11.1490 
  146.7500     2.4800    62.6770    15.6720    14.3360    14.8170    28.5460   -10.9410 
  146.8750     2.4930    63.7360    15.7290    14.5630    14.2160    28.6050   -10.7060 
  147.0000     2.5100    64.7530    15.7030    14.7390    14.3290    28.6450   -10.4500 
  147.1250     2.5240    63.8690    15.5060    14.7360    15.4120    28.6810   -10.2010 
  147.2500     2.5310    61.7320    15.1420    14.5140    15.8890    28.6730    -9.9650 
  147.3750     2.5320    59.8320    14.6310    14.0770    14.3820    28.6720    -9.7280 
  147.5000     2.5290    58.7450    14.0100    13.4720    12.4890    28.6940    -9.5340 
  147.6250     2.5210    58.8810    13.3210    12.7530    12.1860    28.7630    -9.4230 
  147.7500     2.5080    60.8790    12.6460    12.0090    12.0230    28.8670    -9.3300 
  147.8750     2.4910    64.2620    12.1070    11.3250    11.7320    28.9720    -9.3010 
  148.0000     2.4710    66.9540    11.9130    10.8410    11.2030    29.0180    -9.3880 
  148.1250     2.4490    68.7490    12.5670    10.8890    10.6210    28.9970    -9.5280 
  148.2500     2.4260    68.5890    14.4600    11.7770    10.2130    29.0080    -9.7050 
  148.3750     2.3960    64.8170    18.0790    14.0060    10.6390    29.2180    -9.9880 
  148.5000     2.3570    60.2400    23.8010    18.2280    14.0180    29.7090   -10.3640 
  148.6250     2.3100    59.4750    31.9180    25.5680    31.3840    30.4090   -10.7280 
  148.7500     2.2670    61.2370    41.2010    35.4980    74.4690    30.9010   -11.0820 
  148.8750     2.2350    61.8910    50.0340    46.6120   108.7210    31.1770   -11.4310 
  149.0000     2.2150    61.0230    56.3820    56.3180   106.4980    31.3610   -11.7320 
  149.1250     2.1990    62.0920    57.6130    60.7010    81.7490    31.4890   -11.9570 
  149.2500     2.1760    66.3410    53.9430    58.9040    68.6140    31.5260   -12.1130 
  149.3750     2.1490    72.2600    46.4130    51.6640    65.8550    31.5160   -12.1820 
  149.5000     2.1290    76.5960    36.9830    41.3000    68.2760    31.5330   -12.1770 
  149.6250     2.1390    76.6620    28.1110    31.0010    54.4340    31.5550   -12.1390 
  149.7500     2.1800    75.6610    21.3900    22.9930    36.5490    31.5570   -12.1070 
  149.8750     2.2430    75.9540    17.4670    17.9150    20.0060    31.5550   -12.1120 
  150.0000     2.3070    76.5510    16.5470    15.6730    12.0040    31.6020   -12.1890 
  150.1250     2.3540    75.4550    19.4320    16.7060     8.8990    31.7750   -12.3790 
  150.2500     2.3750    73.1100    26.2920    21.3390     8.4960    32.1030   -12.7080 
  150.3750     2.3690    71.1080    38.2040    31.2240    13.3370    32.4970   -13.1890 
  150.5000     2.3420    68.0980    56.3350    48.5040   161.7070    32.9140   -13.7460 
  150.6250     2.3030    63.0680    82.2700    75.9440   237.3390    33.1990   -14.3350 
  150.7500     2.2700    59.9210   113.4790   110.1070   223.2640    33.4360   -14.9820 
  150.8750     2.2540    58.8590   147.0400   146.2880   216.3610    33.6590   -15.6740 
  151.0000     2.2580    59.8250   179.6230   179.5440   249.4680    33.8800   -16.3400 
  151.1250     2.2750    63.3020   208.0150   206.0990   268.1460    34.0530   -16.8940 
  151.2500     2.2930    66.5430   231.6740   226.7330   272.6830    34.1620   -17.3900 
  151.3750     2.3050    65.7380   249.9260   241.5260   297.5810    34.1990   -17.8080 
  151.5000     2.3100    61.1590   261.7300   249.7860   306.9090    34.2040   -18.1160 
  151.6250     2.3090    59.4160   264.9170   249.7090   301.1710    34.2040   -18.3860 
  151.7500     2.3070    60.9280   261.1210   243.5470   281.6490    34.2040   -18.6590 
  151.8750     2.3070    63.0870   252.1230   233.6690   277.5030    34.2040   -18.8640 
