~V
VERS. 2.00: Ver 2.00
~W
STRT.M 53.0000:
STOP.M 287.0000:
STEP.M 0.1250:
NULL. -999.2500:
UWI. F11059:
~C
DEPT.M :
GR.API :
RML.OHMM :
RI. :
RXO.OHMM :
CALI.CM :
DEN.GM/CC :
SP.MV :
~A
# ...
  266.7500    61.7690    10.5800     8.2960    10.0540    24.7100     2.5010    -8.3710 
  266.8750    60.3890    10.7200     8.4180    10.7220    24.7450     2.4980    -8.4460 
  267.0000    58.2720    10.8470     8.5340    11.3460    24.7960     2.4800    -8.5160 
  267.1250    55.2180    10.9400     8.6470    11.6190    24.8040     2.4530    -8.5720 
  267.2500    52.8920    10.9770     8.7610    11.4890    24.7510     2.4160    -8.6130 
  267.3750    52.5480    10.9590     8.8730    11.0160    24.7140     2.3710    -8.6510 
  267.5000    52.1040    10.9320     8.9590    10.5730    24.6960     2.3340    -8.6900 
  267.6250    51.8930    10.9140     8.9880    10.3390    24.6810     2.3200    -8.7210 
  267.7500    53.0920    10.8760     8.9380     9.9210    24.6700     2.3360    -8.7470 
  267.8750    56.5090    10.7540     8.7890     9.3890    24.6600     2.3740    -8.7560 
  268.0000    59.5780    10.5510     8.5760     8.9780    24.6590     2.4060    -8.7410 
  268.1250    60.7200    10.3230     8.3310     8.6230    24.6720     2.4150    -8.7110 
  268.2500    59.5530    10.1290     8.0840     8.2680    24.7070     2.3960    -8.6860 
  268.3750    56.9910     9.9760     7.8600     8.0010    24.7120     2.3650    -8.6780 
  268.5000    57.0290     9.8110     7.6610     7.7610    24.7100     2.3410    -8.6850 
  268.6250    61.3230     9.6150     7.4920     7.3270    24.7040     2.3350    -8.7060 
  268.7500    66.7280     9.4230     7.3580     6.7350    24.6990     2.3470    -8.7230 
  268.8750    67.3240     9.3230     7.2880     6.5600    24.6860     2.3730    -8.7420 
  269.0000    65.0300     9.3400     7.3020     6.7830    24.6570     2.4040    -8.7850 
  269.1250    64.7280     9.4580     7.4210     7.3810    24.6180     2.4370    -8.8430 
  269.2500    67.1740     9.6530     7.6560     8.1360    24.5810     2.4640    -8.8960 
  269.3750    67.4870     9.9440     8.0190     9.1910    24.5610     2.4810    -8.9320 
  269.5000    64.2210    10.3400     8.4560    10.2370    24.5510     2.4860    -8.9540 
  269.6250    59.6690    10.8260     8.9090    10.9240    24.5380     2.4820    -8.9750 
  269.7500    56.4480    11.3290     9.3000    11.9580    24.4830     2.4760    -9.0210 
  269.8750    55.6850    11.7060     9.5140    13.5130    24.3840     2.4740    -9.0840 
  270.0000    55.7980    11.8730     9.5190    14.0790    24.3360     2.4770    -9.1470 
  270.1250    55.5750    11.8050     9.3370    13.6030    24.4250     2.4800    -9.2100 
  270.2500    54.7920    11.5460     9.0500    12.6440    24.5620     2.4790    -9.2630 
  270.3750    55.5620    11.1890     8.7730    11.1730    24.6370     2.4710    -9.3010 
  270.5000    58.2160    10.8670     8.5830     9.9420    24.6490     2.4630    -9.3400 
  270.6250    60.9750    10.6500     8.4960     9.3440    24.6450     2.4610    -9.3780 
  270.7500    62.1260    10.5540     8.4820     9.0180    24.6450     2.4680    -9.4270 
  270.8750    61.6930    10.5450     8.4870     8.5240    24.6480     2.4810    -9.4770 
  271.0000    61.1910    10.5510     8.4830     8.1640    24.6530     2.4930    -9.5330 
  271.1250    61.0630    10.5540     8.4960     8.0530    24.6480     2.5000    -9.5960 
  271.2500    60.4410    10.5880     8.5670     8.1350    24.6450     2.5010    -9.6780 
  271.3750    58.8020    10.7140     8.7300     8.6860    24.6450     2.4980    -9.7900 
  271.5000    57.6920    10.9270     8.9470    10.3460    24.6390     2.4930    -9.9020 
  271.6250    57.4350    11.1830     9.1570    11.8030    24.6240     2.4860   -10.0060 
  271.7500    57.1070    11.4200     9.2980    12.9340    24.6050     2.4810   -10.0860 
  271.8750    56.0120    11.5720     9.3260    12.5180    24.5790     2.4820   -10.1320 
  272.0000    56.0000    11.6400     9.2970    11.3620    24.5610     2.4910   -10.1480 
  272.1250    57.5560    11.6410     9.2670    10.4050    24.5650     2.5050   -10.1580 
  272.2500    59.2010    11.5850     9.2680     9.9240    24.5930     2.5130   -10.1810 
  272.3750    59.7360    11.4570     9.2980     9.7500    24.6030     2.5050   -10.1810 
  272.5000    60.1840    11.2680     9.3250     9.9360    24.5990     2.4820   -10.1750 
  272.6250    60.8330    11.0460     9.3300    10.9450    24.5880     2.4520   -10.1850 
  272.7500    60.4040    10.8340     9.3200    12.9140    24.5890     2.4300   -10.1990 
  272.8750    57.9950    10.6780     9.3130    12.0880    24.5970     2.4260   -10.2150 
  273.0000    56.3870    10.5760     9.3120    10.4740    24.6050     2.4370   -10.2560 
  273.1250    57.1960    10.5110     9.3000     9.4580    24.6060     2.4540   -10.3190 
  273.2500    58.2150    10.4670     9.2620     9.2940    24.5970     2.4700   -10.3620 
  273.3750    57.0870    10.4410     9.2090     9.9430    24.5930     2.4820   -10.4030 
  273.5000    56.5940    10.4340     9.1790    10.0230    24.5960     2.4900   -10.4540 
  273.6250    58.1950    10.4480     9.1970    10.3000    24.6030     2.4960   -10.4970 
  273.7500    60.0830    10.4860     9.2770    10.0990    24.6030     2.4980   -10.5460 
  273.8750    59.3650    10.5590     9.4110     9.6800    24.5970     2.4940   -10.6090 
  274.0000    57.0660    10.6470     9.5570     9.5110    24.5930     2.4890   -10.6620 
  274.1250    55.7220    10.7160     9.6780     9.5880    24.5950     2.4870   -10.6860 
  274.2500    56.0470    10.7210     9.7550     9.4520    24.6030     2.4910   -10.7000 
  274.3750    57.3500    10.6280     9.7660     8.7320    24.6030     2.4950   -10.7500 
  274.5000    57.9700    10.4790     9.7170     8.6840    24.5980     2.4910   -10.7910 
  274.6250    57.8740    10.3220     9.6020     9.3530    24.5930     2.4740   -10.8250 
  274.7500    57.6590    10.1950     9.4220    10.3320    24.5960     2.4470   -10.8340 
  274.8750    57.4240    10.1000     9.1900     9.9500    24.6030     2.4240   -10.8360 
  275.0000    57.0350    10.0090     8.9540     9.0560    24.6010     2.4130   -10.8330 
  275.1250    56.4880     9.9070     8.7520     8.9420    24.5950     2.4170   -10.8370 
  275.2500    55.8100     9.8090     8.6130     9.0990    24.5930     2.4310   -10.8510 
  275.3750    56.7110     9.7650     8.5680     8.4860    24.5960     2.4460   -10.8530 
  275.5000    59.2800     9.8130     8.6030     7.7400    24.5970     2.4610   -10.8550 
  275.6250    61.0680     9.9710     8.7010     7.4380    24.5790     2.4740   -10.8420 
  275.7500    59.7420    10.2200     8.8440     7.6830    24.5560     2.4840   -10.8290 
  275.8750    57.0410    10.4990     9.0130     8.6430    24.5420     2.4880   -10.8310 
  276.0000    56.2460    10.7220     9.1890    10.3650    24.5260     2.4850   -10.8330 
  276.1250    55.9870    10.8450     9.3570    11.9600    24.5100     2.4770   -10.8350 
  276.2500    53.8060    10.8620     9.4920    12.3250    24.5210     2.4680   -10.8370 
  276.3750    51.3520    10.7970     9.5480    11.6670    24.5620     2.4620   -10.8170 
  276.5000    51.2730    10.7140     9.5460    10.4660    24.5830     2.4620   -10.8110 
  276.6250    51.7500    10.6530     9.5400     9.3990    24.5930     2.4700   -10.8210 
  276.7500    51.7500    10.6490     9.5990     9.1370    24.5950     2.4830   -10.8640 
  276.8750    51.7500    10.7470     9.7870    10.2670    24.5890     2.4980   -10.9150 
  277.0000    51.7500    10.9420    10.0830    11.3760    24.5730     2.5100   -10.9750 
  277.1250    51.7500    11.2210    10.4510    11.5940    24.5530     2.5170   -11.0500 
  277.2500    51.7500    11.5660    10.8590    10.9070    24.5460     2.5190   -11.1250 
  277.3750    51.7500    11.9750    11.3280    11.2070    24.5500     2.5190   -11.2270 
  277.5000    51.7500    12.4460    11.8790    13.4660    24.5480     2.5180   -11.3390 
  277.6250    51.7500    12.9820    12.5050    16.5680    24.5410     2.5150   -11.4430 
  277.7500    51.7500    13.5590    13.1550    17.9610    24.5330     2.5110   -11.5330 
  277.8750    51.7500    14.1190    13.7170    18.7810    24.5220     2.5090   -11.6230 
