~V
VERS. 2.00: Ver 2.00
~W
STRT.M 55.0000:
STOP.M 283.0000:
STEP.M 0.1250:
NULL. -999.2500:
UWI. F11062:
~C
DEPT.M :
SP.MV :
GR.API :
RML.OHMM :
RI. :
RXO.OHMM :
CALI.CM :
DEN.GM/CC :
~A
   55.0000   101.6700    39.6850     0.7660     0.3290     3.6430    25.2600     2.2450 
   55.1250   103.7340    40.4140     0.7640     0.3340     3.6740    25.2330     2.2940 
   55.2500   105.4160    39.9530     0.7660     0.3420     3.6940    25.1630     2.3230 
   55.3750   106.6540    39.0750     0.7650     0.3520     3.7020    25.0180     2.3320 
   55.5000   107.3920    37.4410     0.7560     0.3570     3.7070    24.8020     2.3220 
   55.6250   107.5150    36.4990     0.7310     0.3540     3.7140    24.5850     2.2980 
   55.7500   107.1800    37.1500     0.6940     0.3460     3.6410    24.5620     2.2710 
   55.8750   106.6070    38.3440     0.6510     0.3370     3.5000    24.7110     2.2490 
   56.0000   105.9660    38.9450     0.6110     0.3320     3.3970    24.9060     2.2390 
   56.1250   105.3900    38.8510     0.5880     0.3320     3.4280    25.0210     2.2410 
   56.2500   104.9570    38.3950     0.5830     0.3290     3.5070    25.0960     2.2510 
   56.3750   104.5890    38.8920     0.5930     0.3230     3.5550    25.1440     2.2650 
   56.5000   104.1870    40.6530     0.6110     0.3150     3.5450    25.1720     2.2810 
   56.6250   103.6350    42.1220     0.6240     0.3130     3.4770    25.1860     2.2940 
   56.7500   102.7750    41.8510     0.6180     0.3170     3.3310    25.1900     2.2960 
   56.8750   101.4670    40.9840     0.5780     0.3200     3.0910    25.1560     2.2860 
   57.0000    99.6790    41.5680     0.4900     0.3080     2.7760    25.0480     2.2700 
   57.1250    97.2340    43.9530     0.3450     0.2660     1.2990    24.8300     2.2670 
   57.2500    93.9920    45.1770     0.1810     0.2090     0.8350    24.5910     2.2900 
   57.3750    89.5190    44.8210     0.0440     0.1590     0.5810    24.4720     2.3410 
   57.5000    83.3910    45.2390    -0.0310     0.1360     0.4070    24.5070     2.3980 
   57.6250    75.2470    48.9210    -0.0180     0.1600     0.3630    24.6890     2.4180 
   57.7500    65.7540    51.4650     0.0800     0.2420     0.5200    24.9970     2.3930 
   57.8750    55.4360    51.5900     0.2870     0.4170     1.0250    25.4050     2.3400 
   58.0000    44.6920    53.3790     0.6410     0.7400     1.6660    25.7860     2.2820 
   58.1250    33.9380    58.9480     1.2130     1.3220     2.9370    25.7200     2.2350 
   58.2500    23.5660    64.0490     1.9640     2.1600     4.8180    25.2650     2.2040 
   58.3750    14.1960    65.6430     2.8150     3.2000     7.2060    24.6510     2.1860 
   58.5000     6.4860    65.0480     3.6160     4.2930     9.1480    24.1470     2.1790 
   58.6250     0.9710    63.2940     4.1430     5.1750     9.6740    23.8000     2.1810 
   58.7500    -2.9540    62.3290     4.3650     5.7210     9.4850    23.5370     2.1920 
   58.8750    -5.7810    65.3900     4.3760     5.9620     8.9110    23.1920     2.2080 
   59.0000    -7.9460    71.0950     4.3210     6.0310     8.0680    22.8500     2.2230 
   59.1250    -9.6820    72.5280     4.3250     6.0700     7.3680    22.4980     2.2260 
   59.2500   -11.1300    70.5120     4.4170     6.1650     7.2010    22.1110     2.2170 
   59.3750   -12.3460    68.2010     4.5740     6.3160     7.4270    21.7350     2.2020 
   59.5000   -13.4480    67.1120     4.7480     6.4810     7.6850    21.4730     2.1880 
   59.6250   -14.4120    66.4030     4.8730     6.5820     7.6270    21.3630     2.1810 
   59.7500   -15.2420    66.9690     4.9160     6.5760     7.5680    21.3700     2.1820 
   59.8750   -16.0300    69.3800     4.8760     6.4600     7.5320    21.5060     2.1910 
   60.0000   -16.7420    71.6000     4.7950     6.2860     7.4230    21.7590     2.2080 
   60.1250   -17.4380    72.4990     4.7610     6.1590     7.2540    22.0290     2.2330 
   60.2500   -18.2750    73.6370     4.8360     6.1590     7.2580    22.2740     2.2620 
   60.3750   -19.3180    74.1050     5.0390     6.3150     7.3840    22.5230     2.2850 
   60.5000   -20.5420    71.7000     5.3430     6.6040     7.8790    22.8080     2.2900 
   60.6250   -21.8810    65.1130     5.6780     6.9540     8.8940    23.1540     2.2700 
   60.7500   -23.2680    57.7400     5.9500     7.2520     9.8520    23.5260     2.2360 
   60.8750   -24.5830    50.7230     6.1050     7.4280    10.3480    23.8130     2.2020 
   61.0000   -25.7510    46.0260     6.1320     7.4610    10.2870    23.8800     2.1780 
   61.1250   -26.6280    47.4790     6.0570     7.3630     9.8410    23.6200     2.1700 
   61.2500   -27.1540    51.8590     5.9540     7.2070     9.2000    23.1780     2.1690 
   61.3750   -27.3770    54.5610     5.8620     7.0370     8.8240    22.6300     2.1720 
   61.5000   -27.4030    54.6670     5.7970     6.8750     8.7160    22.1830     2.1720 
   61.6250   -27.3820    54.8320     5.7620     6.7340     8.8120    22.0710     2.1710 
   61.7500   -27.4590    55.9150     5.7540     6.6190     9.0690    22.1730     2.1690 
   61.8750   -27.6420    57.8540     5.7800     6.5390     9.4200    22.4200     2.1670 
   62.0000   -27.9310    59.8160     5.8460     6.5090     9.5810    22.7730     2.1640 
   62.1250   -28.4060    60.1770     5.9600     6.5500     9.6140    23.1520     2.1600 
   62.2500   -28.9830    58.6050     6.1050     6.6510     9.6670    23.4300     2.1570 
   62.3750   -29.5770    54.7050     6.2620     6.7960     9.8680    23.5440     2.1560 
   62.5000   -30.1200    49.3280     6.4110     6.9550    10.2230    23.5530     2.1550 
   62.6250   -30.5810    47.5270     6.5340     7.0980    10.6180    23.5340     2.1520 
   62.7500   -30.8750    49.6790     6.6310     7.2090    10.8840    23.5440     2.1490 
   62.8750   -31.0040    51.1680     6.7030     7.2830    10.9850    23.6040     2.1450 
   63.0000   -30.9840    50.3390     6.7470     7.3130    11.0500    23.7140     2.1440 
   63.1250   -30.7250    51.2570     6.7480     7.2770    11.1490    23.7500     2.1450 
   63.2500   -30.3110    54.3790     6.7050     7.1750    11.2770    23.7380     2.1480 
   63.3750   -29.7870    56.5540     6.6300     7.0170    11.2110    23.6670     2.1540 
   63.5000   -29.2350    56.7180     6.5470     6.8340    10.8540    23.5420     2.1620 
   63.6250   -28.7020    57.2030     6.4990     6.6740    10.0330    23.3860     2.1690 
   63.7500   -28.2760    58.9790     6.5050     6.5660     9.2000    23.1840     2.1730 
   63.8750   -27.9360    61.5680     6.5640     6.5160     8.8550    22.9780     2.1680 
   64.0000   -27.6950    64.1780     6.6580     6.5120     9.2350    22.9260     2.1580 
   64.1250   -27.5700    64.1110     6.7570     6.5350     9.4330    23.1230     2.1490 
   64.2500   -27.5320    62.5450     6.8390     6.5580     9.5990    23.5070     2.1480 
   64.3750   -27.5480    61.4370     6.8960     6.5730     9.7160    23.9470     2.1540 
   64.5000   -27.5820    60.6070     6.9340     6.5790     9.8030    24.1980     2.1630 
   64.6250   -27.5850    58.8260     6.9660     6.5870     9.8530    24.1570     2.1680 
   64.7500   -27.4860    55.9070     7.0050     6.6020     9.9100    24.0270     2.1670 
   64.8750   -27.3100    52.7180     7.0560     6.6170    10.0350    23.8990     2.1630 
   65.0000   -27.0670    50.4790     7.1140     6.6210    10.1210    23.7400     2.1600 
   65.1250   -26.7500    50.4540     7.1730     6.6050    10.3870    23.4430     2.1610 
   65.2500   -26.3790    53.5360     7.2270     6.5700    10.8480    22.9990     2.1630 
   65.3750   -25.9660    57.0000     7.2770     6.5260    10.7760    22.5060     2.1640 
   65.5000   -25.4960    58.9320     7.3310     6.4830     9.9640    22.1890     2.1610 
   65.6250   -24.9320    58.3250     7.3930     6.4490     9.3850    22.1110     2.1540 
   65.7500   -24.3040    56.7780     7.4490     6.4180     9.2070    22.1880     2.1470 
   65.8750   -23.6080    56.5490     7.4630     6.3770     9.3000    22.3600     2.1420 
   66.0000   -22.8130    57.0080     7.4020     6.3110     9.4800    22.6390     2.1390 
   66.1250   -21.8850    55.7080     7.2760     6.2230     9.6750    22.9880     2.1390 
