~V
VERS. 2.00: Ver 2.00
~W
STRT.M 52.0000:
STOP.M 287.0000:
STEP.M 0.1250:
NULL. -999.2500:
UWI. F11078:
~C
DEPT.M :
GR.API :
RML.OHMM :
RI. :
RXO.OHMM :
CALI.CM :
DEN.GM/CC :
SP.MV :
~A
# ...
  175.7500    79.5550    19.6780    17.6630    14.0290    21.6420     2.5810   -16.4420 
  175.8750    80.2590    21.5420    19.7250    15.3800    21.6840     2.5960   -16.1660 
  176.0000    78.9980    22.6970    21.4420    16.9980    21.7390     2.6020   -15.8220 
  176.1250    77.6420    22.4860    21.8710    17.1820    21.7850     2.6040   -15.4160 
  176.2500    75.0300    20.6350    20.4500    15.7760    21.8080     2.6020   -14.9350 
  176.3750    72.1660    17.4800    17.4510    14.3280    21.8150     2.5930   -14.4230 
  176.5000    74.4490    13.8850    13.8800    11.9960    21.8350     2.5720   -13.9670 
  176.6250    82.4500    10.7850    10.7720     8.6230    21.8910     2.5400   -13.5830 
  176.7500    91.9230     8.5360     8.4560     6.8720    21.9610     2.5010   -13.3010 
  176.8750    97.9460     7.1400     6.9170     6.4660    21.9950     2.4620   -13.1530 
  177.0000    99.6720     6.5030     6.0890     6.2530    21.9840     2.4310   -13.1590 
  177.1250    99.9020     6.2900     5.6990     6.2760    21.9700     2.4100   -13.3060 
  177.2500    97.7420     6.3420     5.6110     6.3120    21.9850     2.3950   -13.6150 
  177.3750    92.4120     6.5430     5.7080     6.3220    22.0040     2.3840   -14.0810 
  177.5000    89.3320     6.8370     5.9290     6.5430    22.0210     2.3750   -14.6980 
  177.6250    91.9550     7.1880     6.2400     6.9760    22.0450     2.3630   -15.4780 
  177.7500    94.9330     7.5830     6.6440     7.6180    22.0680     2.3470   -16.4070 
  177.8750    91.6750     7.9650     7.1050     8.4000    22.0790     2.3250   -17.3990 
  178.0000    85.7600     8.1830     7.4940     8.9760    22.0790     2.3020   -18.2860 
  178.1250    85.2310     8.1270     7.6530     9.2740    22.0790     2.2870   -18.9650 
  178.2500    89.3010     7.7580     7.4750     8.5990    22.0790     2.2860   -19.3820 
  178.3750    94.1900     7.1500     6.9750     7.0480    22.0790     2.3020   -19.5090 
  178.5000    98.2330     6.4720     6.2780     6.0770    22.0790     2.3350   -19.3090 
  178.6250   101.1580     5.9000     5.5970     5.7200    22.0790     2.3760   -18.8530 
  178.7500   101.7020     5.4980     5.0400     5.6220    22.0790     2.4190   -18.1960 
  178.8750   101.2660     5.2500     4.6460     5.5320    22.0790     2.4580   -17.3990 
  179.0000   102.6400     5.1070     4.4270     5.4870    22.0790     2.4870   -16.5880 
  179.1250   104.9840     4.9920     4.3100     5.4470    22.0810     2.5030   -15.8800 
  179.2500   106.5340     4.8930     4.2530     5.4050    22.1040     2.5030   -15.3160 
  179.3750   105.7570     4.8280     4.2360     5.2610    22.1990     2.4900   -14.9210 
  179.5000   103.5460     4.8370     4.2700     5.1550    22.3910     2.4760   -14.7220 
  179.6250   101.5530     4.9100     4.3490     5.2770    22.5500     2.4700   -14.6100 
  179.7500   101.7040     5.0180     4.4470     5.5560    22.5860     2.4770   -14.5260 
  179.8750   103.1440     5.1130     4.5180     5.6760    22.5530     2.4910   -14.4670 
  180.0000   103.5470     5.1420     4.5010     5.2430    22.5400     2.4970   -14.4460 
  180.1250   102.9220     5.1070     4.4060     4.7740    22.5920     2.4860   -14.4360 
  180.2500   103.1730     5.0440     4.2790     4.5480    22.7560     2.4580   -14.4200 
  180.3750   104.6930     5.0090     4.1870     4.7200    22.9890     2.4190   -14.4110 
  180.5000   105.8070     5.0660     4.2030     5.2150    23.1650     2.3800   -14.4180 
  180.6250   105.5830     5.2040     4.3230     5.5500    23.2280     2.3470   -14.4700 
  180.7500   104.6260     5.3730     4.5160     5.6760    23.2490     2.3270   -14.5350 
  180.8750   105.4230     5.5100     4.7210     5.6590    23.2740     2.3190   -14.6040 
  181.0000   106.4740     5.5660     4.8640     5.5890    23.2970     2.3240   -14.6470 
  181.1250   103.9500     5.5710     4.9210     5.5180    23.3190     2.3350   -14.6850 
  181.2500    98.4000     5.5620     4.9000     5.4310    23.3700     2.3470   -14.7450 
  181.3750    94.3650     5.5660     4.8250     5.3920    23.4700     2.3530   -14.8340 
  181.5000    95.2700     5.5960     4.7240     5.4370    23.6360     2.3480   -14.9650 
  181.6250    97.2370     5.6550     4.6420     5.5340    23.7510     2.3320   -15.1270 
  181.7500    98.1780     5.7610     4.6210     5.6630    23.7700     2.3120   -15.3210 
  181.8750    96.7980     5.9410     4.7030     5.7770    23.7000     2.2970   -15.5690 
  182.0000    91.9250     6.2270     4.9330     6.0240    23.6150     2.2980   -15.8780 
  182.1250    86.3920     6.5930     5.2810     6.6360    23.5380     2.3080   -16.2130 
  182.2500    85.3230     6.9910     5.6970     7.3610    23.4700     2.3180   -16.5290 
  182.3750    90.6480     7.3490     6.0920     7.6090    23.4280     2.3210   -16.7890 
  182.5000    95.2270     7.5470     6.3240     7.4230    23.4340     2.3180   -16.8930 
  182.6250    94.2800     7.5530     6.3490     7.3600    23.5050     2.3170   -16.8480 
  182.7500    91.0020     7.3810     6.1950     7.2800    23.5970     2.3180   -16.7000 
  182.8750    91.2200     7.1000     5.9500     6.4570    23.6530     2.3190   -16.4840 
  183.0000    98.3980     6.8170     5.7180     6.2720    23.6140     2.3130   -16.2420 
  183.1250   103.4460     6.6100     5.5480     6.5900    23.5150     2.3020   -16.0110 
  183.2500    99.7350     6.4950     5.4300     6.7740    23.4300     2.2940   -15.8160 
  183.3750    89.3650     6.4480     5.3310     6.6090    23.4070     2.2930   -15.6620 
  183.5000    86.0280     6.4590     5.2420     6.3630    23.4350     2.2990   -15.5930 
  183.6250    91.7910     6.5460     5.1980     6.1490    23.4530     2.3090   -15.6180 
  183.7500    96.2910     6.7690     5.2620     6.1730    23.3820     2.3230   -15.7130 
  183.8750    94.2540     7.1790     5.4980     6.9140    23.0930     2.3490   -15.8360 
  184.0000    89.1110     7.7820     5.9710     8.5720    22.5130     2.3860   -15.9330 
  184.1250    84.7490     8.4260     6.5940    10.3080    22.0090     2.4190   -15.9980 
  184.2500    81.2470     8.9520     7.2280    10.3030    21.7990     2.4300   -16.0350 
  184.3750    81.3910     9.2300     7.6860     9.4800    21.7970     2.4120   -16.0790 
  184.5000    85.1790     9.1860     7.7820     8.7260    21.8770     2.3720   -16.1320 
  184.6250    87.8260     8.9630     7.6200     8.3900    21.9740     2.3340   -16.1690 
  184.7500    89.0840     8.6900     7.3550     8.0310    22.0860     2.3090   -16.1790 
  184.8750    91.6100     8.4580     7.1300     8.3890    22.2340     2.3000   -16.1790 
  185.0000    93.8580     8.3060     7.0230     8.8270    22.4020     2.2960   -16.1850 
  185.1250    92.6370     8.2030     6.9900     8.9870    22.5430     2.2880   -16.1790 
  185.2500    90.0150     8.1370     6.9850     8.5820    22.6690     2.2750   -16.1440 
  185.3750    90.0030     8.1250     6.9920     7.7660    22.8150     2.2600   -16.0540 
  185.5000    92.5180     8.2110     7.0450     7.5020    23.0140     2.2490   -15.9170 
  185.6250    93.2640     8.3580     7.1720     8.2560    23.2630     2.2400   -15.7580 
  185.7500    91.9150     8.4880     7.3490     9.0920    23.5590     2.2330   -15.6140 
  185.8750    92.1120     8.4930     7.4920     9.4050    23.8260     2.2280   -15.4940 
  186.0000    95.2510     8.2630     7.4450     8.6500    24.0310     2.2310   -15.3690 
  186.1250    98.4730     7.8600     7.1740     7.3650    24.1360     2.2430   -15.2450 
  186.2500   100.6510     7.4100     6.7580     6.4850    24.1560     2.2630   -15.1440 
  186.3750   102.3250     7.0780     6.3660     6.3260    24.1400     2.2880   -15.1200 
  186.5000   100.8970     7.0530     6.2080     7.1230    24.1080     2.3100   -15.1610 
  186.6250    97.5670     7.3220     6.3310     8.4940    24.0160     2.3290   -15.2070 
  186.7500    95.3790     7.7940     6.6960     9.5630    23.8050     2.3430   -15.2400 
  186.8750    95.4710     8.2920     7.1620     9.3510    23.5150     2.3500   -15.2510 
