~V
VERS. 2.00: Ver 2.00
~W
STRT.M 60.0000:
STOP.M 279.0000:
STEP.M 0.1250:
NULL. -999.2500:
UWI. F11060:
~C
DEPT.M :
GR.API :
RML.OHMM :
RI. :
RXO.OHMM :
CALI.CM :
DEN.GM/CC :
SP.MV :
~A
# ...
  217.5000    56.9860    53.4410    50.4130    49.7430    25.1640     2.2030     5.8780 
  217.6250    54.4240    52.0150    49.1580    51.3470    25.2360     2.2010     5.8490 
  217.7500    53.6450    50.1550    47.5260    50.5770    25.3220     2.2080     5.7820 
  217.8750    55.0630    48.1060    45.6970    46.2600    25.3460     2.2200     5.6540 
  218.0000    57.3490    46.4350    44.1290    40.7440    25.2750     2.2310     5.5940 
  218.1250    59.6070    46.0980    43.6500    38.0680    25.1900     2.2380     5.5830 
  218.2500    60.2250    47.4760    44.6730    42.8080    25.1280     2.2440     5.4800 
  218.3750    59.2950    50.6980    43.8040    52.6540    25.0560     2.2470     5.3360 
  218.5000    59.0160    55.4160    46.5180    60.9010    24.9650     2.2480     5.2740 
  218.6250    61.1840    60.5870    51.0990    66.2750    24.9560     2.2420     5.2420 
  218.7500    61.4520    64.4960    55.0050    70.1870    25.0380     2.2330     5.1170 
  218.8750    58.1380    65.8120    57.0330    70.5370    25.0790     2.2230     5.0390 
  219.0000    54.7070    64.0930    56.5520    63.5700    25.0870     2.2120     5.0030 
  219.1250    56.7720    59.8650    53.6340    53.6310    25.1360     2.1970     4.8670 
  219.2500    61.2180    55.0260    49.8070    46.0480    25.1710     2.1840     4.7090 
  219.3750    63.0480    50.7370    46.1570    41.2450    25.1560     2.1780     4.6290 
  219.5000    60.7780    47.6920    43.4320    38.6870    25.1200     2.1790     4.5550 
  219.6250    56.3840    46.3600    42.1460    38.2250    25.1240     2.1850     4.3930 
  219.7500    53.5090    46.2490    41.9630    38.6150    25.1570     2.1900     4.2700 
  219.8750    53.9130    46.8280    42.4960    40.2940    25.2100     2.1940     4.1980 
  220.0000    56.6170    47.3790    43.1810    42.4800    25.2550     2.1980     4.0460 
  220.1250    57.2090    47.0230    43.2760    44.4840    25.2740     2.2030     3.8870 
  220.2500    54.8440    45.6490    42.5430    43.6730    25.2620     2.2100     3.8340 
  220.3750    53.9820    43.6310    41.1600    41.8540    25.2130     2.2210     3.8140 
  220.5000    57.4500    41.6640    39.6240    38.4990    25.1040     2.2320     3.7140 
  220.6250    61.2670    40.6410    38.6860    36.1730    25.0250     2.2370     3.6020 
  220.7500    61.0140    40.8380    38.7320    36.0650    24.9950     2.2360     3.5810 
  220.8750    58.0850    42.2400    39.8720    40.5330    25.0200     2.2350     3.5100 
  221.0000    56.9270    44.6070    41.9760    47.4950    25.0270     2.2380     3.3690 
  221.1250    58.0440    47.7810    44.9210    53.1840    25.0320     2.2470     3.2420 
  221.2500    58.9030    51.5710    48.4360    56.2790    25.0060     2.2540     3.0930 
  221.3750    58.3840    56.1170    52.5680    56.5850    24.9570     2.2540     2.8940 
  221.5000    57.1130    61.5210    57.4280    61.0080    24.9330     2.2520     2.6590 
  221.6250    56.2320    67.3420    62.8090    67.8940    25.0090     2.2530     2.4340 
  221.7500    57.0980    71.9470    67.4530    81.8950    24.9580     2.2550     2.1880 
  221.8750    59.7840    73.3490    69.6240    90.1660    24.8060     2.2520     1.9050 
  222.0000    61.1260    70.3570    67.9640    87.5670    24.7090     2.2440     1.7040 
  222.1250    61.2680    63.6900    58.1070    69.7810    24.7050     2.2390     1.6130 
  222.2500    62.0230    56.9300    52.2580    52.7490    24.6740     2.2400     1.4830 
  222.3750    63.8240    52.4040    47.7860    45.6630    24.6430     2.2500     1.3020 
  222.5000    66.5040    51.2180    45.9400    43.4370    24.6210     2.2640     1.2250 
  222.6250    67.8910    54.0030    47.6030    47.1690    24.5910     2.2710     1.2600 
  222.7500    66.7630    59.4060    51.8780    62.0500    24.5750     2.2640     1.2120 
  222.8750    62.8040    66.0510    57.7370    80.4750    24.5910     2.2500     1.1780 
  223.0000    59.2610    72.0710    63.5770    90.9630    24.6120     2.2350     1.2110 
  223.1250    59.3140    75.0440    67.1460    85.6020    24.6180     2.2350     1.1800 
  223.2500    61.7770    74.7360    67.8330    80.5940    24.6240     2.2350     1.0960 
  223.3750    64.5490    72.0390    66.1470    77.7260    24.6180     2.2360     1.0320 
  223.5000    65.0430    68.4270    63.3110    76.1520    24.5750     2.2400     0.9940 
  223.6250    64.9090    65.1760    60.5460    72.7640    24.5220     2.2410     0.9300 
  223.7500    66.6770    62.6440    58.3340    68.6690    24.4980     2.2390     0.8530 
  223.8750    69.0170    60.7710    56.6540    65.0590    24.5170     2.2370     0.8400 
  224.0000    67.8050    59.3380    55.3290    63.0280    24.5330     2.2390     0.8030 
  224.1250    62.9340    58.0310    54.1170    64.8640    24.4770     2.2460     0.7000 
  224.2500    60.0270    56.5280    52.7640    65.3800    24.4070     2.2550     0.6640 
  224.3750    61.3650    54.6740    51.1430    62.3860    24.3450     2.2640     0.7240 
  224.5000    65.2770    52.5260    49.2840    57.4970    24.3210     2.2700     0.7700 
  224.6250    69.2240    50.4550    47.4740    53.8290    24.3260     2.2740     0.7260 
  224.7500    68.8670    49.0270    46.1750    52.3450    24.3330     2.2780     0.7740 
  224.8750    63.4280    48.8250    45.8730    51.2460    24.3260     2.2810     0.8550 
  225.0000    58.7640    50.3120    46.9890    50.6630    24.3270     2.2820     0.8770 
  225.1250    60.9650    53.7000    49.7960    53.3100    24.3830     2.2800     0.9160 
  225.2500    64.0340    57.7130    53.2780    60.4470    24.4920     2.2870     1.0160 
  225.3750    62.1200    60.6770    56.0430    71.9810    24.5860     2.3130     1.0930 
  225.5000    58.1660    60.9050    56.6120    85.6290    24.5730     2.3470     1.0820 
  225.6250    58.3760    57.3870    53.9630    77.8430    24.4420     2.3550     1.0860 
  225.7500    60.5350    52.1710    49.6570    56.2280    24.3270     2.3330     1.0990 
  225.8750    62.4450    47.2610    45.3330    43.1270    24.3080     2.3060     1.0300 
  226.0000    63.8280    44.0150    42.1890    39.7900    24.3300     2.2900     0.9270 
  226.1250    65.1310    43.1120    40.9310    42.6730    24.3380     2.2800     0.8700 
  226.2500    65.0920    43.7500    41.0630    47.6770    24.3850     2.2680     0.7850 
  226.3750    62.7800    45.1340    42.0400    52.5530    24.5060     2.2540     0.6180 
  226.5000    60.1430    46.4360    43.1830    54.1140    24.6080     2.2430     0.4360 
  226.6250    60.6430    47.0020    43.8230    51.7790    24.6350     2.2430     0.3090 
  226.7500    63.6210    47.0650    43.9700    49.2750    24.6330     2.2520     0.1510 
  226.8750    65.6730    47.1860    44.0260    48.4430    24.6350     2.2640    -0.0530 
  227.0000    64.2320    48.0200    44.5490    48.7290    24.6210     2.2770    -0.2320 
  227.1250    60.2590    50.3520    46.2780    49.7030    24.6100     2.2840    -0.3560 
  227.2500    58.3590    54.1910    49.3240    54.2440    24.6080     2.2820    -0.4800 
  227.3750    59.8200    59.3090    53.5560    63.0290    24.6050     2.2710    -0.5960 
  227.5000    63.7870    64.9870    58.4160    77.9630    24.5720     2.2540    -0.6190 
  227.6250    66.9000    69.6560    62.6220    90.4490    24.5460     2.2330    -0.5390 
  227.7500    65.1680    71.9410    64.9130    95.9690    24.7010     2.2160    -0.4590 
  227.8750    59.8450    71.2540    64.6330    95.3850    24.9130     2.2110    -0.3280 
  228.0000    57.0050    68.1060    62.0530    88.1040    24.9740     2.2170    -0.0910 
  228.1250    60.7440    63.6580    58.0630    75.5290    24.8300     2.2260     0.1190 
  228.2500    64.1960    59.2670    53.9290    63.2120    24.6530     2.2330     0.2190 
  228.3750    63.7900    55.5020    50.2360    55.7220    24.5190     2.2410     0.3240 
  228.5000    61.2780    52.6190    47.2930    52.8520    24.4160     2.2500     0.4440 
  228.6250    60.9140    50.9060    45.3880    58.4190    24.3730     2.2570     0.3900 
