~V
VERS. 2.00: Ver 2.00
~W
STRT.M 51.0000:
STOP.M 240.0000:
STEP.M 0.1250:
NULL. -999.2500:
UWI. F11016:
~C
DEPT.M :
GR.API :
RML.OHMM :
RI. :
RXO.OHMM :
CALI.CM :
DEN.GM/CC :
SP.MV :
~A
# ...
  163.5000    56.7900    69.0720    62.6080    57.9410    23.7570     2.2390   -19.3460 
  163.6250    58.7770    71.6940    64.7250    55.7800    23.7470     2.2430   -19.6820 
  163.7500    59.6000    77.1910    69.3640    51.2180    23.7290     2.2460   -20.0220 
  163.8750    58.0820    86.3840    77.4560    49.0390    23.6990     2.2450   -20.3660 
  164.0000    54.6530    98.6440    88.6710    53.4010    23.6540     2.2400   -20.7190 
  164.1250    50.9960   112.1220   101.5130    62.8250    23.6380     2.2340   -21.0430 
  164.2500    48.5050   124.4460   113.9030    74.8030    23.7050     2.2280   -21.3240 
  164.3750    47.7000   132.5460   123.0010    83.9520    23.8140     2.2250   -21.5890 
  164.5000    48.1710   134.9820   127.1880    93.2160    23.8690     2.2270   -21.8130 
  164.6250    49.9880   132.4160   126.5920   104.0650    23.8630     2.2320   -21.9640 
  164.7500    53.4210   126.8190   122.4660   111.2360    23.8830     2.2400   -22.0810 
  164.8750    56.8580   120.4940   116.6470   109.4440    23.9670     2.2500   -22.1880 
  165.0000    58.9580   115.4250   110.9330   100.8230    24.0320     2.2590   -22.2480 
  165.1250    59.5130   112.7860   106.5430    92.9550    24.0370     2.2670   -22.2670 
  165.2500    57.5980   112.0240   104.0410    89.1400    24.0570     2.2700   -22.2770 
  165.3750    54.0820   112.8560   103.5750    91.2790    24.1450     2.2690   -22.2890 
  165.5000    51.8820   114.8440   104.6750    96.5740    24.2410     2.2640   -22.2930 
  165.6250    52.6930   117.1920   106.8000   102.3540    24.2970     2.2560   -22.3040 
  165.7500    55.9770   119.8290   109.5980   107.3650    24.3160     2.2450   -22.3320 
  165.8750    60.5630   122.4990   112.6100   103.3960    24.2800     2.2340   -22.3610 
  166.0000    64.1510   124.4870   115.1690    92.3760    24.2070     2.2250   -22.3870 
  166.1250    63.8020   124.9770   116.5010    86.2180    24.1500     2.2200   -22.4300 
  166.2500    59.8960   123.2370   115.8770    88.4880    24.1180     2.2200   -22.4800 
  166.3750    56.8590   118.8250   112.7380    96.8950    24.1120     2.2250   -22.5000 
  166.5000    55.9410   112.6110   107.6910    98.2580    24.1570     2.2330   -22.5070 
  166.6250    54.8050   106.2450   102.1190    91.4160    24.2750     2.2430   -22.5190 
  166.7500    52.8930   101.2340    97.4010    84.9740    24.4020     2.2520   -22.5240 
  166.8750    52.9620    98.8150    94.8000    83.3870    24.4640     2.2600   -22.5190 
  167.0000    55.3930    98.9890    94.5210    85.2860    24.4730     2.2650   -22.5180 
  167.1250    58.3280   100.9820    95.9980    90.7230    24.5020     2.2690   -22.5290 
  167.2500    61.0860   103.9650    98.5120    98.7360    24.5610     2.2730   -22.5520 
  167.3750    62.7720   107.1750   101.3540   103.9140    24.6180     2.2760   -22.5850 
  167.5000    62.9270   110.1920   104.0720   101.9200    24.6650     2.2790   -22.6340 
  167.6250    62.8620   113.0650   106.6270    94.7710    24.7110     2.2810   -22.6960 
  167.7500    64.2760   116.2690   109.3780    91.4430    24.7420     2.2820   -22.7360 
  167.8750    66.9120   120.8720   113.2510    95.0330    24.7270     2.2810   -22.7650 
  168.0000    68.8400   127.9560   119.2620   100.9400    24.6150     2.2780   -22.8250 
  168.1250    69.1400   138.2830   128.2040   102.1300    24.3940     2.2740   -22.9060 
  168.2500    67.3600   152.0170   140.3690   102.6550    24.2620     2.2680   -22.9740 
  168.3750    63.7870   167.9950   154.9740   114.7460    24.3130     2.2610   -23.0580 
  168.5000    60.2420   183.0420   169.3840   144.4160    24.4210     2.2540   -23.1770 
  168.6250    57.8620   193.1740   180.1110   183.6070    24.4820     2.2500   -23.3220 
  168.7500    56.5800   195.2570   184.2470   201.7880    24.5060     2.2500   -23.4900 
  168.8750    55.7140   187.9600   180.1150   184.9570    24.5260     2.2520   -23.6750 
  169.0000    54.7280   174.6040   169.9610   158.5240    24.5730     2.2580   -23.8850 
  169.1250    54.3370   160.1060   157.8120   143.2650    24.6140     2.2630   -24.1160 
  169.2500    55.3560   147.6350   146.7170   138.4320    24.6300     2.2670   -24.3560 
  169.3750    57.6250   138.6570   138.5040   135.8290    24.6350     2.2680   -24.5830 
  169.5000    58.9250   132.5360   132.9840   132.1000    24.6390     2.2670   -24.8040 
  169.6250    57.6280   127.8760   128.9780   128.2610    24.6410     2.2660   -25.0220 
  169.7500    55.7840   123.5330   125.3420   125.1800    24.6390     2.2650   -25.2300 
  169.8750    55.7440   118.6590   121.1130   123.8660    24.6380     2.2660   -25.4330 
  170.0000    56.1880   113.2320   116.1210   122.9360    24.6350     2.2670   -25.6260 
  170.1250    55.5620   108.0840   111.0800   117.3530    24.6250     2.2680   -25.7970 
  170.2500    54.9900   104.6260   107.3440   106.0200    24.6020     2.2680   -25.9540 
  170.3750    55.0720   105.0920   107.1620    93.8470    24.5820     2.2670   -26.1250 
  170.5000    54.2740   110.9340   112.1490    87.2980    24.5740     2.2650   -26.2720 
  170.6250    52.3950   122.5290   122.8900    90.5180    24.5700     2.2590   -26.3690 
  170.7500    50.8420   139.2000   138.8910   103.6900    24.5690     2.2530   -26.4730 
  170.8750    50.2580   158.3670   157.7550   130.3350    24.5730     2.2450   -26.5940 
  171.0000    50.1050   175.4830   174.9790   163.7500    24.5790     2.2390   -26.6820 
  171.1250    50.4830   186.0380   185.9830   187.6300    24.5800     2.2360   -26.7390 
  171.2500    52.0050   187.5920   188.1660   186.9240    24.5780     2.2380   -26.7920 
  171.3750    54.0090   180.8780   181.7770   169.0610    24.5750     2.2430   -26.7850 
  171.5000    55.5440   170.8560   171.3020   147.5310    24.5430     2.2490   -26.7090 
  171.6250    56.2460   162.6370   161.8070   122.2800    24.4190     2.2560   -26.6070 
  171.7500    56.9140   158.8560   156.2280    95.3690    24.1720     2.2610   -26.4460 
  171.8750    57.1260   160.7810   156.1400    76.7520    23.9090     2.2640   -26.1800 
  172.0000    55.5870   167.8400   161.1090    70.6260    23.7270     2.2660   -25.8560 
  172.1250    53.3110   178.9370   170.0380    75.2420    23.6570     2.2670   -25.5100 
  172.2500    52.4150   193.4090   182.1950    88.4760    23.6400     2.2670   -25.1220 
  172.3750    53.0630   209.7120   197.4060   102.3300    23.5900     2.2660   -24.7180 
  172.5000    53.5930   227.6360   215.5560   112.8160    23.5700     2.2650   -24.3370 
  172.6250    53.0740   247.3270   236.4950   124.4780    23.6290     2.2630   -23.9600 
  172.7500    51.3710   266.5200   259.6450   139.4320    23.6820     2.2600   -23.5780 
  172.8750    48.6760   289.7000   283.0100   142.6140    23.6130     2.2550   -23.1910 
  173.0000    46.2940   313.6180   303.4490   128.4840    23.4470     2.2510   -22.8030 
  173.1250    45.5110   331.7050   318.0320   106.6730    23.2840     2.2470   -22.4090 
  173.2500    46.4140   342.1730   325.2850    89.0330    23.2230     2.2430   -22.0110 
  173.3750    47.8880   345.2590   325.5270    91.3070    23.3030     2.2410   -21.5900 
  173.5000    48.5470   343.9790   321.6420   114.8470    23.4600     2.2400   -21.1530 
  173.6250    48.4970   341.1340   316.4070   146.9560    23.6140     2.2390   -20.7350 
  173.7500    49.8580   337.5540   310.8230   171.8290    23.7340     2.2370   -20.3310 
  173.8750    53.5950   332.7170   304.6360   183.1360    23.8360     2.2360   -19.9510 
  174.0000    57.2470   325.8310   297.1840   194.7180    23.9210     2.2370   -19.5950 
  174.1250    59.6270   316.0390   287.7000   212.7520    23.9720     2.2380   -19.2140 
  174.2500    60.8790   302.0580   275.0600   227.1320    24.0020     2.2400   -18.7940 
  174.3750    60.3460   281.8310   257.3820   235.5590    24.0220     2.2390   -18.3880 
  174.5000    58.7380   255.0590   234.1200   238.9290    24.0270     2.2370   -17.9850 
  174.6250    58.1160   223.4590   206.3980   230.7490    24.0030     2.2350   -17.5380 
