~V
VERS. 2.00: Ver 2.00
~W
STRT.M 40.0000:
STOP.M 275.0000:
STEP.M 0.1250:
NULL. -999.2500:
UWI. F11027:
~C
DEPT.M :
DEN.GM/CC :
GR.API :
RML.OHMM :
RI. :
RXO.OHMM :
CALI.CM :
SP.MV :
~A
# ...
  118.7500     2.3910    68.3850    19.6890    18.3450    18.2530    24.7300   -12.6890 
  118.8750     2.3040    73.2080    16.6730    14.8700    13.3050    24.7450   -13.5240 
  119.0000     2.2430    76.7810    15.0820    12.5850    11.0480    24.6920   -14.3860 
  119.1250     2.2130    77.7040    15.0200    11.6560    10.6150    24.5350   -15.2080 
  119.2500     2.1980    77.9640    15.9030    11.7100    10.9110    24.4260   -15.9180 
  119.3750     2.1900    79.1490    17.2960    12.5140    11.4400    24.4330   -16.5270 
  119.5000     2.1860    79.6100    18.7510    13.7460    11.8770    24.5100   -17.0840 
  119.6250     2.1860    76.9130    19.8510    14.9860    12.0810    24.4780   -17.4450 
  119.7500     2.1910    72.1460    20.5240    15.9750    12.0250    24.4130   -17.7060 
  119.8750     2.2010    69.0650    20.8250    16.6820    11.8510    24.3550   -17.9950 
  120.0000     2.2150    68.9220    20.8450    17.1260    11.6840    24.3550   -18.2250 
  120.1250     2.2320    69.2630    20.6670    17.2880    11.5420    24.3960   -18.4140 
  120.2500     2.2460    68.7170    20.4390    17.2840    11.7320    24.4100   -18.6710 
  120.3750     2.2510    68.8460    20.2200    17.2260    12.0390    24.3980   -18.8990 
  120.5000     2.2410    69.7680    19.9160    17.1320    12.4370    24.3450   -19.0670 
  120.6250     2.2170    68.7870    19.1520    16.7010    13.0120    24.4620   -19.2840 
  120.7500     2.1890    66.0150    17.7370    15.6370    12.8300    24.7490   -19.4460 
  120.8750     2.1680    63.7480    15.7610    13.9340    12.0530    25.0820   -19.5850 
  121.0000     2.1590    62.8820    13.6420    11.9610    11.0590    25.3340   -19.8000 
  121.1250     2.1620    64.5790    12.0500    10.3080    10.2300    25.4220   -19.9390 
  121.2500     2.1670    66.4780    11.3050     9.2830    10.1590    25.3510   -20.0320 
  121.3750     2.1710    66.2850    11.4600     8.9970    10.3780    25.2010   -20.1800 
  121.5000     2.1730    65.5130    12.3350     9.4350    10.9560    25.0670   -20.4220 
  121.6250     2.1730    67.1450    13.5520    10.4850    11.2360    24.9570   -20.6360 
  121.7500     2.1760    70.1430    14.5390    11.6160    11.2230    24.8580   -20.7890 
  121.8750     2.1810    72.1060    14.9620    12.3130    11.1080    24.8050   -20.8630 
  122.0000     2.1900    71.0860    14.7800    12.3050    10.9140    24.7830   -20.8130 
  122.1250     2.2010    68.9570    14.2760    11.7490    10.4060    24.7360   -20.7630 
  122.2500     2.2080    68.2030    13.9440    11.2110     9.9250    24.6540   -20.6910 
  122.3750     2.2080    68.7650    14.0300    11.0110     9.8930    24.6050   -20.6100 
  122.5000     2.1980    68.0570    14.5500    11.2750    10.1210    24.6440   -20.4410 
  122.6250     2.1850    65.1260    15.3190    11.9730    10.2830    24.7610   -20.1900 
  122.7500     2.1780    64.0580    15.9660    12.7580    10.5970    24.8600   -19.9520 
  122.8750     2.1880    64.8440    16.2340    13.3230    11.0440    24.8840   -19.6590 
  123.0000     2.2120    64.0590    16.0090    13.4510    10.7290    24.8360   -19.3050 
  123.1250     2.2430    60.4110    15.3130    13.0530     9.3420    24.7590   -18.9410 
  123.2500     2.2650    59.2450    14.4530    12.3940     8.0780    24.6930   -18.6030 
  123.3750     2.2750    63.0920    13.6480    11.6980     7.6800    24.5700   -18.2660 
  123.5000     2.2770    67.7160    13.0270    11.1160     7.9690    24.4110   -17.9320 
  123.6250     2.2830    67.5950    12.6270    10.7200     8.9070    24.2320   -17.6270 
  123.7500     2.3030    66.2450    12.3350    10.4550     8.9190    24.0480   -17.2700 
  123.8750     2.3330    65.4910    12.0710    10.2620     8.8130    23.8910   -16.8260 
  124.0000     2.3650    64.0000    11.7950    10.0960     9.1190    23.7950   -16.3270 
  124.1250     2.3880    62.5750    11.5280     9.9650     9.6400    23.7090   -15.8110 
  124.2500     2.3970    62.9640    11.3060     9.8870     9.2070    23.6310   -15.2920 
  124.3750     2.3930    63.6690    11.1410     9.8760     8.0570    23.5790   -14.8100 
  124.5000     2.3840    63.7710    11.1420     9.9260     7.0290    23.5540   -14.4230 
  124.6250     2.3760    64.2520    11.3770     9.9790     6.8790    23.5330   -14.1140 
  124.7500     2.3670    64.1480    11.5910     9.9660     7.0990    23.4980   -13.9370 
  124.8750     2.3530    61.1190    11.5680     9.8690     7.5600    23.4740   -13.9390 
  125.0000     2.3280    58.1310    11.3410     9.7280     8.2430    23.4680   -14.1300 
  125.1250     2.2920    61.0320    11.1360     9.6120     8.7470    23.4220   -14.3200 
  125.2500     2.2580    67.0290    11.0010     9.5480     8.4710    23.3570   -14.4010 
  125.3750     2.2400    69.8690    10.8470     9.4940     8.4150    23.3330   -14.3170 
  125.5000     2.2460    67.9090    10.5840     9.3430     8.1910    23.3300   -14.0870 
  125.6250     2.2700    68.1500    10.1320     8.9580     7.0190    23.3360   -13.6810 
  125.7500     2.2970    74.0830     9.5720     8.3970     5.8690    23.3520   -13.1190 
  125.8750     2.3120    80.6910     9.0290     7.7870     5.0750    23.3420   -12.4660 
  126.0000     2.3110    82.8090     8.6260     7.2630     4.9750    23.3000   -11.6820 
  126.1250     2.3000    82.8260     8.4650     6.9450     5.3510    23.3080   -10.9310 
  126.2500     2.2880    84.1090     8.4880     6.8050     5.8360    23.4360   -10.2660 
  126.3750     2.2800    85.3700     8.6240     6.7960     5.6250    23.7230    -9.7840 
  126.5000     2.2780    84.6420     8.7970     6.8650     5.0140    24.0670    -9.4600 
  126.6250     2.2820    81.0470     8.9370     6.9580     5.0710    24.2360    -9.2530 
  126.7500     2.2910    76.1350     9.0210     7.0220     5.4850    24.1660    -9.1830 
  126.8750     2.3020    70.7460     9.0800     7.0410     5.9980    23.9630    -9.1260 
  127.0000     2.3170    67.3860     9.2110     7.0640     6.0300    23.7590    -9.0390 
  127.1250     2.3440    68.4290     9.6330     7.2560     5.7140    23.5680    -8.8130 
  127.2500     2.3890    70.4650    10.4990     7.7610     5.5040    23.3850    -8.4960 
  127.3750     2.4510    69.8010    11.9320     8.7230     6.1700    23.2650    -8.0830 
  127.5000     2.5180    64.7100    13.9640    10.2530     8.2020    23.2750    -7.5320 
  127.6250     2.5750    57.5280    16.5430    12.4650    11.3650    23.3880    -7.0180 
  127.7500     2.6120    51.8810    19.2850    15.0960    13.5100    23.4440    -6.5190 
  127.8750     2.6320    48.7240    21.8090    17.8110    14.3390    23.4140    -6.0930 
  128.0000     2.6410    47.9820    23.7380    20.1720    14.6320    23.3550    -5.8720 
  128.1250     2.6430    47.9660    24.6990    21.6390    13.7170    23.3460    -5.9260 
  128.2500     2.6400    47.9250    24.9240    22.2630    13.6460    23.3440    -6.0550 
  128.3750     2.6320    49.3760    24.7520    22.3130    14.5880    23.4080    -6.1460 
  128.5000     2.6210    51.0180    24.6090    22.1980    15.6990    23.5500    -6.2930 
  128.6250     2.6100    51.0840    24.9560    22.3930    15.6370    23.7010    -6.3860 
  128.7500     2.6030    50.8970    25.8650    23.1060    15.5660    23.7610    -6.4330 
  128.8750     2.6020    50.4020    27.2060    24.3180    15.9200    23.7880    -6.4990 
  129.0000     2.6060    49.2590    28.6660    25.7840    16.4960    23.7980    -6.5000 
  129.1250     2.6080    47.9320    29.7280    27.0280    16.9020    23.7730    -6.3220 
  129.2500     2.6070    48.1490    30.0650    27.6600    17.2750    23.7300    -6.1340 
  129.3750     2.6050    49.2140    29.5510    27.4720    16.6080    23.6970    -6.0240 
  129.5000     2.6050    49.9460    28.3000    26.4870    16.4630    23.6620    -5.9570 
  129.6250     2.6080    51.1410    26.6280    24.9060    16.3290    23.6140    -5.9800 
  129.7500     2.6100    51.8870    25.0570    23.2390    16.1180    23.5800    -6.0700 
  129.8750     2.6100    50.6960    23.9300    21.8510    16.4890    23.5480    -6.1280 
