~V
VERS. 2.00: Ver 2.00
~W
STRT.M 50.0000:
STOP.M 283.0000:
STEP.M 0.1250:
NULL. -999.2500:
UWI. F11066:
~C
DEPT.M :
GR.API :
RML.OHMM :
RI. :
RXO.OHMM :
CALI.CM :
DEN.GM/CC :
SP.MV :
~A
# ...
  218.7500    75.3230    28.3930    22.4470    29.8370    25.0100     2.2820    -6.7010 
  218.8750    76.8180    30.6510    24.1620    32.0800    24.9950     2.2860    -6.5980 
  219.0000    77.5060    33.4460    26.1910    34.6910    24.9460     2.2920    -6.5100 
  219.1250    77.7120    37.0150    28.7840    38.7230    24.9760     2.3030    -6.4890 
  219.2500    75.5530    41.0410    31.7840    42.8820    24.9870     2.3130    -6.4680 
  219.3750    72.2040    45.1480    34.9520    46.3350    24.9520     2.3170    -6.4560 
  219.5000    69.9050    48.9200    37.9890    52.0960    24.8930     2.3090    -6.4450 
  219.6250    70.1970    51.8400    40.5120    57.8140    24.9170     2.2950    -6.4150 
  219.7500    70.8670    53.8290    42.3970    54.8590    24.9810     2.2830    -6.3910 
  219.8750    70.9580    54.9250    43.6190    49.7240    25.0030     2.2740    -6.3670 
  220.0000    70.5130    55.2930    44.2510    49.7650    25.0100     2.2700    -6.3190 
  220.1250    69.7030    55.1770    44.4280    52.7200    25.0250     2.2630    -6.2170 
  220.2500    70.3810    55.0760    44.5320    52.5910    25.0130     2.2480    -6.0940 
  220.3750    72.8320    55.3710    44.8710    49.8860    24.9920     2.2330    -6.0030 
  220.5000    75.4180    56.3200    45.6840    47.1690    24.9850     2.2260    -5.9120 
  220.6250    76.8300    58.0900    47.1870    49.1570    24.9920     2.2230    -5.8480 
  220.7500    77.4440    60.3790    49.2110    59.5630    25.0070     2.2180    -5.7630 
  220.8750    76.1970    62.8450    51.5290    65.2010    25.0370     2.2120    -5.6690 
  221.0000    74.0970    65.0700    53.8080    65.4770    25.0760     2.2130    -5.5970 
  221.1250    73.0480    66.6660    55.6580    62.6550    25.0600     2.2220    -5.5150 
  221.2500    70.9940    67.8580    57.0960    62.0070    25.0360     2.2310    -5.4540 
  221.3750    66.7590    69.0510    58.3650    64.0190    25.0150     2.2350    -5.3710 
  221.5000    63.2830    70.5580    59.7310    64.2930    25.0750     2.2360    -5.3000 
  221.6250    64.6970    72.2830    61.2070    65.3800    25.2070     2.2350    -5.2180 
  221.7500    66.5930    73.6540    62.4260    67.0410    25.2480     2.2310    -5.1850 
  221.8750    64.5400    74.1380    62.9970    71.1990    25.0820     2.2250    -5.1650 
  222.0000    60.4640    73.4710    62.6980    74.3390    24.9170     2.2180    -5.1490 
  222.1250    58.9970    71.7890    61.5700    70.7600    24.9030     2.2110    -5.1650 
  222.2500    59.1140    69.9790    60.2530    64.6400    24.9330     2.2070    -5.1750 
  222.3750    59.8890    68.8250    59.3440    60.5000    24.9850     2.2050    -5.1840 
  222.5000    62.3640    68.9410    59.3730    59.7180    25.0220     2.2030    -5.1760 
  222.6250    65.6790    70.5570    60.7050    63.0830    25.0460     2.1980    -5.1950 
  222.7500    65.7700    72.6520    62.7430    66.6170    25.0560     2.1930    -5.1830 
  222.8750    62.7420    74.1290    64.7120    68.5970    25.0340     2.1910    -5.1670 
  223.0000    61.9320    74.1800    65.8240    69.2520    25.0300     2.1940    -5.1720 
  223.1250    64.8380    72.6940    65.5850    67.5470    25.0290     2.1960    -5.1580 
  223.2500    66.7930    70.9370    64.6840    62.9930    25.0280     2.1960    -5.2090 
  223.3750    66.5150    69.9420    63.9190    58.9560    24.9980     2.1920    -5.2690 
  223.5000    64.9850    70.2330    63.9100    54.8050    24.9830     2.1870    -5.3510 
  223.6250    63.9580    71.5840    64.7970    55.8230    24.9830     2.1850    -5.4150 
  223.7500    62.7590    72.5220    65.6060    59.5780    24.9910     2.1910    -5.4980 
  223.8750    61.4190    71.6400    65.1720    63.9100    25.0190     2.2010    -5.5900 
  224.0000    61.0270    68.4010    62.8560    64.6280    25.0340     2.2080    -5.6520 
  224.1250    62.2750    63.8350    59.1880    62.9380    25.0090     2.2080    -5.7350 
  224.2500    63.0130    60.2860    56.0070    60.1820    25.1470     2.2080    -5.7570 
  224.3750    61.3550    59.3620    54.7560    54.8800    25.4010     2.2060    -5.7740 
  224.5000    59.8930    61.9970    56.4610    54.3500    25.2920     2.1960    -5.8130 
  224.6250    60.9080    68.8570    59.5660    77.1450    25.2410     2.1760    -5.8850 
  224.7500    61.5810    78.4710    67.6380   115.7450    25.2050     2.1600    -5.9360 
  224.8750    61.6690    89.3620    77.2860   145.3520    25.1860     2.1620    -5.9730 
  225.0000    62.5650    99.5900    86.8930   138.9680    25.0830     2.1870    -5.9980 
  225.1250    62.7860   106.9340    94.4450   120.5530    25.0010     2.2320    -5.9740 
  225.2500    60.0280   111.6340    99.7360   118.3660    24.9750     2.2860    -5.9900 
  225.3750    55.9730   114.8160   103.5200   122.8420    25.0400     2.3390    -6.0060 
  225.5000    53.0900   117.2380   106.4850   133.4410    25.2230     2.3760    -6.0060 
  225.6250    52.6260   118.0780   108.0690   136.8530    25.0720     2.3860    -5.9810 
  225.7500    54.2470   116.3350   107.4570   139.0170    24.9590     2.3780    -5.9740 
  225.8750    57.1080   111.5120   104.1080   145.8810    24.9260     2.3600    -5.9710 
  226.0000    59.1890   104.2760    98.4080   148.9250    24.9960     2.3320    -5.9960 
  226.1250    60.8450    96.3010    91.6830   130.8390    25.0290     2.2960    -6.0940 
  226.2500    64.4120    89.4360    85.7130   107.7210    25.0270     2.2630    -6.1710 
  226.3750    68.2870    84.4850    81.3220    95.4010    25.0060     2.2410    -6.2300 
  226.5000    68.5560    81.5390    78.6420    90.5400    24.9680     2.2260    -6.2790 
  226.6250    65.5620    80.4020    77.5440    88.2570    24.9690     2.2120    -6.3160 
  226.7500    65.0790    80.0140    77.2190    84.9990    25.0590     2.2010    -6.3440 
  226.8750    68.0800    79.4080    76.9200    87.1380    25.3920     2.1970    -6.3580 
  227.0000    70.0470    77.5910    75.7370    93.5600    25.7180     2.1990    -6.3600 
  227.1250    67.5130    73.7180    72.6820    92.0470    26.1420     2.2050    -6.3150 
  227.2500    64.5700    68.4370    68.0980    85.3710    25.4330     2.2120    -6.2910 
  227.3750    63.7370    62.5740    62.6990    74.8440    25.0460     2.2210    -6.2860 
  227.5000    64.6480    57.1390    57.4820    61.3260    24.9990     2.2330    -6.2650 
  227.6250    65.8350    53.4260    53.7510    55.4850    25.0040     2.2480    -6.2670 
  227.7500    67.4380    51.8390    51.9980    54.7420    24.9900     2.2640    -6.2840 
  227.8750    69.5960    52.4400    52.3240    58.0410    24.9760     2.2770    -6.3240 
  228.0000    70.8180    54.8160    54.3830    62.5950    24.9460     2.2920    -6.3650 
  228.1250    68.7160    58.0470    57.4210    63.1910    25.1130     2.3250    -6.4030 
  228.2500    64.1070    60.6230    60.0620    58.2200    25.2960     2.3740    -6.4210 
  228.3750    61.6850    61.5340    61.3110    55.6470    25.2580     2.4020    -6.4470 
  228.5000    64.0680    60.4940    60.7530    55.9350    25.1120     2.3710    -6.5010 
  228.6250    66.9550    58.0710    58.6930    57.2480    25.0840     2.3040    -6.5210 
  228.7500    66.5040    55.7790    56.4440    57.7240    24.8280     2.2580    -6.5510 
  228.8750    65.5490    54.5440    54.8850    58.5530    24.7340     2.2440    -6.5670 
  229.0000    66.4920    54.8120    54.5550    59.9270    24.9910     2.2430    -6.5760 
  229.1250    67.9040    56.7290    55.7530    62.8890    25.3200     2.2420    -6.6000 
  229.2500    66.4270    59.4760    57.8510    67.5270    25.4520     2.2380    -6.6140 
  229.3750    63.1280    62.2980    60.2070    70.1760    25.1380     2.2430    -6.6280 
  229.5000    61.5910    64.5450    62.1970    65.8850    24.9290     2.2580    -6.6150 
  229.6250    62.9930    65.8960    63.4060    62.0090    24.9190     2.2740    -6.6570 
  229.7500    64.1180    66.8700    64.1580    64.7680    24.8950     2.2840    -6.6920 
  229.8750    63.1340    68.1230    64.9920    65.7160    24.8640     2.2880    -6.7510 
