~V
VERS. 2.00: Ver 2.00
~W
STRT.M 50.0000:
STOP.M 229.0000:
STEP.M 0.1250:
NULL. -999.2500:
UWI. F11009:
~C
DEPT.M :
DEN.GM/CC :
GR.API :
RML.OHMM :
RI. :
RXO.OHMM :
CALI.CM :
SP.MV :
~A
# ...
   83.7500     2.2350    93.8400     5.9990     5.1980     7.9960    27.0790    -7.9770 
   83.8750     2.2680    96.3870     5.9400     5.2160     7.7200    27.0790    -7.6690 
   84.0000     2.2970   100.9410     5.7550     5.1130     6.8090    27.0790    -7.5150 
   84.1250     2.3180   104.7220     5.5590     4.9360     6.0780    27.0620    -7.5120 
   84.2500     2.3300   104.5620     5.4840     4.7980     5.5840    27.0030    -7.6000 
   84.3750     2.3310   101.1470     5.5990     4.7800     5.5060    26.9040    -7.8100 
   84.5000     2.3230    98.5770     5.9190     4.9220     5.6990    26.7920    -8.2320 
   84.6250     2.3070    98.3600     6.4600     5.2600     6.1460    26.6470    -8.8850 
   84.7500     2.2870    96.6660     7.2170     5.7660     6.9480    26.4170    -9.6560 
   84.8750     2.2680    91.8780     8.3050     6.4830     8.2590    26.1750   -10.4450 
   85.0000     2.2630    88.6740     9.9380     7.5280    10.0810    26.0230   -11.1800 
   85.1250     2.2980    90.1550    12.5100     9.2080    11.9850    25.9550   -11.8370 
   85.2500     2.3800    90.7870    15.8980    11.5880    15.4790    25.9350   -12.4370 
   85.3750     2.4950    87.0720    19.5550    14.4650    21.8650    25.9270   -12.9530 
   85.5000     2.6050    80.3550    22.3320    17.0970    31.7660    25.9090   -13.4180 
   85.6250     2.6550    75.3840    22.4830    18.0550    45.2230    25.9190   -13.8610 
   85.7500     2.6300    73.6520    20.1270    17.0180    48.7320    25.9740   -14.3200 
   85.8750     2.5420    75.4910    16.3400    14.5460    35.0370    26.0610   -14.8400 
   86.0000     2.4240    78.3430    12.6040    11.7160    20.2050    26.1840   -15.4550 
   86.1250     2.3170    77.0790    10.1030     9.5280    13.6690    26.3270   -16.1260 
   86.2500     2.2410    73.4720     8.7260     8.1230    11.2330    26.4730   -16.7750 
   86.3750     2.1950    71.5160     8.1320     7.3570    10.5740    26.5840   -17.3720 
   86.5000     2.1720    73.0960     7.9690     7.0210    10.5580    26.6270   -17.8560 
   86.6250     2.1630    74.3830     7.9820     6.9460    10.6430    26.5930   -18.1860 
   86.7500     2.1580    72.3070     7.9930     6.9490    10.5940    26.6200   -18.4000 
   86.8750     2.1550    70.1020     7.9560     6.9560    10.4520    26.6620   -18.5010 
   87.0000     2.1550    71.6300     7.8690     6.9350    10.4040    26.6670   -18.4730 
   87.1250     2.1600    74.2770     7.7540     6.8770    10.4540    26.5550   -18.3070 
   87.2500     2.1690    73.4590     7.6430     6.7980    10.4300    26.4670   -18.0420 
   87.3750     2.1770    70.5020     7.5600     6.7150    10.2590    26.4310   -17.6870 
   87.5000     2.1830    70.0990     7.5210     6.6400    10.0790    26.4570   -17.2970 
   87.6250     2.1840    73.2100     7.5360     6.5890     9.9370    26.5940   -16.8510 
   87.7500     2.1860    76.0550     7.5860     6.5630     9.6980    26.7560   -16.4040 
   87.8750     2.1880    77.7970     7.6620     6.5630     9.3440    26.8300   -15.9720 
   88.0000     2.1880    79.7280     7.7630     6.5940     9.0920    26.8560   -15.5810 
   88.1250     2.1790    80.4570     7.9100     6.6740     9.1500    26.9940   -15.2620 
   88.2500     2.1630    78.1110     8.1040     6.8040     9.3780    27.2430   -14.9930 
   88.3750     2.1500    74.7450     8.3250     6.9740     9.6500    27.4840   -14.7520 
   88.5000     2.1520    72.7770     8.5180     7.1520     9.9270    27.6490   -14.4930 
   88.6250     2.1780    72.2160     8.5940     7.2740     9.5940    27.6910   -14.2480 
   88.7500     2.2130    72.9890     8.5230     7.2970     8.8720    27.6230   -13.9900 
   88.8750     2.2420    78.0480     8.3130     7.2080     8.1090    27.4060   -13.7090 
   89.0000     2.2540    84.8280     8.0070     7.0250     7.8810    26.9820   -13.3800 
   89.1250     2.2490    86.3440     7.6730     6.7820     8.2550    26.5380   -13.0130 
   89.2500     2.2390    81.8070     7.3660     6.5300     8.4660    26.2550   -12.6260 
   89.3750     2.2320    75.4480     7.1060     6.2890     8.4420    26.1010   -12.2200 
   89.5000     2.2310    72.6880     6.8890     6.0680     8.2390    26.0410   -11.8150 
   89.6250     2.2340    75.4170     6.7080     5.8700     8.0430    26.0940   -11.4100 
   89.7500     2.2370    80.1290     6.5470     5.6920     7.8140    26.2570   -11.0320 
   89.8750     2.2380    83.3090     6.3960     5.5300     7.3050    26.4770   -10.6930 
   90.0000     2.2370    85.9030     6.2500     5.3830     6.8510    26.6670   -10.4130 
   90.1250     2.2370    87.9890     6.1160     5.2540     6.6480    26.7330   -10.2170 
   90.2500     2.2390    86.3010     6.0230     5.1570     6.5630    26.6680   -10.1330 
   90.3750     2.2450    83.1240     6.0080     5.1170     6.4960    26.4780   -10.2290 
   90.5000     2.2510    82.2450     6.1010     5.1560     6.3990    26.2040   -10.5200 
   90.6250     2.2510    83.7920     6.3200     5.2970     6.5680    25.8310   -11.0730 
   90.7500     2.2440    82.2740     6.6110     5.5090     7.1100    25.4770   -11.7550 
   90.8750     2.2320    78.0760     6.9340     5.7680     7.7440    25.2880   -12.4890 
   91.0000     2.2200    75.0410     7.2590     6.0490     8.1250    25.2960   -13.2360 
   91.1250     2.2110    74.1960     7.5680     6.3290     8.2350    25.4000   -13.9480 
   91.2500     2.2050    73.8850     7.8410     6.5820     8.2670    25.5440   -14.5780 
   91.3750     2.2010    72.1880     8.0450     6.7810     8.3260    25.7500   -15.0950 
   91.5000     2.1990    69.8430     8.1350     6.8940     8.3900    25.9730   -15.4680 
   91.6250     2.1980    70.0240     8.0530     6.8770     8.3410    26.0850   -15.6330 
   91.7500     2.2020    72.4580     7.8380     6.7520     8.2610    26.1560   -15.6690 
   91.8750     2.2110    74.2900     7.5490     6.5520     8.1330    26.1620   -15.6250 
   92.0000     2.2260    73.8850     7.2780     6.3380     8.0440    26.1190   -15.5560 
   92.1250     2.2430    74.7400     7.1470     6.1960     8.0280    26.0900   -15.5260 
   92.2500     2.2560    77.5660     7.1990     6.1810     8.0620    26.1210   -15.5460 
   92.3750     2.2590    79.2960     7.4300     6.3150     8.1960    26.3230   -15.5850 
   92.5000     2.2500    76.9000     7.7760     6.5740     8.4480    26.7060   -15.6120 
   92.6250     2.2260    71.4610     8.1000     6.8810     8.7080    26.9140   -15.5790 
   92.7500     2.1980    68.6220     8.2630     7.1060     8.8320    26.7840   -15.5020 
   92.8750     2.1730    68.5900     8.1850     7.1590     8.8340    26.6010   -15.3830 
   93.0000     2.1580    70.1320     7.8730     7.0040     8.7690    26.4600   -15.1660 
   93.1250     2.1560    74.2910     7.4160     6.6700     8.5870    26.3280   -14.8090 
   93.2500     2.1540    79.8000     6.9900     6.2980     8.1830    26.2300   -14.4080 
   93.3750     2.1450    82.1680     6.7060     5.9930     7.6510    26.2210   -14.0070 
   93.5000     2.1310    78.8510     6.6120     5.8190     7.4880    26.2580   -13.6440 
   93.6250     2.1300    74.8180     6.7180     5.8130     7.8630    26.1340   -13.3770 
   93.7500     2.1490    74.2700     6.9520     5.9250     8.4570    25.8080   -13.2070 
   93.8750     2.1810    76.5610     7.3200     6.1460     9.3880    25.4680   -13.1510 
   94.0000     2.2120    78.6070     7.8840     6.5080    10.5940    25.3160   -13.2110 
   94.1250     2.2360    78.2380     8.7650     7.1090    11.3130    25.3730   -13.3510 
   94.2500     2.2710    76.2790     9.8830     7.9380    12.8380    25.5130   -13.4620 
   94.3750     2.3270    73.4840    11.0330     8.8960    16.3690    25.6780   -13.5270 
   94.5000     2.3950    70.9890    11.8670     9.7460    22.7090    25.8140   -13.5750 
   94.6250     2.4350    69.5160    11.9070    10.0790    32.9220    25.8800   -13.6190 
   94.7500     2.4260    69.1130    11.2060     9.8050    41.1030    25.9550   -13.6380 
   94.8750     2.3710    68.2780    10.0480     9.0560    35.5850    26.0240   -13.6190 
