~V
VERS. 2.00: Ver 2.00
~W
STRT.M 58.0000:
STOP.M 277.0000:
STEP.M 0.1250:
NULL. -999.2500:
UWI. F11038:
~C
DEPT.M :
GR.API :
RML.OHMM :
RI. :
RXO.OHMM :
CALI.CM :
DEN.GM/CC :
SP.MV :
~A
# ...
  249.2500    90.8130    65.9010    66.7200   192.7000    24.2560     2.5320   -18.6010 
  249.3750    78.3790    46.8110    44.9000    93.1250    24.1850     2.4360   -17.2130 
  249.5000    64.1080    28.9650    26.3520    27.7170    24.1210     2.3330   -15.6030 
  249.6250    56.0560    17.5180    15.8100    10.6620    24.1040     2.2660   -13.8170 
  249.7500    54.0690    10.9320    10.1930     6.2840    24.1530     2.2380   -12.0080 
  249.8750    54.3910     7.5510     7.3990     5.2090    24.2250     2.2400   -10.2920 
  250.0000    54.0630     6.1310     6.1330     5.0780    24.2550     2.2540    -8.6990 
  250.1250    53.8150     5.8860     5.8100     5.0890    24.2910     2.2620    -7.3740 
  250.2500    53.6050     6.0480     5.8960     5.0910    24.2930     2.2620    -6.3500 
  250.3750    52.0400     6.3180     6.1510     5.0900    24.2360     2.2550    -5.5830 
  250.5000    50.3090     6.5580     6.4170     5.1080    24.1140     2.2510    -5.0310 
  250.6250    52.6070     6.7060     6.5940     5.1030    23.9320     2.2540    -4.6560 
  250.7500    55.2420     6.7720     6.6760     5.0680    23.7750     2.2620    -4.3630 
  250.8750    54.7920     6.7730     6.6770     5.0330    23.7090     2.2720    -4.1430 
  251.0000    54.9230     6.7290     6.6200     5.0300    23.7070     2.2780    -3.9810 
  251.1250    56.9640     6.6650     6.5190     5.0390    23.7240     2.2780    -3.8020 
  251.2500    57.3670     6.6090     6.4010     5.0480    23.7690     2.2770    -3.5980 
  251.3750    56.1990     6.5800     6.2770     5.0510    23.8320     2.2760    -3.4430 
  251.5000    57.3240     6.5850     6.1600     5.0420    23.8500     2.2780    -3.3320 
  251.6250    57.9910     6.6220     6.0580     5.0740    23.8240     2.2820    -3.2270 
  251.7500    54.8630     6.6730     5.9720     5.0520    23.8670     2.2850    -3.1120 
  251.8750    52.5500     6.7240     5.8970     5.0610    24.0330     2.2870    -2.9680 
  252.0000    53.8910     6.7660     5.8320     5.0220    24.2320     2.2860    -2.8140 
  252.1250    56.0890     6.7980     5.7790     5.1080    24.3460     2.2860    -2.6700 
  252.2500    56.6000     6.8340     5.7410     5.1500    24.3870     2.2890    -2.5320 
  252.3750    56.4010     6.8860     5.7230     5.1290    24.3950     2.2950    -2.3840 
  252.5000    56.3800     6.9610     5.7250     5.0950    24.3790     2.3030    -2.2430 
  252.6250    56.6930     7.0590     5.7430     5.1560    24.3460     2.3090    -2.1670 
  252.7500    58.6030     7.1580     5.7650     5.2960    24.3480     2.3110    -2.1660 
  252.8750    60.0840     7.2410     5.7820     5.4160    24.3890     2.3090    -2.1980 
  253.0000    59.2890     7.3000     5.7870     5.4320    24.4600     2.3060    -2.2170 
  253.1250    57.0710     7.3360     5.7810     5.4850    24.5310     2.3060    -2.2640 
  253.2500    56.9730     7.3620     5.7720     5.7280    24.5380     2.3110    -2.3410 
  253.3750    59.8940     7.3900     5.7680     6.1290    24.4990     2.3190    -2.4220 
  253.5000    62.6550     7.4300     5.7740     5.9700    24.5110     2.3260    -2.4960 
  253.6250    63.0980     7.4870     5.7970     5.8840    24.5940     2.3270    -2.5380 
  253.7500    62.9460     7.5600     5.8330     5.8090    24.6600     2.3250    -2.5450 
  253.8750    64.1970     7.6430     5.8800     5.9630    24.6880     2.3220    -2.5420 
  254.0000    65.2430     7.7290     5.9300     6.3600    24.7050     2.3230    -2.5480 
  254.1250    64.0270     7.8030     5.9740     6.6340    24.6990     2.3270    -2.5270 
  254.2500    64.5690     7.8630     6.0100     6.7640    24.7070     2.3300    -2.4770 
  254.3750    67.5480     7.9140     6.0380     6.7370    24.7120     2.3310    -2.3920 
  254.5000    69.6830     7.9670     6.0630     6.6760    24.6910     2.3320    -2.2690 
  254.6250    70.0150     8.0320     6.0940     6.6190    24.6720     2.3360    -2.1250 
  254.7500    71.3250     8.1060     6.1300     6.6130    24.6710     2.3430    -1.9940 
  254.8750    71.5100     8.1770     6.1670     6.6910    24.6750     2.3500    -1.8770 
  255.0000    68.4350     8.2320     6.1970     6.8280    24.6740     2.3530    -1.7570 
  255.1250    65.7850     8.2660     6.2110     6.9440    24.6680     2.3520    -1.6320 
  255.2500    66.1320     8.2930     6.2130     6.9520    24.6760     2.3510    -1.5430 
  255.3750    66.0660     8.3360     6.2170     6.9470    24.6810     2.3510    -1.5130 
  255.5000    65.4560     8.4160     6.2420     6.9620    24.6870     2.3540    -1.5630 
  255.6250    68.2360     8.5500     6.3060     7.0250    24.6930     2.3570    -1.6570 
  255.7500    71.0980     8.7090     6.3980     7.1650    24.6940     2.3590    -1.7220 
  255.8750    70.1440     8.8590     6.5010     7.3400    24.6850     2.3620    -1.7330 
  256.0000    67.0150     8.9670     6.5970     7.5440    24.6810     2.3660    -1.6860 
  256.1250    66.5010     9.0330     6.6850     7.2770    24.6830     2.3680    -1.6260 
  256.2500    67.7980     9.1210     6.7980     7.2990    24.6940     2.3680    -1.5470 
  256.3750    69.0070     9.3100     6.9820     7.4330    24.7150     2.3670    -1.4380 
  256.5000    69.5210     9.6500     7.2730     7.6600    24.7220     2.3680    -1.2710 
  256.6250    66.8870    10.1250     7.6830     7.9800    24.7110     2.3750    -1.1120 
  256.7500    63.0710    10.5750     8.1090     8.3490    24.7080     2.3850    -0.9790 
  256.8750    62.0060    10.8320     8.4170     8.8180    24.7110     2.3970    -0.8950 
  257.0000    64.2720    10.7690     8.4770     9.0950    24.7270     2.4060    -0.8630 
  257.1250    65.5740    10.3260     8.1970     9.0400    24.7250     2.4090    -0.8720 
  257.2500    63.2860     9.7040     7.7290     9.0620    24.7020     2.4070    -0.8890 
  257.3750    59.6560     9.0890     7.2270     9.2380    24.6700     2.4000    -0.9000 
  257.5000    57.3340     8.6410     6.8250     9.2850    24.6630     2.3900    -0.8950 
  257.6250    59.2480     8.4790     6.6280     9.0590    24.6660     2.3780    -0.8380 
  257.7500    64.3240     8.5370     6.6130     9.1640    24.6420     2.3640    -0.7490 
  257.8750    67.9880     8.7300     6.7350     9.4370    24.5930     2.3520    -0.6460 
  258.0000    67.6260     8.9600     6.9270     9.5100    24.5480     2.3440    -0.5320 
  258.1250    65.0780     9.1320     7.1110     8.9990    24.5660     2.3400    -0.4040 
  258.2500    63.3520     9.2160     7.2360     8.3050    24.5860     2.3390    -0.2920 
  258.3750    63.8140     9.2110     7.2890     7.9570    24.5850     2.3410    -0.2150 
  258.5000    66.2360     9.1370     7.2780     7.8620    24.5870     2.3460    -0.2080 
  258.6250    69.4320     9.0190     7.2200     7.9270    24.5750     2.3550    -0.2700 
  258.7500    70.1900     8.8990     7.1530     7.9610    24.5780     2.3680    -0.3700 
  258.8750    68.5700     8.8010     7.0960     8.0540    24.6080     2.3790    -0.4370 
  259.0000    67.1810     8.7390     7.0620     8.1080    24.6490     2.3850    -0.4670 
  259.1250    67.5940     8.7220     7.0590     7.8240    24.6230     2.3850    -0.4800 
  259.2500    69.0650     8.7390     7.0790     7.3870    24.5130     2.3830    -0.5130 
  259.3750    70.3850     8.7870     7.1210     7.0250    24.3940     2.3820    -0.5310 
  259.5000    69.8440     8.8630     7.1820     6.8740    24.3380     2.3850    -0.4930 
  259.6250    68.5720     8.9680     7.2660     6.8710    24.3440     2.3950    -0.4090 
  259.7500    67.5480     9.0870     7.3690     6.9020    24.3610     2.4110    -0.2730 
  259.8750    66.9820     9.2090     7.4860     6.7970    24.3910     2.4280    -0.1320 
  260.0000    67.4330     9.3240     7.6090     6.7140    24.4380     2.4430     0.0120 
  260.1250    69.2240     9.4340     7.7420     7.8860    24.4370     2.4510     0.1790 
  260.2500    70.3120     9.5590     7.8920    10.5590    24.4120     2.4520     0.3690 
  260.3750    68.9350     9.7140     8.0670    13.1410    24.3940     2.4490     0.5680 
