~V
VERS. 2.00: Ver 2.00
~W
STRT.M 53.0000:
STOP.M 287.0000:
STEP.M 0.1250:
NULL. -999.2500:
UWI. F11059:
~C
DEPT.M :
GR.API :
RML.OHMM :
RI. :
RXO.OHMM :
CALI.CM :
DEN.GM/CC :
SP.MV :
~A
# ...
  188.0000    68.6510    55.7580    54.5390    55.4310    24.9810     2.2910   -12.9260 
  188.1250    68.4640    55.5520    55.7260    43.5430    24.9760     2.2860   -12.9600 
  188.2500    67.2580    58.6420    60.9410    46.3980    25.0010     2.2730   -12.9980 
  188.3750    65.1660    66.1180    70.8590    63.0360    24.9980     2.2580   -13.0240 
  188.5000    63.5780    76.5920    83.1440    86.8080    24.9540     2.2460   -13.0560 
  188.6250    64.4650    87.8000    94.3410   112.8290    24.8720     2.2410   -13.0870 
  188.7500    67.8270    96.2940   100.2190   125.7020    24.7830     2.2410   -13.1130 
  188.8750    71.6270    97.9130    97.5830   114.9420    24.7350     2.2480   -13.1370 
  189.0000    73.5470    93.7010    90.3690    93.6860    24.7320     2.2570   -13.1560 
  189.1250    74.2230    86.5760    82.6420    81.9570    24.7460     2.2670   -13.1890 
  189.2500    74.3460    80.0480    77.2930    77.3670    24.7530     2.2750   -13.2280 
  189.3750    72.7470    77.1500    76.2520    72.1490    24.7590     2.2770   -13.2540 
  189.5000    68.1290    78.0590    78.9620    80.7390    24.7870     2.2750   -13.2760 
  189.6250    62.4390    82.3580    84.7290   100.6860    24.8390     2.2700   -13.2820 
  189.7500    60.0820    89.0530    92.2520   116.9720    24.8840     2.2670   -13.2940 
  189.8750    60.8640    96.5870    99.5250   118.2380    24.8950     2.2660   -13.3200 
  190.0000    61.3490   103.0810   104.9750   117.4250    24.8900     2.2650   -13.3420 
  190.1250    60.8520   107.5840   108.2780   114.3010    24.8890     2.2600   -13.3480 
  190.2500    60.6530   110.0720   110.1090   111.9360    24.8950     2.2520   -13.3600 
  190.3750    61.6170   111.3070   111.6290   114.1960    24.9090     2.2410   -13.4130 
  190.5000    63.4900   112.6150   113.6110   120.9700    24.9090     2.2320   -13.4810 
  190.6250    65.4440   114.5580   116.0300   129.6100    24.8800     2.2270   -13.5490 
  190.7500    64.3210   117.0180   118.3210   141.0450    24.8840     2.2260   -13.6020 
  190.8750    60.1210   118.7730   118.7490   148.7050    24.8880     2.2290   -13.6530 
  191.0000    59.2340   118.1090   115.7030   146.6030    24.8930     2.2340   -13.7080 
  191.1250    62.2230   113.6810   108.3920   139.4720    24.8940     2.2430   -13.7780 
  191.2500    65.0900   105.3800    97.8010   141.6300    24.8990     2.2570   -13.8540 
  191.3750    65.0420    94.7320    86.7780   121.0810    24.9030     2.2720   -13.9020 
  191.5000    63.7120    84.9960    78.4210    84.4570    24.9150     2.2840   -13.9350 
  191.6250    62.1430    78.4320    74.4440    65.9930    24.9330     2.2870   -13.9620 
  191.7500    60.3120    76.4180    75.5660    68.1060    24.9490     2.2830   -13.9780 
  191.8750    59.7790    80.2850    82.4090    91.2020    24.9690     2.2740   -13.9780 
  192.0000    60.9210    88.7300    92.8470   124.5360    24.9910     2.2650   -13.9530 
  192.1250    62.2570   100.3000   104.4280   149.0980    25.0030     2.2590   -13.8840 
  192.2500    63.5560   112.4500   113.8900   150.4700    25.0110     2.2570   -13.7810 
  192.3750    65.5090   121.2830   117.6490   138.9250    25.0280     2.2580   -13.6380 
  192.5000    67.5310   125.1010   116.3740   122.9370    25.0280     2.2610   -13.4470 
  192.6250    68.3170   124.0550   111.6660   111.2750    25.0150     2.2660   -13.2420 
  192.7500    66.8220   119.5620   105.1370   102.7600    25.0010     2.2720   -13.0360 
  192.8750    64.4510   112.9450    97.5850   102.3790    24.9940     2.2750   -12.8180 
  193.0000    63.6150   105.4690    89.7250    95.8420    24.9930     2.2770   -12.6050 
  193.1250    64.6780    97.7930    82.3960    78.1210    24.9990     2.2780   -12.4140 
  193.2500    66.0750    90.8700    76.7170    64.5890    25.0170     2.2800   -12.2620 
  193.3750    65.9000    86.4440    74.3100    53.7860    25.0330     2.2830   -12.1520 
  193.5000    65.3260    85.3840    75.4450    52.5300    25.0330     2.2840   -12.0950 
  193.6250    65.0070    88.2420    80.1750    61.9680    25.0340     2.2800   -12.0530 
  193.7500    64.1270    94.7830    87.6450    83.1920    25.0440     2.2700   -11.9960 
  193.8750    60.9700   103.5280    95.3250   106.3770    25.0660     2.2590   -11.9540 
  194.0000    59.0270   110.7730    99.5500   118.9780    25.0930     2.2510   -11.9370 
  194.1250    60.9190   113.2250    97.8600   113.6270    25.1020     2.2520   -11.9260 
  194.2500    64.8470   109.1650    90.3250    97.1460    25.0900     2.2620   -11.9060 
  194.3750    67.1890    99.2000    79.7380    81.8020    25.0550     2.2800   -11.8840 
  194.5000    67.8630    87.8900    70.1960    71.9460    25.0060     2.2960   -11.8610 
  194.6250    68.7090    78.3400    63.4470    64.3680    24.9750     2.3060   -11.8610 
  194.7500    70.0790    72.2070    59.8970    57.5830    24.9710     2.3060   -11.8840 
  194.8750    69.8870    69.5530    59.5180    59.7820    24.9890     2.2980   -11.8960 
  195.0000    67.5180    68.6210    60.8860    70.9520    24.9970     2.2890   -11.8930 
  195.1250    64.2080    68.7420    62.9700    77.6590    24.9950     2.2860   -11.8830 
  195.2500    63.2760    69.6030    64.9160    74.8100    24.9950     2.2890   -11.8630 
  195.3750    65.3750    70.6360    66.2320    71.4990    24.9980     2.2980   -11.8130 
  195.5000    66.9480    71.4800    67.2400    67.9590    24.9910     2.3060   -11.7490 
  195.6250    67.2520    72.6910    68.4270    69.3940    24.9780     2.3070   -11.6630 
  195.7500    66.6750    74.5030    70.0920    81.3310    24.9760     2.3000   -11.5870 
  195.8750    66.3380    76.2880    72.0570    95.7190    24.9700     2.2880   -11.5110 
  196.0000    65.7070    77.7920    73.7260    98.0550    24.9640     2.2780   -11.4150 
  196.1250    65.1430    79.3390    74.8550    90.7140    24.9680     2.2730   -11.3190 
  196.2500    65.2310    80.9440    75.6460    87.6750    24.9540     2.2750   -11.2330 
  196.3750    65.3270    81.8320    76.5940    89.0200    24.9110     2.2830   -11.1620 
  196.5000    65.0410    82.0220    77.8570    91.0930    24.8600     2.2960   -11.0900 
  196.6250    64.1540    81.8980    78.9410    92.4650    24.8340     2.3140   -11.0120 
  196.7500    62.5320    81.4850    78.6070    92.7400    24.8210     2.3330   -10.9080 
  196.8750    59.6390    80.0340    74.3520    91.0580    24.8150     2.3460   -10.8030 
  197.0000    58.3180    75.6680    65.5980    79.9660    24.8140     2.3500   -10.7070 
  197.1250    61.4000    66.5720    53.4700    62.5080    24.8150     2.3440   -10.6040 
  197.2500    68.3560    53.3960    40.7990    46.6610    24.7890     2.3340   -10.4960 
  197.3750    75.2910    40.1730    30.8660    30.7480    24.7500     2.3300   -10.3900 
  197.5000    80.6020    30.4150    24.2740    18.1530    24.7430     2.3380   -10.3000 
  197.6250    84.7400    24.3170    20.6800    12.7300    24.7730     2.3520   -10.2310 
  197.7500    88.1680    21.1310    19.4880    12.0320    24.7850     2.3660   -10.1910 
  197.8750    88.7760    20.5970    20.4340    15.2430    24.7670     2.3710   -10.1680 
  198.0000    86.3210    21.7540    22.5800    19.7090    24.7610     2.3670   -10.1510 
  198.1250    84.4120    23.7370    24.9680    21.5630    24.7950     2.3620   -10.1480 
  198.2500    84.5470    25.4820    26.2430    24.4410    24.8420     2.3640   -10.1590 
  198.3750    83.6810    25.7410    25.0350    28.3410    24.8240     2.3790   -10.2030 
  198.5000    82.4280    24.4370    22.2890    25.0340    24.7870     2.4010   -10.2750 
  198.6250    82.8680    22.2160    19.4600    16.8720    24.7290     2.4200   -10.3850 
  198.7500    83.3680    20.2390    17.7660    10.7410    24.7240     2.4240   -10.5380 
  198.8750    79.0440    20.2600    18.5890     9.9570    24.7690     2.3990   -10.7470 
  199.0000    73.3370    23.5560    23.2380    13.8380    24.8490     2.3520   -11.0200 
  199.1250    68.7980    32.0250    34.6660    27.0870    24.9670     2.2940   -11.3370 
