~V
VERS. 2.00: Ver 2.00
~W
STRT.M 57.0000:
STOP.M 278.0000:
STEP.M 0.1250:
NULL. -999.2500:
UWI. F11043:
~C
DEPT.M :
SP.MV :
GR.API :
RML.OHMM :
RI. :
RXO.OHMM :
CALI.CM :
DEN.GM/CC :
~A
# ...
  113.2500   -11.9740   101.0480     6.8130     5.3210     5.6750    24.0400     2.3420 
  113.3750   -12.0260   105.4530     6.3240     4.9370     5.1880    24.0420     2.3380 
  113.5000   -12.0740   109.1550     6.0350     4.6610     5.1410    24.0580     2.3520 
  113.6250   -12.1690   112.2630     5.8810     4.4830     5.4720    24.0540     2.3630 
  113.7500   -12.2960   109.4310     5.7330     4.3220     5.5890    24.0400     2.3690 
  113.8750   -12.4330   102.8040     5.5500     4.1390     5.0580    24.0420     2.3770 
  114.0000   -12.5670   100.8710     5.3450     3.9340     4.4210    24.0610     2.3860 
  114.1250   -12.7230   105.8000     5.1580     3.7340     4.1430    24.0650     2.3950 
  114.2500   -12.9730   109.1460     5.0220     3.5660     4.1820    24.0550     2.4000 
  114.3750   -13.3190   110.4260     4.9520     3.4460     4.2650    24.0470     2.4020 
  114.5000   -13.7260   112.5770     4.9480     3.3790     4.3330    24.0610     2.4010 
  114.6250   -14.1540   114.3310     5.0160     3.3800     4.3370    24.0650     2.3920 
  114.7500   -14.6310   112.9860     5.1940     3.4670     4.3800    24.0520     2.3780 
  114.8750   -15.1960   108.0610     5.5830     3.6940     4.5450    24.0390     2.3630 
  115.0000   -15.8850    99.5320     6.2860     4.1200     4.9110    24.0410     2.3510 
  115.1250   -16.7130    91.7340     7.3950     4.8210     5.5420    24.0560     2.3490 
  115.2500   -17.5810    87.8810     8.7190     5.7180     6.6230    24.0510     2.3590 
  115.3750   -18.4580    86.6390     9.9680     6.6650     8.2620    24.0420     2.3810 
  115.5000   -19.3560    84.4870    10.7730     7.4220    10.1100    24.0420     2.4050 
  115.6250   -20.2790    80.7150    10.8160     7.6980    10.2670    24.0610     2.4030 
  115.7500   -21.1620    78.0800    10.3840     7.5770    10.0040    24.0620     2.3620 
  115.8750   -21.9260    75.4190     9.8190     7.2460     9.7270    24.0480     2.2950 
  116.0000   -22.4980    71.8930     9.3830     6.9000     9.7480    24.0440     2.2320 
  116.1250   -22.8080    70.0190     9.2260     6.6880     9.8600    24.0610     2.1930 
  116.2500   -22.9060    70.3470     9.2580     6.6120     9.7940    24.0630     2.1740 
  116.3750   -22.8130    70.0280     9.3760     6.6310     9.7270    24.0520     2.1680 
  116.5000   -22.5150    68.8450     9.4960     6.6940     9.7860    24.0470     2.1730 
  116.6250   -21.9820    69.4420     9.5390     6.7370     9.6840    24.0680     2.1850 
  116.7500   -21.2630    70.8520     9.4530     6.7040     9.4220    24.0970     2.2010 
  116.8750   -20.3980    71.9550     9.1920     6.5560     9.3340    24.1400     2.2170 
  117.0000   -19.4250    73.2820     8.7560     6.2810     9.3950    24.1560     2.2350 
  117.1250   -18.4350    76.0590     8.1840     5.8970     8.6240    24.1360     2.2520 
  117.2500   -17.5360    81.8100     7.6040     5.4850     7.0980    24.1360     2.2690 
  117.3750   -16.7330    89.6840     7.1090     5.1060     5.9110    24.1580     2.2820 
  117.5000   -15.9760    95.0920     6.7510     4.7990     5.4700    24.1690     2.2830 
  117.6250   -15.2700    93.8700     6.5440     4.5940     5.4230    24.1550     2.2700 
  117.7500   -14.6900    89.4200     6.4190     4.4690     5.3370    24.1450     2.2570 
  117.8750   -14.3020    86.7320     6.3410     4.4080     5.3150    24.1340     2.2540 
  118.0000   -14.1550    88.0020     6.3150     4.4060     5.2540    24.1170     2.2570 
  118.1250   -14.2400    91.5930     6.4210     4.5000     5.1910    24.1200     2.2580 
  118.2500   -14.3800    92.0960     6.7120     4.7150     5.2700    24.1340     2.2570 
  118.3750   -14.5250    86.9510     7.1920     5.0620     5.6900    24.1340     2.2540 
  118.5000   -14.7030    81.5210     7.7750     5.5020     6.5080    24.1200     2.2480 
  118.6250   -14.8920    81.5780     8.2440     5.9100     7.4080    24.1210     2.2400 
  118.7500   -15.0410    83.9580     8.3950     6.1250     7.8190    24.1300     2.2310 
  118.8750   -15.1170    85.0150     8.1310     6.0490     7.7370    24.1280     2.2270 
  119.0000   -15.0980    84.2720     7.5140     5.6880     7.2110    24.1160     2.2340 
  119.1250   -14.9390    86.6920     6.7260     5.1460     6.3300    24.1210     2.2540 
  119.2500   -14.7040    94.0550     5.9990     4.5940     5.3920    24.1350     2.2760 
  119.3750   -14.4830   101.6760     5.4230     4.1150     4.8090    24.1340     2.2960 
  119.5000   -14.3460   104.7020     5.0260     3.7440     4.3530    24.1150     2.3170 
  119.6250   -14.3320   104.2980     4.8660     3.5330     4.1310    24.1040     2.3420 
  119.7500   -14.3850   105.1750     4.9450     3.4890     4.1780    24.1090     2.3680 
  119.8750   -14.4840   103.2090     5.2860     3.6300     4.4260    24.1250     2.3810 
  120.0000   -14.6440    95.8570     5.8770     3.9540     4.9510    24.1300     2.3710 
  120.1250   -14.9260    86.7010     6.6380     4.4380     6.4940    24.0940     2.3320 
  120.2500   -15.3600    80.1390     7.3270     4.9420    10.2300    24.0530     2.2810 
  120.3750   -15.8730    77.0510     7.7090     5.3150    12.1820    24.0490     2.2340 
  120.5000   -16.3580    75.7640     7.6440     5.4320     8.5630    24.0610     2.2020 
  120.6250   -16.7600    75.6560     7.2140     5.2780     6.7590    24.0600     2.1960 
  120.7500   -17.1570    77.0150     6.8320     5.0840     6.2520    24.0450     2.2090 
  120.8750   -17.5940    80.2810     6.8030     5.0500     6.2760    24.0460     2.2330 
  121.0000   -18.1020    82.7700     7.2890     5.3130     6.4290    24.0640     2.2620 
  121.1250   -18.6750    80.2050     8.3050     5.9470     6.7880    24.0670     2.2940 
  121.2500   -19.2120    74.6680     9.4420     6.7510     8.0460    24.0540     2.3370 
  121.3750   -19.6530    68.2780    10.2580     7.4570     9.2970    24.0450     2.3890 
  121.5000   -20.0410    62.9230    10.4220     7.8030     9.6200    24.0590     2.4280 
  121.6250   -20.4220    62.3390     9.9360     7.6860     9.3340    24.0690     2.3990 
  121.7500   -20.7760    65.9530     9.3640     7.4050     9.0720    24.0650     2.3180 
  121.8750   -21.0520    71.3680     9.0790     7.2010     8.9820    24.0470     2.2400 
  122.0000   -21.1750    74.5900     9.1840     7.1820     9.1040    24.0340     2.1990 
  122.1250   -21.0620    72.3140     9.4690     7.2730     9.3500    24.0440     2.1930 
  122.2500   -20.7840    68.0060     9.4910     7.2170     9.3640    24.0560     2.1940 
  122.3750   -20.4330    68.7050     8.9720     6.8270     8.8620    24.0450     2.1920 
  122.5000   -20.0690    78.0750     7.9170     6.0850     7.6440    24.0350     2.1950 
  122.6250   -19.7070    89.0300     6.6230     5.1620     5.9870    24.0530     2.2100 
  122.7500   -19.3660    93.9340     5.5270     4.3320     4.7450    24.0800     2.2350 
  122.8750   -19.0850    91.5690     4.8470     3.7380     4.3230    24.0900     2.2600 
  123.0000   -18.9080    87.5060     4.6570     3.4480     4.2100    24.0960     2.2810 
  123.1250   -18.9230    86.7440     5.0160     3.5350     4.3630    24.1360     2.2930 
  123.2500   -19.1610    86.1020     5.7680     3.9360     5.1550    24.1210     2.2930 
  123.3750   -19.6130    82.5210     6.7840     4.5950     6.6340    24.0800     2.2770 
  123.5000   -20.1760    76.0080     7.8790     5.4120     7.6530    24.0460     2.2500 
  123.6250   -20.7450    71.8020     8.7920     6.2190     7.9850    24.0520     2.2270 
  123.7500   -21.2770    70.9900     9.4000     6.8640     8.1720    24.0630     2.2160 
  123.8750   -21.7910    71.5160     9.7040     7.2920     8.4020    24.0610     2.2100 
  124.0000   -22.3110    71.9130     9.8000     7.5230     8.6840    24.0450     2.2020 
  124.1250   -22.8170    71.2590     9.8050     7.5990     8.9500    24.0490     2.1880 
  124.2500   -23.2010    70.1950     9.7920     7.5890     9.0320    24.0550     2.1730 
  124.3750   -23.4120    68.9360     9.7590     7.5110     9.0130    24.0470     2.1640 
