~V
VERS. 2.00: Ver 2.00
~W
STRT.M 50.0000:
STOP.M 229.0000:
STEP.M 0.1250:
NULL. -999.2500:
UWI. F11009:
~C
DEPT.M :
DEN.GM/CC :
GR.API :
RML.OHMM :
RI. :
RXO.OHMM :
CALI.CM :
SP.MV :
~A
# ...
  128.7500     2.3280    96.8220     7.4360     6.2570     6.3280    27.0020   -10.9600 
  128.8750     2.3000    92.2030     8.2790     6.8500     6.7250    27.2620   -11.2150 
  129.0000     2.2600    86.0600     9.4210     7.7370     7.8780    27.5940   -11.4820 
  129.1250     2.2140    82.0910    10.5920     8.7680     9.5890    28.0090   -11.6780 
  129.2500     2.1740    81.2020    11.3530     9.5580    11.3400    28.3800   -11.7620 
  129.3750     2.1510    82.7730    11.3870     9.7690    12.7590    28.5200   -11.6940 
  129.5000     2.1530    84.8780    10.6670     9.2790    12.7940    28.3100   -11.4940 
  129.6250     2.1780    82.9830     9.5250     8.2770    10.8470    27.8720   -11.1990 
  129.7500     2.2120    80.6850     8.6110     7.3140     8.5290    27.5970   -10.8690 
  129.8750     2.2420    82.7780     8.3530     6.7550     7.3810    27.4930   -10.5110 
  130.0000     2.2700    87.8180     9.0210     6.8380     7.4180    27.4590   -10.1430 
  130.1250     2.3100    88.2610    10.9340     7.8700     8.8870    27.4350    -9.7700 
  130.2500     2.3720    82.2260    13.8630     9.8180    12.3180    27.4360    -9.4360 
  130.3750     2.4510    74.9900    17.4820    12.6150    17.4810    27.3530    -9.1480 
  130.5000     2.5290    71.3260    21.1560    15.8990    22.9430    27.2300    -8.9110 
  130.6250     2.5800    69.5960    23.8500    18.8480    25.7390    27.1290    -8.7330 
  130.7500     2.5940    66.9120    25.1050    20.7530    25.6970    27.0640    -8.5740 
  130.8750     2.5790    63.5820    24.9630    21.3850    25.4260    27.0100    -8.4160 
  131.0000     2.5500    62.2160    23.8990    20.9870    24.6930    26.9220    -8.2510 
  131.1250     2.5230    62.7820    22.5480    20.0350    22.1630    26.8310    -8.1360 
  131.2500     2.5090    62.3430    21.4240    19.0730    19.9900    26.7920    -8.0490 
  131.3750     2.5110    61.3530    20.7010    18.3250    18.8330    26.7790    -7.9910 
  131.5000     2.5270    61.4870    20.3870    17.8730    18.0950    26.7630    -7.9360 
  131.6250     2.5470    62.7620    20.3960    17.7270    17.6540    26.7260    -7.8640 
  131.7500     2.5630    62.3080    20.4790    17.7200    17.1730    26.6880    -7.7820 
  131.8750     2.5690    59.6570    20.4690    17.7190    17.1400    26.6240    -7.7050 
  132.0000     2.5660    59.3460    20.2600    17.6170    17.4100    26.5440    -7.6600 
  132.1250     2.5570    64.7980    19.8050    17.3400    17.8510    26.4610    -7.6610 
  132.2500     2.5490    70.6950    19.2260    16.9430    17.3200    26.4160    -7.6690 
  132.3750     2.5420    70.8260    18.6320    16.4980    16.2930    26.3810    -7.7050 
  132.5000     2.5370    65.2420    18.1300    16.0880    15.3480    26.3600    -7.7920 
  132.6250     2.5320    62.0990    17.8390    15.8200    15.1520    26.3450    -7.9490 
  132.7500     2.5240    64.8920    17.7860    15.7410    14.6130    26.3250    -8.1500 
  132.8750     2.5150    68.9910    17.9860    15.8810    13.9700    26.2960    -8.3700 
  133.0000     2.5040    69.5900    18.3920    16.2300    13.9010    26.2640    -8.5650 
  133.1250     2.4960    67.5890    18.8620    16.7020    14.6260    26.2320    -8.7240 
  133.2500     2.4900    66.8820    19.1750    17.1020    15.6430    26.2160    -8.8850 
  133.3750     2.4890    66.5540    19.1840    17.2700    16.4760    26.2110    -9.0140 
  133.5000     2.4910    65.1330    18.8670    17.1280    17.1640    26.2040    -9.0990 
  133.6250     2.4950    62.8600    18.3440    16.7190    16.9560    26.1790    -9.1310 
  133.7500     2.5000    61.0740    17.8900    16.2780    15.6180    26.1620    -9.1150 
  133.8750     2.5060    59.2610    17.6700    15.9790    14.2300    26.1490    -9.0520 
  134.0000     2.5120    57.8470    17.7330    15.9100    14.3430    26.1310    -8.9670 
  134.1250     2.5160    56.8570    18.0190    16.0700    15.8140    26.1100    -8.8810 
  134.2500     2.5160    57.2930    18.3430    16.3110    17.2560    26.1190    -8.7940 
  134.3750     2.5110    59.9000    18.6110    16.5350    18.2360    26.1270    -8.7270 
  134.5000     2.5050    62.2550    18.8140    16.7030    18.2880    26.1000    -8.6780 
  134.6250     2.5030    61.3170    19.0300    16.8520    17.4240    26.0410    -8.6450 
  134.7500     2.5050    59.3290    19.3510    17.0630    16.9800    25.9970    -8.6210 
  134.8750     2.5110    59.5800    19.8210    17.3900    17.1840    26.0120    -8.6500 
  135.0000     2.5180    60.7350    20.4350    17.8510    17.7520    26.0560    -8.7220 
  135.1250     2.5240    60.5990    21.1750    18.4470    18.4200    26.0820    -8.8230 
  135.2500     2.5260    62.0890    21.9820    19.1270    18.5190    26.0860    -8.9450 
  135.3750     2.5210    65.5790    22.8100    19.8580    18.5770    26.0820    -9.0490 
  135.5000     2.5100    67.8700    23.5850    20.5920    19.7580    26.0780    -9.1490 
  135.6250     2.4990    66.8990    24.1570    21.2210    21.5910    26.0670    -9.2670 
  135.7500     2.4960    65.0580    24.4490    21.6480    21.8240    26.0410    -9.3980 
  135.8750     2.5030    62.3860    24.4280    21.7980    21.6020    26.0160    -9.4580 
  136.0000     2.5180    58.6080    24.1350    21.6630    22.3980    25.9950    -9.4580 
  136.1250     2.5350    55.0550    23.6560    21.2890    22.2730    25.9800    -9.4290 
  136.2500     2.5450    54.1090    23.1360    20.8390    21.4000    25.9870    -9.3920 
  136.3750     2.5460    56.0900    22.6400    20.4080    20.8040    26.0490    -9.3730 
  136.5000     2.5380    58.7970    22.1950    20.0390    21.1700    26.1580    -9.3510 
  136.6250     2.5270    59.9150    21.8140    19.7430    21.0460    26.2040    -9.3180 
  136.7500     2.5170    59.8870    21.4790    19.4870    20.6100    26.1750    -9.2850 
  136.8750     2.5120    60.3800    21.1860    19.2560    20.3400    26.0990    -9.2890 
  137.0000     2.5120    60.7410    20.9400    19.0530    20.3150    26.0470    -9.3260 
  137.1250     2.5140    57.7860    20.7670    18.9030    20.2440    26.0460    -9.3550 
  137.2500     2.5190    52.9070    20.6610    18.8090    19.8440    26.0310    -9.3290 
  137.3750     2.5260    49.4500    20.5890    18.7480    19.1140    26.0060    -9.2550 
  137.5000     2.5350    49.8640    20.5010    18.6760    18.6770    25.9990    -9.1620 
  137.6250     2.5420    51.7450    20.3410    18.5470    18.8060    26.0140    -9.0330 
  137.7500     2.5450    51.2120    20.1190    18.3690    18.9720    26.0410    -8.8890 
  137.8750     2.5460    49.4730    19.8820    18.1750    18.5500    26.0660    -8.7160 
  138.0000     2.5480    49.0180    19.6920    18.0090    17.5640    26.0740    -8.5150 
  138.1250     2.5540    51.7850    19.6040    17.9150    16.9280    26.0770    -8.3040 
  138.2500     2.5590    54.9710    19.5890    17.8800    17.1610    26.0950    -8.1470 
  138.3750     2.5600    56.6980    19.6020    17.8710    17.9530    26.1520    -8.0560 
  138.5000     2.5530    57.0020    19.6060    17.8540    18.4710    26.2670    -8.0240 
  138.6250     2.5400    56.0170    19.6070    17.8150    18.6230    26.3430    -8.0490 
  138.7500     2.5290    55.4320    19.6370    17.7790    18.1590    26.4320    -8.0870 
  138.8750     2.5240    55.8510    19.7090    17.7680    18.1450    26.5270    -8.1580 
  139.0000     2.5240    55.9610    19.7930    17.7800    18.2000    26.5660    -8.2630 
  139.1250     2.5230    55.2980    19.8080    17.7660    17.8120    26.6050    -8.4060 
  139.2500     2.5150    54.8910    19.7160    17.6810    18.0560    26.6770    -8.5520 
  139.3750     2.4990    56.6270    19.5520    17.5260    18.5460    26.7530    -8.6890 
  139.5000     2.4790    60.7410    19.4160    17.3610    18.2170    26.8080    -8.8040 
  139.6250     2.4620    65.7240    19.4700    17.3120    17.2770    26.8520    -8.9010 
  139.7500     2.4550    67.7030    19.7500    17.4430    16.8820    26.8930    -9.0110 
  139.8750     2.4620    67.0800    20.2010    17.7450    17.2660    26.9060    -9.1120 
