~V
VERS. 2.00: Ver 2.00
~W
STRT.M 52.0000:
STOP.M 269.0000:
STEP.M 0.1250:
NULL. -999.2500:
UWI. F11071:
~C
DEPT.M :
GR.API :
RML.OHMM :
RI. :
RXO.OHMM :
CALI.CM :
DEN.GM/CC :
SP.MV :
~A
# ...
  187.0000    71.6870    77.8580    74.5820    52.6760    24.6050     2.2970   -16.9420 
  187.1250    70.2780    81.9450    78.4410    66.6050    24.6160     2.2770   -17.0470 
  187.2500    70.2010    86.3810    82.9490    70.0150    24.6380     2.2620   -17.1160 
  187.3750    69.2070    90.1250    86.8390    65.7910    24.6900     2.2550   -17.1890 
  187.5000    67.9290    92.5750    89.2210    66.6220    24.7430     2.2570   -17.2660 
  187.6250    67.7120    93.7960    89.9480    66.5590    24.7810     2.2660   -17.3750 
  187.7500    68.0000    94.8940    90.3420    64.2850    24.8010     2.2760   -17.5340 
  187.8750    67.7750    96.6770    91.4290    65.0330    24.8010     2.2800   -17.6750 
  188.0000    68.7520    99.4760    93.6360    73.2250    24.7740     2.2770   -17.7780 
  188.1250    70.4330   103.0690    96.7700    83.7290    24.7150     2.2700   -17.9450 
  188.2500    71.0390   106.5900    99.9750    84.2950    24.6730     2.2630   -18.2180 
  188.3750    71.9640   109.3690   102.5700    86.5890    24.6520     2.2570   -18.5270 
  188.5000    73.5470   110.9980   104.0870    92.0010    24.6380     2.2520   -18.8160 
  188.6250    74.4500   111.3420   104.3800    90.8050    24.6610     2.2460   -19.0400 
  188.7500    73.8730   111.0790   104.2020    83.4500    24.6690     2.2440   -19.2520 
  188.8750    72.1790   110.7500   104.2240    80.4900    24.6380     2.2490   -19.4920 
  189.0000    70.4020   110.6450   104.8430    80.1130    24.5940     2.2600   -19.7310 
  189.1250    70.5840   110.4680   105.8270    81.4430    24.6130     2.2690   -19.8980 
  189.2500    73.0310   109.4170   106.1110    83.9990    24.6810     2.2710   -19.9600 
  189.3750    75.1740   106.7790   104.6440    90.7500    24.7500     2.2650   -19.9310 
  189.5000    75.0900   102.3730   100.9410   104.3960    24.8370     2.2560   -19.8530 
  189.6250    74.5140    96.7630    95.3550    91.8510    24.9350     2.2530   -19.7860 
  189.7500    75.8390    91.4630    89.6000    69.6140    24.9990     2.2570   -19.7830 
  189.8750    77.7030    87.6010    84.9840    57.3200    24.9660     2.2660   -19.8490 
  190.0000    78.2840    85.8660    82.3760    57.6070    24.8730     2.2730   -19.9630 
  190.1250    77.4280    86.7670    82.4120    63.9950    24.8730     2.2740   -20.1370 
  190.2500    75.5670    89.6330    84.4170    67.8180    24.9490     2.2710   -20.3450 
  190.3750    72.5850    94.1260    87.9760    65.9920    25.0260     2.2680   -20.5480 
  190.5000    68.7510   100.0650    92.8070    64.5570    25.0670     2.2650   -20.7140 
  190.6250    67.3360   107.8390    99.1860    75.8710    25.0910     2.2640   -20.9020 
  190.7500    67.7410   117.5010   107.3570    87.3700    25.1180     2.2630   -21.0470 
  190.8750    67.4340   129.0910   117.6970    97.0610    25.1420     2.2570   -21.1140 
  191.0000    64.2480   142.0230   129.8840   101.1880    25.1740     2.2480   -21.0920 
  191.1250    60.5280   154.6250   142.3730   105.5710    25.1900     2.2340   -20.9190 
  191.2500    57.8440   164.7420   152.8900   115.5450    25.1950     2.2190   -20.6960 
  191.3750    55.7820   170.5770   159.5730   125.1470    25.1950     2.2090   -20.5420 
  191.5000    54.9920   171.1120   161.1020   127.7880    25.1950     2.2070   -20.5000 
  191.6250    55.4930   165.9170   156.5990   117.6380    25.1830     2.2160   -20.4880 
  191.7500    56.6770   157.6470   148.6210   124.4150    25.1480     2.2290   -20.4450 
  191.8750    59.2050   148.5190   139.3770   133.1540    25.0990     2.2430   -20.3660 
  192.0000    63.8000   140.6010   130.9820   121.5510    25.0730     2.2510   -20.2990 
  192.1250    67.0350   136.0280   125.7520    99.3620    25.0840     2.2500   -20.3460 
  192.2500    66.7260   135.1300   124.2040    85.8120    25.1110     2.2430   -20.4730 
  192.3750    66.0430   137.9400   126.3380    89.9990    25.1240     2.2360   -20.5950 
  192.5000    66.6500   143.9630   131.7240   101.0670    25.1190     2.2350   -20.6710 
  192.6250    67.4110   152.0830   139.7530   108.0010    25.0770     2.2390   -20.6970 
  192.7500    68.3790   159.4330   147.9760   111.7990    24.9980     2.2410   -20.7230 
  192.8750    68.3900   162.9280   153.4500   109.9360    24.9290     2.2370   -20.7900 
  193.0000    65.1880   159.6440   152.9790   101.6080    24.8950     2.2280   -20.8910 
  193.1250    61.2010   146.9400   143.0070   103.0700    24.9260     2.2220   -21.0210 
  193.2500    61.5490   128.0060   125.7940   119.6810    24.9720     2.2250   -21.1050 
  193.3750    64.7990   106.5930   104.9620   108.7150    24.9970     2.2390   -21.1470 
  193.5000    66.6980    86.6390    84.9070    82.6980    25.0040     2.2640   -21.1530 
  193.6250    66.5290    71.6660    69.5530    68.6020    24.9720     2.2940   -21.1150 
  193.7500    67.7810    61.6380    59.0730    50.8190    24.9560     2.3220   -21.0250 
  193.8750    68.8680    55.8950    52.9010    38.5470    24.9390     2.3410   -20.9030 
  194.0000    68.5340    53.3350    50.0320    35.5770    24.9120     2.3460   -20.7870 
  194.1250    68.0440    52.9430    49.5350    39.0910    24.8740     2.3370   -20.6970 
  194.2500    70.3490    53.2990    49.9150    43.5680    24.8480     2.3210   -20.6260 
  194.3750    73.7190    53.7960    50.4060    44.4100    24.8300     2.3060   -20.4900 
  194.5000    73.9100    54.2490    50.6480    44.2250    24.8420     2.2990   -20.3300 
  194.6250    71.9030    55.0010    50.8620    42.8000    24.8810     2.2990   -20.2380 
  194.7500    71.6810    56.6390    51.7220    41.5950    24.8620     2.2990   -20.2260 
  194.8750    73.3680    59.3880    53.8350    41.6330    24.7930     2.2920   -20.2460 
  195.0000    73.4100    63.1070    57.5040    45.6480    24.7560     2.2770   -20.2620 
  195.1250    70.4130    67.7360    62.6260    53.3300    24.7810     2.2600   -20.2470 
  195.2500    67.1890    72.8100    68.0740    63.7300    24.8310     2.2500   -20.2170 
  195.3750    64.9510    77.5270    72.8830    70.8970    24.8540     2.2470   -20.2500 
  195.5000    64.9070    80.8180    76.2870    74.4670    24.8600     2.2470   -20.3050 
  195.6250    67.6400    81.5380    77.4490    70.4880    24.8630     2.2480   -20.2760 
  195.7500    70.0300    79.7030    76.4010    62.0060    24.8700     2.2490   -20.1620 
  195.8750    69.9000    75.0530    72.7380    58.8440    24.8870     2.2550   -19.9600 
  196.0000    68.4900    67.6880    66.0640    65.7290    24.9100     2.2690   -19.7010 
  196.1250    69.4060    58.3900    56.7530    59.7520    24.9200     2.2920   -19.4310 
  196.2500    71.7680    49.3470    47.4040    46.2120    24.9250     2.3150   -19.1880 
  196.3750    73.6830    42.3090    39.9430    36.1040    24.9340     2.3290   -18.9820 
  196.5000    76.1440    38.4880    35.4010    26.3370    24.9580     2.3280   -18.8400 
  196.6250    79.4780    38.9950    34.7630    20.4480    24.9870     2.3080   -18.7900 
  196.7500    81.1940    42.8630    37.5470    27.7250    25.0390     2.2810   -18.8040 
  196.8750    79.8100    48.9870    43.3530    44.0250    25.1210     2.2560   -18.8680 
  197.0000    75.7800    55.4730    50.8970    61.3200    25.1750     2.2420   -18.9320 
  197.1250    71.6180    59.2950    56.9730    64.7230    25.1880     2.2430   -18.9550 
  197.2500    69.9580    59.0710    58.5860    68.3300    25.1870     2.2550   -18.9840 
  197.3750    71.4640    55.0850    55.2130    65.9640    25.1840     2.2750   -19.0260 
  197.5000    74.5500    49.0720    48.9360    53.7310    25.1750     2.2970   -19.0660 
  197.6250    77.2720    43.3430    42.7180    38.7970    25.1460     2.3140   -19.0390 
  197.7500    79.1210    39.1740    38.0550    30.9300    25.0970     2.3250   -18.9470 
  197.8750    79.6420    36.7950    35.1750    28.5390    25.0370     2.3280   -18.8330 
  198.0000    79.1200    36.0080    33.9280    29.8970    25.0160     2.3270   -18.7670 
  198.1250    78.2530    36.6160    34.1960    31.4380    25.0530     2.3250   -18.7930 
