~V
VERS. 2.00: Ver 2.00
~W
STRT.M 53.0000:
STOP.M 287.0000:
STEP.M 0.1250:
NULL. -999.2500:
UWI. F11059:
~C
DEPT.M :
GR.API :
RML.OHMM :
RI. :
RXO.OHMM :
CALI.CM :
DEN.GM/CC :
SP.MV :
~A
# ...
  233.0000    71.9160    61.2090    59.7070    62.4320    24.6710     2.2420   -11.7580 
  233.1250    72.7840    59.9580    58.6180    58.6840    24.6710     2.2560   -11.7960 
  233.2500    71.2870    59.3350    58.5900    60.9900    24.6700     2.2670   -11.8350 
  233.3750    70.8810    59.8290    59.8910    66.6300    24.6530     2.2700   -11.8710 
  233.5000    71.3700    61.2180    61.8640    77.0350    24.6220     2.2630   -11.8920 
  233.6250    70.5780    63.0750    63.7570    81.9080    24.5680     2.2510   -11.8920 
  233.7500    68.0870    64.7870    64.8890    79.0670    24.4870     2.2360   -11.8420 
  233.8750    66.1900    65.6670    64.8150    76.6550    24.4200     2.2270   -11.7270 
  234.0000    67.3480    65.7030    64.0390    70.8270    24.4650     2.2230   -11.5730 
  234.1250    68.6840    65.2090    63.1510    64.0290    24.5420     2.2250   -11.3890 
  234.2500    67.1330    64.6690    62.6230    61.0530    24.5660     2.2280   -11.1860 
  234.3750    63.2610    64.5210    62.5970    69.8730    24.4890     2.2320   -10.9950 
  234.5000    62.2480    64.6500    62.5950    72.8460    24.4080     2.2370   -10.8180 
  234.6250    64.6390    64.5930    62.0100    72.0510    24.3760     2.2440   -10.6640 
  234.7500    66.8150    63.6990    60.2480    70.0140    24.3780     2.2530   -10.5490 
  234.8750    65.3740    61.2270    56.9070    67.6890    24.3850     2.2640   -10.4850 
  235.0000    63.5250    57.5220    52.8010    62.4470    24.3840     2.2750   -10.4600 
  235.1250    64.3180    53.2600    48.7800    56.4290    24.3790     2.2870   -10.4570 
  235.2500    66.7610    49.3050    45.5670    50.3170    24.3780     2.2970   -10.4680 
  235.3750    68.0170    46.6010    43.8270    45.3490    24.3800     2.3030   -10.4700 
  235.5000    68.2130    45.3300    43.4530    48.8540    24.3850     2.3020   -10.4720 
  235.6250    68.0280    45.4880    44.3080    50.8520    24.3920     2.2960   -10.4740 
  235.7500    67.1460    46.8780    46.1330    50.1290    24.4140     2.2850   -10.4660 
  235.8750    65.6510    49.2510    48.5790    51.0010    24.4970     2.2730   -10.4560 
  236.0000    64.5970    51.9990    51.0690    54.1240    24.6090     2.2620   -10.4400 
  236.1250    64.8800    54.7480    53.2700    60.1600    24.6990     2.2520   -10.4250 
  236.2500    66.9920    57.2320    55.0180    65.8490    24.7430     2.2460   -10.4050 
  236.3750    68.9450    59.2470    56.2280    70.0860    24.7560     2.2450   -10.3700 
  236.5000    67.8900    60.8660    57.1130    68.4810    24.7680     2.2470   -10.3360 
  236.6250    64.6020    62.2020    57.9130    67.3680    24.7700     2.2510   -10.3010 
  236.7500    61.2270    63.4470    58.8630    65.1890    24.7700     2.2540   -10.2660 
  236.8750    60.5900    64.8280    60.0810    63.0060    24.7820     2.2550   -10.2190 
  237.0000    62.6940    66.3460    61.3150    64.0510    24.7840     2.2560   -10.1720 
  237.1250    66.1370    67.7350    62.1360    69.9040    24.7780     2.2580   -10.1180 
  237.2500    67.5050    68.5210    62.0900    74.6820    24.7670     2.2600   -10.0680 
  237.3750    65.9710    68.0450    60.8010    74.5020    24.7520     2.2610   -10.0190 
  237.5000    64.3260    66.4920    58.8200    69.6690    24.7320     2.2610    -9.9550 
  237.6250    64.0840    64.4820    57.0000    66.2050    24.7150     2.2600    -9.8760 
  237.7500    64.9730    63.0730    56.4900    63.0690    24.6960     2.2660    -9.7930 
  237.8750    66.1530    64.0060    59.1490    62.4450    24.6810     2.2960    -9.6950 
  238.0000    65.2080    68.3160    65.8810    66.3750    24.6590     2.3560    -9.5870 
  238.1250    61.5280    76.9990    77.4640    83.3320    24.6060     2.4430    -9.4710 
  238.2500    58.5070    89.8420    92.7440   129.3210    24.5250     2.5420    -9.3310 
  238.3750    59.1440   101.7110   103.8150   187.9820    24.4940     2.6240    -9.1700 
  238.5000    61.3260   103.4680    99.4540   200.7760    24.4750     2.6700    -8.9790 
  238.6250    64.8650    90.3630    77.7550   161.6570    24.4200     2.6720    -8.7660 
  238.7500    71.4000    66.4430    50.3030   110.7410    24.3090     2.6360    -8.5380 
  238.8750    80.6390    42.7250    30.2960    52.0700    24.2450     2.5730    -8.2910 
  239.0000    85.4410    26.1810    18.4860    22.0050    24.2930     2.5070    -8.0150 
  239.1250    82.7360    16.6120    12.2820    10.8170    24.3950     2.4530    -7.7160 
  239.2500    77.0930    11.6320     9.2040     8.2380    24.5240     2.4190    -7.4130 
  239.3750    75.9450     9.5160     7.9040     7.8550    24.5960     2.4100    -7.1140 
  239.5000    78.8110     8.6500     7.4140     7.5930    24.6200     2.4130    -6.8500 
  239.6250    84.0150     8.4370     7.4060     7.6240    24.6280     2.4200    -6.6230 
  239.7500    93.4320     8.4920     7.6240     7.7380    24.6330     2.4270    -6.4240 
  239.8750   106.2130     8.5630     7.8650     7.6570    24.6320     2.4290    -6.2750 
  240.0000   116.1300     8.5500     8.0260     7.4460    24.6280     2.4290    -6.1740 
  240.1250   122.4040     8.4580     8.0890     7.2080    24.6290     2.4240    -6.1320 
  240.2500   127.1920     8.3270     8.0680     6.9950    24.6360     2.4150    -6.1290 
  240.3750   131.3540     8.2100     7.9980     7.1110    24.6410     2.4010    -6.1550 
  240.5000   134.1210     8.1440     7.9240     7.3970    24.6380     2.3850    -6.1770 
  240.6250   135.2130     8.1510     7.8630     7.6420    24.6310     2.3700    -6.1910 
  240.7500   134.0470     8.2240     7.8180     7.7670    24.6270     2.3590    -6.2050 
  240.8750   129.6310     8.3430     7.7920     7.9790    24.6290     2.3580    -6.2160 
  241.0000   125.2270     8.4700     7.7760     8.3080    24.6330     2.3680    -6.2090 
  241.1250   121.6410     8.6010     7.7720     8.4750    24.6340     2.3880    -6.1710 
  241.2500   118.2930     8.7830     7.8070     8.5680    24.6290     2.4120    -6.1150 
  241.3750   114.6080     9.0120     7.9350     8.7940    24.6240     2.4310    -6.0430 
  241.5000   110.9290     9.1190     8.1630     9.0640    24.6210     2.4420    -5.9770 
  241.6250   108.8660     9.0710     8.4610     9.6460    24.6240     2.4420    -5.9180 
  241.7500   108.3310     9.0110     8.7420    10.3080    24.6340     2.4350    -5.8580 
  241.8750   108.5970     9.0470     8.8650    10.7270    24.6350     2.4220    -5.8040 
  242.0000   109.2570     9.0510     8.7960    10.4230    24.6280     2.4110    -5.7790 
  242.1250   110.2380     8.9320     8.5860    10.0570    24.6240     2.4030    -5.7760 
  242.2500   111.0440     8.7890     8.3690     9.3170    24.6280     2.4010    -5.7980 
  242.3750   107.4050     8.8310     8.3870     9.4250    24.6330     2.4040    -5.8530 
  242.5000   101.0090     9.2480     8.8400    10.9830    24.6350     2.4050    -5.9330 
  242.6250    95.2190    10.2610     9.9800    13.0320    24.6320     2.3940    -6.0280 
  242.7500    91.7950    12.1270    12.1650    16.4260    24.6250     2.3690    -6.1470 
  242.8750    88.3740    15.4060    16.2080    26.1390    24.6200     2.3340    -6.2800 
  243.0000    83.2400    20.2940    22.3890    40.0830    24.6240     2.3070    -6.4040 
  243.1250    78.2730    27.0740    30.8870    50.9360    24.6310     2.3020    -6.5360 
  243.2500    74.8940    35.7790    41.3060    63.7570    24.6340     2.3220    -6.6620 
  243.3750    72.1350    46.0200    52.3430    85.3740    24.6310     2.3580    -6.7860 
  243.5000    69.4880    56.2650    62.0280   101.5240    24.6260     2.3840    -6.9050 
  243.6250    67.2090    65.1570    69.2280   108.6820    24.6240     2.3860    -7.0090 
  243.7500    65.3930    71.7520    73.7140   114.0840    24.6240     2.3590    -7.0890 
  243.8750    64.5240    75.5410    75.7420   108.6210    24.6310     2.3150    -7.1570 
  244.0000    64.7830    77.6490    76.7570   100.6460    24.6310     2.2710    -7.2490 
  244.1250    66.9670    78.9760    77.6780    93.0910    24.6240     2.2380    -7.3490 
