~V
VERS. 2.00: Ver 2.00
~W
STRT.M 50.0000:
STOP.M 270.0000:
STEP.M 0.1250:
NULL. -999.2500:
UWI. F11070:
~C
DEPT.M :
DEN.GM/CC :
GR.API :
RML.OHMM :
RI. :
RXO.OHMM :
CALI.CM :
SP.MV :
~A
# ...
  140.0000     2.2670    68.9260     8.7570     7.5500     9.2350    24.0560   -15.4780 
  140.1250     2.2190    68.4500    10.0520     8.8280     9.7940    24.5570   -15.7240 
  140.2500     2.1850    66.5990    10.9110     9.7850    10.0740    24.8770   -15.8820 
  140.3750     2.1750    64.8130    11.3180    10.3320    10.0330    24.9760   -16.0490 
  140.5000     2.1820    63.6310    11.4090    10.5430     9.9750    24.9560   -16.2890 
  140.6250     2.1940    60.9100    11.3390    10.5430    10.1710    25.0390   -16.5410 
  140.7500     2.2010    58.4510    11.2320    10.4620    10.3740    25.2330   -16.7070 
  140.8750     2.2010    58.3290    11.1180    10.3350    10.4430    25.3940   -16.8130 
  141.0000     2.1960    60.1670    11.0090    10.1830    10.5570    25.4000   -16.9340 
  141.1250     2.1940    60.2340    10.9120    10.0240    10.4940    25.2940   -17.0240 
  141.2500     2.1990    59.2390    10.8400     9.8780    10.4610    25.1370   -16.9850 
  141.3750     2.2090    60.2240    10.8030     9.7580    10.4100    25.0200   -16.8320 
  141.5000     2.2210    62.6920    10.7960     9.6700    10.3040    24.9960   -16.6810 
  141.6250     2.2270    63.9820    10.8050     9.6160    10.0360    25.0440   -16.6830 
  141.7500     2.2310    63.6810    10.8160     9.5870    10.2140    25.1140   -16.8430 
  141.8750     2.2320    64.2850    10.8230     9.5790    10.5010    25.2070   -17.0750 
  142.0000     2.2320    66.8100    10.8200     9.5820    10.5980    25.3140   -17.2580 
  142.1250     2.2240    68.5830    10.8000     9.5830    10.6420    25.4460   -17.3280 
  142.2500     2.2070    68.6950    10.7580     9.5740    10.8130    25.4480   -17.3370 
  142.3750     2.1880    69.6270    10.6970     9.5600    11.0700    25.3180   -17.3090 
  142.5000     2.1770    71.2010    10.6400     9.5500    11.0810    25.1570   -17.1980 
  142.6250     2.1810    69.7260    10.6340     9.5570    10.8320    25.0030   -16.9940 
  142.7500     2.1930    66.3870    10.6840     9.5870    10.8890    24.8710   -16.8330 
  142.8750     2.2050    64.0710    10.7790     9.6450    11.1470    24.7010   -16.8110 
  143.0000     2.2120    63.1240    10.8950     9.7250    11.1330    24.5380   -16.9280 
  143.1250     2.2170    62.4320    11.0150     9.8170    11.0600    24.3660   -17.1160 
  143.2500     2.2220    61.8250    11.1240     9.9070    10.8890    24.2150   -17.2150 
  143.3750     2.2260    61.5750    11.2180     9.9880    10.8650    24.1150   -17.1800 
  143.5000     2.2290    62.5170    11.3030    10.0580    11.1230    24.0390   -17.3210 
  143.6250     2.2310    65.2310    11.3880    10.1200    11.2060    23.9400   -17.3590 
  143.7500     2.2340    66.6480    11.4760    10.1770    11.2640    23.8810   -17.2720 
  143.8750     2.2370    65.2710    11.5620    10.2280    11.4130    23.8760   -17.1030 
  144.0000     2.2390    64.0450    11.6340    10.2670    11.5630    23.8930   -16.8570 
  144.1250     2.2410    65.3610    11.6750    10.2840    11.6340    23.8630   -16.5540 
  144.2500     2.2410    66.1070    11.7000    10.2860    11.6120    23.8360   -16.3230 
  144.3750     2.2310    64.1620    11.7360    10.2980    11.9000    23.9700   -16.2210 
  144.5000     2.2060    60.4030    11.8120    10.3480    12.0990    24.3080   -16.2530 
  144.6250     2.1790    58.9560    11.9370    10.4620    11.8610    24.5450   -16.2830 
  144.7500     2.1680    60.2090    12.0770    10.6180    11.8300    24.5560   -16.2310 
  144.8750     2.1760    62.1140    12.1950    10.7740    12.6120    24.4370   -16.1380 
  145.0000     2.1930    62.5280    12.2510    10.8810    13.6250    24.3220   -16.0450 
  145.1250     2.2040    60.3550    12.2050    10.8760    13.4250    24.3290   -15.9840 
  145.2500     2.2080    57.5720    12.0740    10.7700    12.5650    24.4130   -15.9040 
  145.3750     2.2110    56.9420    11.8840    10.5910    11.7780    24.4780   -15.8340 
  145.5000     2.2120    58.6060    11.6780    10.3910    11.3240    24.5380   -15.8490 
  145.6250     2.2080    61.6570    11.5110    10.2280    11.1160    24.5730   -15.7810 
  145.7500     2.1980    63.7640    11.4040    10.1210    10.8890    24.5940   -15.6050 
  145.8750     2.1870    63.1050    11.3310    10.0470    10.7180    24.6050   -15.3380 
  146.0000     2.1780    60.9780    11.2030     9.9380    10.6980    24.6280   -14.9280 
  146.1250     2.1760    60.7050    10.8450     9.6510    10.6270    24.6910   -14.4250 
  146.2500     2.1810    63.8560    10.2230     9.1550    10.4430    24.7210   -13.8350 
  146.3750     2.1900    68.3770     9.4280     8.5080    10.0430    24.7160   -13.2210 
  146.5000     2.2010    71.3370     8.6590     7.8520     8.9120    24.6440   -12.5710 
  146.6250     2.2130    72.2580     8.1950     7.3950     7.6920    24.4740   -12.1990 
  146.7500     2.2210    70.7100     8.1370     7.2430     7.3080    24.4070   -12.0860 
  146.8750     2.2160    66.7470     8.4870     7.4330     8.1410    24.5800   -12.1010 
  147.0000     2.1950    62.3260     9.1520     7.9300     9.0730    24.7070   -12.2660 
  147.1250     2.1630    60.7660     9.9520     8.6410     9.4680    24.6940   -12.4930 
  147.2500     2.1310    62.6810    10.6220     9.3310     9.9760    24.8220   -12.7850 
  147.3750     2.1090    63.2600    10.9770     9.8090    10.4420    24.9730   -13.0800 
  147.5000     2.1020    59.7690    10.9430     9.9570    10.6910    25.0390   -13.4070 
  147.6250     2.1130    57.9080    10.5120     9.7090    10.5570    25.0670   -13.5760 
  147.7500     2.1340    60.0160     9.8350     9.1820    10.0390    25.0830   -13.4160 
  147.8750     2.1640    63.7230     8.9920     8.4450     9.2470    24.9570   -13.0410 
  148.0000     2.2000    67.8370     8.0750     7.5890     8.3000    24.6500   -12.4730 
  148.1250     2.2380    73.7670     7.2020     6.7280     7.2130    24.4620   -11.7890 
  148.2500     2.2690    80.1580     6.4640     5.9630     6.0840    24.5470   -11.0990 
  148.3750     2.2900    86.5580     5.9190     5.3560     5.5540    24.6610   -10.3870 
  148.5000     2.3050    92.6010     5.5880     4.9450     5.3890    24.6430    -9.7320 
  148.6250     2.3080    94.2380     5.4950     4.7670     5.3320    24.4560    -9.2440 
  148.7500     2.2990    91.7890     5.5750     4.7690     5.3080    24.2360    -9.0330 
  148.8750     2.2800    87.1280     5.7910     4.9140     5.4830    24.0220    -9.0700 
  149.0000     2.2610    82.3260     6.1130     5.1720     5.9200    23.8710    -9.2990 
  149.1250     2.2550    78.0420     6.5620     5.5580     6.6750    23.9010    -9.6230 
  149.2500     2.2620    77.1250     7.1460     6.0740     7.2220    24.0900    -9.9910 
  149.3750     2.2820    80.6980     7.8680     6.7270     7.7820    24.3090   -10.4140 
  149.5000     2.3190    84.5110     8.6790     7.4790     9.3680    24.4290   -10.8610 
  149.6250     2.3750    87.1590     9.4160     8.2110    13.8780    24.4360   -11.3180 
  149.7500     2.4230    89.4130     9.9060     8.7590    18.3120    24.3370   -11.7850 
  149.8750     2.4240    90.9850    10.0660     9.0110    17.1910    24.2630   -12.2750 
  150.0000     2.3630    90.4040     9.9490     8.9620    11.8540    24.2680   -12.7530 
  150.1250     2.2840    86.6870     9.6660     8.6730     9.4960    24.4070   -13.2350 
  150.2500     2.2310    83.3530     9.3000     8.2630     8.6980    24.6130   -13.6980 
  150.3750     2.2070    81.0340     8.7910     7.7410     8.6030    24.7530   -14.0890 
  150.5000     2.2030    78.2690     8.0580     7.0890     8.3480    24.7590   -14.4190 
  150.6250     2.2130    79.4060     7.1460     6.3440     7.8150    24.7110   -14.7020 
  150.7500     2.2340    87.1280     6.3400     5.6740     6.6820    24.6120   -14.9620 
  150.8750     2.2620    96.9050     5.8980     5.2490     5.4200    24.4650   -15.2480 
  151.0000     2.2850    99.4430     5.9480     5.1780     5.1020    24.2910   -15.6080 
  151.1250     2.2890    91.9900     6.4920     5.5240     6.4370    24.0760   -15.7810 
