~V
VERS. 2.00: Ver 2.00
~W
STRT.M 52.0000:
STOP.M 286.0000:
STEP.M 0.1250:
NULL. -999.2500:
UWI. F11061:
~C
DEPT.M :
GR.API :
RML.OHMM :
RI. :
RXO.OHMM :
CALI.CM :
DEN.GM/CC :
SP.MV :
~A
# ...
  232.0000    59.7190    38.9300    38.1090    38.2230    24.1970     2.2730    -8.2710 
  232.1250    56.9940    40.3450    38.8730    37.0180    24.2060     2.2600    -8.1090 
  232.2500    57.7450    44.0650    41.9230    38.9290    24.1970     2.2450    -7.9500 
  232.3750    59.6880    49.1900    46.5880    46.1140    24.2050     2.2320    -7.8140 
  232.5000    60.1560    54.4690    51.8220    57.6650    24.2580     2.2230    -7.7080 
  232.6250    60.8610    58.7470    56.3760    67.2980    24.3280     2.2210    -7.6160 
  232.7500    61.7250    61.4650    59.4700    71.3550    24.3940     2.2230    -7.5360 
  232.8750    61.6960    62.7690    61.0250    71.6890    24.4610     2.2250    -7.4740 
  233.0000    62.2190    63.3620    61.5780    71.5470    24.4950     2.2240    -7.4210 
  233.1250    63.7510    64.0770    62.0020    71.8990    24.4900     2.2190    -7.3800 
  233.2500    63.5920    65.2430    62.7220    72.6380    24.4610     2.2140    -7.3630 
  233.3750    60.2740    66.7770    63.7490    73.9850    24.4480     2.2110    -7.3710 
  233.5000    56.6550    68.3830    64.8680    74.2230    24.4270     2.2140    -7.3930 
  233.6250    54.6230    69.7890    65.8380    73.2780    24.3730     2.2230    -7.4290 
  233.7500    53.6580    70.8820    66.5460    71.5350    24.2970     2.2350    -7.4820 
  233.8750    53.5840    71.6880    67.0030    70.4490    24.2420     2.2480    -7.5310 
  234.0000    53.9550    72.3260    67.2900    69.9040    24.2560     2.2560    -7.5710 
  234.1250    53.7390    72.9390    67.5310    71.6950    24.3000     2.2600    -7.6100 
  234.2500    53.2030    73.5680    67.7640    74.2550    24.3070     2.2610    -7.6360 
  234.3750    54.4060    74.1720    67.9600    75.9930    24.2820     2.2600    -7.6360 
  234.5000    57.2580    74.7410    68.1150    77.4270    24.2580     2.2580    -7.6050 
  234.6250    59.1310    75.5180    68.4330    79.5010    24.2790     2.2580    -7.5340 
  234.7500    59.1190    77.0780    69.4100    82.1990    24.3470     2.2600    -7.4070 
  234.8750    58.4230    80.3430    71.8690    84.4050    24.4040     2.2680    -7.2360 
  235.0000    57.2550    87.0410    77.4420    85.0260    24.4080     2.2870    -7.0220 
  235.1250    55.1670    98.0380    87.1050    86.8570    24.3880     2.3200    -6.7450 
  235.2500    52.5650   113.5820   101.3630    98.5990    24.3690     2.3700    -6.4010 
  235.3750    50.2260   132.4310   119.4530   125.6980    24.3480     2.4350    -6.0160 
  235.5000    47.4640   149.7170   137.4610   175.6830    24.2570     2.5070    -5.5960 
  235.6250    45.5280   158.4470   148.6850   244.2070    24.0920     2.5730    -5.1440 
  235.7500    46.0660   152.4270   146.7500   313.5970    23.9780     2.6230    -4.6670 
  235.8750    47.8760   129.1970   128.2760   342.1640    23.9730     2.6500    -4.1550 
  236.0000    47.4320    93.9570    95.7830   317.2560    23.9740     2.6500    -3.5730 
  236.1250    46.2660    60.2250    62.0840   272.4730    23.8970     2.6270    -2.9440 
  236.2500    48.6780    35.6230    36.5750   191.6450    23.7540     2.5880    -2.2940 
  236.3750    55.4860    20.5520    20.9770    85.9270    23.5550     2.5400    -1.6220 
  236.5000    62.4400    12.9060    13.1820    30.7910    23.3160     2.4950    -0.9410 
  236.6250    67.2550     9.2630     9.4000    13.1660    23.2000     2.4600    -0.2900 
  236.7500    69.9710     7.7430     7.6660     8.9420    23.3500     2.4370     0.3130 
  236.8750    71.0080     7.3840     7.0820     8.4760    23.6880     2.4260     0.8580 
  237.0000    73.6490     7.6100     7.1930     8.8990    24.0160     2.4220     1.2910 
  237.1250    81.0790     8.0240     7.6000     9.3540    24.2040     2.4240     1.6110 
  237.2500    91.9190     8.4290     8.0550     9.6790    24.2890     2.4270     1.8320 
  237.3750   100.7050     8.6710     8.4150     9.8650    24.3310     2.4300     1.9680 
  237.5000   104.5670     8.8410     8.6100    10.0200    24.3400     2.4290     2.0200 
  237.6250   107.0490     8.9440     8.6860    10.0840    24.3200     2.4260     2.0210 
  237.7500   110.9490     8.9880     8.6920    10.0180    24.2740     2.4230     1.9900 
  237.8750   114.9700     8.9890     8.6540    10.0290    24.2170     2.4220     1.9320 
  238.0000   114.8760     8.9630     8.5660    10.1540    24.1680     2.4240     1.8660 
  238.1250   110.3680     8.9030     8.4200    10.3280    24.1450     2.4270     1.8110 
  238.2500   105.2260     8.7950     8.2220    10.3290    24.1410     2.4260     1.7710 
  238.3750   102.1630     8.6570     7.9980    10.0380    24.1480     2.4230     1.7380 
  238.5000    99.0100     8.4750     7.7910     9.7100    24.1690     2.4180     1.7220 
  238.6250    93.3790     8.2830     7.6280     9.4630    24.2100     2.4140     1.7180 
  238.7500    87.2680     8.1220     7.5130     9.3640    24.2640     2.4110     1.7020 
  238.8750    84.1620     7.9910     7.4420     9.3610    24.2960     2.4090     1.6560 
  239.0000    85.5550     7.9160     7.4170     9.4460    24.2900     2.4100     1.5680 
  239.1250    90.2540     7.9330     7.4360     9.4250    24.2740     2.4120     1.4260 
  239.2500    97.0240     8.0580     7.5050     9.3690    24.2580     2.4160     1.2340 
  239.3750   103.4700     8.2610     7.6180     9.5130    24.2410     2.4220     1.0120 
  239.5000   103.8960     8.4900     7.7360     9.9140    24.2280     2.4280     0.7750 
  239.6250    98.4560     8.6500     7.8030    10.3940    24.2100     2.4300     0.5320 
  239.7500    92.5790     8.7020     7.7880    11.1110    24.1670     2.4260     0.3010 
  239.8750    89.8620     8.7050     7.7240    12.2040    24.1020     2.4180     0.1080 
  240.0000    89.2160     8.8900     7.7590    12.4400    24.0360     2.4090    -0.0510 
  240.1250    88.9390     9.5750     8.1200    11.2250    23.9900     2.4040    -0.1920 
  240.2500    87.4330    11.1110     9.0780    11.0100    23.9160     2.4000    -0.3130 
  240.3750    83.9810    13.8170    10.9320    13.1500    23.8050     2.3930    -0.4250 
  240.5000    79.7250    18.0180    14.1110    18.4770    23.8070     2.3750    -0.5370 
  240.6250    75.5250    23.3220    18.5150    26.8080    23.9160     2.3490    -0.6460 
  240.7500    69.8580    28.9680    23.6980    38.7440    24.0580     2.3200    -0.7490 
  240.8750    60.9520    33.8970    28.8120    53.2740    24.1360     2.2960    -0.8640 
  241.0000    53.0440    36.7180    32.4670    58.1260    24.0720     2.2810    -1.0010 
  241.1250    51.3920    37.2010    34.0090    54.2720    23.9150     2.2750    -1.1370 
  241.2500    55.1780    35.9470    33.6510    47.6630    23.7350     2.2730    -1.2730 
  241.3750    60.2390    33.9880    32.2240    41.7820    23.6370     2.2730    -1.4140 
  241.5000    61.9870    32.3270    30.6570    38.8690    23.6880     2.2750    -1.5610 
  241.6250    61.3040    31.3280    29.4600    39.9240    23.7990     2.2770    -1.7200 
  241.7500    59.9020    30.9160    28.7130    40.3090    23.9020     2.2810    -1.8960 
  241.8750    58.2710    30.8160    28.2670    39.2730    23.9760     2.2860    -2.0660 
  242.0000    57.6070    30.5930    27.8150    38.4780    24.0290     2.2890    -2.2020 
  242.1250    57.7140    29.9000    27.0560    38.5900    24.0640     2.2880    -2.3150 
  242.2500    57.1370    28.6500    25.8890    39.2100    24.0740     2.2820    -2.4150 
  242.3750    55.6370    27.0840    24.4770    40.7920    24.0570     2.2690    -2.5020 
  242.5000    55.2110    25.8410    23.3040    36.6580    24.0420     2.2530    -2.5890 
  242.6250    56.5000    25.5480    22.8640    28.5240    24.0120     2.2390    -2.6850 
  242.7500    57.8600    26.5860    23.4900    23.6700    23.9710     2.2300    -2.7910 
  242.8750    57.3230    28.9610    25.2660    25.3010    23.9790     2.2290    -2.9210 
  243.0000    55.1410    32.1840    27.9410    32.7660    24.0840     2.2360    -3.1080 
  243.1250    52.9990    35.0890    30.6000    42.2840    24.1670     2.2470    -3.3430 
