~V
VERS. 2.00: Ver 2.00
~W
STRT.M 57.0000:
STOP.M 283.0000:
STEP.M 0.1250:
NULL. -999.2500:
UWI. F11039:
~C
DEPT.M :
SP.MV :
GR.API :
RML.OHMM :
RI. :
RXO.OHMM :
CALI.CM :
DEN.GM/CC :
~A
# ...
  180.7500   -14.1320    50.6890   368.0910   328.7710   341.0460    24.6930     2.2370 
  180.8750   -14.0600    50.5090   374.0730   333.8770   352.2810    24.7730     2.2320 
  181.0000   -13.9710    52.0420   374.3430   334.5060   333.7260    24.8600     2.2220 
  181.1250   -13.8680    53.8850   373.2810   334.3980   299.1390    24.9260     2.2080 
  181.2500   -13.7550    56.9810   370.0440   333.2870   287.4090    24.9520     2.1920 
  181.3750   -13.6430    59.2230   357.8910   325.8710   310.7050    24.9550     2.1780 
  181.5000   -13.5000    56.8690   332.1050   307.3900   338.4950    24.9520     2.1690 
  181.6250   -13.3610    52.0560   291.5760   275.5580   359.7460    24.9590     2.1650 
  181.7500   -13.2380    51.1190   242.0280   233.5010   370.1680    24.9760     2.1690 
  181.8750   -13.1070    54.8270   195.5420   190.3330   342.3570    24.9970     2.1820 
  182.0000   -13.0190    56.6400   159.9000   154.9080   231.1440    24.9960     2.2020 
  182.1250   -12.9630    55.0530   136.5970   130.4160   129.9030    24.9710     2.2230 
  182.2500   -12.8920    53.5460   124.4950   116.8110    94.5590    24.9020     2.2380 
  182.3750   -12.8150    56.4870   123.4890   114.2650    98.3780    24.7790     2.2400 
  182.5000   -12.7620    61.1620   130.9700   120.0890   106.7180    24.7100     2.2320 
  182.6250   -12.7180    63.2220   146.4240   133.7290   105.8030    24.6960     2.2190 
  182.7500   -12.6870    59.8310   168.7930   154.2150   117.4340    24.6870     2.2060 
  182.8750   -12.6490    54.8470   195.2570   179.0710   158.2680    24.6710     2.1990 
  183.0000   -12.5930    53.3540   219.0100   201.9800   232.8490    24.6410     2.1990 
  183.1250   -12.5050    53.6800   233.3180   216.7600   308.6610    24.6070     2.2060 
  183.2500   -12.4440    54.7060   232.7490   218.3980   322.0510    24.5840     2.2130 
  183.3750   -12.3820    57.9160   214.1790   203.5450   250.7190    24.6120     2.2170 
  183.5000   -12.3200    61.2640   186.4400   179.2620   173.7560    24.6670     2.2170 
  183.6250   -12.2440    61.9050   156.8370   151.8150   134.8470    24.7150     2.2180 
  183.7500   -12.1290    60.4440   129.9880   125.8940   122.6320    24.7250     2.2230 
  183.8750   -12.0090    61.5060   108.6430   104.7320   111.2120    24.7050     2.2330 
  184.0000   -11.9040    63.8970    92.8280    88.8030    94.9460    24.6810     2.2470 
  184.1250   -11.7990    64.9860    82.9970    78.5770    79.1110    24.6620     2.2600 
  184.2500   -11.6970    66.4470    79.2560    74.0860    65.3060    24.6450     2.2700 
  184.3750   -11.6140    68.3490    82.0130    75.7040    62.6640    24.6230     2.2740 
  184.5000   -11.5730    66.8990    88.9960    81.4410    69.5330    24.6130     2.2730 
  184.6250   -11.5600    62.3910    98.2850    89.6670    89.8970    24.6100     2.2690 
  184.7500   -11.5710    59.4780   107.6150    98.3210   116.4290    24.6090     2.2640 
  184.8750   -11.6160    61.3960   114.4380   104.9100   120.8580    24.6070     2.2590 
  185.0000   -11.6790    63.7110   118.2770   108.6450   113.6780    24.6070     2.2540 
  185.1250   -11.7420    64.3320   119.9130   109.9990   109.7550    24.6100     2.2480 
  185.2500   -11.7990    63.7140   120.8930   110.2990   109.5040    24.6150     2.2430 
  185.3750   -11.8360    62.0760   122.6590   110.9210   117.9120    24.6220     2.2380 
  185.5000   -11.8700    60.0730   125.2680   112.1990   121.2710    24.6290     2.2340 
  185.6250   -11.9310    58.1680   128.1750   113.8130   122.0220    24.6330     2.2310 
  185.7500   -12.0020    57.2920   130.7630   115.3250   122.5600    24.6300     2.2290 
  185.8750   -12.0610    58.0030   132.4690   116.3400   122.7980    24.6190     2.2290 
  186.0000   -12.1100    60.0880   133.3270   116.8700   124.9060    24.6060     2.2310 
  186.1250   -12.1590    61.7420   133.4600   117.0090   125.5930    24.5870     2.2330 
  186.2500   -12.1990    62.4510   133.0080   116.8550   123.1980    24.5530     2.2340 
  186.3750   -12.2590    62.8180   131.9200   116.3610   120.1440    24.5360     2.2320 
  186.5000   -12.3100    63.3700   130.1710   115.4400   120.5980    24.5320     2.2260 
  186.6250   -12.3330    64.3270   127.5390   113.8600   124.7670    24.5340     2.2190 
  186.7500   -12.3170    66.0590   123.8130   111.3790   127.1540    24.5330     2.2130 
  186.8750   -12.2860    65.2820   118.8670   107.7740   116.7390    24.5320     2.2100 
  187.0000   -12.2600    63.6270   113.3450   103.5030    98.8500    24.5280     2.2120 
  187.1250   -12.2670    64.6550   107.9340    99.0960    82.0410    24.5250     2.2160 
  187.2500   -12.2890    67.8450   103.3480    95.1760    71.0510    24.5380     2.2210 
  187.3750   -12.3130    67.7930   100.3830    92.4870    83.4320    24.5790     2.2250 
  187.5000   -12.3540    66.2270    98.9440    91.0820    90.4240    24.5990     2.2270 
  187.6250   -12.4300    67.5370    98.7850    90.8130    93.3040    24.6040     2.2270 
  187.7500   -12.5650    69.6000    99.4890    91.3280    94.2740    24.6020     2.2250 
  187.8750   -12.7060    67.5300   100.7280    92.2980    95.7870    24.6000     2.2250 
  188.0000   -12.8620    65.0910   102.3820    93.5520   100.0710    24.5950     2.2290 
  188.1250   -13.0270    64.1920   104.8810    95.4180   101.9260    24.5820     2.2360 
  188.2500   -13.1960    63.1950   109.0490    98.6090    94.9450    24.5640     2.2450 
  188.3750   -13.4190    62.4820   116.4510   104.5480    88.8070    24.5640     2.2520 
  188.5000   -13.6640    64.1190   127.3010   113.5430    93.6300    24.6430     2.2550 
  188.6250   -13.8810    65.6190   141.3090   125.4320   108.0260    24.7750     2.2520 
  188.7500   -14.0950    62.9790   157.1690   139.1410   124.3300    24.9230     2.2440 
  188.8750   -14.3130    58.5650   172.1790   152.3930   146.4120    25.0250     2.2320 
  189.0000   -14.5020    57.7520   183.5680   162.7380   169.9670    25.0480     2.2200 
  189.1250   -14.6580    59.1750   189.5530   168.5940   179.8060    25.0160     2.2100 
  189.2500   -14.8230    59.5290   189.7620   169.5450   174.9580    24.9780     2.2020 
  189.3750   -14.9290    57.3710   184.6520   165.8150   161.6640    24.9570     2.1980 
  189.5000   -15.0070    54.7750   176.9160   159.6230   157.6360    24.9420     2.1990 
  189.6250   -15.0940    53.7010   168.2570   152.4140   157.3380    24.8990     2.2030 
  189.7500   -15.1540    55.3890   160.1920   145.5290   148.6210    24.8040     2.2090 
  189.8750   -15.2300    58.8340   154.4340   140.4950   140.0690    24.6720     2.2140 
  190.0000   -15.3170    60.9250   151.5530   137.9110   131.9230    24.5500     2.2180 
  190.1250   -15.4370    59.9830   151.7780   138.0560   126.9520    24.4260     2.2200 
  190.2500   -15.5590    57.9650   154.7060   140.6600   126.5750    24.2460     2.2220 
  190.3750   -15.7210    57.8710   159.2690   144.8670   133.0220    24.0080     2.2230 
  190.5000   -15.8840    58.5860   163.4110   148.8180   143.4600    23.8000     2.2240 
  190.6250   -16.0320    57.8730   165.7170   151.1540   147.5600    23.6660     2.2240 
  190.7500   -16.1900    55.9010   165.5980   151.1950   149.3580    23.5050     2.2240 
  190.8750   -16.3320    56.9060   163.6180   149.2110   149.0390    23.3760     2.2230 
  191.0000   -16.4990    59.4290   162.2250   147.3390   144.2500    23.4040     2.2230 
  191.1250   -16.6840    59.8020   163.8980   147.8330   131.0480    23.5630     2.2240 
  191.2500   -16.8810    58.3450   170.9060   152.8690   122.3800    23.8290     2.2250 
  191.3750   -17.0770    55.8070   186.0520   165.1740   122.2790    24.0680     2.2250 
  191.5000   -17.3030    54.2070   208.2430   184.0250   126.9330    24.1560     2.2230 
  191.6250   -17.5480    53.9590   235.4800   207.9360   135.3140    24.1540     2.2200 
  191.7500   -17.7740    53.2180   263.4770   233.4490   153.1140    24.1420     2.2160 
  191.8750   -18.0190    51.1980   284.1850   253.9320   176.7990    24.1470     2.2140 
