~V
VERS. 2.00: Ver 2.00
~W
STRT.M 55.0000:
STOP.M 283.0000:
STEP.M 0.1250:
NULL. -999.2500:
UWI. F11062:
~C
DEPT.M :
SP.MV :
GR.API :
RML.OHMM :
RI. :
RXO.OHMM :
CALI.CM :
DEN.GM/CC :
~A
# ...
  235.0000    -9.4960    57.0710    25.9190    23.9160    73.8650    23.8960     2.5310 
  235.1250    -9.3730    54.5540    15.5620    14.4770    37.7120    23.8600     2.4620 
  235.2500    -9.2960    58.9100    10.0430     9.3410    15.4420    23.8270     2.4120 
  235.3750    -9.2280    68.4380     7.5190     6.8020     7.5170    23.8200     2.3880 
  235.5000    -9.1570    76.9710     6.6740     5.7480     5.6760    23.8360     2.3860 
  235.6250    -9.1090    82.5400     6.7940     5.6500     5.8890    23.8620     2.3900 
  235.7500    -9.0830    89.1090     7.2690     5.9990     6.3000    23.8810     2.3870 
  235.8750    -9.0650    96.8740     7.8350     6.5580     6.4590    23.8600     2.3730 
  236.0000    -9.0570   101.2150     8.3040     7.1260     6.3300    23.7720     2.3550 
  236.1250    -8.9510    99.0290     8.5330     7.5200     6.2530    23.5780     2.3400 
  236.2500    -8.7750    96.1880     8.5590     7.7110     6.2750    23.3070     2.3340 
  236.3750    -8.5480    96.7480     8.4510     7.7300     6.3030    22.9900     2.3340 
  236.5000    -8.2790   100.0630     8.2870     7.6380     6.3910    22.7270     2.3380 
  236.6250    -8.0120   102.0390     8.1420     7.4940     6.5610    22.7440     2.3410 
  236.7500    -7.7130   100.9570     8.0530     7.3440     6.7010    22.9950     2.3430 
  236.8750    -7.3880    99.0340     8.0440     7.2140     6.7360    23.2820     2.3460 
  237.0000    -7.0740    98.7600     8.1440     7.1390     6.6950    23.4400     2.3540 
  237.1250    -6.8290   101.0320     8.4110     7.1980     6.7100    23.4560     2.3640 
  237.2500    -6.6430   101.9120     8.7920     7.4400     6.8850    23.4200     2.3720 
  237.3750    -6.5060    97.5190     9.3190     7.8970     7.2240    23.3700     2.3760 
  237.5000    -6.4190    88.3630     9.9360     8.5300     7.8010    23.3060     2.3750 
  237.6250    -6.3320    82.2230    10.3130     9.1930     8.7610    23.2350     2.3700 
  237.7500    -6.2650    82.5580    10.7850     9.6670    10.0460    23.1930     2.3620 
  237.8750    -6.2700    85.9420    10.8140     9.7890    11.1880    23.1740     2.3540 
  238.0000    -6.2940    88.1650    10.4260     9.5240    10.8960    23.1530     2.3470 
  238.1250    -6.3330    88.4620     9.8550     9.0090     9.4320    23.1150     2.3420 
  238.2500    -6.3930    89.6020     9.4770     8.5750     8.1180    23.0860     2.3370 
  238.3750    -6.4860    92.9220     9.5030     8.4240     7.4750    23.1070     2.3290 
  238.5000    -6.6090    95.7040     9.9650     8.6240     7.4640    23.1550     2.3160 
  238.6250    -6.7770    93.9860    10.7410     9.1390     8.3410    23.1710     2.3030 
  238.7500    -6.9490    90.4800    11.5180     9.7420     9.7890    23.1630     2.2940 
  238.8750    -7.0750    88.6710    12.1080    10.2670    11.1580    23.1440     2.2950 
  239.0000    -7.1740    90.1080    12.4840    10.6370    11.4580    23.1270     2.3030 
  239.1250    -7.2540    93.1440    12.9030    10.9660    10.7270    23.1170     2.3180 
  239.2500    -7.3130    95.1460    13.8110    11.5690    10.4760    23.1090     2.3360 
  239.3750    -7.3390    95.2070    15.6220    12.7800    10.9360    23.0880     2.3550 
  239.5000    -7.3420    91.9410    18.6240    14.8970    12.9150    23.0490     2.3680 
  239.6250    -7.3180    85.6300    23.0480    18.2930    17.2280    23.0140     2.3650 
  239.7500    -7.2760    78.5850    28.3280    22.6880    23.5030    22.9950     2.3440 
  239.8750    -7.2530    72.6970    33.7900    27.6460    31.4260    22.9730     2.3100 
  240.0000    -7.2410    68.0870    38.5570    32.4260    40.1450    22.9240     2.2740 
  240.1250    -7.2270    63.0090    41.4760    35.8810    41.2670    22.8230     2.2470 
  240.2500    -7.2000    59.7770    42.4920    37.6140    41.8870    22.6760     2.2330 
  240.3750    -7.1690    59.0080    41.9960    37.7570    40.4240    22.5260     2.2310 
  240.5000    -7.1470    58.7790    40.6510    36.8190    37.0200    22.4200     2.2380 
  240.6250    -7.1360    58.5810    38.8400    35.1450    32.6470    22.3790     2.2480 
  240.7500    -7.1180    58.5730    36.5470    32.9070    29.7120    22.3630     2.2560 
  240.8750    -7.1150    59.2500    33.4940    29.9860    29.9950    22.3480     2.2640 
  241.0000    -7.0900    61.4040    29.6120    26.3970    34.1920    22.3470     2.2710 
  241.1250    -7.0200    66.0410    25.3770    22.5690    33.1930    22.4620     2.2800 
  241.2500    -6.9660    69.2720    21.8350    19.3230    25.1130    22.7160     2.2880 
  241.3750    -6.9400    68.4150    19.8570    17.2860    17.6370    23.0320     2.2940 
  241.5000    -6.9040    66.2210    20.0700    16.8810    13.8220    23.2760     2.2920 
  241.6250    -6.8470    66.7620    23.2930    18.7960    13.5100    23.4110     2.2840 
  241.7500    -6.8140    67.1080    29.1110    22.9540    17.5420    23.4790     2.2750 
  241.8750    -6.7630    64.6220    36.9720    29.2180    25.1710    23.5300     2.2720 
  242.0000    -6.7300    60.8300    45.6050    36.7930    36.3070    23.5720     2.2770 
  242.1250    -6.7530    57.4740    52.6010    43.7880    51.0460    23.5620     2.2870 
  242.2500    -6.7690    55.1240    56.1060    48.1200    63.8910    23.4890     2.2950 
  242.3750    -6.7760    54.2910    55.5660    48.7640    63.1120    23.4040     2.2930 
  242.5000    -6.7890    55.8320    52.2850    46.4720    51.2090    23.3810     2.2800 
  242.6250    -6.8340    56.7790    48.7260    43.2550    42.3500    23.4110     2.2610 
  242.7500    -6.8940    55.5780    46.4200    40.7490    36.4140    23.4270     2.2420 
  242.8750    -6.9820    54.1710    45.3960    39.2150    34.6540    23.4310     2.2290 
  243.0000    -7.0790    55.0730    45.0690    38.3470    35.9600    23.4290     2.2230 
  243.1250    -7.1790    57.2240    44.7170    37.6850    37.1790    23.4180     2.2250 
  243.2500    -7.3070    58.8530    44.0290    36.9560    37.1370    23.3930     2.2310 
  243.3750    -7.4570    60.2760    43.1650    36.2540    35.1620    23.3540     2.2380 
  243.5000    -7.6140    62.9220    42.4880    35.8310    32.0420    23.3130     2.2420 
  243.6250    -7.7470    64.5950    42.3990    36.0150    31.3580    23.2830     2.2400 
  243.7500    -7.8990    64.5630    42.8010    36.7290    33.5720    23.2580     2.2330 
  243.8750    -8.0370    63.0340    43.3980    37.7480    38.1290    23.2520     2.2270 
  244.0000    -8.1850    60.3640    43.7850    38.7130    43.7840    23.2830     2.2280 
  244.1250    -8.3560    58.6780    43.3640    39.0440    44.4880    23.3500     2.2440 
  244.2500    -8.5100    57.1600    41.7790    38.3090    42.3610    23.3980     2.2680 
  244.3750    -8.6360    54.5610    38.7500    36.1440    40.8990    23.4100     2.2900 
  244.5000    -8.7500    52.1000    34.2700    32.4630    39.2830    23.4000     2.3010 
  244.6250    -8.8630    53.8500    28.8330    27.4600    37.4470    23.3940     2.2970 
  244.7500    -8.9470    58.8320    23.2680    22.1350    34.7910    23.4000     2.2880 
  244.8750    -8.9750    61.8920    18.3970    17.3030    24.5850    23.4040     2.2820 
  245.0000    -8.9300    63.9800    14.9860    13.5160    14.8230    23.3870     2.2810 
  245.1250    -8.8070    68.9020    12.2460    11.1130    10.9440    23.3430     2.2840 
  245.2500    -8.6510    73.6850    10.7390     9.7440     8.5850    23.3030     2.2870 
  245.3750    -8.4540    73.4950    10.1790     9.2020     7.4970    23.2770     2.2880 
  245.5000    -8.2190    68.4680    10.2550     9.2680     7.4460    23.2590     2.2870 
  245.6250    -7.9440    64.1290    10.6950     9.7540     7.9180    23.2850     2.2870 
  245.7500    -7.6380    61.6280    11.1720    10.3510     8.6450    23.3360     2.2900 
  245.8750    -7.3280    60.4830    11.4990    10.8490     9.3440    23.3690     2.2960 
  246.0000    -7.0570    61.2300    11.5700    11.0950     9.4800    23.3800     2.3040 
  246.1250    -6.8520    63.5750    11.3590    10.9930     9.1600    23.3900     2.3140 
