~V
VERS. 2.00: Ver 2.00
~W
STRT.M 51.0000:
STOP.M 277.0000:
STEP.M 0.1250:
NULL. -999.2500:
UWI. F11053:
~C
DEPT.M :
GR.API :
RML.OHMM :
RI. :
RXO.OHMM :
CALI.CM :
DEN.GM/CC :
SP.MV :
~A
# ...
  208.5000    68.2960    49.0730    39.4300    39.4280    24.5630     2.2540   -12.1050 
  208.6250    71.2230    50.7410    40.4250    40.4800    24.8000     2.2400   -12.0720 
  208.7500    73.4980    52.0550    41.1920    40.4950    25.0150     2.2370   -12.0480 
  208.8750    73.6680    53.5970    42.2690    40.1050    25.1630     2.2400   -12.0260 
  209.0000    72.0900    55.6740    43.9330    42.1580    25.2680     2.2430   -11.9730 
  209.1250    71.1250    58.1980    46.0290    44.7550    25.4090     2.2420   -11.8750 
  209.2500    70.7650    60.9770    48.3380    48.1210    25.5930     2.2400   -11.7600 
  209.3750    69.2350    63.7800    50.6580    52.6990    25.7690     2.2350   -11.6420 
  209.5000    66.2750    66.4220    52.8400    51.2780    25.8730     2.2320   -11.5440 
  209.6250    64.8220    68.9810    55.0050    48.2910    25.9770     2.2300   -11.4550 
  209.7500    65.5640    71.6810    57.3990    51.8160    26.1510     2.2280   -11.3680 
  209.8750    67.1580    74.7020    60.1670    58.4040    26.3670     2.2250   -11.2800 
  210.0000    68.0560    78.0610    63.2270    61.2500    26.4940     2.2200   -11.2010 
  210.1250    67.2140    81.4930    66.2500    59.5760    26.5120     2.2140   -11.1160 
  210.2500    65.9960    84.6770    68.9200    58.2460    26.4960     2.2090   -11.0210 
  210.3750    66.3880    87.3380    71.0810    62.7550    26.5330     2.2060   -10.8940 
  210.5000    66.5630    89.0810    72.7600    71.1070    26.6540     2.2080   -10.7320 
  210.6250    64.5410    89.5280    73.9590    76.4450    26.7790     2.2090   -10.5720 
  210.7500    62.1880    88.0450    74.1280    77.6650    26.8490     2.2070   -10.4120 
  210.8750    62.1580    84.0590    72.4310    76.4170    26.8880     2.2020   -10.2540 
  211.0000    63.3960    77.4130    68.0900    71.9990    26.8670     2.1940   -10.0970 
  211.1250    64.9480    69.5230    61.9340    64.4790    26.7350     2.1890    -9.9790 
  211.2500    67.6820    62.0300    55.4240    55.5470    26.4970     2.1940    -9.8860 
  211.3750    69.8150    56.2830    50.0620    44.6240    26.2970     2.2090    -9.8140 
  211.5000    69.8160    53.4680    47.2420    39.6770    26.2170     2.2280    -9.7500 
  211.6250    69.7180    53.5160    47.0530    37.6860    26.2140     2.2440    -9.6770 
  211.7500    69.4950    56.0300    49.2220    39.1300    26.2820     2.2500    -9.5930 
  211.8750    66.9820    60.1860    53.1120    52.0260    26.4580     2.2450    -9.4970 
  212.0000    63.7640    64.2140    57.3440    65.7020    26.6530     2.2340    -9.4100 
  212.1250    63.9870    66.7420    60.2510    68.0900    26.7300     2.2210    -9.2990 
  212.2500    66.8550    67.6440    60.9530    60.0540    26.7000     2.2130    -9.1780 
  212.3750    69.3980    67.2440    59.6260    51.5610    26.6140     2.2070    -9.0690 
  212.5000    69.5010    65.5210    57.1400    46.0260    26.5370     2.2060    -8.9830 
  212.6250    67.5340    62.9970    54.5610    43.2160    26.4840     2.2080    -8.9190 
  212.7500    66.2150    60.5780    52.3990    43.5530    26.4630     2.2150    -8.8700 
  212.8750    67.5390    58.9300    50.7990    44.3050    26.4580     2.2260    -8.8230 
  213.0000    69.5480    58.2940    50.0130    43.4500    26.4550     2.2380    -8.7550 
  213.1250    69.3260    58.8010    50.2690    42.7390    26.4380     2.2460    -8.6980 
  213.2500    68.0100    60.7000    51.8470    46.3870    26.4570     2.2470    -8.6500 
  213.3750    66.6470    64.1130    54.8790    54.5250    26.6630     2.2380    -8.5850 
  213.5000    64.0960    68.8630    59.1820    64.5520    27.1170     2.2210    -8.5040 
  213.6250    60.9980    74.0250    63.8530    68.9370    27.4850     2.2030    -8.4250 
  213.7500    59.3150    78.7310    68.0570    71.4660    27.6030     2.1870    -8.3560 
  213.8750    59.4260    82.5140    71.3420    72.3590    27.5600     2.1760    -8.3050 
  214.0000    59.8700    85.4020    73.7350    68.5910    27.5020     2.1690    -8.2920 
  214.1250    59.7740    87.9080    75.8260    70.6260    27.4470     2.1660    -8.3080 
  214.2500    60.2790    90.2070    77.9630    91.9530    27.3860     2.1650    -8.3580 
  214.3750    62.9020    92.0030    79.9860   127.5720    27.3780     2.1680    -8.4500 
  214.5000    67.0110    92.6060    81.2130   112.6800    27.4790     2.1740    -8.5680 
  214.6250    69.7210    91.9270    81.2880    77.9300    27.6350     2.1810    -8.7020 
  214.7500    69.4170    90.3700    80.3070    62.7690    27.7660     2.1880    -8.8340 
  214.8750    66.9550    88.6740    78.8080    58.5820    27.8470     2.1950    -8.9460 
  215.0000    65.1650    87.8180    77.7910    56.9510    27.8510     2.1940    -9.0110 
  215.1250    65.0650    88.3210    78.0260    52.4860    27.7680     2.1850    -9.0510 
  215.2500    64.9780    90.3180    79.8160    48.8540    27.6220     2.1690    -9.0740 
  215.3750    64.3040    93.5690    82.9820    53.7090    27.5020     2.1500    -9.0800 
  215.5000    63.9180    97.3470    86.8830    66.2800    27.3540     2.1350    -9.0790 
  215.6250    65.1030   100.4040    90.3730    83.4440    26.8600     2.1240    -9.0700 
  215.7500    67.6000   101.5530    92.3650    95.2600    25.8100     2.1180    -9.0680 
  215.8750    70.2990   100.0240    92.0910    93.4810    24.6450     2.1150    -9.0840 
  216.0000    72.3880    95.4860    89.0600    82.2920    23.9560     2.1130    -9.1220 
  216.1250    73.1700    89.0430    84.0610    72.7630    23.8300     2.1150    -9.1600 
  216.2500    72.2460    81.8700    78.0550    67.3190    24.1270     2.1210    -9.1870 
  216.3750    69.2920    74.9000    71.8970    60.3460    24.7970     2.1280    -9.2060 
  216.5000    65.3500    68.8430    66.3040    51.9660    25.6050     2.1390    -9.2330 
  216.6250    63.2930    63.7800    61.5010    47.5920    26.1490     2.1500    -9.2450 
  216.7500    63.3090    59.5860    57.4820    47.2150    26.4290     2.1610    -9.2270 
  216.8750    65.0940    56.0820    54.1490    47.5650    26.5450     2.1700    -9.2000 
  217.0000    68.1660    53.2160    51.4680    43.9280    26.3880     2.1780    -9.1870 
  217.1250    70.7410    50.9810    49.3950    37.2100    25.9550     2.1860    -9.2010 
  217.2500    70.9930    49.5300    48.0340    32.2460    25.5780     2.1940    -9.2210 
  217.3750    70.5970    49.0630    47.5440    30.3680    25.4280     2.2000    -9.2440 
  217.5000    71.7330    49.8330    48.1640    29.8460    25.4120     2.2030    -9.2590 
  217.6250    72.4630    51.6210    49.7150    30.6940    25.4030     2.2030    -9.2950 
  217.7500    71.0710    54.0570    51.8630    32.4190    25.3630     2.2010    -9.3590 
  217.8750    68.6040    56.6580    54.1570    33.1020    25.3080     2.1990    -9.4460 
  218.0000    66.7420    58.8270    56.0550    32.1630    25.2590     2.1960    -9.5160 
  218.1250    64.7480    60.2920    57.2940    31.6990    25.2360     2.1930    -9.5410 
  218.2500    63.7320    61.1010    57.8800    32.5730    25.2350     2.1930    -9.5650 
  218.3750    64.4240    61.5510    58.0540    34.2590    25.2480     2.1960    -9.6140 
  218.5000    67.3840    62.1010    58.2350    35.6570    25.2350     2.2020    -9.6880 
  218.6250    70.7740    63.0840    58.7720    35.4570    25.2130     2.2090    -9.7460 
  218.7500    72.0900    64.6270    59.8470    34.6120    25.1860     2.2120    -9.7900 
  218.8750    71.3570    66.6770    61.4720    36.2760    25.1690     2.2110    -9.8420 
  219.0000    70.6660    68.9880    63.4470    37.8820    25.1560     2.2070    -9.9260 
  219.1250    71.1730    71.1170    65.3220    38.0100    25.1330     2.2080   -10.0410 
  219.2500    71.1400    72.6580    66.6860    37.0180    25.0970     2.2210   -10.1450 
  219.3750    70.3170    73.3530    67.2840    35.4860    25.0700     2.2460   -10.2160 
  219.5000    69.7370    73.1140    67.0370    32.7280    25.0960     2.2700   -10.2600 
  219.6250    68.7950    72.3310    66.3120    30.6330    25.1580     2.2780   -10.3150 
