~V
VERS. 2.00: Ver 2.00
~W
STRT.M 59.0000:
STOP.M 217.0000:
STEP.M 0.1250:
NULL. -999.2500:
UWI. F11019:
~C
DEPT.M :
DEN.GM/CC :
GR.API :
RML.OHMM :
RI. :
RXO.OHMM :
CALI.CM :
SP.MV :
~A
# ...
  126.5000     2.4280    47.4760    18.8880    16.5270    15.9720    24.1690   -16.8810 
  126.6250     2.4380    47.4450    19.3970    16.7980    16.0580    24.1720   -17.0260 
  126.7500     2.4520    46.5060    20.0840    17.2920    16.2920    24.1310   -17.2200 
  126.8750     2.4710    45.7730    20.8740    17.9460    17.0870    23.9610   -17.4460 
  127.0000     2.4920    46.3010    21.6830    18.6770    18.2680    23.5920   -17.7050 
  127.1250     2.5110    47.7960    22.3880    19.3720    19.1050    23.1450   -18.0030 
  127.2500     2.5270    48.3730    22.9250    19.9400    19.1890    22.9060   -18.2480 
  127.3750     2.5380    47.0500    23.2620    20.3290    18.6630    22.9670   -18.4480 
  127.5000     2.5470    44.4760    23.4020    20.5240    18.5740    23.3260   -18.6090 
  127.6250     2.5560    43.2630    23.3400    20.5140    18.9010    23.7340   -18.6820 
  127.7500     2.5640    44.7660    23.1360    20.3680    19.0830    23.9880   -18.6790 
  127.8750     2.5680    47.7080    22.8140    20.1230    18.5720    24.0550   -18.5840 
  128.0000     2.5690    49.9800    22.4100    19.8160    17.5670    24.0630   -18.4380 
  128.1250     2.5620    50.3420    21.9690    19.4870    17.2020    24.0730   -18.2110 
  128.2500     2.5490    49.5270    21.5510    19.1810    17.4730    24.0830   -17.9680 
  128.3750     2.5300    48.4540    21.1930    18.9280    17.6900    24.1000   -17.7390 
  128.5000     2.5080    47.8180    20.9270    18.7530    17.2790    24.1080   -17.5160 
  128.6250     2.4870    47.6360    20.7850    18.6860    16.6740    24.1580   -17.3460 
  128.7500     2.4730    46.9760    20.7430    18.7080    16.5010    24.1830   -17.2200 
  128.8750     2.4670    45.4220    20.7780    18.7970    17.0540    24.1180   -17.1820 
  129.0000     2.4690    43.7760    20.8720    18.9280    18.0860    24.0000   -17.1380 
  129.1250     2.4710    43.5720    21.0300    19.0870    18.7360    23.8040   -17.0800 
  129.2500     2.4660    44.8540    21.2640    19.2750    18.6260    23.6780   -17.0370 
  129.3750     2.4530    46.8890    21.5970    19.5110    18.1100    23.7730   -17.0270 
  129.5000     2.4320    48.6850    22.0300    19.8130    18.2100    24.0000   -17.0470 
  129.6250     2.4100    49.5600    22.5220    20.1830    19.2520    24.1150   -17.0090 
  129.7500     2.3970    49.7360    22.9630    20.5600    20.0570    24.0230   -16.8670 
  129.8750     2.3960    49.7810    23.2610    20.8730    19.8990    23.8210   -16.6150 
  130.0000     2.4110    50.5060    23.3700    21.0650    19.3240    23.5040   -16.3820 
  130.1250     2.4380    51.9240    23.3250    21.1220    19.0850    23.1090   -16.2630 
  130.2500     2.4690    52.6740    23.2890    21.1460    19.4300    22.8890   -16.2530 
  130.3750     2.4970    51.8630    23.3810    21.2300    19.8640    22.8620   -16.3130 
  130.5000     2.5150    49.6990    23.6390    21.4260    20.2570    22.9740   -16.3940 
  130.6250     2.5220    47.3890    23.9870    21.7050    20.7460    23.2030   -16.5690 
  130.7500     2.5200    45.9330    24.2440    21.9380    20.9010    23.4630   -16.8760 
  130.8750     2.5130    45.6680    24.2730    22.0100    20.5320    23.6200   -17.2740 
  131.0000     2.5020    46.9080    24.0180    21.8600    19.7880    23.6980   -17.6880 
  131.1250     2.4890    49.7160    23.5060    21.4870    18.7380    23.7780   -18.0760 
  131.2500     2.4770    52.2880    22.9210    21.0330    17.6900    23.8730   -18.4450 
  131.3750     2.4670    52.7400    22.3980    20.6050    17.0840    24.0160   -18.7870 
  131.5000     2.4570    50.8050    22.0290    20.2860    16.9580    24.2140   -19.1100 
  131.6250     2.4460    48.7780    21.8700    20.1360    17.1650    24.4850   -19.4060 
  131.7500     2.4340    48.3460    21.8610    20.1210    17.3680    24.7810   -19.6780 
  131.8750     2.4240    49.1110    21.9700    20.2250    17.3770    24.9730   -19.8860 
  132.0000     2.4210    50.0630    22.1960    20.4420    17.2330    24.9290   -20.0380 
  132.1250     2.4290    50.8680    22.6020    20.8130    17.3450    24.6210   -20.1020 
  132.2500     2.4440    51.6000    23.2040    21.3370    17.8710    24.3330   -20.1150 
  132.3750     2.4620    51.8930    23.9900    22.0020    18.8080    24.1610   -20.1220 
  132.5000     2.4790    51.6430    24.8710    22.7420    20.1690    24.0180   -20.1540 
  132.6250     2.4900    51.2950    25.6440    23.3980    21.5320    23.9840   -20.1410 
  132.7500     2.4970    51.1290    26.1250    23.8210    21.9220    23.9910   -20.0350 
  132.8750     2.4990    51.1900    26.2330    23.9350    21.2050    24.0590   -19.9350 
  133.0000     2.4970    51.0610    26.0220    23.7740    19.9630    24.1820   -19.8490 
  133.1250     2.4890    50.2130    25.6770    23.4870    18.6900    24.4020   -19.8310 
  133.2500     2.4790    48.8950    25.4440    23.3000    17.9080    24.6330   -19.7880 
  133.3750     2.4700    47.8800    25.4300    23.3360    17.8060    24.7030   -19.5900 
  133.5000     2.4630    48.0140    25.6250    23.6190    18.3330    24.4740   -19.2150 
  133.6250     2.4620    49.3660    25.9340    24.0920    19.2390    23.7600   -18.7300 
  133.7500     2.4640    51.1190    26.2340    24.6050    20.3560    22.9650   -18.2630 
  133.8750     2.4680    52.8030    26.5130    25.0940    21.2230    22.4810   -17.8100 
  134.0000     2.4720    54.0680    26.8310    25.5650    21.7200    22.2600   -17.3900 
  134.1250     2.4770    54.2780    27.2750    26.0700    21.9830    22.1780   -16.9780 
  134.2500     2.4830    53.9010    27.7560    26.5710    22.0240    22.1090   -16.6120 
  134.3750     2.4870    54.1000    28.0100    26.8740    22.1710    22.0640   -16.4100 
  134.5000     2.4870    55.4150    27.6340    26.6470    22.5070    22.0660   -16.3890 
  134.6250     2.4780    57.2120    26.0920    25.3840    22.4730    22.0600   -16.5480 
  134.7500     2.4620    58.9640    23.6020    23.2040    21.4270    22.0760   -16.7650 
  134.8750     2.4400    60.7800    20.7070    20.5340    19.0820    22.1190   -16.9860 
  135.0000     2.4140    62.7120    18.2090    18.0600    15.7380    22.1940   -17.2130 
  135.1250     2.3880    64.4620    17.1180    16.6680    12.6000    22.3260   -17.4850 
  135.2500     2.3720    65.1980    17.6380    16.6470    12.5190    22.4590   -17.7720 
  135.3750     2.3710    63.6890    19.6990    18.0920    16.1270    22.5770   -18.0450 
  135.5000     2.3880    60.2720    22.8610    20.7970    22.0770    22.6440   -18.2820 
  135.6250     2.4160    56.8820    26.2900    24.2070    27.6330    22.6730   -18.4620 
  135.7500     2.4400    54.5240    28.9420    27.2490    29.8940    22.7320   -18.6720 
  135.8750     2.4520    52.6250    30.1850    29.1100    28.7560    22.8950   -18.8970 
  136.0000     2.4500    50.9610    29.9150    29.4180    26.1940    23.2320   -19.1300 
  136.1250     2.4410    51.2030    28.5020    28.3130    25.0540    23.6550   -19.3330 
  136.2500     2.4360    54.0960    26.8000    26.6980    24.4280    23.8110   -19.4930 
  136.3750     2.4350    58.0250    25.1640    25.0100    23.6540    23.6590   -19.6670 
  136.5000     2.4380    60.1520    23.7190    23.4400    22.0860    23.3640   -19.8380 
  136.6250     2.4430    58.9350    22.5730    22.1210    20.2040    23.2010   -19.9830 
  136.7500     2.4480    57.0380    21.7820    21.1140    18.9910    23.3020   -20.0520 
  136.8750     2.4510    56.0140    21.4430    20.5130    18.8500    23.5850   -20.1250 
  137.0000     2.4550    55.9380    21.6030    20.3740    19.6940    23.9010   -20.2110 
  137.1250     2.4610    55.7110    22.2670    20.7400    20.8350    23.9650   -20.3250 
  137.2500     2.4690    54.0940    23.1730    21.4000    21.7740    23.9090   -20.4920 
  137.3750     2.4780    50.9900    24.0900    22.1590    22.0050    23.8610   -20.6080 
  137.5000     2.4860    47.4330    24.7970    22.8060    21.6670    23.9100   -20.7110 
  137.6250     2.4880    44.9510    25.0700    23.1080    21.8050    24.0060   -20.7920 
