~V
VERS. 2.00: Ver 2.00
~W
STRT.M 51.0000:
STOP.M 282.0000:
STEP.M 0.1250:
NULL. -999.2500:
UWI. F11065:
~C
DEPT.M :
GR.API :
RML.OHMM :
RI. :
RXO.OHMM :
CALI.CM :
DEN.GM/CC :
SP.MV :
~A
# ...
  219.7500    72.4730    47.6940    41.1660    43.9770    24.9770     2.2620    -9.3650 
  219.8750    71.9420    48.1120    42.1810    50.4060    25.0880     2.2780    -9.3750 
  220.0000    71.3270    47.7960    42.4220    54.6180    25.1610     2.2950    -9.3410 
  220.1250    71.2900    46.4040    41.6200    51.7500    25.1810     2.3160    -9.2560 
  220.2500    72.9690    43.5060    39.2750    48.5560    25.1670     2.3350    -9.1370 
  220.3750    75.1920    39.1560    35.2830    41.0050    25.1330     2.3450    -9.0390 
  220.5000    75.9040    34.6890    30.9640    30.5140    25.1140     2.3390    -8.9890 
  220.6250    76.2400    31.3140    27.4510    22.2530    25.1300     2.3190    -8.9630 
  220.7500    78.5890    29.9130    25.5080    19.8820    25.1760     2.2910    -8.9830 
  220.8750    81.8110    31.3190    25.8920    21.6810    25.2240     2.2640    -9.0080 
  221.0000    81.5290    35.0740    28.5300    27.6970    25.2840     2.2450    -9.0570 
  221.1250    77.1250    41.2200    33.4820    37.4510    25.3330     2.2320    -9.1300 
  221.2500    72.4930    49.4720    40.3650    48.4010    25.3640     2.2230    -9.2110 
  221.3750    70.4390    58.2020    47.9830    53.9500    25.3590     2.2160    -9.2410 
  221.5000    69.7330    65.0740    54.5210    56.4860    25.3270     2.2110    -9.2670 
  221.6250    68.8110    69.3020    59.1080    55.6390    25.2910     2.2090    -9.2980 
  221.7500    67.5310    71.5460    61.8430    52.3290    25.2840     2.2070    -9.3530 
  221.8750    65.7960    72.6900    63.2440    50.3900    25.2910     2.2050    -9.3960 
  222.0000    63.9920    73.2740    63.9840    49.0460    25.2700     2.2010    -9.4490 
  222.1250    64.7450    73.2420    64.0460    45.9020    25.2270     2.1960    -9.4830 
  222.2500    68.4540    72.3970    63.2770    41.1410    25.1830     2.1930    -9.5500 
  222.3750    71.6640    70.7130    61.5710    38.0030    25.1130     2.1940    -9.6490 
  222.5000    71.3860    68.8170    59.4390    37.0150    25.0380     2.2000    -9.7820 
  222.6250    68.3940    67.2930    57.4700    35.0810    25.0300     2.2080    -9.9000 
  222.7500    66.1010    66.6200    56.2860    33.1230    25.1500     2.2160    -9.9570 
  222.8750    67.0830    67.3600    56.6780    31.5140    25.3060     2.2200    -9.9970 
  223.0000    68.8350    69.5790    58.7260    32.0450    25.3240     2.2210   -10.0160 
  223.1250    68.8920    73.4230    62.3970    34.3500    25.2470     2.2200   -10.0160 
  223.2500    67.1830    78.7990    67.4240    37.8560    25.1510     2.2180    -9.9510 
  223.3750    65.3030    85.2280    73.3120    43.6560    25.1590     2.2140    -9.8650 
  223.5000    64.5940    91.4740    79.0650    51.0540    25.2770     2.2070    -9.7380 
  223.6250    64.1830    96.5900    83.9470    58.4880    25.3410     2.1950    -9.6310 
  223.7500    63.8710   100.0780    87.5460    64.6550    25.3330     2.1850    -9.5750 
  223.8750    64.5860   101.9610    89.8640    68.5830    25.3290     2.1820    -9.5670 
  224.0000    65.2070   103.2570    91.6900    76.1090    25.3410     2.1870    -9.6090 
  224.1250    64.2960   105.3260    93.6010    80.0970    25.3130     2.1970    -9.7570 
  224.2500    61.4190   109.3150    96.0920    85.0700    25.2310     2.2060   -10.0070 
  224.3750    58.5260   114.7980    99.4850    91.5250    25.2470     2.2140   -10.2440 
  224.5000    57.6780   119.1670   103.0990    95.0010    25.2160     2.2220   -10.4780 
  224.6250    57.7470   120.3940   105.6910    96.7130    25.2410     2.2320   -10.6850 
  224.7500    59.0660   117.4470   105.7320   100.8170    25.3290     2.2430   -10.9130 
  224.8750    61.6720   109.6550   101.6790    96.2280    25.3790     2.2510   -11.0870 
  225.0000    65.0980    99.1240    94.6580    81.3370    25.3620     2.2540   -11.2210 
  225.1250    68.6740    88.0780    86.1950    68.9680    25.3080     2.2530   -11.2760 
  225.2500    71.4190    78.3900    77.9100    62.7120    25.2440     2.2490   -11.2700 
  225.3750    71.7060    71.4160    71.1790    62.9650    25.1930     2.2460   -11.2270 
  225.5000    69.3140    66.7470    66.2050    62.3970    25.1620     2.2390   -11.2150 
  225.6250    67.3120    64.0120    63.0310    61.2940    25.1550     2.2260   -11.2260 
  225.7500    67.5770    62.8860    61.5580    61.2200    25.1430     2.2090   -11.2150 
  225.8750    67.8640    63.3950    61.8500    63.1270    25.1320     2.1960   -11.1670 
  226.0000    66.8200    65.1640    63.4910    72.4480    25.1900     2.1930   -11.1130 
  226.1250    65.0050    67.9710    66.4020    95.4270    25.2890     2.2010   -11.0450 
  226.2500    63.4520    71.3880    70.3170   117.5070    25.3860     2.2140   -11.0360 
  226.3750    62.4740    74.6180    74.3850   103.9340    25.4410     2.2270   -11.1250 
  226.5000    62.2410    76.8180    77.3330    92.8650    25.4640     2.2350   -11.1930 
  226.6250    63.1180    77.4830    78.3470    85.2750    25.4590     2.2390   -11.2290 
  226.7500    64.5490    76.6260    77.3580    79.6410    25.4490     2.2420   -11.2460 
  226.8750    65.5140    74.8100    74.9960    75.6390    25.4470     2.2490   -11.3130 
  227.0000    66.0240    73.2260    72.6410    70.3360    25.4530     2.2570   -11.4030 
  227.1250    65.5500    72.7110    71.2130    67.2990    25.4670     2.2660   -11.5020 
  227.2500    65.4610    73.7980    71.3360    68.2280    25.4780     2.2690   -11.5720 
  227.3750    67.1660    76.9390    73.6300    70.1390    25.4600     2.2630   -11.6420 
  227.5000    70.6320    81.6000    77.6500    72.8680    25.4490     2.2480   -11.7330 
  227.6250    71.9350    87.3040    82.8710    81.0850    25.4460     2.2320   -11.8240 
  227.7500    68.7530    93.4290    88.5620    94.5650    25.4390     2.2160   -11.9110 
  227.8750    65.3820    99.2630    93.9380   111.1440    25.4070     2.2060   -12.0070 
  228.0000    65.6200   104.4460    98.6910   116.5550    25.3610     2.2010   -12.0470 
  228.1250    67.0780   108.9030   102.8780   109.5550    25.3650     2.2020   -12.0870 
  228.2500    65.8510   112.6290   106.5920   118.1450    25.4390     2.2100   -12.0720 
  228.3750    61.8260   115.2520   109.5580   132.6640    25.5120     2.2230   -12.0190 
  228.5000    60.6040   116.4560   111.4290   141.6300    25.5210     2.2340   -11.9080 
  228.6250    63.3090   115.8240   111.7260   137.5620    25.5110     2.2390   -11.8210 
  228.7500    66.0090   113.2570   110.1350   120.8890    25.4850     2.2390   -11.7390 
  228.8750    64.8160   109.0010   106.6200   112.0080    25.4740     2.2360   -11.6340 
  229.0000    63.2750   104.1880   102.3320   108.7270    25.4320     2.2330   -11.5290 
  229.1250    64.4700    99.5870    98.1260   106.7850    25.3990     2.2330   -11.4060 
  229.2500    65.3200    95.7380    94.5200   113.0250    25.3970     2.2320   -11.3500 
  229.3750    64.6760    93.1430    91.8850   104.2040    25.4290     2.2300   -11.3040 
  229.5000    64.3500    91.7370    90.1860    91.0770    25.4560     2.2260   -11.2640 
  229.6250    64.4110    91.4660    89.4850    86.6440    25.4730     2.2210   -11.1130 
  229.7500    64.1650    92.1180    89.7940    87.5720    25.4390     2.2190   -10.9070 
  229.8750    62.8620    93.3720    91.0520    88.4890    25.3380     2.2210   -10.6590 
  230.0000    62.2790    94.6540    92.6220    91.2710    25.2230     2.2280   -10.4660 
  230.1250    62.9330    95.5810    93.9380    93.9060    25.1400     2.2380   -10.3330 
  230.2500    64.5060    95.9230    94.6030    96.3040    25.1160     2.2480   -10.1920 
  230.3750    67.1270    95.5720    94.4470    98.2740    25.1700     2.2550   -10.0810 
  230.5000    69.0370    94.8100    93.8170    99.6240    25.1910     2.2570   -10.0280 
  230.6250    70.1570    93.8310    92.9480    97.9880    25.0720     2.2550   -10.0910 
  230.7500    70.3840    92.7250    91.9780    89.9610    24.8660     2.2530   -10.1790 
  230.8750    68.1920    91.3910    90.8740    73.8490    24.6860     2.2530   -10.3290 
