~V
VERS. 2.00: Ver 2.00
~W
STRT.M 50.0000:
STOP.M 278.0000:
STEP.M 0.1250:
NULL. -999.2500:
UWI. F11029:
~C
DEPT.M :
SP.MV :
DEN.GM/CC :
GR.API :
RML.OHMM :
RI. :
RXO.OHMM :
CALI.CM :
~A
# ...
  173.7500   -13.4840     2.2350    60.2580   102.8590   106.2120   157.9600    24.6340 
  173.8750   -13.3530     2.2550    65.1260    82.0570    84.6140   105.6220    24.5890 
  174.0000   -13.3740     2.2880    70.4780    64.5910    65.2660    52.1000    24.5240 
  174.1250   -13.6060     2.3250    73.3710    54.7140    53.4000    25.8730    24.3390 
  174.2500   -13.8850     2.3500    74.9860    51.6390    48.5060    21.0660    24.0850 
  174.3750   -14.1270     2.3530    75.8860    54.3610    49.8260    26.6640    23.8700 
  174.5000   -14.3710     2.3350    74.3420    61.3990    56.2960    40.1050    23.7790 
  174.6250   -14.7260     2.3090    69.6250    70.6850    66.3710    48.6900    23.7720 
  174.7500   -15.1370     2.2910    65.9640    79.1120    76.0820    59.6370    23.7510 
  174.8750   -15.4530     2.2910    67.1290    85.0880    82.3480    73.1800    23.6620 
  175.0000   -15.6860     2.3040    71.6250    88.9790    84.5430    64.9510    23.4620 
  175.1250   -16.0020     2.3180    73.4880    94.7000    86.0290    48.5480    23.2850 
  175.2500   -16.3690     2.3190    71.3660   105.0020    92.2400    59.7050    23.2180 
  175.3750   -16.7030     2.3060    67.8580   120.8610   107.4920    98.3830    23.2200 
  175.5000   -16.9250     2.2850    64.4090   145.4770   135.1920   137.9560    23.2200 
  175.6250   -17.1350     2.2660    62.7880   187.5400   179.5150   138.8410    23.2470 
  175.7500   -17.4680     2.2540    62.6750   245.5540   235.3800   139.7480    23.3230 
  175.8750   -17.9300     2.2480    61.9450   312.4560   295.5210   147.7160    23.3910 
  176.0000   -18.3160     2.2410    60.4650   379.5380   352.4960   181.7320    23.4400 
  176.1250   -18.3630     2.2310    59.8550   439.8150   403.9540   244.8400    23.5050 
  176.2500   -18.2720     2.2140    60.3160   485.7410   450.8600   292.6170    23.6140 
  176.3750   -18.2870     2.1940    60.5130   501.7010   481.8900   330.3420    23.7410 
  176.5000   -18.4510     2.1760    60.2930   473.4090   474.1110   404.7150    23.9520 
  176.6250   -18.5680     2.1720    60.2640   404.0230   408.8470   440.3630    24.0360 
  176.7500   -18.5560     2.1840    60.5240   325.8400   320.2590   387.6440    24.0950 
  176.8750   -18.4530     2.2100    62.0540   255.9430   238.8920   256.5760    24.1110 
  177.0000   -18.4140     2.2400    65.5390   200.0800   179.2320   129.3000    24.1230 
  177.1250   -18.5980     2.2590    69.7190   163.0710   144.7270    81.3050    24.0090 
  177.2500   -18.8300     2.2670    73.3120   142.0930   125.7880    71.5090    24.0490 
  177.3750   -18.8670     2.2680    75.4600   131.4600   116.8750    86.7450    24.1240 
  177.5000   -18.6940     2.2700    74.6360   125.8980   113.4270   103.0980    24.1690 
  177.6250   -18.5910     2.2780    70.8370   122.1350   111.8960    99.3440    24.1380 
  177.7500   -18.6400     2.2850    67.7110   117.9960   109.7420    91.1430    24.2110 
  177.8750   -18.7330     2.2830    66.6510   113.2310   106.4670    88.3620    24.5090 
  178.0000   -18.7080     2.2660    67.9320   108.4090   102.6370    83.7790    25.3460 
  178.1250   -18.5900     2.2390    69.6450   104.3940    99.3120    80.7350    25.1810 
  178.2500   -18.5460     2.2160    69.3190   101.2430    96.7680    78.9430    25.2590 
  178.3750   -18.6450     2.2090    67.0280    98.5600    94.5880    78.3090    25.2730 
  178.5000   -18.7970     2.2170    65.7230    95.8300    92.1290    76.6480    25.2400 
  178.6250   -18.8100     2.2340    68.0470    92.7430    88.9340    74.6820    25.1290 
  178.7500   -18.7250     2.2490    70.2220    89.6160    85.3550    73.3540    25.0550 
  178.8750   -18.6730     2.2570    69.2150    87.0040    81.9970    70.2290    24.9830 
  179.0000   -18.7220     2.2600    65.4630    85.5160    79.5480    66.3820    24.8710 
  179.1250   -18.7490     2.2640    63.9100    85.9360    78.8250    63.7670    24.8040 
  179.2500   -18.6120     2.2680    67.2820    88.2290    79.8490    63.8390    24.8720 
  179.3750   -18.3410     2.2730    72.0590    92.3570    82.6620    65.1260    25.0450 
  179.5000   -18.1330     2.2770    73.5520    98.0580    87.1460    69.9010    25.1890 
  179.6250   -18.0920     2.2760    71.6200   104.8470    92.9930    71.3940    25.1570 
  179.7500   -18.0320     2.2720    69.5610   111.6140    99.1010    72.3560    25.0820 
  179.8750   -17.8620     2.2660    67.5240   117.4090   104.5090    79.8970    25.1720 
  180.0000   -17.5690     2.2600    64.8470   121.4120   108.3760    96.3360    25.2990 
  180.1250   -17.2900     2.2590    63.2330   122.8280   109.8650   101.3950    25.3550 
  180.2500   -17.1850     2.2610    63.7040   122.2780   109.4810    94.3050    25.3860 
  180.3750   -17.2090     2.2650    65.2780   120.4800   107.8720    87.3830    25.4510 
  180.5000   -17.1830     2.2680    66.1540   118.3130   105.8550    81.3840    25.5020 
  180.6250   -17.0350     2.2670    66.1070   116.6840   104.2850    79.9580    25.4170 
  180.7500   -16.9640     2.2600    66.4360   115.9490   103.5170    80.0950    25.3570 
  180.8750   -17.0030     2.2530    66.8920   116.1210   103.5340    78.3530    25.4180 
  181.0000   -17.1200     2.2470    66.1020   116.9730   104.0700    73.9980    25.4690 
  181.1250   -17.2160     2.2490    64.9290   118.0480   104.7410    80.2150    25.3610 
  181.2500   -17.2640     2.2550    65.4930   118.5370   105.0630    80.8550    25.2430 
  181.3750   -17.3260     2.2620    66.8840   117.4640   104.2860    80.9030    25.1350 
  181.5000   -17.4450     2.2640    66.6710   114.1910   101.3640    83.5400    25.0640 
  181.6250   -17.4850     2.2600    64.5920   107.4910    95.2520    84.8090    25.1120 
  181.7500   -17.3980     2.2550    64.7800    97.2360    87.2590    79.2750    25.2410 
  181.8750   -17.3250     2.2540    67.9610    85.5090    79.1370    71.5350    25.3030 
  182.0000   -17.3510     2.2540    71.4840    76.5570    72.7350    62.7210    25.2420 
  182.1250   -17.3760     2.2530    71.6020    74.5440    70.1520    56.2800    25.1450 
  182.2500   -17.3010     2.2500    69.1810    77.8990    71.6250    52.4270    25.1160 
  182.3750   -17.1870     2.2460    65.1990    85.0940    77.1830    56.2450    25.1030 
  182.5000   -17.1990     2.2470    61.6320    95.5850    86.3340    66.9280    25.0870 
  182.6250   -17.5250     2.2540    60.7780   108.5020    98.1560    80.2420    24.8920 
  182.7500   -17.9550     2.2640    62.1680   121.8140   110.3650    92.3200    24.6330 
  182.8750   -18.2710     2.2700    64.0760   134.2850   121.4960    91.7270    24.4680 
  183.0000   -18.3620     2.2690    66.7110   145.2610   130.9700    81.4320    24.3210 
  183.1250   -18.4270     2.2600    68.9850   154.0790   138.6350    77.7110    24.1520 
  183.2500   -18.6390     2.2480    68.0040   160.2450   144.3710    81.8460    24.0580 
  183.3750   -18.8170     2.2380    64.0240   162.4530   146.9490    90.5710    24.0540 
  183.5000   -18.7820     2.2330    60.5460   159.6150   144.9860    93.9110    24.0610 
  183.6250   -18.4700     2.2370    60.8300   151.4160   137.5000    90.4760    23.9880 
  183.7500   -18.0560     2.2470    61.8280   141.0940   127.2940    77.6390    23.8350 
  183.8750   -17.6470     2.2600    62.2320   131.5770   117.2790    60.0440    23.7000 
  184.0000   -17.3360     2.2710    62.4480   125.1250   110.0050    46.5760    23.7180 
  184.1250   -16.9710     2.2730    62.5920   123.0410   107.2960    43.1340    23.7040 
  184.2500   -16.4670     2.2650    63.4170   123.4510   107.5410    44.7170    23.5470 
  184.3750   -16.0530     2.2500    64.1290   124.3030   108.5810    54.6630    23.3910 
  184.5000   -15.7630     2.2380    65.0450   123.8060   108.2590    77.7810    23.3110 
  184.6250   -15.4380     2.2340    66.4890   121.3050   105.4610    79.9190    23.4990 
  184.7500   -15.0200     2.2380    67.6800   118.7080   102.0620    59.6490    23.9000 
  184.8750   -14.6180     2.2420    66.9060   118.3200   100.6030    50.7670    24.2080 
