~V
VERS. 2.00: Ver 2.00
~W
STRT.M 58.0000:
STOP.M 277.0000:
STEP.M 0.1250:
NULL. -999.2500:
UWI. F11038:
~C
DEPT.M :
GR.API :
RML.OHMM :
RI. :
RXO.OHMM :
CALI.CM :
DEN.GM/CC :
SP.MV :
~A
# ...
  193.0000    69.8550   152.7160   145.3850   146.4670    25.0980     2.2230   -42.2560 
  193.1250    69.1850   154.1300   147.1730   139.9550    25.1070     2.2280   -41.1450 
  193.2500    70.1110   155.6850   149.1710   137.6550    25.1050     2.2320   -39.9230 
  193.3750    69.8110   157.4020   151.3520   137.6720    25.0390     2.2350   -38.5940 
  193.5000    69.1660   159.1240   153.5240   140.1350    24.8700     2.2350   -37.2070 
  193.6250    69.8800   160.3550   155.1650   150.4300    24.6120     2.2320   -35.8890 
  193.7500    69.3810   160.5420   155.8240   148.1730    24.3940     2.2280   -34.6240 
  193.8750    68.3400   159.0790   155.1380   142.1270    24.2900     2.2240   -33.4550 
  194.0000    69.5170   155.4740   152.8630   140.4510    24.2660     2.2210   -32.3910 
  194.1250    71.6050   149.3760   148.7000   145.3050    24.3040     2.2180   -31.4330 
  194.2500    71.4180   142.1970   143.6210   149.4390    24.3620     2.2150   -30.6760 
  194.3750    69.9750   135.9120   139.2550   144.3400    24.4330     2.2130   -30.0410 
  194.5000    70.0290   133.1160   138.0530   130.2310    24.5660     2.2120   -29.5130 
  194.6250    71.0180   138.1770   144.4420   122.1930    24.7810     2.2080   -29.0530 
  194.7500    73.2760   153.4060   161.2000   119.2720    24.9340     2.2000   -28.6700 
  194.8750    75.4220   180.7480   192.0310   136.7630    24.9740     2.1820   -28.4140 
  195.0000    74.7830   215.0390   238.0030   187.2910    24.9580     2.1600   -28.2810 
  195.1250    71.1590   231.8590   280.7260   294.0790    24.9860     2.1480   -28.1600 
  195.2500    67.6660   211.4140   273.3130   382.3090    25.0060     2.1590   -28.0710 
  195.3750    66.7040   157.5300   201.1070   389.2490    24.9840     2.2010   -27.9910 
  195.5000    69.9540    95.2040   114.5610   291.0870    24.9160     2.2650   -27.8660 
  195.6250    79.9870    52.2310    61.4240   111.7020    24.9100     2.3300   -27.7870 
  195.7500    93.0560    29.3120    34.5170    26.3310    24.9900     2.3740   -27.7690 
  195.8750   102.5070    19.2060    22.8450    12.1220    25.0520     2.3850   -27.9020 
  196.0000   106.8310    16.1830    19.1390     9.7620    25.0430     2.3690   -28.1060 
  196.1250   106.5190    17.9070    20.4260    13.7250    24.9770     2.3380   -28.4350 
  196.2500   101.7490    22.3910    25.1050    24.9930    24.8980     2.3100   -28.8100 
  196.3750    92.6990    28.8270    33.0320    43.6080    24.8370     2.2930   -29.2420 
  196.5000    84.1510    36.2410    43.2080    53.8250    24.7850     2.2840   -29.8300 
  196.6250    81.9860    43.5930    53.2160    42.2650    24.8510     2.2760   -30.4580 
  196.7500    82.2810    50.5520    61.6780    35.4540    25.0070     2.2630   -31.0780 
  196.8750    79.2390    57.4310    69.3360    47.0830    25.1410     2.2470   -31.5970 
  197.0000    73.3650    64.4100    77.0890    76.5370    25.2070     2.2340   -32.0860 
  197.1250    70.9730    70.6730    84.0730   109.4710    25.2380     2.2320   -32.6110 
  197.2500    71.4680    75.2070    88.3440    96.0230    25.2440     2.2390   -33.1430 
  197.3750    71.8360    77.8640    89.2170    75.0520    25.2550     2.2500   -33.6740 
  197.5000    71.0510    79.7540    88.2950    69.6390    25.2780     2.2580   -34.1600 
  197.6250    73.6030    82.9570    88.7040    69.9870    25.3280     2.2560   -34.6110 
  197.7500    78.5450    88.2020    91.8510    75.0290    25.3460     2.2440   -35.0970 
  197.8750    79.7840    94.6730    97.1490   100.5730    25.2750     2.2310   -35.6070 
  198.0000    74.9900   100.4620   102.6610   161.9450    25.1810     2.2220   -36.0850 
  198.1250    69.0000   102.9830   105.4860   146.0180    25.1130     2.2240   -36.4740 
  198.2500    68.0150   102.0390   104.8030   100.6070    25.1140     2.2340   -36.7950 
  198.3750    71.6520    98.5750   101.3600    95.5720    25.1640     2.2470   -37.1400 
  198.5000    74.3020    94.1350    96.7540   112.7570    25.2610     2.2600   -37.4920 
  198.6250    75.3470    90.0320    92.4920   105.6330    25.3340     2.2700   -37.9000 
  198.7500    77.2880    86.4740    88.9120    81.6740    25.1190     2.2740   -38.2410 
  198.8750    79.0850    83.1210    85.5520    73.9290    24.8420     2.2720   -38.5030 
  199.0000    78.5200    79.7290    81.9070    78.7090    24.7020     2.2670   -38.7690 
  199.1250    76.0980    76.6800    78.2050    80.3930    24.6900     2.2590   -38.9700 
  199.2500    75.9700    74.7620    75.4530    72.8470    24.6440     2.2510   -39.1000 
  199.3750    77.4580    74.7290    74.5310    62.4000    24.5620     2.2440   -39.0790 
  199.5000    77.0750    77.0380    75.9570    59.9800    24.6090     2.2370   -38.9050 
  199.6250    73.5800    82.0310    80.1790    67.3180    24.9100     2.2300   -38.5390 
  199.7500    70.5030    88.5890    86.1760    81.2260    25.1580     2.2240   -38.0200 
  199.8750    69.3240    95.4470    92.6890    93.7260    25.2440     2.2210   -37.4240 
  200.0000    68.8850   101.0770    98.0500    98.6620    25.2500     2.2220   -36.7140 
  200.1250    69.5670   103.7740   100.3600    99.7120    25.2780     2.2260   -35.9690 
  200.2500    73.3350   103.7430    99.8370    97.1260    25.2550     2.2290   -35.2430 
  200.3750    78.0350   101.6470    97.2790    92.7630    25.2360     2.2290   -34.5850 
  200.5000    76.9170    98.4030    93.7010    88.0520    25.2680     2.2260   -34.0180 
  200.6250    69.1130    94.7590    89.8910    85.0320    25.3420     2.2240   -33.5870 
  200.7500    65.1380    91.2030    86.2890    84.6850    25.4420     2.2250   -33.2820 
  200.8750    68.0810    87.8980    83.0340    82.9630    25.6210     2.2260   -33.0450 
  201.0000    72.3150    84.9540    80.1930    79.9600    25.9640     2.2240   -32.7540 
  201.1250    71.8010    82.6920    77.9410    77.2440    25.5590     2.2190   -32.4330 
  201.2500    69.3330    81.4290    76.4800    75.9200    25.3240     2.2260   -32.0800 
  201.3750    68.4350    81.5280    76.2740    74.5130    25.2090     2.2690   -31.6530 
  201.5000    69.7080    82.7480    77.5300    75.0750    25.1590     2.3590   -31.1720 
  201.6250    71.2860    82.9910    78.8610    74.4670    25.0760     2.4840   -30.4960 
  201.7500    70.5040    79.2410    76.7000    78.0040    25.0230     2.5930   -29.6880 
  201.8750    66.4170    69.8580    68.1360    87.6990    24.9670     2.6470   -28.7380 
  202.0000    60.3980    56.0080    53.9590    86.9300    24.9030     2.6320   -27.7630 
  202.1250    55.7880    41.5200    39.1890    57.3430    24.8060     2.5650   -26.7680 
  202.2500    55.4410    29.9040    27.9670    28.8760    24.7660     2.4960   -25.7760 
  202.3750    59.9290    22.1520    20.8590    16.1380    24.8350     2.4510   -24.8180 
  202.5000    67.0420    17.8390    16.9440    13.9040    24.8960     2.4390   -23.8280 
  202.6250    72.9520    16.1440    15.2320    15.0810    24.9000     2.4510   -22.9710 
  202.7500    73.9320    15.4110    14.3910    16.1320    24.9200     2.4700   -22.2140 
  202.8750    72.6180    14.7740    13.7340    16.7340    24.8100     2.4830   -21.5600 
  203.0000    74.6340    13.8160    12.8080    16.1370    24.5780     2.4820   -21.0150 
  203.1250    84.0340    12.5620    11.6000    11.7400    24.5030     2.4650   -20.6540 
  203.2500    94.6740    11.4710    10.5570     8.5960    24.6100     2.4390   -20.4580 
  203.3750   100.3620    10.9050     9.9820     7.9740    24.7470     2.4080   -20.4320 
  203.5000    99.7080    11.0570     9.9990     8.9120    24.7910     2.3800   -20.5740 
  203.6250    94.7290    12.0530    10.7370    10.9000    24.8380     2.3620   -20.7830 
  203.7500    89.8700    13.6000    12.0350    13.2950    24.8920     2.3610   -20.9370 
  203.8750    87.9850    15.3820    13.6680    14.3880    24.8560     2.3820   -21.0570 
  204.0000    89.1720    16.9410    15.1910    14.2400    24.8050     2.4220   -21.0930 
  204.1250    92.1820    17.6110    15.8540    15.6230    24.7850     2.4670   -20.9470 
