~V
VERS. 2.00: Ver 2.00
~W
STRT.M 45.0000:
STOP.M 277.0000:
STEP.M 0.1250:
NULL. -999.2500:
UWI. F11056:
~C
DEPT.M :
GR.API :
RML.OHMM :
RI. :
RXO.OHMM :
CALI.CM :
DEN.GM/CC :
SP.MV :
~A
# ...
  135.0000    88.0470     7.2320     6.5510     7.6370    23.7570     2.3240   -10.3270 
  135.1250    86.5350     7.2000     6.4840     7.4950    23.8940     2.3310   -10.1770 
  135.2500    86.2930     7.2700     6.5460     7.4910    24.0980     2.3280   -10.0280 
  135.3750    86.9900     7.3840     6.6750     7.6480    24.2960     2.3120    -9.8810 
  135.5000    84.9490     7.4820     6.8090     7.6060    24.5850     2.2850    -9.8560 
  135.6250    80.7300     7.5410     6.9100     7.7310    24.9390     2.2570    -9.8630 
  135.7500    77.0130     7.5670     6.9710     7.8780    25.1880     2.2360    -9.8430 
  135.8750    74.9170     7.5820     7.0040     7.8330    25.2820     2.2270    -9.8930 
  136.0000    75.1470     7.6140     7.0310     7.9750    25.2230     2.2300   -10.0250 
  136.1250    77.4270     7.6780     7.0690     8.1270    25.1150     2.2360   -10.1350 
  136.2500    78.1890     7.7780     7.1210     8.2380    25.0050     2.2400   -10.2860 
  136.3750    75.0900     7.9180     7.1970     8.1410    24.9440     2.2340   -10.5040 
  136.5000    70.7500     8.1050     7.3200     7.8280    24.9240     2.2160   -10.6860 
  136.6250    68.9950     8.3380     7.5020     7.5400    24.9050     2.1950   -10.8360 
  136.7500    70.0410     8.6190     7.7480     7.5030    24.7900     2.1780   -10.9450 
  136.8750    71.7220     8.9460     8.0550     7.8760    24.5330     2.1720   -11.0050 
  137.0000    71.6600     9.3130     8.4010     8.5230    24.2880     2.1770   -11.0580 
  137.1250    69.9840     9.6930     8.7460     9.1690    24.1020     2.1850   -11.1080 
  137.2500    70.0110    10.0610     9.0690     9.4400    23.9730     2.1910   -11.1490 
  137.3750    72.4350    10.3850     9.3530     9.7960    23.8950     2.1980   -11.1740 
  137.5000    72.8310    10.5950     9.5550    10.3790    23.8370     2.2170   -11.1650 
  137.6250    71.2050    10.6460     9.6480    10.4200    23.7560     2.2490   -11.1110 
  137.7500    71.1120    10.4930     9.6000     9.9820    23.6480     2.2860   -11.0660 
  137.8750    73.5770    10.1310     9.3930     9.4670    23.5810     2.3130   -11.0410 
  138.0000    74.9920     9.6060     9.0340     9.0210    23.6300     2.3150   -10.9540 
  138.1250    74.8680     9.0830     8.6320     9.0900    23.7870     2.3000   -10.8570 
  138.2500    74.5670     8.7110     8.3030     8.9130    24.1210     2.2800   -10.7690 
  138.3750    74.4790     8.6110     8.1710     8.8240    24.6720     2.2670   -10.6550 
  138.5000    73.6610     8.9050     8.3900     8.9810    25.2290     2.2650   -10.5140 
  138.6250    71.0490     9.4600     8.9010     9.4630    25.5430     2.2680   -10.4520 
  138.7500    67.9150    10.0210     9.5250     9.6390    25.6920     2.2720   -10.4270 
  138.8750    66.8940    10.2060     9.9250     9.8750    25.7090     2.2780   -10.3530 
  139.0000    68.8680     9.6010     9.6120    10.1940    25.6150     2.2870   -10.3600 
  139.1250    72.7160     8.4210     8.6320     9.6720    25.4460     2.3000   -10.4280 
  139.2500    79.6870     7.0460     7.2990     7.7330    25.2470     2.3150   -10.4820 
  139.3750    91.9340     5.8450     5.9990     5.9770    25.1060     2.3270   -10.5580 
  139.5000   102.7690     5.0690     5.0480     5.4180    24.9440     2.3300   -10.7650 
  139.6250   105.1410     4.6730     4.4840     5.2440    24.5660     2.3250   -11.0080 
  139.7500   101.7470     4.6310     4.3200     5.1830    24.0140     2.3210   -11.2600 
  139.8750    98.0810     4.9430     4.5500     5.2400    23.7560     2.3310   -11.5670 
  140.0000    93.5720     5.7070     5.2280     5.6830    24.0900     2.3600   -11.9010 
  140.1250    86.0140     6.8680     6.2520     7.1530    24.5330     2.3890   -12.2410 
  140.2500    79.8100     8.2960     7.5230    10.0440    24.6560     2.3920   -12.5810 
  140.3750    78.7020     9.6880     8.8190    11.7060    24.6210     2.3560   -12.9210 
  140.5000    78.7400    10.5430     9.7280    11.0470    24.9940     2.2850   -13.2700 
  140.6250    74.6990    10.7250    10.0590    11.8630    25.6350     2.2120   -13.6150 
  140.7500    69.8890    10.3650     9.8620    12.7830    26.1400     2.1570   -13.9250 
  140.8750    69.6060     9.7710     9.3770    11.8330    26.4690     2.1260   -14.1710 
  141.0000    73.1490     9.2920     8.9230    10.5480    26.7520     2.1170   -14.3530 
  141.1250    75.0580     9.0920     8.7030     9.8110    26.9230     2.1200   -14.4800 
  141.2500    73.7780     9.2030     8.7840     9.7160    26.8890     2.1310   -14.5570 
  141.3750    71.8570     9.5400     9.1190    10.2030    26.9020     2.1440   -14.6120 
  141.5000    71.0280     9.8350     9.4920    11.0110    27.1680     2.1560   -14.5780 
  141.6250    70.9700     9.7650     9.5670    12.1520    27.1950     2.1740   -14.4370 
  141.7500    73.0010     9.1890     9.1470    12.7700    26.8760     2.2000   -14.2650 
  141.8750    78.8760     8.2260     8.2850    11.4180    26.3940     2.2360   -14.1410 
  142.0000    87.3860     7.2010     7.2690     7.6010    26.0300     2.2720   -13.9830 
  142.1250    92.8460     6.4030     6.4190     6.2150    25.8410     2.2990   -13.8240 
  142.2500    92.6480     5.9100     5.8480     5.9690    25.7610     2.3150   -13.7380 
  142.3750    90.2530     5.6830     5.5550     6.1360    25.7370     2.3220   -13.6580 
  142.5000    90.9200     5.6340     5.4900     6.0690    25.7150     2.3260   -13.5600 
  142.6250    93.1990     5.6190     5.5110     6.0910    25.6600     2.3300   -13.5370 
  142.7500    94.2800     5.5870     5.5400     6.0290    25.6310     2.3310   -13.6090 
  142.8750    93.9930     5.5580     5.5710     5.8210    25.6250     2.3270   -13.6700 
  143.0000    95.0550     5.6320     5.6840     5.8520    25.5930     2.3230   -13.7270 
  143.1250    96.6100     5.8600     5.9350     5.9540    25.5740     2.3320   -13.7970 
  143.2500    96.3900     6.2180     6.3080     6.3260    25.5840     2.3600   -13.8530 
  143.3750    93.3640     6.5870     6.7020     7.1620    25.5910     2.4020   -13.8870 
  143.5000    90.0810     6.7340     6.8980     8.7570    25.5740     2.4430   -13.8980 
  143.6250    90.3010     6.5700     6.7740     9.4550    25.5460     2.4620   -13.9300 
  143.7500    94.0070     6.1590     6.3570     7.8980    25.5320     2.4560   -13.9890 
  143.8750    96.7820     5.6800     5.8080     6.3910    25.5230     2.4320   -14.0570 
  144.0000    95.2400     5.3760     5.3840     5.7850    25.5170     2.4080   -14.1080 
  144.1250    92.2180     5.3760     5.2720     6.0440    25.4570     2.3980   -14.1590 
  144.2500    90.4190     5.7850     5.6180     6.5680    25.3150     2.4100   -14.2150 
  144.3750    88.9850     6.7410     6.5550     7.3460    25.1100     2.4430   -14.2500 
  144.5000    85.2840     8.5040     8.2950     9.6370    24.9040     2.4920   -14.3130 
  144.6250    79.2030    10.7360    10.5900    14.0790    24.7560     2.5440   -14.3620 
  144.7500    72.0040    12.6160    12.8200    18.3690    24.6680     2.5850   -14.3100 
  144.8750    66.2970    13.1510    13.9050    18.6420    24.6000     2.6060   -14.1960 
  145.0000    65.2470    11.8470    12.8740    15.9600    24.6000     2.5970   -14.1310 
  145.1250    68.9880     9.8750    10.8120    12.0320    24.6770     2.5660   -14.0600 
  145.2500    76.0940     8.1990     8.8190     8.4010    24.8260     2.5250   -13.9660 
  145.3750    84.6990     7.2810     7.5200     6.6050    24.9960     2.4920   -13.9420 
  145.5000    89.8220     7.3300     7.2760     6.6420    25.0720     2.4900   -13.9480 
  145.6250    86.9690     8.2830     8.0050     8.6150    25.0520     2.5210   -13.9210 
  145.7500    77.1590    10.2840     9.7430    13.1630    24.9760     2.5750   -13.9570 
  145.8750    65.9190    13.2480    12.3790    19.0900    24.8950     2.6320   -14.1110 
  146.0000    59.1020    16.3830    15.2820    23.0580    24.8390     2.6720   -14.2640 
  146.1250    56.4800    18.4930    17.3040    22.7390    24.8210     2.6880   -14.4010 
