~V
VERS. 2.00: Ver 2.00
~W
STRT.M 57.0000:
STOP.M 272.0000:
STEP.M 0.1250:
NULL. -999.2500:
UWI. F11045:
~C
DEPT.M :
DEN.GM/CC :
GR.API :
RML.OHMM :
RI. :
RXO.OHMM :
CALI.CM :
SP.MV :
~A
# ...
  124.5000     2.3130    93.6130     4.9860     3.9470     4.7310    23.9160     1.8600 
  124.6250     2.3020    92.9450     5.4620     4.0560     5.2500    23.6360     2.0910 
  124.7500     2.2750    88.6140     6.3670     4.5280     6.3360    23.2670     2.1540 
  124.8750     2.2370    83.0420     7.4920     5.2560     7.6600    23.0680     2.0390 
  125.0000     2.1990    79.0560     8.5390     6.0560     8.4830    23.0040     1.7890 
  125.1250     2.1810    75.4680     9.1210     6.6530     8.5530    22.9420     1.4560 
  125.2500     2.1830    70.7710     9.2030     6.9370     8.5330    22.8620     1.1070 
  125.3750     2.2020    66.5960     8.9620     6.9720     8.4330    22.8590     0.7950 
  125.5000     2.2320    64.1210     8.6890     6.9230     8.3190    22.8790     0.5710 
  125.6250     2.2700    63.8680     8.7290     7.0070     8.4510    22.9050     0.5290 
  125.7500     2.3130    65.7370     9.2540     7.3690     8.9290    23.0370     0.7070 
  125.8750     2.3590    67.8090    10.3870     8.1230    10.0820    23.3530     1.1000 
  126.0000     2.4010    66.5070    12.1630     9.3590    12.4830    23.7470     1.6540 
  126.1250     2.4320    60.6980    14.5120    11.1600    16.0000    24.1080     2.2910 
  126.2500     2.4550    54.6340    16.9660    13.2620    20.6150    24.2980     2.9070 
  126.3750     2.4780    50.3100    19.0510    15.3260    24.8070    24.3360     3.4720 
  126.5000     2.5020    50.1280    20.3740    16.9830    23.6110    24.3190     3.9770 
  126.6250     2.5110    53.4280    20.7450    17.9230    21.2220    24.2550     4.3880 
  126.7500     2.5070    54.3440    20.5470    18.2920    19.4280    24.1710     4.6740 
  126.8750     2.5030    51.9860    19.9410    18.1510    18.1660    24.1110     4.8410 
  127.0000     2.5040    49.4880    18.8680    17.4350    19.0420    24.0230     4.8700 
  127.1250     2.4980    50.4080    17.0430    15.9100    18.1390    23.8310     4.7920 
  127.2500     2.4740    53.1620    14.6430    13.7990    15.7580    23.4950     4.6730 
  127.3750     2.4380    57.8080    12.0530    11.4520    12.1520    23.1480     4.5370 
  127.5000     2.3990    65.0200     9.7370     9.2700     8.7570    23.0720     4.3790 
  127.6250     2.3660    73.2690     8.0880     7.6120     7.1680    23.3580     4.1980 
  127.7500     2.3400    80.1250     7.0170     6.4710     6.6430    23.5190     4.0230 
  127.8750     2.3240    83.8300     6.3940     5.7850     6.5690    23.5400     3.8480 
  128.0000     2.3150    84.7200     6.0880     5.4590     6.1060    23.4520     3.6860 
  128.1250     2.3060    85.3940     6.0650     5.4320     6.1960    23.3740     3.5030 
  128.2500     2.2910    86.0110     6.2480     5.5740     6.3480    23.3080     3.2750 
  128.3750     2.2740    84.9170     6.5960     5.8310     6.5380    23.2830     3.0010 
  128.5000     2.2570    81.8670     7.0590     6.1820     6.5860    23.2610     2.7060 
  128.6250     2.2410    78.6840     7.6010     6.6340     7.0210    23.2090     2.4140 
  128.7500     2.2260    77.0550     8.1280     7.1280     7.7360    23.1180     2.1120 
  128.8750     2.2190    76.4150     8.5180     7.5610     8.3090    23.0870     1.8150 
  129.0000     2.2210    74.9760     8.6600     7.8030     8.8150    23.1260     1.5550 
  129.1250     2.2320    72.8270     8.5460     7.7840     8.7950    23.2150     1.3640 
  129.2500     2.2480    70.2350     8.4770     7.7080     8.7810    23.2900     1.2510 
  129.3750     2.2730    67.5260     8.8120     7.8390     8.4070    23.3490     1.2080 
  129.5000     2.3170    64.5230     9.8770     8.4370     9.0930    23.3610     1.2530 
  129.6250     2.3960    61.7330    12.4860     9.8480    12.9470    23.3390     1.4110 
  129.7500     2.4980    59.4760    15.5320    12.0470    20.4350    23.3690     1.6570 
  129.8750     2.5930    57.2800    18.9660    14.8640    26.1070    23.4330     1.9810 
  130.0000     2.6460    56.5120    22.0550    17.7920    25.5750    23.4860     2.3240 
  130.1250     2.6430    56.7760    23.8500    19.9280    24.4090    23.5330     2.6660 
  130.2500     2.6230    57.1820    24.3930    20.9710    23.0500    23.5700     2.9690 
  130.3750     2.6100    56.3060    24.1240    21.1590    22.7150    23.6000     3.2260 
  130.5000     2.6090    53.0200    23.6050    20.9660    23.4270    23.6200     3.4190 
  130.6250     2.6150    49.6080    23.2500    20.7760    23.1820    23.6830     3.5400 
  130.7500     2.6200    49.4590    23.1520    20.7110    23.1800    23.8370     3.6160 
  130.8750     2.6220    51.4350    23.3030    20.7710    22.8160    23.9960     3.6550 
  131.0000     2.6240    51.7630    23.6510    20.9360    23.3620    24.1100     3.6660 
  131.1250     2.6260    50.3280    24.0460    21.1710    24.9010    24.1210     3.6450 
  131.2500     2.6240    50.5980    24.2390    21.3750    25.2210    24.1040     3.6000 
  131.3750     2.6160    51.9810    24.0000    21.3900    24.0670    24.0760     3.5410 
  131.5000     2.6030    52.4810    23.1380    20.9860    24.1190    24.0570     3.4980 
  131.6250     2.5900    51.5470    21.5780    19.9120    23.4760    24.1150     3.4530 
  131.7500     2.5830    50.0710    19.7680    18.4340    21.8210    24.1770     3.3740 
  131.8750     2.5780    50.7760    18.1420    16.9310    18.8450    24.2350     3.2730 
  132.0000     2.5710    53.6870    17.0450    15.7710    16.0180    24.2670     3.1650 
  132.1250     2.5630    54.9080    16.8070    15.3140    13.7270    24.2840     3.0540 
  132.2500     2.5610    53.3500    17.3220    15.5430    16.3560    24.2890     2.9740 
  132.3750     2.5730    51.9990    18.3840    16.3620    20.6190    24.2560     2.9400 
  132.5000     2.5900    52.1130    19.5810    17.4880    22.2150    24.1890     2.9050 
  132.6250     2.5890    52.1240    20.2800    18.3620    20.5500    24.1760     2.8480 
  132.7500     2.5650    52.3140    20.1580    18.5380    19.2810    24.1710     2.8060 
  132.8750     2.5250    52.3040    19.2650    17.9450    19.2070    24.0870     2.7550 
  133.0000     2.4850    50.6240    17.9910    16.8800    18.4350    23.8950     2.7010 
  133.1250     2.4610    48.3940    16.8850    15.8380    15.1550    23.7340     2.6520 
  133.2500     2.4550    48.5400    16.2470    15.1540    13.9550    23.6470     2.6380 
  133.3750     2.4630    50.1150    16.1450    14.9100    14.1980    23.6390     2.6510 
  133.5000     2.4820    49.8930    16.4770    15.0450    15.6100    23.7200     2.7090 
  133.6250     2.5050    46.9630    16.9710    15.4020    17.0480    23.8230     2.8220 
  133.7500     2.5220    46.2820    17.2980    15.7280    18.4830    23.8430     2.9670 
  133.8750     2.5280    49.9630    17.3850    15.9250    18.3570    23.7320     3.1310 
  134.0000     2.5210    55.5000    17.3830    16.0590    16.1080    23.5290     3.2920 
  134.1250     2.5100    58.6660    17.6010    16.3450    14.5850    23.2960     3.4440 
  134.2500     2.5090    58.6330    18.1700    16.8820    16.2210    23.1910     3.5530 
  134.3750     2.5160    56.2720    19.0230    17.6180    19.9120    23.3020     3.6300 
  134.5000     2.5230    52.5870    19.9050    18.3540    23.5910    23.6530     3.6790 
  134.6250     2.5220    51.8420    20.3740    18.7310    23.6860    23.9840     3.6880 
  134.7500     2.5170    55.2630    20.2360    18.5960    20.5230    24.1500     3.6500 
  134.8750     2.5110    59.1080    19.5790    18.0260    17.8860    24.1290     3.5670 
  135.0000     2.5060    60.4660    18.7640    17.2990    17.5630    24.0830     3.4810 
  135.1250     2.5040    59.7790    18.2960    16.7910    18.9230    23.9540     3.4100 
  135.2500     2.5080    58.2390    18.3540    16.6760    18.3860    23.7560     3.3690 
  135.3750     2.5180    55.6620    18.8600    16.9550    17.9380    23.6560     3.3420 
  135.5000     2.5340    52.5630    19.5300    17.4810    19.1030    23.7390     3.3130 
  135.6250     2.5500    51.5610    19.9520    17.9810    22.5510    23.9200     3.2580 
