~V
VERS. 2.00: Ver 2.00
~W
STRT.M 54.0000:
STOP.M 226.0000:
STEP.M 0.1250:
NULL. -999.2500:
UWI. F11002:
~C
DEPT.M :
GR.API :
RML.OHMM :
RI. :
RXO.OHMM :
CALI.CM :
DEN.GM/CC :
SP.MV :
~A
# ...
  132.7500    69.1520    23.5700    20.9550    17.2290    25.0400     2.4410    -8.4320 
  132.8750    71.9710    24.0550    21.4910    17.8940    25.2040     2.4420    -8.3560 
  133.0000    74.2300    24.0360    21.6560    18.2690    25.1860     2.4400    -8.1670 
  133.1250    76.1340    23.3310    21.2250    18.5470    25.0820     2.4370    -7.9100 
  133.2500    78.2010    21.9880    20.1780    18.4470    24.9790     2.4370    -7.6950 
  133.3750    78.8100    20.2880    18.7330    17.5520    24.9680     2.4460    -7.6250 
  133.5000    77.0750    18.7210    17.3340    14.5840    25.0260     2.4610    -7.6530 
  133.6250    75.6450    17.5840    16.2550    12.6600    24.8960     2.4730    -7.7140 
  133.7500    77.4690    17.0030    15.6380    12.7770    24.5570     2.4770    -7.7660 
  133.8750    79.1280    16.9620    15.5390    13.6670    24.3150     2.4690    -7.7790 
  134.0000    78.5810    17.1570    15.7380    14.0050    24.3640     2.4550    -7.7690 
  134.1250    77.8030    17.3980    16.0540    13.7480    24.6490     2.4420    -7.7010 
  134.2500    77.7750    17.6040    16.3460    14.0030    24.9010     2.4330    -7.5330 
  134.3750    77.3180    17.8240    16.6050    14.4120    24.9940     2.4310    -7.2840 
  134.5000    79.2330    18.1260    16.9250    14.3710    25.0470     2.4340    -7.0150 
  134.6250    85.1110    18.4760    17.3120    14.3900    25.0800     2.4390    -6.8200 
  134.7500    88.8450    18.7170    17.6550    14.6880    25.1490     2.4380    -6.7500 
  134.8750    85.0570    18.6990    17.7650    15.7250    25.5800     2.4200    -6.7600 
  135.0000    79.5430    18.5690    17.6200    14.9780    26.0420     2.3880    -6.7730 
  135.1250    76.6450    18.3960    17.2840    13.1650    25.5280     2.3540    -6.8200 
  135.2500    74.7520    18.1250    16.8750    11.4480    24.6250     2.3320    -6.9570 
  135.3750    70.8920    17.7410    16.5350    11.1350    24.0420     2.3380    -7.1540 
  135.5000    66.1400    17.4600    16.3460    11.4780    23.9230     2.3610    -7.3580 
  135.6250    62.3850    17.4550    16.3690    11.5630    23.8180     2.3910    -7.5280 
  135.7500    61.5270    17.7350    16.6580    10.9950    23.6050     2.4170    -7.6620 
  135.8750    62.3010    18.2640    17.2410    10.5470    23.3940     2.4370    -7.7980 
  136.0000    63.2990    18.8240    17.9330    10.5910    23.2720     2.4530    -7.9830 
  136.1250    66.6400    19.1780    18.4970    11.3790    23.2480     2.4650    -8.1960 
  136.2500    73.5580    19.1120    18.6700    13.5520    23.2840     2.4740    -8.3610 
  136.3750    81.2560    18.4870    18.2050    14.7120    23.3310     2.4800    -8.5160 
  136.5000    86.3560    17.5630    17.3270    14.4840    23.3070     2.4890    -8.7270 
  136.6250    86.5940    16.6260    16.3610    13.1460    23.2080     2.5010    -8.9420 
  136.7500    81.4600    15.9550    15.6360    11.6380    23.1180     2.5130    -9.0730 
  136.8750    76.0280    15.8400    15.4490    11.7020    23.0880     2.5200    -9.1100 
  137.0000    76.0250    16.3040    15.8040    13.0070    23.1490     2.5190    -9.1310 
  137.1250    78.8170    17.3580    16.6930    14.1270    23.4380     2.5100    -9.1180 
  137.2500    80.1190    18.9320    18.0550    15.5940    24.0120     2.4930    -9.0790 
  137.3750    79.4120    20.8710    19.8000    15.7620    24.7190     2.4680    -9.0600 
  137.5000    80.7250    22.8350    21.6580    16.5910    25.0820     2.4390    -9.0440 
  137.6250    86.0520    24.6120    23.4040    18.5230    25.2690     2.4080    -9.1630 
  137.7500    92.8510    26.1640    24.8960    20.6400    25.4810     2.3810    -9.5260 
  137.8750    94.7910    27.7890    26.2600    21.8910    25.6090     2.3610   -10.0820 
  138.0000    92.4860    30.0890    27.9900    23.4120    25.6290     2.3460   -10.7320 
  138.1250    88.8270    33.8590    30.7680    26.4300    25.6850     2.3310   -11.5430 
  138.2500    84.0630    40.0800    35.5780    37.1420    25.9430     2.3140   -12.5470 
  138.3750    77.0990    50.5330    44.3880    73.8180    26.3820     2.2930   -13.6160 
  138.5000    71.2100    65.3700    57.7010   133.2710    26.7080     2.2710   -14.6080 
  138.6250    67.6160    84.1680    75.3370   167.4770    26.8700     2.2510   -15.3610 
  138.7500    63.3800   104.9450    95.3940   156.5040    26.9740     2.2350   -15.8270 
  138.8750    58.2140   123.5810   113.5480   145.7800    27.1290     2.2220   -16.1810 
  139.0000    55.7050   136.9750   126.5110   142.7680    27.2720     2.2150   -16.4930 
  139.1250    56.7540   144.1750   133.6400   144.3740    27.3490     2.2110   -16.6360 
  139.2500    58.2560   146.1210   136.1150   139.1830    27.3780     2.2090   -16.5060 
  139.3750    58.8350   144.4190   135.1320   129.8670    27.4000     2.2100   -16.1460 
  139.5000    60.6070   141.7260   132.8620   130.4020    27.4330     2.2120   -15.8760 
  139.6250    64.0170   139.6750   130.9830   127.2660    27.4840     2.2180   -15.8770 
  139.7500    66.7480   139.7780   130.9320   116.6480    27.5720     2.2250   -16.1050 
  139.8750    66.7060   143.4030   134.0630   110.0430    27.6300     2.2260   -16.3950 
  140.0000    63.8060   149.4840   139.8700   127.6320    27.6410     2.2190   -16.7260 
  140.1250    59.0590   156.6180   147.4290   150.8280    27.6650     2.2060   -17.0920 
  140.2500    55.8300   163.3670   155.2910   156.6760    27.7230     2.1920   -17.4700 
  140.3750    57.3130   168.3490   161.6360   154.0070    27.7430     2.1850   -17.8520 
  140.5000    61.2430   171.1850   165.7900   151.3390    27.7300     2.1880   -18.1630 
  140.6250    64.0070   171.7680   167.6490   144.3130    27.7010     2.1960   -18.2790 
  140.7500    63.3480   170.1920   167.3560   131.8910    27.6700     2.2010   -18.2210 
  140.8750    60.8770   166.1070   164.6030   123.6610    27.5530     2.2010   -18.2030 
  141.0000    61.0360   160.0170   159.7030    86.8330    27.1760     2.1960   -18.2270 
  141.1250    64.3760   152.5540   153.0470    57.0190    26.4760     2.1930   -18.3680 
  141.2500    67.3070   144.8680   145.7420    50.0080    25.9610     2.1930   -18.6870 
  141.3750    67.4490   138.6030   139.5850    74.1930    26.1200     2.1980   -19.1170 
  141.5000    67.1310   134.5190   135.5030    93.6520    26.7080     2.2050   -19.5120 
  141.6250    66.9480   132.8540   133.7480   101.5990    27.2560     2.2110   -19.7800 
  141.7500    66.3230   133.4490   134.2350   117.4340    27.5590     2.2140   -19.9550 
  141.8750    65.3100   136.1120   136.9130   131.2910    27.7100     2.2110   -20.0500 
  142.0000    63.5730   139.8550   140.7700   122.5030    27.7900     2.2040   -20.1970 
  142.1250    60.2080   143.9420   144.9850   109.5630    27.6960     2.1970   -20.2520 
  142.2500    57.7750   147.5520   148.6920   117.2200    27.5240     2.1910   -19.9290 
  142.3750    59.6580   149.5280   150.6260   156.6450    27.3230     2.1860   -19.3420 
  142.5000    63.4120   149.5090   150.2940   166.9120    27.1440     2.1810   -18.7580 
  142.6250    66.2270   147.5570   147.7230   138.6130    27.1560     2.1760   -18.2420 
  142.7500    67.1370   144.3020   143.5840    99.8350    27.3460     2.1740   -17.7100 
  142.8750    68.6460   140.8390   138.9680    77.4700    27.2630     2.1760   -17.0340 
  143.0000    69.7520   138.3570   135.1780    65.4240    26.8900     2.1780   -16.1830 
  143.1250    68.4410   137.7300   133.1660    67.9360    26.6110     2.1760   -15.3950 
  143.2500    65.1280   139.7330   133.6570    86.4300    26.6250     2.1700   -15.2120 
  143.3750    62.2310   145.8850   137.9570   112.4470    26.7800     2.1630   -15.4110 
  143.5000    60.0420   156.6360   146.4370   129.4270    26.7180     2.1580   -15.3130 
  143.6250    57.7220   172.3210   159.7950   146.2950    26.4930     2.1600   -15.0010 
  143.7500    56.0250   192.2470   177.9520   172.4320    26.5730     2.1660   -14.8050 
  143.8750    56.6420   213.8330   198.9940   237.6080    26.7850     2.1730   -14.8310 
