~V
VERS. 2.00: Ver 2.00
~W
STRT.M 54.0000:
STOP.M 226.0000:
STEP.M 0.1250:
NULL. -999.2500:
UWI. F11002:
~C
DEPT.M :
GR.API :
RML.OHMM :
RI. :
RXO.OHMM :
CALI.CM :
DEN.GM/CC :
SP.MV :
~A
# ...
  166.5000    61.7220     7.3020     6.7900     4.4750    24.0530     2.5010    -5.0840 
  166.6250    60.3590     7.5900     7.0490     5.0900    24.0750     2.4960    -4.6860 
  166.7500    59.0990     8.1420     7.5930     6.1930    24.1930     2.4970    -4.2790 
  166.8750    59.1430     8.5790     8.0310     6.5960    24.2780     2.5030    -3.9210 
  167.0000    58.5540     8.6740     8.0960     6.7510    24.2890     2.5060    -3.6320 
  167.1250    54.1980     8.4020     7.7760     6.3790    24.1830     2.5030    -3.5220 
  167.2500    49.4170     7.8910     7.2470     5.5500    23.9440     2.4900    -3.6380 
  167.3750    50.0490     7.3550     6.7590     5.2540    23.5570     2.4670    -3.8740 
  167.5000    51.8930     6.9710     6.4470     5.1110    23.3710     2.4400    -4.1950 
  167.6250    49.6720     6.8060     6.3340     4.8610    23.5010     2.4180    -4.6460 
  167.7500    46.0700     6.8600     6.3840     4.8570    23.8870     2.4070    -5.1650 
  167.8750    49.8610     7.0780     6.5230     5.2250    24.3720     2.4130    -5.6370 
  168.0000    58.3700     7.3070     6.6320     5.8240    24.6590     2.4250    -5.9510 
  168.1250    65.3520     7.4240     6.6320     6.3200    24.7900     2.4340    -6.0270 
  168.2500    65.2860     7.3530     6.4850     6.5010    24.6060     2.4360    -5.8380 
  168.3750    58.5900     7.0860     6.2000     5.5140    24.4560     2.4290    -5.4030 
  168.5000    53.7450     6.7500     5.8690     4.9380    24.3720     2.4180    -4.9130 
  168.6250    53.9100     6.4440     5.5510     4.7550    24.3370     2.4080    -4.4660 
  168.7500    56.2090     6.2380     5.2940     4.6730    24.2890     2.4010    -4.1100 
  168.8750    56.9280     6.1820     5.1620     4.6220    24.1490     2.3960    -3.9110 
  169.0000    57.5270     6.2560     5.1580     4.6470    23.9640     2.3880    -3.9130 
  169.1250    58.5710     6.4530     5.2750     4.6740    23.8270     2.3720    -4.0360 
  169.2500    59.5540     6.7540     5.4760     4.9270    23.7020     2.3510    -4.2200 
  169.3750    60.9710     7.1170     5.7140     5.2480    23.5750     2.3360    -4.5080 
  169.5000    61.7020     7.4520     5.9320     5.4990    23.5790     2.3360    -4.8450 
  169.6250    60.4890     7.6890     6.0930     5.5600    23.7210     2.3560    -5.1670 
  169.7500    58.2430     7.7900     6.1700     5.4840    23.9540     2.3910    -5.5600 
  169.8750    57.3350     7.7540     6.1410     5.4080    24.1220     2.4270    -6.0970 
  170.0000    56.9220     7.6610     6.0560     5.3710    24.2270     2.4540    -6.6340 
  170.1250    55.9710     7.5630     5.9570     5.4560    24.2780     2.4680    -7.1170 
  170.2500    54.4500     7.4910     5.8750     5.5830    24.2960     2.4720    -7.4940 
  170.3750    51.8440     7.4690     5.8310     5.6470    24.2920     2.4650    -7.7290 
  170.5000    49.1150     7.4860     5.8170     5.5570    24.2790     2.4530    -7.8730 
  170.6250    48.6200     7.5240     5.8170     5.4250    24.2700     2.4380    -7.9290 
  170.7500    49.4990     7.5510     5.8110     5.3430    24.3220     2.4260    -7.8370 
  170.8750    49.3340     7.5240     5.7860     5.2820    24.3720     2.4220    -7.5900 
  171.0000    48.2090     7.4480     5.7400     5.3720    24.3770     2.4250    -7.3230 
  171.1250    47.7290     7.3560     5.6800     5.5260    24.3180     2.4330    -7.0560 
  171.2500    47.9350     7.2950     5.6220     5.3680    24.2230     2.4410    -6.8470 
  171.3750    47.2860     7.3140     5.5940     5.1630    24.1660     2.4480    -6.7910 
  171.5000    45.4860     7.4100     5.6040     4.9600    24.1650     2.4530    -6.8240 
  171.6250    42.4710     7.5720     5.6540     4.9280    24.1040     2.4580    -6.9700 
  171.7500    40.0550     7.7720     5.7380     4.9780    24.0420     2.4630    -7.3190 
  171.8750    40.7760     7.9570     5.8340     5.1430    24.0460     2.4640    -7.8820 
  172.0000    43.2000     8.0750     5.9070     5.2690    24.0550     2.4610    -8.6000 
  172.1250    45.3090     8.1090     5.9450     5.2960    24.0370     2.4520    -9.5220 
  172.2500    46.6890     8.0920     5.9540     5.2880    24.0100     2.4410   -10.5090 
  172.3750    48.6680     8.0990     5.9690     5.2880    23.9820     2.4310   -11.4130 
  172.5000    51.7100     8.1840     6.0280     5.3550    23.9440     2.4290   -12.3370 
  172.6250    55.4970     8.3490     6.1490     5.4730    23.8970     2.4350   -13.3480 
  172.7500    60.5360     8.5640     6.3210     5.6060    23.9580     2.4490   -14.4100 
  172.8750    69.1480     8.7980     6.5060     5.8670    24.0950     2.4590   -15.5390 
  173.0000    79.7400     9.0380     6.6740     6.1130    24.2320     2.4480   -16.7880 
  173.1250    89.2840     9.2830     6.8240     6.2440    24.2110     2.4030   -18.1530 
  173.2500    95.6250     9.5340     6.9770     6.2430    24.0000     2.3300   -19.6960 
  173.3750    99.9490     9.7940     7.1480     6.1620    23.8730     2.2570   -21.4930 
  173.5000   104.2670    10.0700     7.3240     6.3690    24.0310     2.2180   -23.4030 
  173.6250   106.8310    10.3590     7.4770     6.7470    24.4870     2.2270   -25.2600 
  173.7500   104.5890    10.6310     7.5850     7.1370    24.9310     2.2710   -26.8970 
  173.8750   100.3020    10.8120     7.6420     7.3120    25.0080     2.3190   -28.1050 
  174.0000   100.2640    10.8550     7.6690     7.4460    24.9300     2.3410   -28.8510 
  174.1250   101.9260    10.7540     7.6710     7.6500    24.8790     2.3350   -29.1500 
  174.2500   100.8760    10.5760     7.6450     7.8320    24.8550     2.3160   -28.9990 
  174.3750    97.4250    10.5220     7.6300     7.9360    24.8150     2.3050   -28.3410 
  174.5000    95.5950    10.8190     7.7500     8.2640    24.7840     2.3170   -27.3760 
  174.6250    93.7950    11.6490     8.1590     8.7130    24.7770     2.3580   -26.2840 
  174.7500    88.6360    13.0490     8.9530     9.4060    24.7660     2.4240   -25.2150 
  174.8750    83.0320    14.7970    10.1250    10.8760    24.6320     2.4990   -24.3830 
  175.0000    79.9780    16.2570    11.3140    15.2790    24.3450     2.5510   -23.8240 
  175.1250    83.1100    16.8550    12.0600    22.3180    24.1200     2.5650   -23.4440 
  175.2500    91.8290    16.3050    11.9870    22.5600    24.1370     2.5390   -23.2150 
  175.3750    99.9840    14.7370    11.0740    14.1940    24.4350     2.4910   -23.1850 
  175.5000   103.7220    12.9490     9.9240     9.5550    24.7170     2.4450   -23.2830 
  175.6250   103.1370    11.4360     8.8870     8.1910    24.8170     2.4100   -23.3870 
  175.7500   102.3000    10.3990     8.1030     8.0980    24.8400     2.3830   -23.3640 
  175.8750   102.7650     9.8120     7.5890     8.0560    24.8140     2.3630   -23.0150 
  176.0000    99.7890     9.3940     7.1990     7.8360    24.8030     2.3540   -22.3100 
  176.1250    91.5360     8.9950     6.8500     7.2860    24.6630     2.3560   -21.4590 
  176.2500    80.7720     8.5740     6.5270     6.5480    24.2330     2.3600   -20.7050 
  176.3750    72.4610     8.1860     6.2760     5.9350    23.8990     2.3520   -20.0910 
  176.5000    64.2350     7.8950     6.1150     5.7710    23.7030     2.3320   -19.4440 
  176.6250    56.4500     7.7270     6.0470     5.6070    23.6540     2.3130   -18.7040 
  176.7500    52.6580     7.6750     6.0540     5.3570    23.6480     2.3120   -17.9040 
  176.8750    51.2640     7.7210     6.1110     5.3250    23.5350     2.3370   -17.1740 
  177.0000    48.3210     7.8140     6.1810     5.4990    23.5400     2.3710   -16.6100 
  177.1250    46.6180     7.9150     6.2500     5.5790    23.7410     2.3970   -16.0990 
  177.2500    48.2100     7.9800     6.3080     5.5700    24.0340     2.4060   -15.5360 
  177.3750    49.2350     7.9540     6.3250     5.4560    24.1710     2.3970   -14.9680 
  177.5000    49.0300     7.8420     6.2760     5.2920    24.1990     2.3830   -14.5040 
  177.6250    51.3940     7.6700     6.1430     5.2620    24.3540     2.3700   -14.2240 
