~V
VERS. 2.00: Ver 2.00
~W
STRT.M 45.0000:
STOP.M 277.0000:
STEP.M 0.1250:
NULL. -999.2500:
UWI. F11056:
~C
DEPT.M :
GR.API :
RML.OHMM :
RI. :
RXO.OHMM :
CALI.CM :
DEN.GM/CC :
SP.MV :
~A
# ...
   78.7500   101.2100     6.7430     6.9090     6.6870    25.8200     2.4090    -1.1000 
   78.8750   102.8950     6.2150     6.0450     6.1660    25.8630     2.3750    -1.0770 
   79.0000   107.6230     6.0870     5.6710     6.2390    25.8470     2.3640    -1.2040 
   79.1250   110.1320     6.1130     5.5520     6.6050    25.8040     2.3620    -1.4820 
   79.2500   110.1890     6.1630     5.5430     7.0790    25.7510     2.3590    -1.8240 
   79.3750   108.9550     6.1920     5.5790     6.7090    25.7130     2.3480    -2.2070 
   79.5000   108.0120     6.2990     5.7520     6.4870    25.6910     2.3350    -2.7120 
   79.6250   107.4690     6.6530     6.2110     6.5590    25.6550     2.3390    -3.2070 
   79.7500   105.3370     7.4470     7.1010     6.8370    25.6110     2.3790    -3.6080 
   79.8750    98.0400     8.8310     8.5050     8.2460    25.5900     2.4540    -4.0020 
   80.0000    87.3530    10.7480    10.3520    14.5620    25.5590     2.5290    -4.4490 
   80.1250    78.6390    12.4740    12.0110    25.2620    25.4890     2.5570    -4.8780 
   80.2500    73.5430    13.2890    12.7660    25.8300    25.3900     2.5190    -5.3750 
   80.3750    71.3540    12.9340    12.3280    15.6630    25.2550     2.4270    -5.9290 
   80.5000    72.2990    11.7950    11.1070    11.4200    25.1670     2.3230    -6.3770 
   80.6250    74.1940    10.7250     9.9310     9.7690    25.1180     2.2440    -6.7870 
   80.7500    73.8980    10.0710     9.1480     9.2860    25.0520     2.2010    -7.2530 
   80.8750    72.2320     9.8740     8.8270     9.8220    24.9240     2.1840    -7.6940 
   81.0000    73.3200    10.0370     8.8880    10.2520    24.8560     2.1810    -8.0470 
   81.1250    76.4600    10.3070     9.0690    10.3290    24.8370     2.1810    -8.3830 
   81.2500    77.7240    10.5250     9.2150    10.2030    24.8510     2.1810    -8.6360 
   81.3750    75.1370    10.5920     9.2360    10.1950    24.9010     2.1830    -8.7750 
   81.5000    72.1530    10.4630     9.0810    10.2160    24.9910     2.1920    -8.8490 
   81.6250    70.7800    10.2360     8.8300    10.2090    25.0610     2.2100    -8.8660 
   81.7500    69.8360    10.0160     8.5780     9.9000    25.0830     2.2340    -8.8510 
   81.8750    69.7700     9.9160     8.4250     9.1610    25.0720     2.2560    -8.8300 
   82.0000    72.3860    10.0580     8.4700     8.5260    25.0800     2.2630    -8.7720 
   82.1250    76.8800    10.4090     8.6890     9.3620    25.1630     2.2510    -8.6970 
   82.2500    79.8270    10.8710     9.0230    13.3990    25.2760     2.2200    -8.6260 
   82.3750    79.9200    11.2800     9.3570    22.9610    25.3370     2.1790    -8.5640 
   82.5000    78.2290    11.4270     9.5330    23.2090    25.3470     2.1410    -8.5530 
   82.6250    75.6800    11.3050     9.5070    15.7880    25.3590     2.1140    -8.5880 
   82.7500    71.9520    11.0050     9.3130    11.1480    25.3850     2.1060    -8.5690 
   82.8750    68.3980    10.6720     9.0490     9.8480    25.3860     2.1180    -8.5160 
   83.0000    67.6660    10.4720     8.8530     9.9010    25.3160     2.1480    -8.4990 
   83.1250    68.3600    10.4720     8.8140    10.0730    25.2000     2.1830    -8.4040 
   83.2500    67.5580    10.6880     8.9640    10.0830    25.1130     2.2110    -8.2360 
   83.3750    65.3680    11.0720     9.2720    10.0020    25.0350     2.2290    -8.0990 
   83.5000    63.7430    11.4560     9.6170    10.0080    24.8790     2.2360    -7.9160 
   83.6250    63.6330    11.5880     9.7980    10.1300    24.6650     2.2400    -7.6700 
   83.7500    65.7720    11.3090     9.6520    10.1440    24.5090     2.2440    -7.4730 
   83.8750    70.6820    10.6360     9.1450     9.6890    24.3910     2.2500    -7.3010 
   84.0000    78.5360     9.7870     8.4150     8.6540    24.2070     2.2600    -7.1320 
   84.1250    84.1840     9.0760     7.7450     7.2860    23.9930     2.2700    -7.0960 
   84.2500    84.8880     8.6630     7.2980     6.2550    23.8880     2.2750    -7.1680 
   84.3750    80.8380     8.5950     7.1400     6.0600    23.8800     2.2720    -7.2710 
   84.5000    74.0330     8.8560     7.2790     6.8430    23.9090     2.2560    -7.4810 
   84.6250    66.6210     9.2650     7.5650     7.7910    23.9470     2.2340    -7.7910 
   84.7500    59.7350     9.6740     7.8730     8.4970    24.0820     2.2130    -8.0960 
   84.8750    56.6350     9.9650     8.1090     8.9820    24.4380     2.1980    -8.3650 
   85.0000    59.0300    10.0690     8.2120     9.2830    24.9620     2.1910    -8.6440 
   85.1250    61.9610    10.0560     8.2250     9.2990    25.5120     2.1900    -8.9080 
   85.2500    62.2320     9.9940     8.1950     9.5030    25.9230     2.1880    -9.1090 
   85.3750    60.0530     9.9350     8.1600     9.8400    26.0050     2.1820    -9.2290 
   85.5000    59.2580     9.9050     8.1370     9.8200    25.7550     2.1730    -9.3000 
   85.6250    61.4690     9.9000     8.1230     9.6620    25.3950     2.1670    -9.3280 
   85.7500    65.3440     9.9190     8.1190     9.6090    25.0720     2.1680    -9.3030 
   85.8750    66.7830     9.9610     8.1270     9.5940    24.8300     2.1760    -9.3070 
   86.0000    65.4370    10.0340     8.1530     9.7750    24.6570     2.1920    -9.3210 
   86.1250    65.1880    10.1210     8.1900     9.9450    24.5390     2.2120    -9.2440 
   86.2500    66.9660    10.1960     8.2240    10.0480    24.4460     2.2310    -9.1580 
   86.3750    68.9140    10.2280     8.2380     9.9990    24.2980     2.2430    -9.1320 
   86.5000    69.8790    10.1790     8.2130     9.8660    24.1910     2.2390    -9.0350 
   86.6250    69.4250    10.0670     8.1510     9.7180    24.4030     2.2220    -8.9110 
   86.7500    67.8010     9.9220     8.0650     9.7620    24.8530     2.1990    -8.8740 
   86.8750    66.3120     9.7840     7.9710     9.8320    25.1710     2.1800    -8.8120 
   87.0000    67.0090     9.6950     7.8920     9.7510    25.2550     2.1700    -8.6680 
   87.1250    69.2780     9.6570     7.8390     9.5070    25.2420     2.1640    -8.5640 
   87.2500    71.3900     9.6620     7.8170     9.4410    25.1880     2.1560    -8.4510 
   87.3750    70.8820     9.6970     7.8240     9.6140    25.2410     2.1410    -8.3100 
   87.5000    66.7540     9.7520     7.8650     9.9830    25.4700     2.1260    -8.2630 
   87.6250    63.8440     9.8170     7.9260    10.2860    25.6030     2.1180    -8.2470 
   87.7500    65.1530     9.8780     7.9950    10.4750    25.5560     2.1230    -8.1580 
   87.8750    66.9950     9.9200     8.0520    10.4210    25.3440     2.1410    -8.0810 
   88.0000    65.7410     9.9250     8.0670    10.2440    25.1750     2.1630    -8.0680 
   88.1250    64.0560     9.9050     8.0410    10.0210    25.0770     2.1790    -8.0260 
   88.2500    64.2620     9.8820     7.9900     9.9170    25.0520     2.1840    -7.9660 
   88.3750    64.7070     9.8780     7.9410     9.7970    25.0790     2.1800    -7.9050 
   88.5000    62.2990     9.8980     7.9200     9.7670    25.1080     2.1760    -7.8330 
   88.6250    60.2040     9.9160     7.9220     9.7740    25.1210     2.1800    -7.7270 
   88.7500    61.6410     9.9010     7.9230     9.7680    25.1170     2.1890    -7.5810 
   88.8750    66.1750     9.8410     7.8980     9.9100    25.0890     2.1990    -7.4160 
   89.0000    70.0900     9.7530     7.8370    10.1370    25.0220     2.2030    -7.2180 
   89.1250    71.4680     9.6900     7.7710    10.2530    24.8720     2.2040    -6.9750 
   89.2500    72.2170     9.6950     7.7350    10.0140    24.6310     2.2030    -6.7360 
   89.3750    72.4590     9.7940     7.7580     9.8790    24.4660     2.2010    -6.5400 
   89.5000    71.7380     9.9840     7.8520    10.1030    24.3960     2.1960    -6.3010 
   89.6250    71.9370    10.2000     7.9800    10.3550    24.3500     2.1870    -6.0260 
   89.7500    71.9480    10.3840     8.1030    10.4430    24.3010     2.1770    -5.8100 
   89.8750    69.3860    10.4920     8.1910    10.2060    24.2450     2.1680    -5.5910 
