~V
VERS. 2.00: Ver 2.00
~W
STRT.M 62.0000:
STOP.M 272.0000:
STEP.M 0.1250:
NULL. -999.2500:
UWI. F11076:
~C
DEPT.M :
GR.API :
RML.OHMM :
RI. :
RXO.OHMM :
CALI.CM :
DEN.GM/CC :
SP.MV :
~A
# ...
   73.2500    93.7150     7.1180     5.9950     5.6750    24.5810     2.2560    -6.8250 
   73.3750    88.1010     7.4470     6.2840     6.5500    24.6010     2.2230    -7.6430 
   73.5000    80.5400     7.7450     6.5680     7.5960    24.6070     2.2090    -8.3320 
   73.6250    79.2220     7.9100     6.7750     8.2440    24.6750     2.2260    -8.7620 
   73.7500    85.3410     7.9360     6.8590     8.1890    24.7990     2.2650    -8.9330 
   73.8750    94.0780     7.8820     6.8150     7.1370    24.9400     2.3060    -8.9520 
   74.0000    97.3600     7.8510     6.7100     7.4210    25.0140     2.3260    -8.8810 
   74.1250    93.7630     7.9800     6.6740     8.9220    25.0320     2.3130    -8.7950 
   74.2500    89.2870     8.2990     6.7800     9.5560    25.0050     2.2880    -8.8160 
   74.3750    87.4740     8.7720     7.0550     7.8770    24.9080     2.2760    -9.0180 
   74.5000    86.6720     9.2870     7.4580     7.4410    24.7490     2.2880    -9.4110 
   74.6250    85.2700     9.6160     7.8170     9.4750    24.5670     2.3150    -9.9260 
   74.7500    85.2520     9.6050     7.9280    11.1120    24.5450     2.3340   -10.4780 
   74.8750    87.1050     9.2170     7.7090    11.2370    24.5960     2.3310   -10.8950 
   75.0000    90.2230     8.5610     7.2210     9.0200    24.6840     2.3110   -11.1620 
   75.1250    94.8820     7.8800     6.6360     6.9900    24.7820     2.2840   -11.2840 
   75.2500   100.1300     7.4060     6.1650     6.1570    24.8700     2.2580   -11.3960 
   75.3750   101.2440     7.2380     5.9160     6.3910    24.9570     2.2320   -11.5360 
   75.5000    95.9690     7.3600     5.9110     6.7100    25.1000     2.2020   -11.8340 
   75.6250    90.0560     7.6970     6.1300     7.0990    25.3240     2.1680   -12.3720 
   75.7500    87.2300     8.0960     6.4570     7.6620    25.5870     2.1390   -13.1590 
   75.8750    84.7780     8.4760     6.8140     8.1880    25.8690     2.1230   -14.1920 
   76.0000    79.4840     8.7990     7.1440     8.3540    26.0110     2.1230   -15.3850 
   76.1250    74.4550     9.0500     7.4180     8.6220    25.8710     2.1320   -16.5360 
   76.2500    74.1320     9.2240     7.6380     8.9000    25.5570     2.1320   -17.4310 
   76.3750    76.0850     9.2750     7.7670     9.2200    25.4360     2.1170   -17.9710 
   76.5000    76.1690     9.1380     7.7370     9.5140    25.5850     2.0940   -18.0350 
   76.6250    74.9610     8.7360     7.4500     9.7740    25.8510     2.0870   -17.5020 
   76.7500    80.1500     8.1600     6.9610     9.8490    25.9030     2.1090   -16.4360 
   76.8750    89.9630     7.5340     6.3770     9.4360    25.5810     2.1530   -14.9720 
   77.0000    96.7560     7.0080     5.8320     7.9880    25.0440     2.2020   -13.2760 
   77.1250    97.6690     6.7500     5.4660     6.3040    24.7450     2.2320   -11.6010 
   77.2500    97.3270     6.7620     5.3100     6.0160    24.6470     2.2370   -10.1080 
   77.3750    95.4930     6.9940     5.3660     6.3790    24.6220     2.2270    -8.8410 
   77.5000    90.4850     7.3280     5.5800     6.5810    24.5930     2.2180    -7.8450 
   77.6250    87.6650     7.6060     5.8310     6.7780    24.5750     2.2230    -7.1900 
   77.7500    87.8480     7.7770     6.0060     7.7320    24.5560     2.2440    -6.8250 
   77.8750    88.9670     7.9160     6.1160     9.0380    24.5610     2.2800    -6.6030 
   78.0000    90.2870     8.1750     6.2650     9.0780    24.6400     2.3290    -6.4270 
   78.1250    91.8420     8.7320     6.6100     7.5590    24.8180     2.3840    -6.2100 
   78.2500    93.5500     9.5020     7.1690     8.3190    24.9300     2.4290    -5.9930 
   78.3750    92.5310    10.2580     7.8320    12.3160    24.9480     2.4440    -5.8770 
   78.5000    87.5460    10.6840     8.3510    15.4800    24.9070     2.4210    -5.9160 
   78.6250    80.6560    10.4660     8.3740    13.1150    24.8640     2.3660    -6.1610 
   78.7500    79.2020     9.7930     7.9570     9.5160    24.8600     2.3070    -6.6150 
   78.8750    84.6440     8.9870     7.3380     7.6010    24.8900     2.2610    -7.3150 
   79.0000    89.9040     8.3920     6.8010     6.9980    24.9360     2.2310    -8.2710 
   79.1250    87.5400     8.2780     6.5840     7.2440    25.0900     2.2090    -9.3880 
   79.2500    81.0320     8.5330     6.6690     8.0550    25.4680     2.1860   -10.4930 
   79.3750    74.8100     8.9680     6.9640     9.1150    26.0580     2.1600   -11.4270 
   79.5000    71.5910     9.3400     7.3100     9.8120    26.5270     2.1370   -12.1480 
   79.6250    72.3720     9.3480     7.4600     9.3660    26.5690     2.1230   -12.5200 
   79.7500    74.6650     8.9380     7.2770     8.8680    26.4370     2.1230   -12.5400 
   79.8750    78.3040     8.1990     6.7720     8.4690    26.2040     2.1440   -12.1530 
   80.0000    84.6670     7.3580     6.1060     7.7630    25.7580     2.1870   -11.3900 
   80.1250    93.7740     6.7460     5.5320     6.2320    25.2060     2.2450   -10.3930 
   80.2500   102.3690     6.5320     5.2050     5.2290    24.9160     2.2960    -9.4760 
   80.3750   106.0000     6.7530     5.1800     5.2070    24.6850     2.3230    -8.8360 
   80.5000   102.7610     7.3250     5.4500     6.2680    24.3490     2.3180    -8.5730 
   80.6250    94.4990     8.0680     5.9570     7.9610    24.1020     2.2810    -8.7350 
   80.7500    86.7170     8.7210     6.5110     8.6670    24.1510     2.2310    -9.3310 
   80.8750    83.1350     9.1400     6.9710     8.7230    24.4810     2.1820   -10.3760 
   81.0000    82.1560     9.2930     7.2520     8.8920    24.8930     2.1400   -11.7660 
   81.1250    82.1520     9.2560     7.3510     8.9970    25.1560     2.1110   -13.2700 
   81.2500    82.2340     9.2030     7.3880     9.1900    25.2670     2.0900   -14.6080 
   81.3750    81.2680     9.2120     7.4350     9.4590    25.3190     2.0780   -15.6450 
   81.5000    80.1650     9.2700     7.5070     9.4770    25.3050     2.0740   -16.2780 
   81.6250    79.3930     9.2640     7.5490     9.2800    25.2030     2.0810   -16.5560 
   81.7500    77.9170     9.0920     7.4730     9.3480    25.0900     2.0980   -16.4700 
   81.8750    75.7710     8.7190     7.2200     9.3770    25.0460     2.1250   -16.0500 
   82.0000    76.1220     8.2000     6.8060     9.1730    25.0390     2.1610   -15.2860 
   82.1250    83.5720     7.6790     6.3400     7.9990    25.0180     2.1980   -14.2830 
   82.2500    92.1120     7.2900     5.9590     6.3990    24.9570     2.2260   -13.2390 
   82.3750    95.8320     7.0840     5.7280     5.7780    24.8850     2.2390   -12.2700 
   82.5000    92.3990     7.0490     5.6470     6.4590    24.8480     2.2370   -11.3710 
   82.6250    85.8770     7.1800     5.7110     7.1660    24.8440     2.2260   -10.4580 
   82.7500    82.0010     7.4610     5.9080     7.0170    24.8490     2.2260    -9.5560 
   82.8750    81.5360     7.9220     6.2700     6.5200    24.8710     2.2540    -8.7330 
   83.0000    82.1840     8.5840     6.8160     6.4640    24.9240     2.3130    -8.0610 
   83.1250    81.9280     9.4050     7.5460     7.8120    24.9600     2.3790    -7.6020 
   83.2500    81.5230    10.1640     8.3220    11.9080    24.9120     2.4130    -7.2910 
   83.3750    81.7220    10.6030     8.9200    16.6220    24.8520     2.3930    -7.0810 
   83.5000    81.8360    10.5090     9.0700    13.9930    24.8750     2.3250    -6.9510 
   83.6250    81.4700     9.7650     8.5660     9.5280    25.0310     2.2460    -6.9210 
   83.7500    82.1660     8.6740     7.6710     8.1350    25.1990     2.2010    -6.8000 
   83.8750    85.4010     7.4960     6.6370     7.3990    25.2270     2.2020    -6.5280 
   84.0000    90.0080     6.4470     5.6710     6.0650    25.0060     2.2370    -6.1440 
   84.1250    94.9730     5.7470     4.9390     5.0000    24.6920     2.2790    -5.6710 
   84.2500   101.7320     5.5090     4.5010     4.5640    24.4090     2.3150    -5.0770 
   84.3750   107.3250     5.9090     4.4650     4.4740    24.2370     2.3540    -4.3780 
