~V
VERS. 2.00: Ver 2.00
~W
STRT.M 58.0000:
STOP.M 272.0000:
STEP.M 0.1250:
NULL. -999.2500:
UWI. F11073:
~C
DEPT.M :
GR.API :
RML.OHMM :
RI. :
RXO.OHMM :
CALI.CM :
DEN.GM/CC :
SP.MV :
~A
# ...
   69.2500   100.0800     7.1670     5.0290     4.9490    23.9120     2.2660   -10.2070 
   69.3750    97.0450     7.4890     5.1330     5.3520    23.9550     2.2680    -9.4490 
   69.5000    89.5050     8.2260     5.5330     6.4970    23.9060     2.2480    -8.8950 
   69.6250    82.2050     9.3890     6.2760     7.7890    23.8340     2.2230    -8.5150 
   69.7500    79.1990    10.7180     7.2200     8.7360    23.8210     2.2200    -8.2520 
   69.8750    80.2800    11.8630     8.1460    10.8210    23.8510     2.2570    -8.0790 
   70.0000    82.8350    12.4000     8.7390    13.0800    23.9360     2.3290    -8.0350 
   70.1250    84.9930    11.9270     8.6430    14.5390    24.0180     2.3940    -8.1070 
   70.2500    87.6080    10.8400     8.0500    10.0180    24.0300     2.4080    -8.1490 
   70.3750    91.4980     9.6770     7.2910     6.9460    24.0230     2.3710    -8.1030 
   70.5000    94.4030     8.8870     6.6720     5.5570    24.0460     2.3140    -8.0360 
   70.6250    95.3120     8.7270     6.4050     5.7850    24.0390     2.2640    -8.0590 
   70.7500    94.6840     8.9820     6.4300     6.6090    23.9830     2.2260    -8.2070 
   70.8750    92.2880     9.3920     6.6320     7.4140    23.9440     2.1980    -8.4660 
   71.0000    89.8380     9.6710     6.8470     7.7140    23.9490     2.1800    -8.6960 
   71.1250    88.3260     9.5800     6.8950     7.4100    24.0010     2.1770    -8.7420 
   71.2500    88.4650     9.2300     6.7680     6.7250    24.0410     2.1820    -8.7120 
   71.3750    88.5770     8.8130     6.5460     6.3210    24.0670     2.1920    -8.6860 
   71.5000    87.3940     8.5090     6.3410     6.6510    24.0700     2.2040    -8.6850 
   71.6250    87.4490     8.4680     6.2700     6.2630    24.0500     2.2070    -8.7120 
   71.7500    89.3590     8.6700     6.3620     6.0390    24.0010     2.2040    -8.7340 
   71.8750    89.8710     9.0620     6.6080     6.8210    23.9220     2.1960    -8.6960 
   72.0000    85.8780     9.5340     6.9480     7.9190    23.8180     2.1900    -8.6120 
   72.1250    82.7140     9.9170     7.2680     8.7340    23.8000     2.1870    -8.6170 
   72.2500    85.7770    10.1000     7.4620     8.9520    23.8520     2.1860    -8.6190 
   72.3750    90.5590    10.0480     7.4790     8.8090    23.9290     2.1890    -8.4790 
   72.5000    92.6220     9.7890     7.3180     8.2070    23.9870     2.1950    -8.1550 
   72.6250    91.8680     9.3540     6.9880     7.3450    24.0020     2.2030    -7.6210 
   72.7500    90.6890     8.8230     6.5650     6.4110    23.9800     2.2130    -7.0140 
   72.8750    89.7430     8.2470     6.1000     6.0670    23.9410     2.2250    -6.4480 
   73.0000    91.5750     7.6930     5.6500     5.9750    23.9280     2.2390    -5.9400 
   73.1250    98.1120     7.2860     5.2920     4.8140    23.9370     2.2500    -5.3840 
   73.2500   105.0930     7.0890     5.0620     4.1810    23.9410     2.2620    -4.8610 
   73.3750   107.5630     7.1130     4.9760     4.6790    23.9300     2.2740    -4.4930 
   73.5000   104.8840     7.3010     5.0180     6.2300    23.9230     2.2770    -4.3240 
   73.6250   101.9330     7.5600     5.1630     7.6470    23.9220     2.2640    -4.3870 
   73.7500   101.4090     7.7980     5.3560     6.2500    23.9160     2.2450    -4.5470 
   73.8750   100.1290     7.9940     5.5730     5.5160    23.9120     2.2350    -4.7170 
   74.0000    96.0780     8.1910     5.8140     5.3070    23.9160     2.2380    -4.9110 
   74.1250    92.4650     8.5100     6.1300     5.2730    23.9290     2.2500    -5.2590 
   74.2500    90.7150     9.0200     6.5540     5.6610    23.9460     2.2600    -5.7440 
   74.3750    87.9080     9.7100     7.0930     6.3080    23.9440     2.2670    -6.3260 
   74.5000    85.2400    10.4800     7.7000     6.9510    23.8940     2.2740    -6.9070 
   74.6250    85.6110    11.1040     8.2340     7.8700    23.8420     2.2730    -7.3880 
   74.7500    84.2650    11.3690     8.5270     9.0620    23.8150     2.2580    -7.7680 
   74.8750    80.4810    11.1540     8.4540     9.6730    23.7960     2.2370    -8.0890 
   75.0000    81.0180    10.5050     8.0170     9.4530    23.7960     2.2200    -8.3850 
   75.1250    88.3350     9.6460     7.3520     8.2140    23.8120     2.2150    -8.6130 
   75.2500    93.3950     8.9160     6.7210     6.7660    23.8030     2.2230    -8.7760 
   75.3750    94.1350     8.5040     6.2690     5.8920    23.7770     2.2390    -8.8850 
   75.5000    94.6130     8.4640     6.0550     5.5350    23.7690     2.2500    -8.9530 
   75.6250    93.0440     8.7130     6.0710     6.2130    23.7880     2.2410    -9.0970 
   75.7500    86.9020     8.9950     6.1820     7.1470    23.8000     2.2180    -9.3840 
   75.8750    79.2350     9.2290     6.3420     7.7790    23.7820     2.1950    -9.7580 
   76.0000    74.6320     9.5810     6.6150     8.1620    23.7640     2.1860   -10.1320 
   76.1250    73.3300    10.5630     7.2570     8.2270    23.7720     2.2050   -10.4560 
   76.2500    72.1820    12.4760     8.4530     9.0270    23.8170     2.2450   -10.7400 
   76.3750    71.3460    15.4140    10.3650    12.3670    23.9050     2.2990   -11.0600 
   76.5000    71.8320    19.0550    12.9920    21.2710    24.0350     2.3620   -11.4820 
   76.6250    71.2440    22.2110    15.8330    33.3850    24.1140     2.4250   -11.8820 
   76.7500    68.5490    23.4570    17.6990    32.4320    24.0630     2.4660   -12.2180 
   76.8750    66.5790    22.2450    17.7440    27.1290    23.9190     2.4590   -12.5670 
   77.0000    66.5190    19.3200    16.1350    27.6520    23.8940     2.3960   -12.9660 
   77.1250    66.7640    16.1120    13.7990    33.9170    24.3360     2.2890   -13.4530 
   77.2500    67.8350    13.5530    11.6520    27.5830    24.7570     2.1890   -13.9580 
   77.3750    69.8410    11.7830     9.9560    15.7700    24.3810     2.1270   -14.3210 
   77.5000    70.7410    10.6750     8.7300     9.8070    23.7360     2.1070   -14.4980 
   77.6250    72.8630    10.1140     7.9730     8.1450    23.3250     2.1110   -14.5800 
   77.7500    78.1450     9.8690     7.5390     7.9070    23.2620     2.1150   -14.6180 
   77.8750    83.0420     9.8280     7.3490     7.8530    23.2670     2.1160   -14.6330 
   78.0000    84.7930     9.8890     7.3200     7.9610    23.3690     2.1160   -14.6580 
   78.1250    84.0710     9.9660     7.3750     8.0840    23.5510     2.1180   -14.5820 
   78.2500    82.5630    10.0240     7.4460     8.2690    23.6950     2.1210   -14.4420 
   78.3750    81.1320    10.0730     7.5220     8.3220    23.8070     2.1220   -14.3750 
   78.5000    80.0790    10.1230     7.6040     8.2820    23.8260     2.1200   -14.4390 
   78.6250    77.0290    10.1710     7.6830     8.6880    23.7780     2.1190   -14.6160 
   78.7500    70.5220    10.2100     7.7450     8.6970    23.7160     2.1210   -14.8150 
   78.8750    65.0230    10.2380     7.7770     8.6200    23.6940     2.1270   -14.9580 
   79.0000    64.1090    10.2580     7.7850     8.7680    23.7150     2.1340   -15.0140 
   79.1250    67.3510    10.2750     7.7730     8.7250    23.7240     2.1370   -15.1070 
   79.2500    69.9490    10.3040     7.7590     8.6700    23.6830     2.1360   -15.2580 
   79.3750    70.2380    10.3560     7.7530     8.8790    23.6430     2.1270   -15.3860 
   79.5000    69.3380    10.4360     7.7610     9.2190    23.6620     2.1170   -15.4110 
   79.6250    68.5880    10.5290     7.7790     9.3160    23.7020     2.1130   -15.2690 
   79.7500    67.8340    10.5970     7.7880     9.3380    23.7540     2.1170   -15.0760 
   79.8750    66.8660    10.6060     7.7670     9.4390    23.8010     2.1240   -14.9320 
   80.0000    67.4940    10.5330     7.6990     9.6050    23.8580     2.1340   -14.8440 
   80.1250    69.5450    10.3730     7.5820     9.6010    23.8430     2.1430   -14.7710 
   80.2500    70.1470    10.1880     7.4540     9.4570    23.7900     2.1480   -14.6550 
   80.3750    69.7440    10.0690     7.3640     9.3550    23.7790     2.1490   -14.5350 
