~V
VERS. 2.00: Ver 2.00
~W
STRT.M 58.0000:
STOP.M 277.0000:
STEP.M 0.1250:
NULL. -999.2500:
UWI. F11038:
~C
DEPT.M :
GR.API :
RML.OHMM :
RI. :
RXO.OHMM :
CALI.CM :
DEN.GM/CC :
SP.MV :
~A
# ...
  238.0000    71.9130    85.8940    82.6180    92.1840    25.3350     2.2950   -25.6430 
  238.1250    75.5650    81.9840    78.4600    76.7530    25.0860     2.3220   -25.3320 
  238.2500    79.1750    79.8440    76.0910    71.4120    24.9350     2.3410   -24.8170 
  238.3750    80.8870    79.1380    75.3260    77.7130    24.8070     2.3530   -24.3110 
  238.5000    80.8520    79.0410    75.5050    84.3110    24.7140     2.3640   -23.8800 
  238.6250    80.0790    78.1720    75.3720    82.9430    24.7070     2.3720   -23.4310 
  238.7500    80.5260    75.6920    73.7580    83.8720    24.7820     2.3680   -22.8820 
  238.8750    82.0650    71.6840    70.4100    81.8960    24.7110     2.3480   -22.3130 
  239.0000    82.3980    67.1470    66.2310    78.2050    24.5790     2.3230   -21.7020 
  239.1250    79.3050    63.8150    63.0420    67.3630    24.5850     2.3240   -20.9630 
  239.2500    74.3380    62.5380    61.8390    59.5650    24.6910     2.3650   -20.2150 
  239.3750    69.1100    63.2490    62.6650    61.2780    24.7630     2.4300   -19.4220 
  239.5000    64.5940    64.9840    64.6970    83.1390    24.7430     2.4800   -18.6230 
  239.6250    63.2370    65.7290    66.0110   120.7040    24.7020     2.4710   -17.8760 
  239.7500    65.5990    63.8090    64.6680   118.5970    24.6790     2.4110   -17.1320 
  239.8750    70.0360    58.6170    59.7530    73.2150    24.6810     2.3300   -16.4420 
  240.0000    74.0970    50.8360    51.8520    48.2330    24.7080     2.2620   -15.8100 
  240.1250    77.2230    42.1770    42.8750    40.5060    24.7390     2.2320   -15.2690 
  240.2500    78.6690    34.5410    34.9970    34.2390    24.7720     2.2310   -14.8280 
  240.3750    77.6200    28.7870    29.1110    26.3740    24.7990     2.2450   -14.4800 
  240.5000    76.0260    25.1470    25.3610    21.1820    24.7510     2.2580   -14.1380 
  240.6250    74.6580    23.7280    23.7540    20.0050    24.6610     2.2600   -13.7670 
  240.7500    74.2300    23.7300    23.5520    21.4810    24.6000     2.2540   -13.4770 
  240.8750    74.8740    24.5360    24.2790    24.6320    24.6440     2.2470   -13.1770 
  241.0000    77.1970    25.4120    25.2640    28.5290    24.7230     2.2470   -12.9260 
  241.1250    78.1120    25.5710    25.5700    30.5130    24.7870     2.2560   -12.8360 
  241.2500    77.6120    24.9530    24.9610    28.0610    24.8310     2.2670   -12.8350 
  241.3750    78.6720    23.9630    23.8500    22.8400    24.8400     2.2740   -12.8820 
  241.5000    80.6130    23.2530    22.9290    19.5320    24.8300     2.2750   -13.0160 
  241.6250    79.2640    23.5610    22.9250    19.8490    24.8010     2.2700   -13.2850 
  241.7500    75.3320    24.8910    23.9240    23.1320    24.7990     2.2670   -13.5580 
  241.8750    72.5070    26.9220    25.7410    29.0870    24.7940     2.2660   -13.8590 
  242.0000    73.9270    29.0360    27.8290    34.0170    24.7890     2.2690   -14.1960 
  242.1250    77.2280    30.3530    29.2210    35.4200    24.7740     2.2690   -14.4020 
  242.2500    76.8260    30.5490    29.4090    33.8580    24.7490     2.2640   -14.5300 
  242.3750    73.0630    29.7210    28.4460    30.2240    24.7250     2.2540   -14.6970 
  242.5000    71.5090    28.2960    26.8250    25.7480    24.7010     2.2420   -14.8440 
  242.6250    75.9640    26.8250    25.1730    23.3900    24.6830     2.2330   -14.9300 
  242.7500    80.3290    25.6770    23.8640    22.8910    24.6220     2.2260   -15.0390 
  242.8750    81.7700    24.9750    22.9970    22.8500    24.5360     2.2170   -15.1130 
  243.0000    79.2380    24.7580    22.6050    22.8920    24.4650     2.2070   -15.1490 
  243.1250    73.3280    25.1360    22.8010    22.7740    24.4620     2.2080   -15.2610 
  243.2500    68.6940    26.0490    23.5130    23.0110    24.4700     2.2350   -15.3980 
  243.3750    67.4560    27.4960    24.7530    23.5690    24.4630     2.2980   -15.5310 
  243.5000    67.7280    29.3880    26.5090    24.8450    24.4760     2.3920   -15.6350 
  243.6250    66.6470    31.4140    28.6170    27.9660    24.5060     2.4870   -15.7110 
  243.7500    66.5150    33.0010    30.4950    34.1200    24.5940     2.5470   -15.7520 
  243.8750    67.2850    33.6380    31.5390    42.9870    24.6460     2.5560   -15.7480 
  244.0000    67.2740    33.0520    31.3330    50.4010    24.6280     2.5160   -15.6930 
  244.1250    68.3300    31.2380    29.7650    41.4780    24.5280     2.4480   -15.6010 
  244.2500    71.2640    28.9130    27.5810    30.4980    24.4280     2.3810   -15.4540 
  244.3750    74.1230    26.5920    25.3350    23.2650    24.3850     2.3300   -15.1800 
  244.5000    75.7910    24.6040    23.3750    22.1370    24.4170     2.2950   -14.8640 
  244.6250    77.3670    23.1200    21.8640    24.4900    24.6020     2.2740   -14.5610 
  244.7500    78.1040    22.0050    20.6980    24.7310    24.8170     2.2600   -14.2450 
  244.8750    76.9730    21.1810    19.8120    21.6590    24.9360     2.2540   -13.9580 
  245.0000    76.1150    20.6150    19.1590    19.9940    24.9500     2.2540   -13.7550 
  245.1250    77.9900    20.3610    18.7770    19.5720    24.9240     2.2600   -13.6710 
  245.2500    80.3730    20.3850    18.6480    19.3550    24.8980     2.2660   -13.7290 
  245.3750    82.0270    20.6350    18.7470    19.7670    24.8920     2.2660   -13.9720 
  245.5000    81.4580    21.0010    18.9840    21.1050    24.9000     2.2620   -14.3910 
  245.6250    77.3070    21.3710    19.2550    21.5070    24.8840     2.2570   -14.8930 
  245.7500    74.2190    21.7630    19.5450    21.4800    24.8590     2.2540   -15.4210 
  245.8750    74.0940    22.3640    19.9920    21.0270    24.8110     2.2530   -16.0370 
  246.0000    75.2390    23.4930    20.8570    21.5070    24.7690     2.2530   -16.6660 
  246.1250    74.5520    25.6770    22.6330    23.2430    24.7550     2.2520   -17.2150 
  246.2500    72.5500    28.9010    25.4460    26.8780    24.7500     2.2490   -17.6870 
  246.3750    70.1260    32.8460    29.1980    30.8990    24.7220     2.2450   -18.0220 
  246.5000    68.0280    36.7180    33.2870    38.2190    24.7150     2.2410   -18.2280 
  246.6250    67.1310    39.0830    36.2640    46.7710    24.7560     2.2370   -18.3610 
  246.7500    68.9960    39.2820    37.0850    48.8910    24.7850     2.2380   -18.4420 
  246.8750    74.0130    37.3240    35.5740    41.8110    24.7880     2.2450   -18.4350 
  247.0000    81.4980    33.8440    32.3790    31.8690    24.8110     2.2580   -18.4290 
  247.1250    88.1010    29.7220    28.3890    28.3070    24.8260     2.2670   -18.4510 
  247.2500    92.2420    25.8300    24.4920    27.0660    24.8540     2.2650   -18.4810 
  247.3750    95.0030    22.6220    21.1710    24.6790    24.8420     2.2600   -18.5540 
  247.5000    96.7890    20.4050    18.7590    19.6060    24.8100     2.2710   -18.6620 
  247.6250    97.9840    19.5590    17.5870    16.5840    24.8060     2.3210   -18.8350 
  247.7500    95.9270    19.9060    17.4650    16.3560    24.7680     2.3940   -19.0670 
  247.8750    88.1720    21.3060    18.3320    22.6070    24.7230     2.4600   -19.3090 
  248.0000    79.4930    23.4840    20.0680    44.7150    24.6710     2.4890   -19.5240 
  248.1250    77.7710    26.1030    22.4920    66.2760    24.6060     2.4650   -19.7880 
  248.2500    78.7980    28.8930    25.2070    74.1490    24.6310     2.4120   -20.1140 
  248.3750    75.6360    32.0970    28.2700    74.1240    24.7900     2.3580   -20.4400 
  248.5000    69.5710    36.4400    32.2280    67.3760    24.9040     2.3240   -20.6970 
  248.6250    67.0610    43.6430    38.7230    69.6890    24.9100     2.3370   -20.8240 
  248.7500    67.8880    54.4270    49.0110    71.8210    24.8580     2.3970   -20.8240 
  248.8750    73.3890    67.7820    63.3070    84.8640    24.7750     2.4860   -20.6780 
  249.0000    84.2510    78.9100    77.9450   125.0810    24.6080     2.5650   -20.3670 
  249.1250    93.1150    78.4910    80.6010   179.8510    24.3960     2.5830   -19.6810 
