~V
VERS. 2.00: Ver 2.00
~W
STRT.M 40.0000:
STOP.M 275.0000:
STEP.M 0.1250:
NULL. -999.2500:
UWI. F11027:
~C
DEPT.M :
DEN.GM/CC :
GR.API :
RML.OHMM :
RI. :
RXO.OHMM :
CALI.CM :
SP.MV :
~A
# ...
  265.0000     2.4870    62.7930    12.3100    10.3260    16.4530    23.6250     3.0670 
  265.1250     2.4800    62.7930    12.3340    10.3110    17.2530    23.6980     3.2000 
  265.2500     2.4760    62.7930    12.3940    10.2830    16.3040    23.7320     3.2350 
  265.3750     2.4750    62.7930    12.4640    10.2650    15.5240    23.7460     3.1510 
  265.5000     2.4750    62.7930    12.4970    10.2640    16.1220    23.7680     3.1310 
  265.6250     2.4760    62.7930    12.4640    10.2770    17.0070    23.8030     3.1980 
  265.7500     2.4800    62.7930    12.3980    10.2830    16.3600    23.8180     3.2840 
  265.8750     2.4900    62.7930    12.3210    10.2720    14.3060    23.8140     3.2500 
  266.0000     2.4940    62.7930    12.2400    10.2430    12.1500    23.8230     3.1860 
  266.1250     2.4780    62.7930    12.1430    10.2000    11.2270    23.8340     3.1680 
  266.2500     2.4270    62.7930    12.0310    10.1490    11.1810    23.8560     3.1980 
  266.3750     2.3410    62.7930    11.9020    10.0950    11.1580    23.8660     3.2420 
  266.5000     2.2500    62.7930    11.7590    10.0410    10.6530    23.8660     3.2290 
  266.6250     2.1830    62.7930    11.6390     9.9820     9.8240    23.8490     3.1560 
  266.7500     2.1610    62.7930    11.5530     9.9110     9.4450    23.8230     3.0270 
  266.8750     2.1870    62.7930    11.4720     9.8250     9.7980    23.8010     2.8410 
  267.0000     2.2340    62.7930    11.3720     9.7260    10.3410    23.8030     2.6030 
  267.1250     2.2780    62.7930    11.2590     9.6110     9.6430    23.8390     2.3880 
  267.2500     2.3050    62.7930    11.1650     9.4760     8.6860    23.8500     2.2460 
  267.3750     2.3120    62.7930    11.0910     9.3250     8.7050    23.8020     2.1240 
  267.5000     2.3160    62.7930    10.9910     9.1710     9.5590    23.7190     2.0200 
  267.6250     2.3290    62.7930    10.8250     9.0410    10.2820    23.6330     1.9900 
  267.7500     2.3560    62.7930    10.6780     8.9580    10.7150    23.5370     2.0630 
  267.8750     2.3910    62.7930    10.6400     8.9380    10.9450    23.4940     2.2810 
  268.0000     2.4210    62.7930    10.6980     8.9840    10.5350    23.5870     2.5420 
  268.1250     2.4410    62.7930    10.7460     9.0920     9.5860    23.7280     2.7660 
  268.2500     2.4510    62.7930    10.7610     9.2290     8.9630    23.7710     2.9300 
  268.3750     2.4570    62.7930    10.7950     9.3640     8.6080    23.7260     3.0500 
  268.5000     2.4660    62.7930    10.8410     9.4670     7.9630    23.6860     3.1430 
  268.6250     2.4770    62.7930    10.8080     9.5080     6.9740    23.6810     3.1630 
  268.7500     2.4900    62.7930    10.7060     9.5010     6.6120    23.6950     3.1010 
  268.8750     2.5020    62.7930    10.6150     9.4680     7.4830    23.7210     2.9800 
  269.0000     2.5110    62.7930    10.5960     9.4360     9.6880    23.7630     2.9450 
  269.1250     2.5180    62.7930    10.6510     9.4260    11.6770    23.8350     3.0470 
  269.2500     2.5220    62.7930    10.7380     9.4340    11.3360    23.9030     3.2170 
  269.3750     2.5290    62.7930    10.8200     9.4470    10.8640    23.9320     3.3400 
  269.5000     2.5360    62.7930    10.8630     9.4530    12.6650    23.9580     3.3870 
  269.6250     2.5440    62.7930    10.8650     9.4490    16.6440    24.0190     3.4260 
  269.7500     2.5510    62.7930    10.8550     9.4430    20.8770    24.0940     3.5460 
  269.8750     2.5590    62.7930    10.8490     9.4390    24.6040    24.1260     3.7190 
  270.0000     2.5700    62.7930    10.8480     9.4380    28.5500    24.1300     3.8510 
  270.1250     2.5860    62.7930    10.8530     9.4400    32.4690    24.1300     3.8830 
  270.2500     2.6030    62.7930    10.8600     9.4440    34.5600    24.1300     3.8700 
  270.3750     2.6180    62.7930    10.8660     9.4480    35.4270    24.1300     4.0040 
  270.5000     2.6260    62.7930    10.8680     9.4500    37.6350    24.1300     4.2050 
  270.6250     2.6280    62.7930    10.8690     9.4500    41.3230    24.1300     4.4570 
  270.7500     2.6270    62.7930    10.8690     9.4500    40.2860    24.1300     4.6870 
  270.8750     2.6220    62.7930    10.8690     9.4500    32.1810    24.1300     4.9240 
  271.0000     2.6130    62.7930    10.8690     9.4500    23.3500    24.1300     5.0810 
  271.1250     2.5990    62.7930    10.8690     9.4500    20.0850    24.1330     5.1560 
  271.2500     2.5840    62.7930    10.8690     9.4500    20.4820    24.1510     5.2000 
  271.3750     2.5740    62.7930    10.8690     9.4500    21.8230    24.1920     5.1680 
  271.5000     2.5730    62.7930    10.8690     9.4500    22.8430    24.2310     5.1510 
  271.6250     2.5790    62.7930    10.8690     9.4500    24.2110    24.2440     5.0840 
  271.7500     2.5880    62.7930    10.8690     9.4500    26.8140    24.2280     4.9930 
  271.8750     2.5930    62.7930    10.8690     9.4500    31.2630    24.1840     4.9130 
  272.0000     2.5940    62.7930    10.8690     9.4500    36.9140    24.1450     4.9130 
  272.1250     2.5960    62.7930    10.8690     9.4500    41.6640    24.1350     4.9130 
  272.2500     2.6020    62.7930    10.8690     9.4500    42.4370    24.1450  -999.2500 
  272.3750     2.6100    62.7930    10.8690     9.4500    46.7540    24.1710  -999.2500 
  272.5000     2.6120    62.7930    10.8690     9.4500    55.9360    24.1840  -999.2500 
  272.6250     2.6030    62.7930    10.8690     9.4500    61.3550    24.2050  -999.2500 
  272.7500     2.5860    62.7930    10.8690     9.4500    66.7850    24.1550  -999.2500 
  272.8750     2.5700    62.7930    10.8690     9.4500    64.0480    24.0710  -999.2500 
  273.0000     2.5620    62.7930    10.8690     9.4500    59.4790    24.0300  -999.2500 
  273.1250     2.5550    62.7930    10.8690     9.4500    54.9030    24.0850  -999.2500 
  273.2500     2.5310    62.7930    10.8690     9.4500    38.4850    24.1070  -999.2500 
  273.3750     2.4690    62.7930    10.8690     9.4500    20.3950    23.8850  -999.2500 
  273.5000     2.3720    62.7930    10.8690     9.4500    15.1990    22.7300  -999.2500 
  273.6250     2.2540    62.7930    10.8690     9.4500    12.7130    19.7890  -999.2500 
  273.7500     2.1370    62.7930    10.8690     9.4500    12.2700    16.7560  -999.2500 
  273.8750     2.0490    62.7930    10.8690     9.4500    12.5140    15.2460  -999.2500 
  274.0000     1.9710    62.7930    10.8690     9.4500    12.5780    14.9030  -999.2500 
  274.1250     1.7710    62.7930    10.8690     9.4500    12.5560    14.9030  -999.2500 
  274.2500     1.3420    62.7930    10.8690     9.4500    12.5570    14.9040  -999.2500 
  274.3750     0.8800    62.7930    10.8690     9.4500    12.5580    14.9040  -999.2500 
  274.5000     0.7940    62.7930    10.8690     9.4500    12.5600    14.9060  -999.2500 
  274.6250     1.3040    62.7930    10.8690     9.4500    12.5570    14.9070  -999.2500 
  274.7500     2.2970    62.7930    10.8690     9.4500    12.5480    14.9070  -999.2500 
  274.8750     4.8330    62.7930    10.8690     9.4500    12.4560    14.9070  -999.2500 
  275.0000     4.4610    62.7930    10.8690     9.4500    12.4270    14.9050  -999.2500 
