~V
VERS. 2.00: Ver 2.00
~W
STRT.M 52.0000:
STOP.M 235.0000:
STEP.M 0.1250:
NULL. -999.2500:
UWI. F11014:
~C
DEPT.M :
DEN.GM/CC :
GR.API :
RML.OHMM :
RI. :
RXO.OHMM :
CALI.CM :
SP.MV :
~A
# ...
   74.5000     2.0870    65.0180     9.2240     6.9260     9.7810    24.4790   -17.1790 
   74.6250     2.1050    65.3820     9.1180     6.8600     9.8480    24.3780   -17.2730 
   74.7500     2.1200    65.2510     8.9290     6.7250     9.8680    24.3630   -17.2610 
   74.8750     2.1290    65.5430     8.7200     6.5630     9.7010    24.3890   -17.2140 
   75.0000     2.1310    67.0610     8.5670     6.4230     9.2960    24.4330   -17.0830 
   75.1250     2.1260    67.9060     8.5140     6.3430     8.8730    24.4460   -16.8680 
   75.2500     2.1170    66.7610     8.5560     6.3340     9.0880    24.4050   -16.6170 
   75.3750     2.1060    64.6750     8.6400     6.3730     9.7080    24.3410   -16.3680 
   75.5000     2.0930    63.1790     8.7040     6.4210    10.0760    24.2720   -16.1040 
   75.6250     2.0800    62.5880     8.7270     6.4590    10.1470    24.2120   -15.8180 
   75.7500     2.0810    63.1000     8.7590     6.5120    10.1320    24.1890   -15.5490 
   75.8750     2.1050    65.5920     8.9160     6.6510    10.0510    24.2010   -15.2580 
   76.0000     2.1440    69.0110     9.2820     6.9230     9.9280    24.1920   -14.9260 
   76.1250     2.1800    71.0450     9.8380     7.3160     9.8590    24.0710   -14.5820 
   76.2500     2.2030    71.1720    10.4570     7.7560     9.9520    23.8060   -14.2390 
   76.3750     2.2140    70.4840    10.8710     8.0790    10.1170    23.5420   -13.8890 
   76.5000     2.2150    70.2420    10.8610     8.1360    10.1100    23.4840   -13.5200 
   76.6250     2.2040    71.0570    10.4000     7.8840     9.7840    23.5730   -13.1800 
   76.7500     2.1820    73.3080     9.6620     7.4050     9.3620    23.6050   -12.8620 
   76.8750     2.1620    76.7260     8.9470     6.8750     9.0900    23.5230   -12.6030 
   77.0000     2.1560    79.5200     8.4740     6.4630     8.9230    23.3800   -12.4110 
   77.1250     2.1620    80.1460     8.2910     6.2430     8.8360    23.2110   -12.2570 
   77.2500     2.1750    77.9420     8.3310     6.2090     9.0160    23.0600   -12.1350 
   77.3750     2.1910    74.2470     8.4720     6.2940     9.5150    22.9960   -12.0260 
   77.5000     2.2040    71.1330     8.5890     6.4010     9.7350    23.0260   -11.9420 
   77.6250     2.2090    69.3720     8.5990     6.4470     9.3100    23.1590   -11.8540 
   77.7500     2.2040    69.1650     8.4630     6.3800     8.8530    23.5100   -11.7510 
   77.8750     2.1840    70.6000     8.1500     6.1720     8.7350    24.1080   -11.5660 
   78.0000     2.1540    72.9640     7.6950     5.8540     8.5810    24.7200   -11.3090 
   78.1250     2.1320    76.2970     7.1890     5.4950     7.9940    25.0900   -11.0060 
   78.2500     2.1290    81.6100     6.7360     5.1670     7.0130    25.1820   -10.6200 
   78.3750     2.1450    86.7870     6.4680     4.9530     6.3560    25.1350   -10.2320 
   78.5000     2.1610    87.2550     6.4530     4.8980     6.3260    25.0190    -9.8780 
   78.6250     2.1680    82.1490     6.6890     5.0120     6.8420    24.8560    -9.6060 
   78.7500     2.1610    74.9220     7.1270     5.2760     7.6840    24.7290    -9.4210 
   78.8750     2.1470    69.3910     7.6610     5.6330     8.1570    24.6620    -9.2960 
   79.0000     2.1360    66.7110     8.1420     5.9770     8.1310    24.6100    -9.2150 
   79.1250     2.1330    66.7940     8.4290     6.1960     8.0270    24.5270    -9.1010 
   79.2500     2.1390    69.1270     8.4190     6.2010     8.0030    24.4170    -8.9620 
   79.3750     2.1510    73.2320     8.0210     5.9260     7.8640    24.3970    -8.6980 
   79.5000     2.1680    78.5480     7.3040     5.4220     7.3580    24.5610    -8.2450 
   79.6250     2.1950    85.4740     6.4730     4.8310     6.4790    24.8020    -7.6530 
   79.7500     2.2330    94.0820     5.7940     4.3210     5.7610    24.9890    -6.9430 
   79.8750     2.2820   100.2650     5.6280     4.1170     5.4800    25.0620    -6.1710 
   80.0000     2.3310    99.1250     6.2510     4.3990     5.9780    25.0600    -5.4460 
   80.1250     2.3820    90.4070     7.8890     5.3430     8.2980    24.9880    -4.8380 
   80.2500     2.4430    79.3100    10.7700     7.1790    15.1640    24.8410    -4.3640 
   80.3750     2.5280    70.6810    15.0690    10.2550    25.8770    24.6900    -4.0820 
   80.5000     2.6210    65.3800    20.2350    14.4420    34.3320    24.6030    -4.0030 
   80.6250     2.6910    63.4030    24.8990    18.8250    37.3310    24.5610    -4.0990 
   80.7500     2.7200    64.6070    27.3410    21.8300    37.9160    24.5380    -4.3620 
   80.8750     2.7070    66.7300    26.2360    21.8390    38.2590    24.5020    -4.7470 
   81.0000     2.6640    66.9200    22.4470    19.2200    36.0240    24.3930    -5.1950 
   81.1250     2.6020    66.3700    17.8410    15.5190    28.3700    24.2340    -5.7050 
   81.2500     2.5190    68.5620    13.6950    11.9250    18.3310    24.1550    -6.2500 
   81.3750     2.4120    72.5760    10.7070     9.1370    11.9860    24.2930    -6.7810 
   81.5000     2.2940    74.4020     8.8600     7.2480     9.6740    24.4760    -7.2770 
   81.6250     2.1950    73.1380     7.8440     6.0740     8.8450    24.5500    -7.6800 
   81.7500     2.1360    70.9710     7.3920     5.4330     8.2840    24.5270    -7.9430 
   81.8750     2.1190    69.2520     7.2980     5.1780     7.7420    24.4670    -8.1430 
   82.0000     2.1290    68.3490     7.4240     5.1850     7.4140    24.4500    -8.2780 
   82.1250     2.1460    69.3370     7.7350     5.3910     7.3240    24.4380    -8.3100 
   82.2500     2.1600    71.6000     8.2480     5.7850     7.4750    24.3000    -8.2570 
   82.3750     2.1760    72.2190     8.9230     6.3320     8.3950    23.9480    -8.1630 
   82.5000     2.2100    70.3260     9.5630     6.9060    10.5160    23.6230    -8.0560 
   82.6250     2.2650    67.9790     9.8990     7.3160    12.7610    23.5650    -7.9580 
   82.7500     2.3180    67.1060     9.7460     7.3980    12.1420    23.7650    -7.8890 
   82.8750     2.3220    68.7240     9.1070     7.0770     9.9040    24.0660    -7.7760 
   83.0000     2.2770    72.8180     8.2470     6.4920     8.3180    24.2980    -7.6220 
   83.1250     2.2270    77.4440     7.4470     5.8500     7.2930    24.3610    -7.4280 
   83.2500     2.2090    80.6340     6.8360     5.2870     6.4530    24.2420    -7.1670 
   83.3750     2.2260    82.1160     6.4610     4.8850     5.9500    24.0280    -6.8590 
   83.5000     2.2580    83.5270     6.2890     4.6480     5.7200    23.8470    -6.5550 
   83.6250     2.2860    85.4560     6.2810     4.5490     5.5660    23.7420    -6.2710 
   83.7500     2.3010    86.4950     6.4220     4.5690     5.4760    23.7010    -6.0170 
   83.8750     2.3050    85.4610     6.6830     4.6870     5.8210    23.6960    -5.8900 
   84.0000     2.3000    83.0070     6.9800     4.8600     6.5320    23.7050    -5.8720 
   84.1250     2.2840    80.7270     7.2180     5.0320     6.8530    23.7220    -5.9490 
   84.2500     2.2570    78.8200     7.3450     5.1660     6.5800    23.6770    -6.1780 
   84.3750     2.2280    76.1260     7.3790     5.2490     6.2040    23.5330    -6.5290 
   84.5000     2.2090    72.8070     7.4040     5.3120     5.9680    23.3860    -6.9400 
   84.6250     2.2080    70.1730     7.5010     5.3990     5.7820    23.3210    -7.3920 
   84.7500     2.2210    69.8920     7.7040     5.5360     5.7360    23.3050    -7.8960 
   84.8750     2.2350    72.3790     7.9790     5.7130     6.0300    23.3340    -8.4220 
   85.0000     2.2370    74.9730     8.2290     5.8800     6.6790    23.4740    -8.9870 
   85.1250     2.2150    74.8810     8.3680     5.9810     7.5070    23.7470    -9.5890 
   85.2500     2.1760    72.7490     8.3590     5.9900     8.0400    23.9670   -10.1480 
   85.3750     2.1450    71.3320     8.2240     5.9120     8.0020    23.9440   -10.6920 
   85.5000     2.1390    70.9320     8.0650     5.8030     7.7400    23.7920   -11.2090 
   85.6250     2.1450    70.7490     8.0100     5.7400     7.6180    23.7450   -11.6850 
