~V
VERS. 2.00: Ver 2.00
~W
STRT.M 50.0000:
STOP.M 229.0000:
STEP.M 0.1250:
NULL. -999.2500:
UWI. F11009:
~C
DEPT.M :
DEN.GM/CC :
GR.API :
RML.OHMM :
RI. :
RXO.OHMM :
CALI.CM :
SP.MV :
~A
# ...
  151.2500     2.2830    57.0360   257.9220   223.6510   188.0590    33.6040   -24.1400 
  151.3750     2.2780    59.7300   241.2410   210.2550   188.9240    33.6040   -24.3550 
  151.5000     2.2690    60.4440   229.2980   200.0250   178.6580    33.6040   -24.6150 
  151.6250     2.2470    61.4780   225.8120   196.6450   160.1870    33.6040   -24.8500 
  151.7500     2.2150    61.5860   230.7950   200.7920   143.4740    33.6040   -25.1270 
  151.8750     2.1810    59.8380   243.8290   212.5020   137.8480    33.6040   -25.4790 
  152.0000     2.1530    58.4570   262.4510   229.8440   157.7710    33.6040   -25.7900 
  152.1250     2.1380    58.4130   280.7160   247.9070   175.9610    33.6040   -26.0980 
  152.2500     2.1310    58.7380   291.4310   260.2910   182.2440    33.6040   -26.3590 
  152.3750     2.1310    57.1770   290.5190   263.1320   189.4600    33.6040   -26.5590 
  152.5000     2.1320    54.1170   278.0510   256.0550   190.4980    33.6040   -26.6950 
  152.6250     2.1310    52.4570   257.8800   241.2770   172.9890    33.6040   -26.8320 
  152.7500     2.1260    53.8630   237.2330   223.9150   156.0040    33.6040   -26.9310 
  152.8750     2.1180    57.8650   218.2200   206.1230   156.4330    33.6040   -26.9550 
  153.0000     2.1100    61.3420   200.1110   188.9370   165.2860    33.6040   -26.9590 
  153.1250     2.1050    61.5970   182.7490   173.5270   152.0040    33.6040   -26.9250 
  153.2500     2.1030    60.5390   167.9360   160.6380   134.4230    33.6040   -26.9310 
  153.3750     2.1000    60.0120   157.0820   150.8170   110.5270    33.6040   -26.9660 
  153.5000     2.0920    59.5940   149.7210   143.9580    97.7920    33.6040   -26.9850 
  153.6250     2.0770    58.6430   145.0220   139.5110   102.9360    33.6040   -27.0320 
  153.7500     2.0620    58.9890   141.4130   135.9900   122.0400    33.6040   -27.0290 
  153.8750     2.0510    60.7950   138.3650   132.7950   140.6360    33.6040   -27.0580 
  154.0000     2.0510    62.5330   136.1250   130.0550   140.6390    33.6040   -27.1100 
  154.1250     2.0620    64.1020   136.1640   129.0780   118.2480    33.6040   -27.1570 
  154.2500     2.0760    64.5630   139.6180   131.0960   100.1190    33.6030   -27.0730 
  154.3750     2.0860    63.5570   147.4000   137.1300    85.5960    33.5860   -26.8750 
  154.5000     2.0890    62.0650   159.5380   147.3490    79.4100    33.5300   -26.6640 
  154.6250     2.0880    61.4580   174.9210   160.8330    85.8960    33.4090   -26.4410 
  154.7500     2.0890    60.8630   190.0300   174.3110    98.6750    33.3130   -26.2490 
  154.8750     2.0930    59.7910   201.8300   184.9480   117.1260    33.2960   -25.9870 
  155.0000     2.1010    60.0530   208.3330   190.7590   129.8890    33.3220   -25.6520 
  155.1250     2.1070    61.4680   208.9630   190.8540   133.5080    33.2240   -25.1240 
  155.2500     2.1130    62.1570   207.0020   188.0470   125.8240    33.0420   -24.6050 
  155.3750     2.1180    61.7920   205.1450   184.8330   124.6370    32.8350   -24.1100 
  155.5000     2.1260    60.8560   205.4610   183.3030   130.7000    32.6290   -23.5270 
  155.6250     2.1400    60.0860   209.5450   185.1600   129.5040    32.4630   -22.8780 
  155.7500     2.1630    60.2590   216.7010   189.9450   129.7260    32.2350   -22.1820 
  155.8750     2.1930    63.1350   225.8920   196.8210   136.2360    31.9550   -21.4670 
  156.0000     2.2280    67.7150   235.4890   204.4140   145.3110    31.6970   -20.6730 
  156.1250     2.2600    69.7010   243.3150   210.8790   146.6720    31.5630   -20.0060 
  156.2500     2.2860    67.5400   248.6150   215.3680   145.5030    31.4710   -19.2740 
  156.3750     2.3080    63.2270   251.9130   218.1240   144.7530    31.3890   -18.5040 
  156.5000     2.3310    61.0840   254.8390   220.3930   139.9440    31.1710   -17.8120 
  156.6250     2.3540    62.7910   259.9280   224.3750   135.2750    30.7830   -17.1330 
  156.7500     2.3660    64.9940   268.2270   231.3210   117.9500    30.3040   -16.4920 
  156.8750     2.3460    64.2800   279.3410   241.4250   107.6670    30.1170   -15.8840 
  157.0000     2.2860    62.0480   290.9830   253.4190   117.6570    30.5880   -15.3290 
  157.1250     2.2000    63.4930   297.4710   263.4490   147.0090    31.5660   -14.7930 
  157.2500     2.1350    65.8910   294.0800   266.9430   152.9850    31.5980   -14.4180 
  157.3750     2.1220    66.3890   278.5480   260.6780   143.6560    29.9260   -14.0940 
  157.5000     2.1610    66.5280   252.7610   244.4490   143.8860    27.4120   -13.7700 
  157.6250     2.2220    69.8510   221.9660   221.0380   123.8440    25.5750   -13.4390 
  157.7500     2.2660    74.6240   192.6320   196.6220   118.7940    24.5620   -13.0660 
  157.8750     2.2820    79.3350   167.0580   174.1520   107.3750    23.9780   -12.7120 
  158.0000     2.2810    84.1350   145.1370   154.2970   105.7360    23.5220   -12.4370 
  158.1250     2.2820    87.4420   125.9030   136.3090   105.7060    23.0690   -12.2980 
  158.2500     2.2930    86.5860   108.0440   118.8810   103.2000    22.7050   -12.1700 
  158.3750     2.3090    82.2470    91.7680   102.1170    88.1630    22.5420   -12.1470 
  158.5000     2.3210    79.4940    78.0410    87.0850    77.2500    22.5380   -12.1730 
  158.6250     2.3230    83.3980    68.8520    75.9940    67.0250    22.4410   -12.2300 
  158.7500     2.3150    87.6170    64.5510    69.6040    63.9990    22.2340   -12.3710 
  158.8750     2.2990    87.7250    65.5940    68.6300    59.1330    22.0500   -12.5790 
  159.0000     2.2800    85.8960    72.1420    73.5090    62.2580    21.8850   -12.9030 
  159.1250     2.2670    86.3140    84.7720    85.2270    64.9640    21.7600   -13.2750 
  159.2500     2.2640    87.1080   101.4790   101.7610    70.7030    21.6940   -13.7230 
  159.3750     2.2720    85.7230   120.2450   120.8450    79.4430    21.6290   -14.1660 
  159.5000     2.2850    83.0230   138.4030   139.3370    82.9580    21.5110   -14.6690 
  159.6250     2.2930    82.1950   152.9130   153.5970    87.4260    21.3150   -15.2680 
  159.7500     2.2900    83.2080   163.6730   163.3630    92.0320    21.2720   -15.8420 
  159.8750     2.2760    83.2240   171.8130   169.8450    98.7600    21.4270   -16.4150 
  160.0000     2.2570    81.1460   178.7830   174.7840   105.7080    21.6290   -16.9320 
  160.1250     2.2420    80.7630   184.9040   178.9910   108.5710    21.6500   -17.4700 
  160.2500     2.2360    82.4010   189.1080   181.8320   108.5950    21.5310   -17.9700 
  160.3750     2.2360    82.9180   189.8080   181.8870   101.7300    21.4820   -18.4510 
  160.5000     2.2380    82.1220   186.2700   178.2580    92.6540    21.6000   -18.8620 
  160.6250     2.2380    81.9760   179.3570   171.3230    85.0790    21.7940   -19.1690 
  160.7500     2.2340    82.0980   172.5670   164.1260    74.7700    21.9750   -19.4190 
  160.8750     2.2270    81.7320   168.5130   159.1890    74.5700    22.0510   -19.6210 
  161.0000     2.2220    81.1210   168.6670   158.1330    77.2920    22.0270   -19.8120 
  161.1250     2.2200    80.5140   173.9310   162.0790    80.0940    21.9510   -19.8490 
  161.2500     2.2190    80.6360   183.0630   169.9000    81.0700    22.0460   -19.7990 
  161.3750     2.2150    81.8700   195.8470   181.2760    81.4460    22.3390   -19.6870 
  161.5000     2.2050    83.0010   212.7880   196.4650    84.2900    22.6850   -19.5410 
  161.6250     2.1920    82.8490   236.4910   217.5820    81.8050    22.7930   -19.3700 
  161.7500     2.1850    80.6400   268.1500   245.5530    83.0500    22.6090   -19.2020 
  161.8750     2.1890    76.7540   309.1070   281.3670    85.1350    22.8490   -18.9630 
  162.0000     2.2000    72.0530   359.1440   324.5050    85.7130    23.8150   -18.6050 
  162.1250     2.2120    68.3530   416.6980   373.0840    87.1910    24.8730   -18.1530 
  162.2500     2.2130    68.7880   477.6950   423.6040    90.2630    25.1020   -17.6050 
  162.3750     2.2020    74.3180   542.4170   476.4310    92.4160    24.6180   -16.9480 
