~V
VERS. 2.00: Ver 2.00
~W
STRT.M 57.0000:
STOP.M 226.0000:
STEP.M 0.1250:
NULL. -999.2500:
UWI. F11011:
~C
DEPT.M :
GR.API :
RML.OHMM :
RI. :
RXO.OHMM :
CALI.CM :
SP.MV :
DEN.GM/CC :
~A
# ...
  147.0000    70.0380    82.4020    76.5640    62.0940    24.6300   -15.4970     2.2280 
  147.1250    74.0070    79.9640    74.5800    65.1810    24.5470   -15.5380     2.2290 
  147.2500    77.5850    78.8700    73.6940    65.9000    24.6240   -15.5620     2.2290 
  147.3750    76.7450    79.7510    74.6160    61.5000    24.7600   -15.6510     2.2300 
  147.5000    71.8090    82.8710    77.8910    59.9360    24.8470   -15.7400     2.2320 
  147.6250    67.9240    87.5540    83.3390    68.6750    24.8890   -15.8440     2.2300 
  147.7500    69.0980    91.1880    88.3910    83.7910    24.9290   -15.9050     2.2250 
  147.8750    72.4630    91.2010    89.9770   106.1450    24.9770   -15.9320     2.2150 
  148.0000    74.4170    86.1960    85.8440   133.0480    25.0180   -15.9320     2.2060 
  148.1250    75.6770    76.8570    76.2840   123.7800    25.0190   -15.8970     2.2030 
  148.2500    77.1750    67.2180    66.0930    76.3220    25.0120   -15.8760     2.2070 
  148.3750    77.4130    60.2090    58.5590    45.5010    25.0140   -15.7800     2.2190 
  148.5000    75.9740    57.5440    55.3160    34.6780    24.9900   -15.6150     2.2330 
  148.6250    74.5510    60.4850    57.5350    36.0380    24.9240   -15.4830     2.2450 
  148.7500    75.2290    67.6570    64.1570    41.6150    24.9230   -15.4440     2.2550 
  148.8750    77.0580    77.7110    74.1740    59.7830    24.9640   -15.4780     2.2620 
  149.0000    77.6410    88.5640    85.5440    77.0670    24.9940   -15.6020     2.2650 
  149.1250    74.4270    97.2530    94.9460    87.0020    24.9720   -15.7500     2.2660 
  149.2500    72.0960   102.3040   100.4170    89.7340    24.9810   -15.9050     2.2640 
  149.3750    74.9030   103.6590   101.7400    85.7320    25.0070   -16.0950     2.2600 
  149.5000    79.1100   102.5000   100.1950    73.8980    25.0160   -16.3930     2.2550 
  149.6250    76.6530   100.7610    97.9390    65.8300    24.9950   -16.7010     2.2510 
  149.7500    70.2960   100.2930    96.9260    66.8180    24.9990   -17.0260     2.2480 
  149.8750    65.5280   101.9990    98.0840    72.4150    25.0010   -17.3800     2.2460 
  150.0000    64.0260   106.0470   101.7330    78.0710    25.0220   -17.6920     2.2440 
  150.1250    64.0560   111.9280   107.5360    84.8600    25.0270   -18.0570     2.2410 
  150.2500    66.1280   117.9730   113.7680    93.4920    25.0270   -18.3900     2.2360 
  150.3750    69.7530   122.9200   119.1890    99.9000    25.0380   -18.7330     2.2310 
  150.5000    71.9440   125.9030   122.9330   103.7850    25.0420   -19.0630     2.2260 
  150.6250    71.6170   126.1640   124.1290   106.7380    25.0280   -19.4100     2.2220 
  150.7500    70.7970   124.1620   123.0080   105.5920    25.0090   -19.7220     2.2210 
  150.8750    68.5380   120.1910   119.6810   101.0000    25.0140   -19.9890     2.2230 
  151.0000    65.1190   114.8320   114.4990    94.3020    25.0370   -20.2490     2.2290 
  151.1250    66.0080   109.3210   108.4770    78.1510    25.0210   -20.3880     2.2400 
  151.2500    70.4240   105.5200   103.6300    61.9540    24.9470   -20.5390     2.2500 
  151.3750    73.5790   105.3010   101.8340    58.5180    24.8490   -20.7060     2.2550 
  151.5000    72.8720   110.5320   104.9800    66.1000    24.8550   -20.8360     2.2520 
  151.6250    71.4540   124.5340   116.3730    77.6330    24.8580   -20.9830     2.2400 
  151.7500    70.1810   148.1060   136.7970    86.5320    24.8530   -21.1420     2.2230 
  151.8750    67.9990   182.9720   167.7300    95.6090    24.8120   -21.2430     2.2030 
  152.0000    65.2950   230.3660   210.1290   106.9820    24.7200   -21.3100     2.1810 
  152.1250    62.3010   291.7620   265.1300   143.2730    24.5540   -21.3810     2.1620 
  152.2500    58.7510   360.8780   327.1860   189.6550    24.4050   -21.5050     2.1470 
  152.3750    55.4530   429.3020   389.2440   238.0980    24.3030   -21.5690     2.1380 
  152.5000    52.5610   485.2250   440.6390   289.3990    24.2370   -21.5680     2.1350 
  152.6250    51.2770   513.1120   465.0610   336.8690    24.2170   -21.3730     2.1390 
  152.7500    50.9970   515.2860   463.7560   380.1620    24.2240   -21.1260     2.1470 
  152.8750    52.1600   500.5030   446.4730   406.2470    24.2590   -20.9230     2.1590 
  153.0000    54.6980   480.8790   426.3450   423.6780    24.3560   -20.7170     2.1690 
  153.1250    56.8240   463.0080   413.1040   384.9660    24.6860   -20.5310     2.1720 
  153.2500    58.2930   438.9440   401.5170   339.7930    25.1790   -20.1870     2.1700 
  153.3750    57.7600   395.7560   375.6340   299.4920    25.5480   -19.8270     2.1670 
  153.5000    56.4720   328.7870   321.8150   267.6970    25.6090   -19.4850     2.1730 
  153.6250    55.6260   249.8100   246.9950   251.9080    25.4130   -19.2080     2.1930 
  153.7500    57.0860   181.2270   179.1430   226.7190    25.0700   -18.8450     2.2230 
  153.8750    62.1320   132.8550   130.4490   194.9080    24.6900   -18.3990     2.2520 
  154.0000    69.5350   104.2870   101.3980   148.5830    24.3210   -18.0010     2.2700 
  154.1250    75.7590    91.8930    89.0670    97.7180    24.1190   -17.6090     2.2680 
  154.2500    77.4640    87.5220    85.1800    70.0720    24.0810   -17.2300     2.2530 
  154.3750    76.0610    87.1430    85.5150    77.8820    24.1190   -16.8760     2.2380 
  154.5000    74.1710    87.5380    86.7790    79.8790    24.2210   -16.5580     2.2330 
  154.6250    72.4700    86.1070    86.0330    69.3420    24.2990   -16.2080     2.2420 
  154.7500    70.0680    82.6560    82.7510    62.3460    24.2630   -16.0040     2.2580 
  154.8750    68.8630    78.3620    78.1640    55.3780    24.2250   -15.8790     2.2730 
  155.0000    71.0290    74.9800    74.2980    49.0550    24.2700   -15.7400     2.2810 
  155.1250    74.6200    74.3280    73.1540    49.6920    24.3580   -15.6020     2.2810 
  155.2500    74.4390    76.2190    74.6080    51.6510    24.4170   -15.4830     2.2750 
  155.3750    70.4370    79.7670    77.9000    55.3970    24.4460   -15.3300     2.2640 
  155.5000    67.2960    83.4270    81.5700    59.3280    24.4520   -15.1540     2.2540 
  155.6250    67.0500    84.9860    83.2700    63.9040    24.4480   -15.0570     2.2480 
  155.7500    67.3310    83.6730    81.9580    65.9520    24.4490   -14.9000     2.2480 
  155.8750    66.2180    79.8490    77.9900    65.4800    24.3600   -14.7730     2.2530 
  156.0000    65.0320    74.8020    72.8030    63.2290    24.2290   -14.6130     2.2600 
  156.1250    66.2190    70.2480    68.1920    58.6420    24.1340   -14.4670     2.2670 
  156.2500    68.9470    67.1130    65.0140    57.3400    24.0880   -14.3860     2.2720 
  156.3750    71.1720    65.5470    63.3740    56.6540    24.0730   -14.3200     2.2760 
  156.5000    71.5530    65.2740    62.9840    56.0580    24.0760   -14.2970     2.2790 
  156.6250    73.0770    65.8990    63.4770    55.7330    24.0970   -14.2420     2.2800 
  156.7500    75.3360    66.7650    64.2500    55.5950    24.1230   -14.2700     2.2790 
  156.8750    73.8260    67.4980    64.9450    55.8580    24.1270   -14.3830     2.2750 
  157.0000    68.7370    67.9220    65.3310    56.4190    24.1070   -14.5280     2.2700 
  157.1250    66.3430    68.2080    65.4770    57.2200    24.0820   -14.7100     2.2630 
  157.2500    67.3020    68.9690    65.9490    58.0110    24.0590   -14.9460     2.2580 
  157.3750    68.2270    70.8600    67.3900    58.8050    24.0210   -15.1920     2.2550 
  157.5000    68.1070    74.3260    70.3480    59.1010    23.9830   -15.4440     2.2540 
  157.6250    68.4710    79.3050    75.1340    60.0050    23.9460   -15.7390     2.2550 
  157.7500    69.6540    84.2330    80.4190    61.6140    23.9020   -16.0170     2.2550 
  157.8750    70.5750    87.3070    84.3050    64.0160    23.8360   -16.2610     2.2520 
  158.0000    71.9310    87.0380    84.8910    65.6400    23.8360   -16.5180     2.2440 
  158.1250    72.6720    82.6820    80.9420    66.9500    23.9850   -16.7930     2.2360 
