~V
VERS. 2.00: Ver 2.00
~W
STRT.M 57.0000:
STOP.M 280.0000:
STEP.M 0.1250:
NULL. -999.2500:
UWI. F11041:
~C
DEPT.M :
SP.MV :
GR.API :
RML.OHMM :
RI. :
RXO.OHMM :
CALI.CM :
DEN.GM/CC :
~A
# ...
  158.2500    -1.2670    69.3150    98.4740    85.9790    50.3150    23.7470     2.3010 
  158.3750    -1.1340    67.3030    98.7210    85.5960    50.8540    23.7480     2.3020 
  158.5000    -1.1160    66.7040    98.7300    84.9040    47.7100    23.5750     2.2960 
  158.6250    -1.1240    66.7890    99.9660    85.1780    39.5470    23.3820     2.2840 
  158.7500    -1.1320    66.2620   103.0600    87.0180    41.0080    23.2990     2.2710 
  158.8750    -1.1400    63.5690   108.0850    90.5610    47.2840    23.3040     2.2600 
  159.0000    -1.2540    60.2340   114.4660    95.4610    52.6780    23.4580     2.2490 
  159.1250    -1.1190    59.9450   120.6420   100.7060    58.8940    23.8700     2.2380 
  159.2500    -1.0370    61.1250   124.4960   104.6750    67.3050    24.2240     2.2270 
  159.3750    -1.1200    62.6470   124.1850   105.9380    73.2050    24.3290     2.2190 
  159.5000    -1.1720    63.2740   118.3300   103.2820    83.2250    24.2470     2.2170 
  159.6250    -1.2040    62.9890   105.6450    95.1860    70.2740    24.1370     2.2220 
  159.7500    -1.2970    62.4510    89.1250    83.2140    54.4860    24.0290     2.2390 
  159.8750    -1.4700    63.5500    72.2210    69.6250    48.8220    23.8630     2.2680 
  160.0000    -1.5500    67.6280    58.0930    57.1180    47.5860    23.7470     2.3070 
  160.1250    -1.7750    71.7030    49.2310    48.3440    43.0420    23.7670     2.3470 
  160.2500    -1.6350    73.0990    45.1100    43.5840    39.2950    23.8250     2.3760 
  160.3750    -1.5170    72.9190    45.3820    42.8500    38.2930    23.8630     2.3790 
  160.5000    -1.4400    73.1800    49.5960    45.9120    40.9580    23.8750     2.3560 
  160.6250    -1.4510    73.8200    57.5510    52.8180    50.0500    23.9040     2.3270 
  160.7500    -1.4960    74.0880    67.3450    61.9460    56.8850    23.9090     2.3080 
  160.8750    -1.6040    75.5190    77.1140    71.6350    60.1700    23.9280     2.2990 
  161.0000    -1.7710    78.0150    85.1840    80.1550    63.2130    24.0100     2.2910 
  161.1250    -2.0050    78.2580    91.1800    86.6550    65.6530    23.9610     2.2810 
  161.2500    -2.2630    75.2300    97.0530    92.4830    68.4610    23.7880     2.2700 
  161.3750    -2.5170    70.8280   104.2190    98.8380    72.0660    23.7170     2.2610 
  161.5000    -2.7490    68.1120   112.8480   106.1080    74.9050    23.9320     2.2550 
  161.6250    -2.9070    68.9320   120.4150   112.7400    75.4460    24.0580     2.2520 
  161.7500    -3.0550    71.2460   122.1360   115.2400    73.1180    24.0930     2.2530 
  161.8750    -3.1800    72.8920   114.6990   110.6180    69.8770    24.1070     2.2560 
  162.0000    -3.3000    73.4700    99.9070    99.1820    69.1360    24.1110     2.2590 
  162.1250    -3.3870    73.2180    84.4350    85.3100    68.0260    24.0820     2.2620 
  162.2500    -3.4680    73.8000    73.8570    74.4690    66.5990    24.0800     2.2680 
  162.3750    -3.5820    75.9500    70.4270    69.5080    65.4500    24.1100     2.2690 
  162.5000    -3.7590    78.3060    75.3380    72.1730    64.7220    24.1260     2.2530 
  162.6250    -4.0300    74.4400    91.2000    85.0630    65.0530    24.1020     2.2240 
  162.7500    -4.3210    66.5720   116.8820   106.6520    66.5620    24.0660     2.2020 
  162.8750    -4.6410    62.1250   149.8300   134.1260    71.0810    24.0930     2.1960 
  163.0000    -4.9750    63.3280   181.2530   160.3500   103.0080    24.2750     2.2000 
  163.1250    -5.3370    66.2840   194.1040   173.0980   119.1310    24.3680     2.2070 
  163.2500    -5.5890    67.3240   187.5680   171.0340   121.5680    24.3490     2.2100 
  163.3750    -5.6320    67.9040   170.9280   159.6220   126.0560    24.2340     2.2090 
  163.5000    -5.7540    68.3140   153.1410   145.4370   126.2800    24.1140     2.2020 
  163.6250    -5.8290    68.2870   139.0250   132.8460   121.5280    24.1110     2.1780 
  163.7500    -5.9420    69.8170   129.4240   123.4230   117.6300    24.2370     2.1440 
  163.8750    -5.9830    71.9130   124.6080   117.7820   114.6910    24.3230     2.1230 
  164.0000    -6.1110    73.6150   124.4260   116.0450   111.3230    24.3450     2.1360 
  164.1250    -6.1520    74.8810   129.1570   118.6490   111.3350    24.3470     2.1790 
  164.2500    -6.2410    73.9440   137.5240   124.5360   118.4520    24.3400     2.2160 
  164.3750    -6.3440    70.2770   148.7700   132.9840   128.4440    24.3120     2.2320 
  164.5000    -6.5200    65.4060   161.8470   142.9600   134.4880    24.2750     2.2300 
  164.6250    -6.7620    62.4630   175.4020   153.2500   139.4650    24.2270     2.2220 
  164.7500    -6.9980    60.8850   187.7360   162.6020   145.8130    24.1300     2.2120 
  164.8750    -7.1410    59.7640   197.1190   169.8680   152.4170    23.9540     2.2030 
  165.0000    -7.2290    59.0500   201.7860   173.8530   162.9110    23.8060     2.1970 
  165.1250    -7.4120    59.5560   200.0720   173.2210   169.0400    23.8490     2.1960 
  165.2500    -7.5520    62.5100   194.3520   169.2620   172.3340    24.0310     2.1960 
  165.3750    -7.6910    67.6330   187.5000   163.7480   152.7730    24.2090     2.1940 
  165.5000    -7.8660    71.4800   182.7940   159.1150   147.7580    24.3380     2.1930 
  165.6250    -7.9160    70.5750   183.4220   158.1770   123.8490    24.3680     2.1930 
  165.7500    -8.0010    66.8110   188.5750   160.9890   113.7400    24.3820     2.1910 
  165.8750    -8.0790    62.3830   196.0770   166.3350   120.7020    24.4060     2.1860 
  166.0000    -8.1000    58.2490   202.5080   171.8550   127.0290    24.4260     2.1750 
  166.1250    -8.1080    57.7670   203.5040   174.1980   132.7250    24.3480     2.1620 
  166.2500    -8.1160    60.3900   198.7550   172.3920   139.8160    24.2920     2.1510 
  166.3750    -8.1240    62.9140   189.7200   167.1020   142.2530    24.3160     2.1450 
  166.5000    -8.1320    63.3090   178.5230   159.7730   135.5460    24.3130     2.1390 
  166.6250    -8.1400    64.0500   166.5330   151.3450   124.1660    24.1670     2.1310 
  166.7500    -8.1480    66.7870   154.4670   142.3630   118.9420    23.9480     2.1220 
  166.8750    -8.1630    69.7340   142.8130   133.1630   117.0690    23.8150     2.1180 
  167.0000    -8.1990    70.7860   132.3220   124.3810   116.9040    23.8170     2.1260 
  167.1250    -8.3850    69.8310   124.4130   117.3210   116.1950    23.9120     2.1520 
  167.2500    -8.5800    69.3230   119.4370   112.5730   110.6410    23.9820     2.1850 
  167.3750    -8.6960    69.4140   117.2590   110.1780   105.8510    24.0140     2.2090 
  167.5000    -8.8370    69.1500   117.0260   109.4600   103.4830    23.9780     2.2150 
  167.6250    -8.8650    68.7140   117.5840   109.4480   102.2710    23.8760     2.2050 
  167.7500    -8.8800    68.8750   118.2330   109.4760   100.5640    23.7590     2.1910 
  167.8750    -8.8880    69.1290   119.6370   109.9250    99.0980    23.6250     2.1750 
  168.0000    -8.8960    69.9230   123.4880   112.0410    98.1110    23.6070     2.1530 
  168.1250    -8.9060    70.0630   133.3410   118.6770    97.7180    23.7140     2.1260 
  168.2500    -8.9290    66.6690   150.7930   131.1440    99.8290    23.7230     2.1070 
  168.3750    -9.0380    61.3550   176.6970   149.8430   104.7690    23.5300     2.1010 
  168.5000    -9.1130    60.3010   209.2680   172.9880   107.1560    23.1410     2.1030 
  168.6250    -9.2500    63.6870   240.3680   194.7370   104.3510    22.7450     2.1010 
  168.7500    -9.2910    65.9600   257.7240   207.6980   100.8690    22.6090     2.0900 
  168.8750    -9.3920    68.1240   254.7760   207.8720   101.3970    22.7190     2.0720 
  169.0000    -9.3200    72.6670   234.7670   196.3860   104.8720    22.8510     2.0560 
  169.1250    -9.4440    75.8670   205.3590   176.9120   106.9360    22.8960     2.0570 
  169.2500    -9.4550    74.1600   174.6470   154.9230   105.7660    22.9550     2.0710 
  169.3750    -9.3730    69.7290   146.3280   133.1850    99.8410    23.1630     2.0880 
