~V
VERS. 2.00: Ver 2.00
~W
STRT.M 52.0000:
STOP.M 235.0000:
STEP.M 0.1250:
NULL. -999.2500:
UWI. F11014:
~C
DEPT.M :
DEN.GM/CC :
GR.API :
RML.OHMM :
RI. :
RXO.OHMM :
CALI.CM :
SP.MV :
~A
# ...
   63.2500     2.1440    68.1500     5.1130     5.2780     9.3930    23.0350    -7.8420 
   63.3750     2.1510    67.3770     5.1610     5.4080     9.3290    23.0850    -9.4450 
   63.5000     2.1620    67.9780     5.1640     5.4660     9.1790    23.0280   -10.5910 
   63.6250     2.1740    69.4810     5.2220     5.5320     9.0660    22.9970   -11.3490 
   63.7500     2.1910    71.7170     5.3750     5.6290     9.1210    23.0790   -11.7670 
   63.8750     2.2180    76.4860     5.5690     5.7040     9.9850    23.2560   -11.8380 
   64.0000     2.2540    82.9890     5.6900     5.6770    11.5310    23.4520   -11.6140 
   64.1250     2.2940    88.6240     5.6450     5.5030    11.6090    23.6040   -11.2100 
   64.2500     2.3240    93.9490     5.4390     5.2040     8.8850    23.6560   -10.7480 
   64.3750     2.3290    99.5420     5.1850     4.8670     6.3980    23.6460   -10.2410 
   64.5000     2.3160   103.3620     5.0060     4.5870     5.4720    23.6420    -9.7630 
   64.6250     2.3050   103.6880     4.9480     4.4160     5.2620    23.6920    -9.4100 
   64.7500     2.3080   102.2140     4.9910     4.3660     5.3920    23.8220    -9.1520 
   64.8750     2.3190   101.5630     5.0800     4.4070     5.6590    24.0460    -9.0630 
   65.0000     2.3290   101.0650     5.1590     4.4810     5.7610    24.2690    -9.1690 
   65.1250     2.3250    99.1390     5.2060     4.5420     5.8360    24.3630    -9.4650 
   65.2500     2.3030    95.2060     5.2360     4.5880     6.1880    24.3600    -9.9100 
   65.3750     2.2690    89.9370     5.2840     4.6550     6.5030    24.4280   -10.5030 
   65.5000     2.2320    85.4980     5.4060     4.7860     6.4540    24.5290   -11.1600 
   65.6250     2.1990    82.2300     5.6540     5.0180     6.7340    24.5090   -11.7680 
   65.7500     2.1730    78.6430     6.0550     5.3680     7.4630    24.3850   -12.3530 
   65.8750     2.1630    74.8490     6.5750     5.8160     8.1960    24.3580   -12.8600 
   66.0000     2.1700    72.8740     7.0790     6.2640     8.6620    24.3780   -13.1830 
   66.1250     2.1880    73.5290     7.3790     6.5700     8.7860    24.3700   -13.2730 
   66.2500     2.2090    75.8890     7.3300     6.6030     8.5540    24.3830   -13.1120 
   66.3750     2.2280    81.2340     6.9100     6.2960     7.8740    24.4310   -12.6570 
   66.5000     2.2500    90.0570     6.3030     5.7600     6.6940    24.4690   -11.9790 
   66.6250     2.2780    98.3830     5.7260     5.1750     5.5160    24.4640   -11.1950 
   66.7500     2.3090   102.9420     5.2940     4.6730     4.8830    24.4280   -10.3310 
   66.8750     2.3350   104.7620     5.0420     4.3280     4.7710    24.3630    -9.4410 
   67.0000     2.3520   104.6090     4.9030     4.1160     4.7970    24.2920    -8.6720 
   67.1250     2.3620   102.1180     4.7990     3.9770     4.8310    24.2510    -8.0610 
   67.2500     2.3700    98.3170     4.7210     3.8880     4.9050    24.2760    -7.6330 
   67.3750     2.3750    96.4250     4.7680     3.9020     4.9490    24.3450    -7.4450 
   67.5000     2.3740    98.4850     5.0630     4.1000     4.9750    24.4140    -7.4770 
   67.6250     2.3690   102.7600     5.6890     4.5480     5.2510    24.4470    -7.6720 
   67.7500     2.3630   104.1990     6.6620     5.2720     6.4040    24.4210    -8.0130 
   67.8750     2.3560    97.2040     7.8710     6.2310     9.4520    24.3290    -8.4920 
   68.0000     2.3460    85.2100     9.0150     7.2320    12.5180    24.1960    -9.0300 
   68.1250     2.3270    75.7230     9.7670     8.0180    12.8130    24.0470    -9.6340 
   68.2500     2.2980    70.9830     9.9920     8.4150    10.8040    23.9210   -10.2720 
   68.3750     2.2650    69.2660     9.8060     8.4060     9.1310    23.8460   -10.9200 
   68.5000     2.2320    67.5370     9.5110     8.1900     8.5430    23.8250   -11.5440 
   68.6250     2.2020    64.4070     9.3210     7.9730     8.4150    23.8000   -12.1280 
   68.7500     2.1770    61.9690     9.2720     7.8340     8.3430    23.7380   -12.6490 
   68.8750     2.1600    62.4300     9.3060     7.7620     8.3220    23.6700   -13.0810 
   69.0000     2.1500    62.9160     9.3600     7.7130     8.6020    23.6500   -13.4240 
   69.1250     2.1460    61.6220     9.4250     7.6700     9.0080    23.6440   -13.6490 
   69.2500     2.1470    62.1250     9.5240     7.6450     9.1700    23.5820   -13.7700 
   69.3750     2.1560    65.5010     9.6370     7.6320     9.0380    23.4780   -13.8180 
   69.5000     2.1680    67.4740     9.6530     7.5670     8.9420    23.3900   -13.8400 
   69.6250     2.1790    67.1870     9.4240     7.3570     9.0160    23.3480   -13.8040 
   69.7500     2.1870    68.3300     8.8970     6.9540     9.1080    23.3650   -13.7290 
   69.8750     2.1940    72.3950     8.2080     6.4200     8.6960    23.4410   -13.6840 
   70.0000     2.2070    77.2020     7.6590     5.9320     7.6540    23.5660   -13.6720 
   70.1250     2.2330    80.4230     7.5310     5.6770     6.7220    23.6580   -13.7120 
   70.2500     2.2660    80.3560     7.9630     5.7740     6.6980    23.6010   -13.8460 
   70.3750     2.2930    76.7110     8.9540     6.2810     7.6180    23.4520   -14.0620 
   70.5000     2.3050    72.4810    10.2040     7.0720     8.7520    23.2610   -14.3340 
   70.6250     2.3120    69.5450    11.2390     7.8710     9.5680    23.0380   -14.7010 
   70.7500     2.3160    67.1830    11.6550     8.3820     9.8360    22.8530   -15.1310 
   70.8750     2.3080    66.0520    11.3150     8.3990     9.5900    22.7840   -15.5900 
   71.0000     2.2830    66.7540    10.5830     8.0580     9.0760    22.8430   -16.0790 
   71.1250     2.2500    67.4390     9.9240     7.6400     8.6450    23.0220   -16.5730 
   71.2500     2.2230    65.5560     9.5700     7.3340     8.7660    23.2720   -17.0580 
   71.3750     2.2010    61.7190     9.5500     7.2260     9.2410    23.5230   -17.5050 
   71.5000     2.1770    58.9300     9.7140     7.2690     9.6880    23.7220   -17.9290 
   71.6250     2.1530    57.8310     9.8960     7.3690    10.0660    23.8790   -18.3000 
   71.7500     2.1370    57.1630    10.0130     7.4560    10.2950    24.0610   -18.6280 
   71.8750     2.1370    56.6280    10.0350     7.4860    10.4010    24.2530   -18.8990 
   72.0000     2.1500    56.3170     9.9820     7.4590    10.4860    24.3860   -19.0820 
   72.1250     2.1640    56.6900     9.8800     7.3950    10.4790    24.4470   -19.2050 
   72.2500     2.1710    57.9590     9.7460     7.3140    10.3100    24.4940   -19.2890 
   72.3750     2.1620    59.0730     9.6030     7.2340    10.1840    24.5620   -19.3070 
   72.5000     2.1410    59.6190     9.4760     7.1670    10.1910    24.5950   -19.2490 
   72.6250     2.1210    60.2630     9.3840     7.1180    10.2540    24.5450   -19.1370 
   72.7500     2.1190    61.3700     9.3370     7.0860    10.3510    24.4180   -18.9880 
   72.8750     2.1370    61.5350     9.3240     7.0570    10.4080    24.2780   -18.7610 
   73.0000     2.1640    60.1530     9.3170     7.0110    10.3560    24.2050   -18.5120 
   73.1250     2.1800    58.6400     9.2880     6.9370    10.1740    24.2130   -18.2410 
   73.2500     2.1760    59.0060     9.2210     6.8370     9.8720    24.2900   -17.9240 
   73.3750     2.1510    62.7300     9.1140     6.7270     9.4520    24.3870   -17.6210 
   73.5000     2.1140    67.7070     8.9910     6.6300     9.1240    24.4830   -17.3150 
   73.6250     2.0790    70.1830     8.8830     6.5620     8.9830    24.6120   -17.0530 
   73.7500     2.0590    69.2490     8.8190     6.5320     8.9710    24.8270   -16.8730 
   73.8750     2.0530    66.9720     8.8280     6.5520     9.1400    25.0770   -16.7670 
   74.0000     2.0550    65.6310     8.9030     6.6220     9.4240    25.2580   -16.7500 
   74.1250     2.0570    65.4900     9.0190     6.7240     9.5880    25.2600   -16.8220 
   74.2500     2.0600    65.2690     9.1430     6.8340     9.6440    25.0390   -16.9380 
   74.3750     2.0700    64.9050     9.2260     6.9130     9.7070    24.7180   -17.0430 
