~V
VERS. 2.00: Ver 2.00
~W
STRT.M 62.0000:
STOP.M 236.0000:
STEP.M 0.1250:
NULL. -999.2500:
UWI. F11006:
~C
DEPT.M :
GR.API :
RML.OHMM :
RI. :
RXO.OHMM :
CALI.CM :
SP.MV :
DEN.GM/CC :
~A
# ...
   95.7500    83.8410     7.9410     7.0900     9.6950    22.7820   -17.5480     2.2010 
   95.8750    91.3490     7.1720     6.4270     8.5460    23.3620   -16.4490     2.2130 
   96.0000    99.4130     6.4990     5.7690     6.7150    24.0840   -15.3720     2.2400 
   96.1250   104.1930     6.1780     5.3360     5.5540    24.5330   -14.5230     2.2780 
   96.2500   104.4230     6.2380     5.2020     5.3930    24.4460   -13.9780     2.3140 
   96.3750    97.8640     6.6340     5.3790     7.1150    23.8570   -13.7750     2.3350 
   96.5000    87.9460     7.2450     5.8170    10.3520    22.9750   -13.8920     2.3370 
   96.6250    83.8490     7.8920     6.4140    11.8960    22.3850   -14.3400     2.3180 
   96.7500    86.6670     8.4050     6.9930     9.7130    22.1550   -15.0640     2.2900 
   96.8750    89.9970     8.7190     7.4500     8.6840    22.1750   -15.9900     2.2630 
   97.0000    87.6700     8.8630     7.7500     8.7910    22.3190   -16.9930     2.2450 
   97.1250    83.5790     8.9190     7.9210     9.1240    22.4990   -17.9370     2.2380 
   97.2500    81.5340     8.9870     8.0520     9.4740    22.6140   -18.7590     2.2370 
   97.3750    80.0800     9.0830     8.1730     9.9000    22.6560   -19.4270     2.2370 
   97.5000    77.5800     9.1850     8.2780     9.7730    22.6850   -19.9930     2.2350 
   97.6250    75.6090     9.2490     8.3220     9.5400    22.7330   -20.4960     2.2320 
   97.7500    76.3600     9.2540     8.2880     9.3000    22.7660   -20.9510     2.2300 
   97.8750    78.8720     9.1960     8.1710     9.4530    22.8130   -21.3860     2.2270 
   98.0000    79.9260     9.0820     7.9890     9.6340    22.8830   -21.8130     2.2230 
   98.1250    77.4610     8.9350     7.7810     9.6010    22.9240   -22.1940     2.2140 
   98.2500    73.8620     8.8300     7.6090     9.2570    22.9590   -22.5080     2.2010 
   98.3750    72.1010     8.8860     7.5480     8.9590    22.9910   -22.7550     2.1860 
   98.5000    70.9210     9.2660     7.6980     8.9930    23.0020   -22.9210     2.1770 
   98.6250    68.3080    10.2530     8.2670     9.3160    22.9760   -23.0130     2.1910 
   98.7500    67.4110    11.8520     9.3350    10.3050    22.9800   -23.0210     2.2370 
   98.8750    70.0550    13.9240    10.9180    12.8290    23.0680   -22.9370     2.3110 
   99.0000    75.3420    16.0440    12.8070    17.4340    23.2980   -22.7800     2.3990 
   99.1250    78.7910    17.3300    14.3550    25.5340    23.5820   -22.6280     2.4680 
   99.2500    79.9370    17.2790    14.9320    30.2160    23.6540   -22.5300     2.4950 
   99.3750    80.3980    15.8890    14.3170    25.5620    23.4130   -22.5100     2.4750 
   99.5000    81.1720    13.6960    12.8090    16.8720    23.0910   -22.5880     2.4170 
   99.6250    81.9310    11.5400    11.0460    13.0040    22.9540   -22.7370     2.3430 
   99.7500    81.4550     9.9560     9.5950    11.5720    22.8570   -22.9050     2.2770 
   99.8750    79.4670     9.0330     8.6160    10.3460    22.7180   -23.0540     2.2270 
  100.0000    76.6840     8.6420     8.0860     9.7380    22.5860   -23.1390     2.1940 
  100.1250    74.3440     8.6020     7.9230     9.5940    22.4770   -23.0620     2.1790 
  100.2500    74.4690     8.6460     7.9080     9.3380    22.3820   -22.8030     2.1740 
  100.3750    76.6620     8.6350     7.9070     8.8630    22.1990   -22.3370     2.1770 
  100.5000    79.7890     8.4870     7.8170     8.5480    21.9110   -21.6650     2.1850 
  100.6250    84.3260     8.1510     7.5560     8.2220    21.6140   -20.8400     2.1950 
  100.7500    88.7240     7.6770     7.1450     7.5250    21.5330   -19.9830     2.2030 
  100.8750    91.4960     7.1220     6.6260     6.5670    21.7340   -19.1350     2.2070 
  101.0000    94.2630     6.5680     6.0700     5.6770    22.1430   -18.3260     2.2080 
  101.1250   100.1890     6.1650     5.6040     5.4950    22.5390   -17.6450     2.2060 
  101.2500   106.5740     6.0240     5.3310     5.6830    22.8810   -17.1890     2.2050 
  101.3750   109.6470     6.2280     5.3300     5.9530    23.1430   -17.0640     2.2130 
  101.5000   106.5860     6.7940     5.6400     5.9610    23.3230   -17.3200     2.2340 
  101.6250    97.7600     7.6590     6.2720     7.2960    23.2120   -17.9110     2.2700 
  101.7500    87.4370     8.5520     7.0420    10.1770    22.9310   -18.6690     2.3040 
  101.8750    80.0500     9.2350     7.7580    11.2450    22.5160   -19.5620     2.3200 
  102.0000    78.1800     9.5430     8.2330     9.9200    22.1650   -20.5820     2.3100 
  102.1250    80.8380     9.4200     8.3200     9.0760    22.0360   -21.6620     2.2770 
  102.2500    81.9930     9.1010     8.1480     9.0000    22.0070   -22.6550     2.2440 
  102.3750    78.3140     8.7750     7.8640     8.9590    21.9920   -23.4760     2.2210 
  102.5000    73.6840     8.5650     7.6030     8.7990    21.9790   -24.0810     2.2090 
  102.6250    76.6860     8.5330     7.4590     8.5730    21.9880   -24.4960     2.2040 
  102.7500    83.1170     8.6180     7.4220     8.4860    21.9740   -24.8150     2.2010 
  102.8750    88.1380     8.7710     7.4660     8.5730    21.9520   -25.0620     2.2010 
  103.0000    90.5760     8.9450     7.5590     8.7290    21.9480   -25.2480     2.2010 
  103.1250    90.4430     9.0890     7.6650     8.8610    21.9730   -25.3690     2.1970 
  103.2500    87.0740     9.1810     7.7520     8.8790    22.0230   -25.4560     2.1890 
  103.3750    82.4840     9.2240     7.8120     8.7840    22.0870   -25.5040     2.1790 
  103.5000    79.5770     9.2370     7.8450     8.6850    22.1440   -25.5230     2.1730 
  103.6250    77.5080     9.2370     7.8590     8.7980    22.1800   -25.5300     2.1770 
  103.7500    75.5430     9.2320     7.8630     9.0270    22.2030   -25.5300     2.1890 
  103.8750    73.9040     9.2150     7.8600     9.3500    22.2290   -25.5150     2.2040 
  104.0000    73.9020     9.1820     7.8470     9.7230    22.2520   -25.4400     2.2140 
  104.1250    75.2130     9.1300     7.8180     9.8200    22.1920   -25.2960     2.2160 
  104.2500    76.0000     9.0640     7.7770     9.4440    22.0540   -25.1130     2.2110 
  104.3750    75.9650     8.9850     7.7270     8.9920    21.9150   -24.9400     2.2030 
  104.5000    76.0350     8.9000     7.6740     8.8060    21.8250   -24.7990     2.1960 
  104.6250    77.3010     8.8230     7.6240     8.9230    21.8290   -24.6680     2.1900 
  104.7500    78.8110     8.7680     7.5840     9.1050    21.8830   -24.5140     2.1860 
  104.8750    80.8940     8.7450     7.5600     9.2260    21.9520   -24.3500     2.1820 
  105.0000    83.2990     8.7480     7.5540     9.2500    21.9760   -24.2290     2.1770 
  105.1250    82.0180     8.7630     7.5670     9.1110    21.8630   -24.1900     2.1730 
  105.2500    76.9140     8.7700     7.5870     9.0660    21.7110   -24.1930     2.1690 
  105.3750    71.6400     8.7630     7.6090     9.0640    21.7420   -24.1870     2.1630 
  105.5000    71.1450     8.7430     7.6270     9.0320    21.8740   -24.1650     2.1560 
  105.6250    73.0300     8.7220     7.6410     9.0320    22.0260   -24.1490     2.1460 
  105.7500    71.6720     8.7040     7.6530     9.1060    22.1250   -24.1200     2.1380 
  105.8750    69.6560     8.6870     7.6560     9.3080    22.2110   -24.0280     2.1360 
  106.0000    72.0200     8.6580     7.6410     9.5640    22.2780   -23.8250     2.1410 
  106.1250    77.5430     8.6020     7.5870     9.8160    22.3150   -23.5010     2.1520 
  106.2500    79.5670     8.5180     7.4970     9.7530    22.3380   -23.1780     2.1630 
  106.3750    79.7840     8.4130     7.3800     9.3730    22.3040   -22.8880     2.1710 
  106.5000    81.7910     8.3030     7.2540     8.9990    22.2110   -22.6010     2.1760 
  106.6250    84.0460     8.2150     7.1490     8.7900    22.1000   -22.2980     2.1790 
  106.7500    83.4430     8.1640     7.0810     8.7150    22.0350   -22.0180     2.1800 
  106.8750    80.0890     8.1540     7.0570     8.5440    22.0030   -21.8000     2.1810 
