~V
VERS. 2.00: Ver 2.00
~W
STRT.M 51.0000:
STOP.M 252.0000:
STEP.M 0.1250:
NULL. -999.2500:
UWI. F11020:
~C
DEPT.M :
DEN.GM/CC :
GR.API :
RML.OHMM :
RI. :
RXO.OHMM :
CALI.CM :
SP.MV :
~A
# ...
  163.5000     2.3170    65.6190    22.0640    21.8280    20.9440    24.6790   -21.2510 
  163.6250     2.3070    66.3130    20.6960    20.4990    21.4420    24.6400   -21.2670 
  163.7500     2.2990    67.1440    18.9950    18.8170    18.7290    24.5990   -21.2400 
  163.8750     2.2910    69.4550    17.2340    17.0750    15.4090    24.5650   -21.1930 
  164.0000     2.2800    72.8440    15.7250    15.5740    12.6670    24.5240   -21.1400 
  164.1250     2.2760    75.2720    14.8230    14.6110    11.4120    24.4970   -21.1000 
  164.2500     2.2890    76.0340    14.8370    14.4320    12.1550    24.5160   -21.0730 
  164.3750     2.3090    74.6350    15.6460    14.9580    13.4250    24.5580   -21.0560 
  164.5000     2.3270    72.0230    17.0090    16.0380    14.5610    24.6160   -21.0510 
  164.6250     2.3400    69.7150    18.4940    17.3550    16.0940    24.6540   -21.0600 
  164.7500     2.3450    67.4050    19.5470    18.4430    17.2320    24.6710   -21.1090 
  164.8750     2.3390    65.7260    19.9070    18.9850    16.9330    24.6880   -21.1690 
  165.0000     2.3190    66.5570    19.6680    18.9690    15.7230    24.7150   -21.2380 
  165.1250     2.2940    68.8580    19.1470    18.6050    14.7130    24.7350   -21.3010 
  165.2500     2.2770    68.8870    18.6980    18.1690    14.2370    24.7410   -21.3630 
  165.3750     2.2690    67.2550    18.5000    17.8590    14.2220    24.7400   -21.4280 
  165.5000     2.2710    67.7300    18.5420    17.7210    14.3760    24.7380   -21.4820 
  165.6250     2.2820    69.8280    18.7000    17.7120    14.5320    24.7340   -21.5380 
  165.7500     2.2970    69.6180    18.8170    17.7520    14.4620    24.7180   -21.6000 
  165.8750     2.3070    67.4110    18.8310    17.7770    14.2400    24.6950   -21.6840 
  166.0000     2.3070    67.2010    18.7720    17.7760    13.9590    24.6750   -21.7890 
  166.1250     2.2980    69.6840    18.7040    17.7630    13.7880    24.6670   -21.9150 
  166.2500     2.2820    70.8050    18.6800    17.7500    13.7950    24.6660   -22.0600 
  166.3750     2.2660    69.5190    18.6920    17.7280    13.8150    24.6510   -22.2240 
  166.5000     2.2560    67.9330    18.7020    17.6840    13.8190    24.6190   -22.4230 
  166.6250     2.2550    67.9730    18.6730    17.6030    13.7590    24.5890   -22.6650 
  166.7500     2.2600    69.1170    18.5770    17.4760    13.5550    24.5600   -22.9230 
  166.8750     2.2660    70.3780    18.3890    17.2880    13.3350    24.5190   -23.1690 
  167.0000     2.2720    71.2970    18.0880    17.0220    13.2560    24.4690   -23.3950 
  167.1250     2.2770    71.3190    17.7290    16.7140    13.1930    24.4290   -23.5850 
  167.2500     2.2780    71.1240    17.4910    16.5040    12.8430    24.3840   -23.7410 
  167.3750     2.2750    70.5380    17.5730    16.5580    12.1750    24.3270   -23.8620 
  167.5000     2.2670    69.8700    18.0880    16.9820    11.6120    24.2640   -23.9520 
  167.6250     2.2590    70.0410    19.0020    17.7940    12.0390    24.2100   -24.0140 
  167.7500     2.2610    71.0700    20.0880    18.8670    13.8820    24.2000   -24.0600 
  167.8750     2.2740    71.7400    20.9500    19.8700    15.6520    24.2490   -24.1050 
  168.0000     2.2890    71.8010    21.3080    20.5110    15.6260    24.3200   -24.1660 
  168.1250     2.2860    71.1290    21.0700    20.6150    14.8540    24.3520   -24.2560 
  168.2500     2.2590    70.1850    20.3530    20.1900    14.3940    24.3390   -24.3860 
  168.3750     2.2280    69.5980    19.4900    19.5150    14.0010    24.3140   -24.5410 
  168.5000     2.2090    69.1740    18.6760    18.7970    13.5460    24.3030   -24.7200 
  168.6250     2.2060    69.2840    18.0140    18.1780    12.6940    24.2920   -24.9030 
  168.7500     2.2170    70.6460    17.5390    17.7290    11.9070    24.2590   -25.0880 
  168.8750     2.2340    72.8200    17.2280    17.4390    11.5460    24.2050   -25.2880 
  169.0000     2.2510    74.7090    17.0860    17.3050    11.3960    24.1470   -25.5150 
  169.1250     2.2640    77.4690    17.1020    17.3050    11.4770    24.1010   -25.7870 
  169.2500     2.2710    82.7580    17.2400    17.3900    11.5240    24.0810   -26.1040 
  169.3750     2.2780    85.9990    17.4340    17.4980    11.3980    24.0580   -26.4800 
  169.5000     2.2850    83.0550    17.7010    17.6460    11.4160    24.0040   -26.9010 
  169.6250     2.2900    76.1090    18.1580    17.9480    11.6900    23.9180   -27.3860 
  169.7500     2.2930    71.5590    18.9840    18.5870    12.2060    23.8770   -27.9430 
  169.8750     2.2980    69.6200    20.1880    19.6000    12.9100    23.8610   -28.5500 
  170.0000     2.3030    67.9100    21.6870    20.9360    14.4690    23.8470   -29.1790 
  170.1250     2.3020    67.0330    23.3350    22.4710    17.3910    23.8050   -29.8040 
  170.2500     2.2950    68.5950    25.0980    24.1370    20.9510    23.7300   -30.4140 
  170.3750     2.2820    69.5240    27.2970    26.1150    22.2100    23.6860   -30.9890 
  170.5000     2.2680    68.5760    30.7260    28.9790    21.9870    23.7650   -31.5380 
  170.6250     2.2540    67.6850    36.6900    33.8560    23.9200    24.0120   -32.0460 
  170.7500     2.2410    67.2400    47.0910    42.6670    30.8490    24.3430   -32.5050 
  170.8750     2.2260    64.2080    63.0070    56.7970    43.7310    24.6620   -32.9120 
  171.0000     2.2090    58.4670    85.3520    77.2670    63.9380    24.9370   -33.2780 
  171.1250     2.1950    54.2120   112.8270   102.7170    87.5530    25.1300   -33.6010 
  171.2500     2.1890    53.9610   139.0730   127.3820   105.7460    25.2740   -33.8770 
  171.3750     2.1870    55.1350   154.9610   143.6800   108.2000    25.4350   -34.1230 
  171.5000     2.1870    55.9810   157.3560   148.6650    96.0260    25.5490   -34.3380 
  171.6250     2.1900    57.4040   150.2890   144.6110    78.6130    25.5100   -34.5220 
  171.7500     2.2000    59.6940   140.0300   136.2940    64.8250    25.2390   -34.6740 
  171.8750     2.2190    60.4910   130.8720   128.2030    55.3430    24.8310   -34.7980 
  172.0000     2.2430    59.7690   123.9930   121.9370    45.9500    24.3990   -34.8950 
  172.1250     2.2580    59.2340   119.7380   118.2030    37.6130    24.0670   -34.9710 
  172.2500     2.2610    60.3300   118.1280   117.7160    31.9090    23.8520   -35.0540 
  172.3750     2.2600    62.5850   118.7380   119.7660    28.5770    23.7010   -35.1350 
  172.5000     2.2630    63.1940   121.9230   122.3770    26.6190    23.5720   -35.2100 
  172.6250     2.2690    60.9030   125.2160   124.6510    26.2220    23.4890   -35.2660 
  172.7500     2.2740    58.8040   126.1910   124.0280    27.9970    23.5130   -35.2950 
  172.8750     2.2780    59.9340   123.4100   119.3840    30.8290    23.6350   -35.3200 
  173.0000     2.2790    62.9920   116.9680   111.3350    35.8260    23.8300   -35.3270 
  173.1250     2.2760    65.4950   108.4640   101.9240    42.7490    24.0260   -35.3140 
  173.2500     2.2690    65.5230   100.1550    93.4430    46.8010    24.1730   -35.2720 
  173.3750     2.2600    63.1480    93.5630    86.9270    49.1050    24.3350   -35.1970 
  173.5000     2.2510    61.1100    89.0250    82.4100    53.3690    24.5340   -35.0900 
  173.6250     2.2450    61.2680    86.3100    79.5170    59.0100    24.6880   -34.9580 
  173.7500     2.2490    61.5440    84.9010    77.7050    64.6150    24.7490   -34.8190 
  173.8750     2.2560    59.9840    83.8530    76.1220    65.1130    24.7600   -34.6730 
  174.0000     2.2620    59.1410    82.3950    74.0940    62.6410    24.7350   -34.5170 
  174.1250     2.2640    60.4840    79.7490    71.0070    61.0540    24.6740   -34.3670 
  174.2500     2.2620    61.2300    75.4310    66.5820    59.3680    24.5840   -34.2080 
  174.3750     2.2660    60.8970    70.1050    61.5440    53.3820    24.5250   -34.0560 
  174.5000     2.2770    62.2630    64.7880    56.8820    46.1700    24.5460   -33.9200 
  174.6250     2.2920    64.6470    60.7220    53.7270    42.2960    24.6040   -33.8220 
