~V
VERS. 2.00: Ver 2.00
~W
STRT.M 50.0000:
STOP.M 257.0000:
STEP.M 0.1250:
NULL. -999.2500:
UWI. F11021:
~C
DEPT.M :
GR.API :
RML.OHMM :
RI. :
RXO.OHMM :
CALI.CM :
SP.MV :
DEN.GM/CC :
~A
# ...
  106.2500    85.7860     8.1990     6.2610     8.1820    22.9590   -13.6570     2.2100 
  106.3750    84.0330     8.4560     6.4200     8.5080    23.0180   -13.9820     2.2060 
  106.5000    77.1400     8.7080     6.6130     8.7350    22.9590   -14.2860     2.1970 
  106.6250    73.0160     8.8930     6.7930     8.6770    22.9220   -14.5740     2.1830 
  106.7500    73.1120     9.0020     6.9290     8.5470    22.9080   -14.8840     2.1720 
  106.8750    75.6200     9.0470     7.0120     8.6850    22.8430   -15.1160     2.1670 
  107.0000    77.4810     9.0540     7.0470     9.0750    22.7270   -15.1770     2.1690 
  107.1250    77.6810     9.0480     7.0500     9.4510    22.6120   -15.0430     2.1770 
  107.2500    76.4910     9.0380     7.0430     9.3630    22.5540   -14.7530     2.1860 
  107.3750    73.7020     9.0120     7.0280     9.2120    22.5790   -14.3900     2.1920 
  107.5000    72.1960     8.9500     6.9950     9.1480    22.6320   -14.0970     2.1920 
  107.6250    74.7520     8.8250     6.9170     9.2550    22.6150   -13.8890     2.1890 
  107.7500    78.5500     8.6630     6.7980     9.0580    22.5390   -13.6790     2.1890 
  107.8750    81.4330     8.5190     6.6680     8.6900    22.5240   -13.4950     2.1990 
  108.0000    81.4450     8.4720     6.5800     8.2070    22.6430   -13.3890     2.2180 
  108.1250    78.8470     8.6330     6.6240     8.0810    22.7220   -13.4650     2.2440 
  108.2500    76.2790     8.9990     6.8260     8.1530    22.7590   -13.7730     2.2630 
  108.3750    75.0500     9.5180     7.1810     8.5100    22.9640   -14.2600     2.2670 
  108.5000    74.7100    10.0720     7.6320     8.9860    23.3160   -14.7620     2.2520 
  108.6250    73.2930    10.4360     8.0350     9.3340    23.5120   -15.1190     2.2230 
  108.7500    71.3940    10.4540     8.2300     9.7540    23.5560   -15.2560     2.1930 
  108.8750    71.1860    10.0540     8.1080    10.1490    23.5760   -15.1010     2.1670 
  109.0000    75.4860     9.2880     7.6650    10.1540    23.7140   -14.6090     2.1460 
  109.1250    84.4540     8.3160     6.9890     9.1230    24.0530   -13.6740     2.1330 
  109.2500    93.0260     7.3920     6.2860     7.4410    24.4380   -12.3780     2.1320 
  109.3750   101.0360     6.6670     5.6820     6.0420    24.6990   -10.8680     2.1530 
  109.5000   109.2530     6.2190     5.2520     5.5680    24.7660    -9.3110     2.1960 
  109.6250   114.2430     6.0820     5.0500     5.5610    24.5990    -7.8540     2.2520 
  109.7500   112.2170     6.1330     5.0150     5.7870    24.3800    -6.5500     2.2980 
  109.8750   105.2850     6.2710     5.0880     6.2390    24.2260    -5.4560     2.3220 
  110.0000   100.9630     6.3930     5.1990     6.6140    24.1650    -4.6240     2.3260 
  110.1250   103.7420     6.4120     5.2750     6.6370    24.1770    -4.0950     2.3190 
  110.2500   106.8170     6.3350     5.2890     6.3800    24.2450    -3.7510     2.3150 
  110.3750   110.2500     6.2060     5.2530     6.0110    24.3630    -3.5180     2.3190 
  110.5000   115.2390     6.0790     5.2000     5.8110    24.5080    -3.3240     2.3280 
  110.6250   117.9120     6.0090     5.1670     5.6300    24.6190    -3.1480     2.3370 
  110.7500   114.7040     6.0010     5.1660     5.4280    24.6670    -3.0280     2.3430 
  110.8750   110.9590     6.0470     5.1980     5.3760    24.6960    -2.9810     2.3440 
  111.0000   112.6410     6.1320     5.2520     5.4660    24.7640    -2.9940     2.3400 
  111.1250   113.8110     6.2460     5.3200     5.6480    24.8990    -3.0510     2.3310 
  111.2500   109.6770     6.3770     5.3900     5.7670    24.9830    -3.1130     2.3200 
  111.3750   104.2250     6.5060     5.4580     5.7870    25.0380    -3.1480     2.3080 
  111.5000   102.1240     6.5980     5.5050     5.7970    25.0710    -3.1770     2.2990 
  111.6250   103.4700     6.5680     5.4810     5.8790    25.0980    -3.2140     2.2890 
  111.7500   103.2400     6.4010     5.3630     6.0470    25.1100    -3.2480     2.2780 
  111.8750   101.6770     6.1740     5.1810     6.1810    25.1320    -3.3130     2.2690 
  112.0000   101.1540     6.0720     5.0360     6.0400    25.1500    -3.4770     2.2700 
  112.1250   101.3310     6.4030     5.1190     5.5940    25.1150    -3.8560     2.2960 
  112.2500    99.4460     7.2550     5.5250     5.3160    24.9580    -4.5080     2.3400 
  112.3750    94.3300     8.5960     6.2970     6.1990    24.7040    -5.4020     2.3860 
  112.5000    88.0720    10.2030     7.3790     9.1210    24.4910    -6.4310     2.4150 
  112.6250    83.4840    11.6260     8.5590    14.5820    24.5010    -7.5030     2.4010 
  112.7500    81.3300    12.5720     9.5430    15.6450    24.6130    -8.5120     2.3530 
  112.8750    80.1230    13.0610    10.2230    13.0340    24.6960    -9.3100     2.2830 
  113.0000    78.2540    13.2870    10.6520    12.0730    24.7670    -9.7630     2.2160 
  113.1250    76.6750    13.3110    10.8580    13.8260    24.9140    -9.6520     2.1850 
  113.2500    78.5230    12.9760    10.7750    16.9110    24.9800    -9.0190     2.2050 
  113.3750    85.4260    12.0430    10.2260    18.8020    24.9650    -7.9600     2.2700 
  113.5000    94.6720    10.5060     9.1690    16.9260    24.9720    -6.6690     2.3540 
  113.6250   100.4130     8.8040     7.8650     9.8730    25.0750    -5.3550     2.4200 
  113.7500   102.8690     7.5140     6.7570     6.4760    25.2090    -4.2060     2.4450 
  113.8750   104.9480     6.8410     6.0320     5.3180    25.1960    -3.3040     2.4270 
  114.0000   104.9720     6.7290     5.7140     5.4140    24.9850    -2.6710     2.3790 
  114.1250   100.7260     6.9820     5.7550     6.4030    24.8340    -2.3470     2.3160 
  114.2500    98.8940     7.2310     5.9130     6.9370    24.9420    -2.2280     2.2620 
  114.3750   103.2290     7.2670     6.0090     6.2450    25.0480    -2.2740     2.2350 
  114.5000   109.4910     7.0520     5.9480     5.8410    24.9380    -2.4020     2.2420 
  114.6250   111.9160     6.7140     5.7540     6.1350    24.7780    -2.5150     2.2730 
  114.7500   113.9210     6.4410     5.5580     6.3530    24.7140    -2.5270     2.3000 
  114.8750   117.4000     6.3040     5.4330     5.9920    24.6970    -2.4620     2.3080 
  115.0000   120.0340     6.2980     5.4040     5.8030    24.6560    -2.3780     2.2980 
  115.1250   117.3360     6.3680     5.4420     5.8760    24.5360    -2.3500     2.2840 
  115.2500   110.6710     6.4380     5.4850     6.1280    24.3860    -2.3660     2.2780 
  115.3750   107.4830     6.4890     5.5110     5.9760    24.2650    -2.3630     2.2820 
  115.5000   110.8610     6.5160     5.5150     5.5820    24.1110    -2.3530     2.2900 
  115.6250   114.7160     6.5190     5.5000     5.4070    23.8790    -2.3690     2.2970 
  115.7500   113.3840     6.5130     5.4790     5.4290    23.6800    -2.4330     2.3010 
  115.8750   110.3950     6.5110     5.4600     5.5100    23.5640    -2.5240     2.2990 
  116.0000   109.7520     6.5310     5.4500     5.5060    23.4860    -2.5980     2.2920 
  116.1250   108.9110     6.5840     5.4530     5.4520    23.5820    -2.6830     2.2840 
  116.2500   107.4090     6.6640     5.4690     5.4120    23.7900    -2.8420     2.2760 
  116.3750   106.1730     6.7640     5.4960     5.6270    23.9650    -3.1060     2.2730 
  116.5000   105.2570     6.8860     5.5400     5.8340    23.9860    -3.4460     2.2730 
  116.6250   103.9440     7.0370     5.6070     6.0910    23.9140    -3.8340     2.2740 
  116.7500   102.7350     7.2040     5.6870     6.3470    23.8480    -4.2000     2.2740 
  116.8750   104.0480     7.3690     5.7720     6.4980    23.8250    -4.5430     2.2720 
  117.0000   105.8260     7.5100     5.8520     6.3050    23.8460    -4.9290     2.2670 
  117.1250   104.5980     7.6090     5.9160     6.0380    23.9040    -5.3630     2.2590 
  117.2500   101.3860     7.6880     5.9670     5.8560    23.9170    -5.7680     2.2500 
  117.3750    98.7640     7.7840     6.0220     5.7730    23.8570    -6.1190     2.2430 
