~V
VERS. 2.00: Ver 2.00
~W
STRT.M 50.0000:
STOP.M 229.0000:
STEP.M 0.1250:
NULL. -999.2500:
UWI. F11009:
~C
DEPT.M :
DEN.GM/CC :
GR.API :
RML.OHMM :
RI. :
RXO.OHMM :
CALI.CM :
SP.MV :
~A
# ...
  117.5000     2.2050    77.9370     6.5820     5.7950     9.0740    25.7960   -19.8870 
  117.6250     2.2070    82.0730     6.5460     5.7530     8.8830    25.7470   -19.5840 
  117.7500     2.2090    87.0940     6.5370     5.7350     8.7180    25.6490   -19.2960 
  117.8750     2.2140    87.8090     6.5600     5.7470     8.6900    25.5660   -19.0080 
  118.0000     2.2200    85.5960     6.6090     5.7890     9.0280    25.5310   -18.7550 
  118.1250     2.2240    84.5050     6.6740     5.8540     9.0930    25.5190   -18.5670 
  118.2500     2.2260    85.1240     6.7440     5.9270     9.0040    25.4960   -18.5070 
  118.3750     2.2250    84.8560     6.8130     5.9980     8.8890    25.4700   -18.5560 
  118.5000     2.2240    81.7350     6.8780     6.0600     8.8470    25.4560   -18.6740 
  118.6250     2.2210    78.4960     6.9310     6.1040     8.9000    25.4540   -18.8210 
  118.7500     2.2160    76.1080     6.9560     6.1300     9.0150    25.4540   -18.9570 
  118.8750     2.2060    74.3470     6.9480     6.1330     9.1090    25.4540   -19.0630 
  119.0000     2.1910    73.8490     6.9390     6.1240     9.1980    25.4540   -19.1260 
  119.1250     2.1800    76.4570     7.0930     6.1890     9.2390    25.4670   -19.1370 
  119.2500     2.1880    82.2070     7.6320     6.4700     9.5420    25.5060   -18.9910 
  119.3750     2.2300    85.8590     8.7760     7.1600    10.2790    25.5670   -18.7180 
  119.5000     2.3170    83.4150    10.6730     8.4510    11.9920    25.6090   -18.3720 
  119.6250     2.4350    77.4550    13.4380    10.4940    16.4820    25.6330   -18.0400 
  119.7500     2.5400    73.3970    16.2700    12.7820    24.6390    25.6440   -17.7620 
  119.8750     2.5920    71.2670    18.0060    14.5330    36.0930    25.6680   -17.5640 
  120.0000     2.5700    68.7230    17.7720    14.9900    44.8460    25.6730   -17.3850 
  120.1250     2.4820    68.3770    15.6010    13.7970    33.4580    25.6190   -17.1760 
  120.2500     2.3870    70.7740    12.9930    11.8820    19.1250    25.5820   -16.9200 
  120.3750     2.3250    73.5570    10.7920     9.9940    11.8770    25.6400   -16.5880 
  120.5000     2.3160    73.7120     9.2880     8.5300     9.4250    25.8130   -16.1840 
  120.6250     2.3490    71.9350     8.4100     7.5730     8.8440    26.0560   -15.6730 
  120.7500     2.3820    73.1070     7.8010     6.8990     8.7390    26.2780   -15.0620 
  120.8750     2.3890    79.4070     7.3540     6.4220     8.6150    26.4000   -14.3660 
  121.0000     2.3720    87.5670     7.0930     6.1420     7.4410    26.4460   -13.6440 
  121.1250     2.3590    88.5640     7.1350     6.1480     6.2310    26.4690   -12.9470 
  121.2500     2.3740    82.1360     7.4400     6.4130     5.9090    26.4510   -12.3680 
  121.3750     2.4130    74.4460     7.9220     6.8820     6.3920    26.4410   -11.9410 
  121.5000     2.4540    70.8040     8.4620     7.4580     7.3930    26.4380   -11.5890 
  121.6250     2.4670    70.6760     8.9470     8.0220    10.5220    26.4450   -11.3220 
  121.7500     2.4590    71.4280     9.3430     8.4960    10.2030    26.4710   -11.1010 
  121.8750     2.4500    71.7030     9.6350     8.8430     9.3060    26.5270   -10.9240 
  122.0000     2.4560    70.0240     9.7660     9.0100     9.6910    26.5820   -10.7900 
  122.1250     2.4710    70.1020     9.5680     8.8600    11.4020    26.6310   -10.7310 
  122.2500     2.4710    74.5340     9.0040     8.3700    13.8060    26.6840   -10.7310 
  122.3750     2.4430    81.1800     8.1400     7.5860    13.6740    26.7180   -10.7450 
  122.5000     2.3890    86.2910     7.1920     6.6740     9.4580    26.7240   -10.7970 
  122.6250     2.3310    88.6250     6.5440     5.9280     6.6400    26.7290   -10.8140 
  122.7500     2.2930    88.5610     6.4690     5.5780     5.8390    26.7470   -10.8000 
  122.8750     2.2930    86.4070     7.1690     5.8040     6.0710    26.7710   -10.7900 
  123.0000     2.3360    83.5410     8.7590     6.7570     6.9710    26.7830   -10.8220 
  123.1250     2.4190    77.4660    11.2790     8.6600     9.3710    26.7850   -10.8280 
  123.2500     2.5090    68.1190    14.0640    11.1590    13.4450    26.7830   -10.7930 
  123.3750     2.5740    61.5950    16.2790    13.6140    18.3180    26.7770   -10.7450 
  123.5000     2.5920    61.5670    17.2740    15.1860    21.8380    26.7670   -10.6520 
  123.6250     2.5560    64.6160    16.7850    15.1670    21.1500    26.7770   -10.5340 
  123.7500     2.5030    66.6290    15.5440    14.1630    17.9550    26.7750   -10.4010 
  123.8750     2.4680    69.0680    14.1300    12.8860    14.4930    26.7400   -10.2100 
  124.0000     2.4670    71.5060    12.9500    11.8100    11.8730    26.6540    -9.9860 
  124.1250     2.4920    72.5750    12.0980    10.9840    11.9790    26.5860    -9.8350 
  124.2500     2.5090    74.2860    11.2180    10.1170    14.6830    26.5470    -9.7440 
  124.3750     2.4990    79.6740    10.1170     9.0610    16.8510    26.4900    -9.6710 
  124.5000     2.4640    87.8590     8.8730     7.8580    14.2410    26.4270    -9.6020 
  124.6250     2.4190    96.0060     7.7620     6.7250     8.3190    26.3550    -9.5820 
  124.7500     2.3830   103.2740     7.0030     5.8610     6.0590    26.3300    -9.6340 
  124.8750     2.3570   108.0980     6.7090     5.3750     5.5650    26.4040    -9.7510 
  125.0000     2.3380   108.6990     6.9210     5.3160     5.6200    26.5720    -9.8790 
  125.1250     2.3270   103.6390     7.7360     5.7760     6.0190    26.7310    -9.9100 
  125.2500     2.3230    95.8040     9.0610     6.6910     6.9490    26.8410    -9.8440 
  125.3750     2.3280    88.2110    10.8550     8.0560     8.2890    26.9380    -9.6930 
  125.5000     2.3430    82.3880    13.0070     9.8230    10.1680    27.0990    -9.5140 
  125.6250     2.3670    77.5490    15.3230    11.8820    13.8830    27.2220    -9.2830 
  125.7500     2.4020    72.3290    17.5660    13.9820    16.9240    27.2440    -8.9990 
  125.8750     2.4460    67.8910    19.6670    15.9850    18.4320    27.1490    -8.7050 
  126.0000     2.4980    66.6740    21.6990    17.8630    20.3170    26.9860    -8.4140 
  126.1250     2.5510    66.6220    23.8390    19.7050    22.5250    26.8560    -8.1690 
  126.2500     2.5960    65.2250    26.0830    21.5900    23.7470    26.7990    -7.9800 
  126.3750     2.6310    62.7160    28.0880    23.3510    25.4160    26.7860    -7.8810 
  126.5000     2.6550    59.8380    29.1440    24.4890    27.6690    26.7860    -7.8610 
  126.6250     2.6640    57.7180    28.0650    24.0040    29.1860    26.7870    -7.9380 
  126.7500     2.6530    57.5390    24.9150    21.7680    27.9080    26.7980    -8.0930 
  126.8750     2.6170    61.7790    20.3710    18.2070    24.6460    26.8300    -8.3060 
  127.0000     2.5590    68.9810    15.5850    14.2300    20.2290    26.8820    -8.5520 
  127.1250     2.4850    78.0210    11.7760    10.8630    14.3500    26.8550    -8.8380 
  127.2500     2.4150    88.2020     9.1900     8.4250     9.8130    26.7990    -9.1370 
  127.3750     2.3580    96.5140     7.6660     6.8580     7.2330    26.7570    -9.4310 
  127.5000     2.3200   100.6240     6.8960     5.9640     6.4000    26.7540    -9.7280 
  127.6250     2.2980   100.6820     6.6360     5.5920     6.3600    26.7720    -9.9680 
  127.7500     2.2860    99.9240     6.5920     5.4900     6.4060    26.7830   -10.1330 
  127.8750     2.2810    98.5880     6.6430     5.5400     6.3990    26.7850   -10.2130 
  128.0000     2.2840    97.3610     6.7120     5.6530     6.3960    26.7850   -10.2500 
  128.1250     2.2950    99.7090     6.7500     5.7570     6.3720    26.7870   -10.2680 
  128.2500     2.3110   103.0250     6.7470     5.8160     6.3280    26.8070   -10.3190 
  128.3750     2.3290   103.3020     6.7250     5.8330     6.3330    26.8500   -10.4350 
  128.5000     2.3410   101.0450     6.7440     5.8420     6.4300    26.8750   -10.5770 
  128.6250     2.3420    99.1650     6.9460     5.9500     6.4480    26.8890   -10.7530 
