~V
VERS. 2.00: Ver 2.00
~W
STRT.M 53.0000:
STOP.M 287.0000:
STEP.M 0.1250:
NULL. -999.2500:
UWI. F11059:
~C
DEPT.M :
GR.API :
RML.OHMM :
RI. :
RXO.OHMM :
CALI.CM :
DEN.GM/CC :
SP.MV :
~A
# ...
   98.0000    63.1360     9.5960     7.4590     9.2900    24.5810     2.1000   -13.9690 
   98.1250    67.9070     9.3170     7.2720     8.9980    24.5800     2.0970   -13.7650 
   98.2500    70.3010     9.0370     7.0890     8.8580    24.5820     2.1020   -13.5280 
   98.3750    69.9730     8.9040     7.0490     8.8500    24.5920     2.1260   -13.2860 
   98.5000    70.4800     9.0150     7.2400     9.0300    24.6060     2.1730   -13.0430 
   98.6250    71.9910     9.4230     7.6970    10.6760    24.6280     2.2430   -12.8160 
   98.7500    73.7530    10.0980     8.3620    14.8120    24.6730     2.3180   -12.6370 
   98.8750    74.7450    10.8720     9.0180    21.2970    24.7340     2.3650   -12.5530 
   99.0000    74.0480    11.4300     9.3690    25.1360    24.7420     2.3670   -12.5430 
   99.1250    71.4490    11.5270     9.2600    25.0300    24.6960     2.3280   -12.6060 
   99.2500    68.4350    11.0930     8.7510    19.9560    24.5950     2.2710   -12.7320 
   99.3750    69.9410    10.2880     8.0870    13.0870    24.4660     2.2250   -12.9560 
   99.5000    73.4850     9.5340     7.5540     9.9130    24.4120     2.2000   -13.2540 
   99.6250    74.6110     9.0910     7.2750     8.8560    24.3990     2.1890   -13.5800 
   99.7500    72.0860     9.0580     7.2650     8.7960    24.3940     2.1800   -13.8820 
   99.8750    68.8040     9.4030     7.4520     9.0300    24.3890     2.1650   -14.1040 
  100.0000    67.0400     9.8490     7.6530     9.4770    24.3880     2.1480   -14.2570 
  100.1250    65.9650    10.1860     7.7620     9.8890    24.3930     2.1390   -14.3670 
  100.2500    64.6170    10.2850     7.7520     9.9320    24.3970     2.1430   -14.4370 
  100.3750    63.0630    10.1170     7.6640     9.6170    24.3810     2.1550   -14.4560 
  100.5000    62.2080     9.8500     7.5720     9.3480    24.3330     2.1660   -14.4310 
  100.6250    62.8210     9.6130     7.5080     9.4710    24.2560     2.1660   -14.3690 
  100.7500    63.7680     9.4950     7.4840     9.8580    24.1770     2.1550   -14.2980 
  100.8750    63.8630     9.5370     7.5140    10.3190    24.1340     2.1390   -14.2090 
  101.0000    63.2810     9.6610     7.5750    10.5280    24.1690     2.1280   -14.0960 
  101.1250    63.0770     9.7800     7.6280    10.6060    24.2420     2.1280   -13.9620 
  101.2500    64.3860     9.7990     7.6200    10.6270    24.2840     2.1380   -13.8170 
  101.3750    67.1010     9.6360     7.4890    10.5490    24.2890     2.1590   -13.6720 
  101.5000    70.6730     9.3470     7.2770    10.0940    24.2920     2.1820   -13.5330 
  101.6250    73.9460     9.0180     7.0620     9.2670    24.3080     2.2030   -13.4070 
  101.7500    76.0620     8.7520     6.9300     7.7820    24.3270     2.2170   -13.2970 
  101.8750    76.6850     8.6520     6.9650     7.8160    24.3410     2.2200   -13.2380 
  102.0000    76.8820     8.7220     7.1420     8.0510    24.3450     2.2110   -13.2470 
  102.1250    77.7310     8.9440     7.4110     8.7480    24.3520     2.1930   -13.3150 
  102.2500    77.7060     9.2720     7.6930     9.1270    24.3800     2.1700   -13.4220 
  102.3750    75.6500     9.6290     7.9120     9.0030    24.4240     2.1490   -13.5330 
  102.5000    73.8090     9.9200     8.0490     8.9220    24.4860     2.1360   -13.6450 
  102.6250    73.3110    10.0850     8.1110     8.9400    24.5280     2.1320   -13.7570 
  102.7500    73.8960    10.1080     8.1180     9.2720    24.5430     2.1350   -13.8590 
  102.8750    73.4250    10.0090     8.0820     9.7800    24.5370     2.1390   -13.9290 
  103.0000    72.6280     9.8700     8.0190     9.4610    24.5300     2.1430   -13.9650 
  103.1250    74.1780     9.7440     7.9340     9.1640    24.5290     2.1460   -13.9570 
  103.2500    77.6350     9.6600     7.8390     9.0340    24.5290     2.1490   -13.9250 
  103.3750    77.7560     9.6300     7.7450     9.0270    24.5380     2.1540   -13.8880 
  103.5000    72.7930     9.6330     7.6570     9.0150    24.5430     2.1580   -13.8410 
  103.6250    67.9760     9.6500     7.5790     9.0270    24.5430     2.1630   -13.8010 
  103.7500    68.2810     9.6600     7.5080     9.1850    24.5330     2.1690   -13.7660 
  103.8750    71.3820     9.6480     7.4440     9.3490    24.5110     2.1790   -13.7290 
  104.0000    72.8410     9.6160     7.3950     9.4650    24.4890     2.1900   -13.6870 
  104.1250    72.9440     9.5700     7.3810     9.5160    24.4770     2.1970   -13.6600 
  104.2500    73.0540     9.5150     7.4150     9.6020    24.4660     2.2010   -13.6270 
  104.3750    72.8240     9.4540     7.5060     9.7170    24.4350     2.1990   -13.6100 
  104.5000    72.4180     9.3880     7.6250     9.8990    24.4060     2.1940   -13.6120 
  104.6250    72.3100     9.3250     7.7360    10.3130    24.3880     2.1880   -13.5990 
  104.7500    71.7200     9.2810     7.8090    11.1790    24.3820     2.1820   -13.5760 
  104.8750    71.2070     9.2820     7.8220    10.2650    24.3810     2.1760   -13.5540 
  105.0000    71.6310     9.3140     7.7920     9.6410    24.3820     2.1720   -13.5310 
  105.1250    72.3380     9.3510     7.7320     9.2180    24.3750     2.1710   -13.5090 
  105.2500    72.0650     9.3610     7.6520     9.0940    24.3490     2.1740   -13.4960 
  105.3750    71.4640     9.3210     7.5610     9.1800    24.3380     2.1840   -13.4680 
  105.5000    72.4360     9.2700     7.4930     9.3610    24.3790     2.1940   -13.4120 
  105.6250    75.1200     9.2690     7.4900     9.5120    24.4620     2.1980   -13.3260 
  105.7500    77.2250     9.3750     7.6010     9.3720    24.5390     2.1910   -13.2200 
  105.8750    75.5630     9.6370     7.8690     9.1650    24.6380     2.1740   -13.1100 
  106.0000    72.5090     9.9930     8.2160     9.0120    24.7380     2.1590   -12.9850 
  106.1250    71.2150    10.3600     8.5340     8.9710    24.6780     2.1530   -12.8520 
  106.2500    71.8700    10.6320     8.7020     9.1490    24.3810     2.1570   -12.7200 
  106.3750    72.0930    10.6690     8.6120     9.8710    24.0690     2.1680   -12.5900 
  106.5000    71.8610    10.4700     8.3240    10.4960    23.9240     2.1820   -12.4750 
  106.6250    71.6560    10.0720     7.9090    10.6050    24.0060     2.1960   -12.3740 
  106.7500    71.8340     9.5520     7.4330    10.2720    24.1460     2.2120   -12.2780 
  106.8750    74.0430     9.0100     6.9710     9.7170    24.2680     2.2220   -12.1700 
  107.0000    75.4180     8.5660     6.6300     9.2960    24.4170     2.2210   -12.0570 
  107.1250    73.4320     8.3560     6.5640     9.0750    24.5850     2.2100   -11.9300 
  107.2500    69.7490     8.5520     6.9730     9.8530    24.7440     2.2070   -11.7870 
  107.3750    67.7430     9.4910     8.2170    13.2680    24.8400     2.2410   -11.6310 
  107.5000    66.3590    11.2320    10.3170    20.6140    24.8270     2.3120   -11.4740 
  107.6250    64.0960    13.6530    13.0410    31.9340    24.6990     2.3960   -11.3320 
  107.7500    61.9980    16.1350    15.5080    46.8540    24.6030     2.4560   -11.2380 
  107.8750    61.9140    17.3330    16.0360    50.4440    24.5770     2.4650   -11.2280 
  108.0000    63.9990    16.7060    14.6480    35.6290    24.5480     2.4520   -11.2860 
  108.1250    68.2470    14.6480    12.3870    18.6700    24.4600     2.4470   -11.3810 
  108.2500    72.1910    12.1880    10.2620    11.3020    24.3060     2.4580   -11.4800 
  108.3750    74.6020    10.3700     8.7990     9.7740    24.2090     2.4590   -11.6070 
  108.5000    77.0440     9.3500     7.8720     9.7040    24.2510     2.4220   -11.7430 
  108.6250    79.1340     8.9220     7.3320     9.2750    24.3720     2.3510   -11.8710 
  108.7500    79.5910     8.7930     7.0290     9.3340    24.4560     2.2760   -11.9660 
  108.8750    78.4200     8.7030     6.8550     9.0930    24.4540     2.2390   -11.9970 
  109.0000    79.1970     8.5330     6.7350     8.6270    24.4130     2.2390   -11.9940 
  109.1250    80.7710     8.3200     6.6620     8.1480    24.3560     2.2590   -11.9990 
