~V
VERS. 2.00: Ver 2.00
~W
STRT.M 59.0000:
STOP.M 217.0000:
STEP.M 0.1250:
NULL. -999.2500:
UWI. F11019:
~C
DEPT.M :
DEN.GM/CC :
GR.API :
RML.OHMM :
RI. :
RXO.OHMM :
CALI.CM :
SP.MV :
~A
# ...
  160.2500     2.2330    81.3690     5.4350     5.1710     5.0300    24.9930   -15.3320 
  160.3750     2.2490    82.3860     5.5060     5.2560     5.0870    24.9250   -15.1870 
  160.5000     2.2610    82.7130     5.4780     5.2530     5.1090    24.9570   -15.0060 
  160.6250     2.2590    82.5740     5.3330     5.1360     5.0460    25.1510   -14.7800 
  160.7500     2.2410    82.8220     5.1210     4.9530     4.8950    25.4400   -14.5820 
  160.8750     2.2110    83.9300     4.8960     4.7530     4.6520    25.7510   -14.4240 
  161.0000     2.1760    85.6420     4.7340     4.5980     4.3870    26.0110   -14.2800 
  161.1250     2.1500    87.1180     4.7560     4.5770     4.1650    26.0520   -14.1350 
  161.2500     2.1400    87.6690     5.0090     4.7270     4.0830    25.8910   -14.0390 
  161.3750     2.1500    86.6640     5.5000     5.0680     4.2910    25.4440   -13.9930 
  161.5000     2.1780    83.4150     6.1560     5.5630     4.9170    24.7510   -13.9870 
  161.6250     2.2160    78.7260     6.7810     6.0920     6.0380    24.3510   -13.9850 
  161.7500     2.2490    75.6550     7.1430     6.4650     7.2300    24.1920   -13.9290 
  161.8750     2.2660    75.4000     7.0990     6.5430     7.9200    24.2150   -13.8450 
  162.0000     2.2600    77.2520     6.6450     6.2800     7.4880    24.4940   -13.7790 
  162.1250     2.2370    80.6170     5.9450     5.7470     5.9170    24.8780   -13.7430 
  162.2500     2.2140    84.4450     5.3140     5.1950     4.6780    25.0180   -13.7090 
  162.3750     2.2030    87.5360     4.9200     4.7880     4.1930    24.8770   -13.6670 
  162.5000     2.2040    89.4710     4.8050     4.6040     4.2470    24.4200   -13.6330 
  162.6250     2.2110    90.6040     4.9290     4.6670     4.5360    24.0570   -13.6100 
  162.7500     2.2120    90.3600     5.1340     4.8580     4.7920    24.0010   -13.5690 
  162.8750     2.2010    88.6030     5.3130     5.0800     4.8810    24.2830   -13.4450 
  163.0000     2.1770    86.9480     5.4000     5.2490     4.7960    24.6530   -13.2490 
  163.1250     2.1450    87.1560     5.3640     5.2970     4.6890    24.9130   -13.0200 
  163.2500     2.1120    88.3320     5.2580     5.2400     4.5220    25.1820   -12.7510 
  163.3750     2.0820    89.2030     5.1210     5.1060     4.2570    25.3820   -12.4740 
  163.5000     2.0570    89.2470     4.9790     4.9310     3.9730    25.2040   -12.2300 
  163.6250     2.0440    89.1680     4.8360     4.7400     3.8180    24.9290   -12.0430 
  163.7500     2.0420    90.2110     4.6870     4.5470     3.7460    24.5990   -11.9580 
  163.8750     2.0530    92.6150     4.5290     4.3550     3.7220    24.3950   -12.0240 
  164.0000     2.0730    95.1240     4.3410     4.1680     3.7080    24.2450   -12.1870 
  164.1250     2.1010    95.9000     4.1810     4.0060     3.7120    24.0510   -12.4360 
  164.2500     2.1300    95.7160     4.1340     3.9110     3.7190    23.8020   -12.7490 
  164.3750     2.1560    95.3370     4.4000     3.9530     3.7930    23.5850   -13.0840 
  164.5000     2.1750    94.1730     5.1130     4.2420     4.1820    23.2950   -13.4020 
  164.6250     2.1900    90.8140     6.7480     4.9950     5.4490    23.0710   -13.7740 
  164.7500     2.2030    86.6040     9.1740     6.2720     7.8010    23.1570   -14.1920 
  164.8750     2.2180    83.2850    12.0380     8.0780    11.1650    23.3740   -14.5780 
  165.0000     2.2320    80.9870    14.9920    10.2540    15.0360    23.5660   -15.0010 
  165.1250     2.2400    79.9820    17.5310    12.3890    17.6980    23.7000   -15.4630 
  165.2500     2.2440    80.8000    19.1310    14.0060    18.3310    23.9030   -15.9140 
  165.3750     2.2440    82.0690    19.6230    14.8430    17.3980    24.0230   -16.3640 
  165.5000     2.2430    80.9810    19.2650    14.9540    16.1740    24.0800   -16.7650 
  165.6250     2.2420    77.1390    18.5930    14.6570    15.3250    24.1320   -17.0320 
  165.7500     2.2400    74.6740    18.1200    14.4020    14.9850    24.2210   -17.2260 
  165.8750     2.2360    75.3930    17.9920    14.3680    15.1220    24.3240   -17.3790 
  166.0000     2.2300    78.0870    18.1750    14.5840    15.2880    24.3990   -17.4430 
  166.1250     2.2220    80.2380    18.5600    15.0000    15.3000    24.4540   -17.4340 
  166.2500     2.2140    81.4560    18.9640    15.4680    15.3780    24.4890   -17.4180 
  166.3750     2.2080    82.3020    19.2630    15.8860    15.5670    24.4980   -17.4260 
  166.5000     2.2030    82.8840    19.3700    16.1780    15.6120    24.4840   -17.5040 
  166.6250     2.2020    82.4890    19.2220    16.2940    15.3490    24.4720   -17.6340 
  166.7500     2.2020    80.5390    18.9080    16.2780    14.8800    24.4650   -17.7880 
  166.8750     2.2050    77.1560    18.5080    16.1660    14.3560    24.4690   -18.0060 
  167.0000     2.2080    73.4750    18.0910    15.9850    14.0280    24.4900   -18.1880 
  167.1250     2.2110    72.2060    17.7370    15.7710    14.0670    24.4950   -18.3020 
  167.2500     2.2150    74.6400    17.5240    15.6050    14.1810    24.4960   -18.4680 
  167.3750     2.2180    79.3900    17.5670    15.5990    14.0300    24.4950   -18.6710 
  167.5000     2.2220    83.6670    17.9880    15.8820    13.7370    24.4940   -18.9140 
  167.6250     2.2270    84.0000    18.9060    16.5960    14.4270    24.4890   -19.2620 
  167.7500     2.2300    81.2770    20.1390    17.6280    16.6860    24.4770   -19.6650 
  167.8750     2.2320    77.8780    21.4980    18.8350    19.8170    24.4620   -20.1180 
  168.0000     2.2340    75.6040    22.8350    20.0680    22.2310    24.4300   -20.7270 
  168.1250     2.2350    74.6230    24.2200    21.2980    22.8240    24.4050   -21.4300 
  168.2500     2.2370    74.0440    26.0500    22.7550    22.3000    24.3500   -22.0390 
  168.3750     2.2350    73.1050    28.9550    24.9090    24.8850    24.3100   -22.5570 
  168.5000     2.2290    70.6420    33.6820    28.4270    32.2880    24.3280   -23.0470 
  168.6250     2.2170    66.7430    41.5580    34.6230    43.0510    24.2810   -23.5610 
  168.7500     2.2030    64.1130    53.2000    44.2660    53.1550    24.2200   -24.1510 
  168.8750     2.1870    63.4640    69.8720    58.6140    61.0400    24.2010   -24.8150 
  169.0000     2.1730    62.8410    92.7110    78.7910    76.8710    24.2200   -25.4940 
  169.1250     2.1600    60.9900   122.3000   105.5950   128.9870    24.3230   -26.2160 
  169.2500     2.1490    60.0380   153.9000   135.1330   219.7350    24.4390   -27.0170 
  169.3750     2.1390    61.0740   181.0950   162.0670   341.6890    24.4950   -27.9050 
  169.5000     2.1330    63.0970   196.4550   179.8380   459.3810    24.5110   -28.8150 
  169.6250     2.1340    64.7750   192.0970   180.8040   515.7620    24.4800   -29.6220 
  169.7500     2.1400    66.3490   174.4480   168.3530   458.2380    24.4780   -30.2800 
  169.8750     2.1470    67.7410   152.0980   148.7140   298.7750    24.5750   -30.8000 
  170.0000     2.1520    68.0050   132.3610   128.8710   173.9290    24.8040   -31.2260 
  170.1250     2.1520    66.9310   119.2030   114.0930   133.0380    25.1750   -31.6470 
  170.2500     2.1500    65.9240   109.6060   104.4380   124.1370    25.5420   -32.1080 
  170.3750     2.1460    65.3280   103.9370    98.8030   129.4710    25.7430   -32.5640 
  170.5000     2.1440    64.2460   100.7370    95.7840   139.0830    25.8420   -33.0510 
  170.6250     2.1440    62.5400    99.5140    94.6920   144.3900    26.0530   -33.6700 
  170.7500     2.1430    62.0510   100.2410    95.3060   136.5130    26.1430   -34.4240 
  170.8750     2.1440    63.2950   103.5940    98.2710   115.4710    25.9250   -35.2830 
  171.0000     2.1460    64.6290   109.8340   104.0260   100.4600    25.4510   -36.2370 
  171.1250     2.1480    63.5590   118.0460   112.1070   119.3010    24.9980   -37.1940 
  171.2500     2.1490    60.6970   125.1220   119.7270   153.6310    24.8010   -38.1290 
  171.3750     2.1470    57.8390   128.0550   123.9540   184.6770    24.7300   -39.0000 
