~V
VERS. 2.00: Ver 2.00
~W
STRT.M 63.0000:
STOP.M 273.0000:
STEP.M 0.1250:
NULL. -999.2500:
UWI. F11030:
~C
DEPT.M :
DEN.GM/CC :
GR.API :
RML.OHMM :
RI. :
RXO.OHMM :
CALI.CM :
SP.MV :
~A
# ...
   74.2500     2.1480    68.2160     7.5240     6.0270     9.6300    25.9350   -35.7590 
   74.3750     2.1410    64.8600     7.4890     5.9570     9.6570    25.9610   -35.8490 
   74.5000     2.1390    59.3610     7.4710     5.9100     9.7410    25.8910   -35.8120 
   74.6250     2.1450    55.5980     7.4560     5.8850     9.8090    25.7710   -35.6570 
   74.7500     2.1540    55.6870     7.4330     5.8690     9.8170    25.6340   -35.3800 
   74.8750     2.1610    58.5600     7.4120     5.8550     9.8920    25.4890   -34.9970 
   75.0000     2.1670    62.5110     7.4190     5.8570     9.9350    25.4340   -34.5210 
   75.1250     2.1750    65.5770     7.5100     5.9150     9.7710    25.6210   -33.9830 
   75.2500     2.1870    66.7960     7.6960     6.0450     9.7210    25.6370   -33.4770 
   75.3750     2.1950    66.9820     7.9520     6.2400     9.6800    25.2070   -32.9960 
   75.5000     2.1890    67.5630     8.2120     6.4590     9.7040    24.6600   -32.4660 
   75.6250     2.1570    66.1950     8.3590     6.6210    11.0530    24.5620   -31.8600 
   75.7500     2.1120    65.0860     8.3340     6.6650    13.5140    24.8280   -31.1880 
   75.8750     2.0760    66.5170     8.1290     6.5660    13.2170    24.8310   -30.5360 
   76.0000     2.0660    68.3860     7.7970     6.3520    10.3880    24.3840   -29.9710 
   76.1250     2.0870    66.2660     7.4380     6.0960     8.6990    23.8880   -29.5270 
   76.2500     2.1220    64.5810     7.1530     5.8870     8.2810    23.5310   -29.1630 
   76.3750     2.1550    68.0660     6.9950     5.7730     8.2900    23.3170   -28.8830 
   76.5000     2.1770    73.5240     6.9760     5.7700     8.4710    23.4290   -28.6740 
   76.6250     2.1860    74.0950     7.0980     5.8880     8.7230    23.9430   -28.5510 
   76.7500     2.1910    70.8200     7.2990     6.0910     8.9460    24.5150   -28.4810 
   76.8750     2.1920    66.8500     7.5270     6.3510     9.0930    24.9450   -28.3160 
   77.0000     2.1910    64.7560     7.7170     6.6230     9.2800    25.1100   -27.9350 
   77.1250     2.1820    63.8800     7.7770     6.8190     9.2450    25.0490   -27.2050 
   77.2500     2.1670    64.7640     7.6730     6.8720     8.9750    24.9540   -26.1660 
   77.3750     2.1520    67.8810     7.4080     6.7510     8.3220    24.8870   -24.7920 
   77.5000     2.1490    73.6320     7.0240     6.4700     7.7980    24.7910   -23.1190 
   77.6250     2.1760    79.9280     6.5820     6.0690     7.4010    24.5280   -21.0500 
   77.7500     2.2300    86.5150     6.1490     5.6260     6.7560    24.3760   -18.7280 
   77.8750     2.3010    96.6510     5.7440     5.1800     5.7700    24.3680   -16.4160 
   78.0000     2.3730   109.4490     5.3620     4.7570     5.2290    24.4520   -14.3300 
   78.1250     2.4230   117.1860     5.0040     4.3660     4.9120    24.5760   -12.6200 
   78.2500     2.4460   119.2580     4.7240     4.0220     4.7620    24.6820   -11.1830 
   78.3750     2.4400   119.1790     4.6600     3.7900     4.6660    24.7390   -10.0610 
   78.5000     2.4160   118.8870     5.0460     3.7950     4.6210    24.7560    -9.3470 
   78.6250     2.3940   115.4490     6.3830     4.3360     4.7870    24.7610    -9.1840 
   78.7500     2.3970   107.5990     8.9330     5.6840     5.7530    24.7300    -9.4940 
   78.8750     2.4410    95.8170    12.9000     8.2390     9.3050    24.6680   -10.0970 
   79.0000     2.5200    81.7340    17.9340    12.2940    20.7970    24.6670   -10.8770 
   79.1250     2.6040    72.0320    22.2990    17.2690    43.1050    24.7260   -11.8470 
   79.2500     2.6540    68.3940    23.9060    20.4070    52.6960    24.7690   -13.0730 
   79.3750     2.6460    68.2850    22.0480    19.7140    39.0120    24.7470   -14.5830 
   79.5000     2.5840    68.5200    17.9010    16.2760    24.5790    24.6710   -16.2790 
   79.6250     2.4880    67.6370    13.7810    12.7400    17.0650    24.6050   -18.1540 
   79.7500     2.3950    65.5480    11.0390    10.2710    13.5470    24.5730   -20.1110 
   79.8750     2.3210    64.1120     9.6690     8.8280    10.9890    24.6070   -22.0390 
   80.0000     2.2710    65.1780     9.2250     8.1390    10.0840    24.6830   -23.8900 
   80.1250     2.2430    66.6550     9.3010     7.9910    10.1130    24.7530   -25.5050 
   80.2500     2.2260    65.0560     9.5070     8.0700    10.0220    24.8300   -26.8870 
   80.3750     2.2150    62.8670     9.6980     8.2220     9.8860    24.9210   -28.0400 
   80.5000     2.2060    62.6130     9.8170     8.3580    10.0020    25.0150   -28.9460 
   80.6250     2.1950    61.8610     9.8410     8.4160    10.3530    25.0690   -29.5340 
   80.7500     2.1830    58.9340     9.7980     8.3970    10.4740    25.0640   -29.9010 
   80.8750     2.1740    56.2060     9.7080     8.3100    10.3780    25.0670   -30.2090 
   81.0000     2.1690    56.6850     9.5930     8.1800    10.2370    25.0560   -30.4430 
   81.1250     2.1710    61.6870     9.4840     8.0360     9.8990    24.9760   -30.6330 
   81.2500     2.1770    66.4200     9.4040     7.9070     9.5880    24.9000   -30.8320 
   81.3750     2.1870    68.3960     9.3670     7.8040     9.4960    24.8930   -30.9520 
   81.5000     2.1970    67.0340     9.3710     7.7280     9.7020    24.9480   -30.9820 
   81.6250     2.2050    63.6220     9.4150     7.6820     9.9730    25.0660   -30.9460 
   81.7500     2.2090    61.6090     9.4800     7.6600    10.2400    25.1520   -30.8820 
   81.8750     2.2080    62.3720     9.5570     7.6570    10.4710    25.1570   -30.7840 
   82.0000     2.2010    64.5620     9.6380     7.6620    10.5840    25.0910   -30.6830 
   82.1250     2.1920    64.2250     9.7190     7.6660    10.5600    24.9850   -30.5100 
   82.2500     2.1840    63.7570     9.8000     7.6700    10.5240    24.9240   -30.2270 
   82.3750     2.1820    65.7810     9.8760     7.6810    10.5900    24.9470   -29.9340 
   82.5000     2.1890    67.2700     9.9300     7.6970    10.6670    24.9140   -29.6650 
   82.6250     2.2020    63.7120     9.9300     7.6970    10.6520    24.7710   -29.4440 
   82.7500     2.2140    59.7750     9.8640     7.6600    10.5640    24.5630   -29.2260 
   82.8750     2.2180    59.7700     9.7370     7.5780    10.4270    24.3970   -28.9430 
   83.0000     2.2160    63.8780     9.5700     7.4610    10.2250    24.2430   -28.5540 
   83.1250     2.2100    66.9780     9.3990     7.3270     9.7690    24.1380   -28.1750 
   83.2500     2.2060    67.8260     9.2560     7.2010     9.4740    24.0750   -27.9090 
   83.3750     2.2060    68.7760     9.1590     7.0970     9.5950    24.0030   -27.7270 
   83.5000     2.2110    69.7950     9.1080     7.0200     9.7790    23.8110   -27.6090 
   83.6250     2.2180    67.7870     9.1010     6.9750     9.5540    23.7630   -27.5510 
   83.7500     2.2210    62.9870     9.1170     6.9550     9.4660    23.7360   -27.6130 
   83.8750     2.2210    59.5740     9.1460     6.9560     9.7410    23.8640   -27.8090 
   84.0000     2.2190    59.8290     9.1820     6.9730     9.9120    24.1570   -28.0420 
   84.1250     2.2160    62.1390     9.2150     7.0060     9.4090    24.2760   -28.2930 
   84.2500     2.2140    64.2790     9.2230     7.0340     9.1660    24.1900   -28.5070 
   84.3750     2.2090    66.2510     9.1810     7.0330     9.3920    23.9820   -28.5720 
   84.5000     2.1980    68.4210     9.0740     6.9790     9.5200    23.7820   -28.5470 
   84.6250     2.1780    71.5400     8.9070     6.8630     9.0060    23.7140   -28.5370 
   84.7500     2.1570    73.1130     8.7260     6.7200     8.7800    23.7340   -28.4870 
   84.8750     2.1400    70.0990     8.5730     6.5840     8.7170    23.7600   -28.3730 
   85.0000     2.1310    62.6850     8.4750     6.4850     8.4470    23.7460   -28.3610 
   85.1250     2.1330    56.3680     8.4400     6.4450     8.3920    23.7760   -28.4860 
   85.2500     2.1420    55.2980     8.4300     6.4450     8.3870    23.7960   -28.5510 
   85.3750     2.1540    58.7520     8.4110     6.4680     8.3940    23.7270   -28.5850 
