~V
VERS. 2.00: Ver 2.00
~W
STRT.M 52.0000:
STOP.M 278.0000:
STEP.M 0.1250:
NULL. -999.2500:
UWI. F11035:
~C
DEPT.M :
DEN.GM/CC :
GR.API :
RML.OHMM :
RI. :
RXO.OHMM :
CALI.CM :
SP.MV :
~A
# ...
   97.0000     2.5390    61.7250    20.8480    16.1300    34.4140    23.3980   -16.3590 
   97.1250     2.6360    65.1670    22.3120    18.9150    52.8010    23.7810   -16.2800 
   97.2500     2.6440    68.4060    20.7510    18.5660    45.4840    23.8690   -16.1980 
   97.3750     2.5660    70.4890    17.0300    15.6420    24.0180    23.4750   -16.1070 
   97.5000     2.4400    70.9550    12.9070    12.1130    12.2020    22.8620   -16.0060 
   97.6250     2.3180    70.2160     9.9950     9.4690     9.1670    22.4230   -15.9670 
   97.7500     2.2320    70.1110     8.3810     7.7880     8.3970    22.2660   -16.0690 
   97.8750     2.1900    72.2290     7.7220     6.8650     8.2150    22.2250   -16.3020 
   98.0000     2.1800    73.7270     7.6280     6.4750     8.1280    22.1850   -16.6050 
   98.1250     2.1850    73.4860     7.8060     6.4500     8.1690    22.1590   -16.9050 
   98.2500     2.1890    74.1370     8.0140     6.5510     8.0920    22.1480   -17.1140 
   98.3750     2.1880    75.7140     8.1730     6.6770     7.7750    22.1460   -17.2620 
   98.5000     2.1830    76.9890     8.2670     6.7940     7.4460    22.1500   -17.3920 
   98.6250     2.1760    76.2020     8.3060     6.9010     7.4770    22.1710   -17.5150 
   98.7500     2.1690    74.7260     8.3250     7.0070     8.0090    22.1990   -17.6050 
   98.8750     2.1650    72.3350     8.3430     7.1070     8.4140    22.2120   -17.6940 
   99.0000     2.1630    70.0130     8.3740     7.1940     8.6320    22.2130   -17.7860 
   99.1250     2.1630    70.1540     8.4230     7.2570     8.7460    22.2070   -17.9410 
   99.2500     2.1640    72.6580     8.4780     7.2990     8.8410    22.1940   -18.1820 
   99.3750     2.1650    75.4000     8.5290     7.3260     8.7030    22.1840   -18.4660 
   99.5000     2.1670    75.9390     8.5640     7.3400     8.3790    22.2230   -18.7650 
   99.6250     2.1690    72.7330     8.5630     7.3300     8.3640    22.3510   -19.0520 
   99.7500     2.1710    68.8700     8.5250     7.2870     8.5510    22.4920   -19.3170 
   99.8750     2.1730    68.3380     8.4640     7.2140     8.6060    22.5890   -19.5260 
  100.0000     2.1760    71.4150     8.4120     7.1360     8.6160    22.6570   -19.6890 
  100.1250     2.1790    74.0380     8.4220     7.1030     8.6700    22.7290   -19.7920 
  100.2500     2.1850    71.7870     8.5100     7.1420     8.7540    22.7880   -19.8080 
  100.3750     2.1940    67.3440     8.6580     7.2560     8.9410    22.8190   -19.7450 
  100.5000     2.2040    66.7730     8.8040     7.4060     9.3160    22.8310   -19.6530 
  100.6250     2.2120    70.8480     8.8410     7.5010     9.6440    22.7900   -19.5250 
  100.7500     2.2150    73.9170     8.7290     7.4730     9.6040    22.8050   -19.3740 
  100.8750     2.2140    75.4940     8.4820     7.3110     9.0750    22.8650   -19.2470 
  101.0000     2.2110    76.5140     8.1660     7.0610     8.2630    22.9100   -19.1700 
  101.1250     2.2110    74.9220     7.8830     6.8060     7.9390    22.9220   -19.1520 
  101.2500     2.2110    72.1500     7.6920     6.6140     7.9630    22.9170   -19.2390 
  101.3750     2.2110    72.8640     7.6030     6.5050     8.2380    22.8950   -19.4160 
  101.5000     2.2100    77.1140     7.5860     6.4710     8.7140    22.8490   -19.6390 
  101.6250     2.2100    78.7580     7.5970     6.4830     8.7270    22.7870   -19.9290 
  101.7500     2.2080    76.4310     7.5910     6.4990     8.1790    22.7110   -20.2680 
  101.8750     2.2040    73.0900     7.5540     6.5000     7.7900    22.6050   -20.6360 
  102.0000     2.1950    70.3240     7.4860     6.4750     8.0420    22.4750   -20.9850 
  102.1250     2.1830    69.1490     7.3910     6.4180     8.2110    22.3680   -21.3520 
  102.2500     2.1740    69.6830     7.2890     6.3420     7.9640    22.3000   -21.6870 
  102.3750     2.1680    71.9010     7.1940     6.2600     7.7320    22.2830   -21.9940 
  102.5000     2.1670    74.9780     7.1260     6.1850     7.7560    22.3090   -22.2640 
  102.6250     2.1660    75.7300     7.1170     6.1480     7.9080    22.3890   -22.4800 
  102.7500     2.1640    73.3310     7.1690     6.1620     8.1190    22.4830   -22.6660 
  102.8750     2.1580    69.8300     7.2720     6.2300     8.2810    22.5420   -22.8610 
  103.0000     2.1500    68.4840     7.4020     6.3420     8.3960    22.5690   -23.0870 
  103.1250     2.1410    69.6120     7.5270     6.4750     8.5560    22.5680   -23.2840 
  103.2500     2.1320    68.4830     7.6240     6.6000     8.7860    22.5830   -23.4460 
  103.3750     2.1250    64.4400     7.6830     6.6960     8.8990    22.5990   -23.5900 
  103.5000     2.1220    61.2260     7.7080     6.7520     8.9380    22.6050   -23.6990 
  103.6250     2.1230    62.6930     7.7040     6.7630     8.9670    22.6010   -23.7810 
  103.7500     2.1280    65.7860     7.6920     6.7470     9.0120    22.6010   -23.8220 
  103.8750     2.1340    67.2460     7.6830     6.7220     9.0500    22.6040   -23.8020 
  104.0000     2.1410    67.8520     7.6870     6.7050     9.0460    22.6120   -23.7510 
  104.1250     2.1500    69.6530     7.7060     6.7060     9.0410    22.6310   -23.6830 
  104.2500     2.1580    71.1950     7.7240     6.7160     9.0700    22.6490   -23.6150 
  104.3750     2.1650    70.1470     7.7210     6.7150     9.1440    22.6440   -23.5100 
  104.5000     2.1670    67.1020     7.6830     6.6840     9.1810    22.6170   -23.3980 
  104.6250     2.1640    65.5950     7.5970     6.6120     9.1300    22.5840   -23.2100 
  104.7500     2.1580    66.9650     7.4810     6.5140     8.8490    22.5340   -22.9640 
  104.8750     2.1530    71.1190     7.3580     6.4030     8.3550    22.4590   -22.6460 
  105.0000     2.1490    75.8710     7.2520     6.2970     7.8630    22.3630   -22.2610 
  105.1250     2.1490    78.2170     7.2040     6.2220     7.9980    22.2860   -21.8430 
  105.2500     2.1490    78.1500     7.2350     6.2050     8.1530    22.2410   -21.4340 
  105.3750     2.1500    76.4120     7.3590     6.2670     8.0320    22.2190   -21.0670 
  105.5000     2.1560    73.9710     7.5730     6.4140     7.7070    22.2200   -20.7190 
  105.6250     2.1690    71.1560     7.8440     6.6330     8.0690    22.2430   -20.4690 
  105.7500     2.1850    70.1680     8.0940     6.8630     8.9100    22.2620   -20.3030 
  105.8750     2.1960    70.9610     8.2540     7.0420     9.4450    22.2760   -20.2400 
  106.0000     2.1930    72.0260     8.2870     7.1250     9.2800    22.2840   -20.2670 
  106.1250     2.1730    72.6450     8.1900     7.0880     8.8770    22.2900   -20.3640 
  106.2500     2.1470    72.9850     8.0490     6.9890     8.6130    22.2860   -20.4730 
  106.3750     2.1260    73.0570     7.9380     6.8860     8.4910    22.3170   -20.5540 
  106.5000     2.1170    72.8250     7.8980     6.8230     8.5400    22.3440   -20.6050 
  106.6250     2.1190    70.6080     7.9360     6.8160     8.7390    22.3470   -20.6270 
  106.7500     2.1250    66.7320     8.0040     6.8360     8.8080    22.3290   -20.6370 
  106.8750     2.1270    63.9420     8.0780     6.8750     8.7300    22.3520   -20.6190 
  107.0000     2.1260    66.1310     8.1630     6.9460     8.8260    22.3840   -20.5690 
  107.1250     2.1300    70.7940     8.2920     7.0860     8.9820    22.4480   -20.4720 
  107.2500     2.1450    71.5510     8.4570     7.2860     9.4050    22.5360   -20.3240 
  107.3750     2.1720    68.9240     8.6130     7.5080    10.0870    22.6080   -20.1820 
  107.5000     2.2030    67.2760     8.6750     7.6850    10.7460    22.6290   -20.0920 
  107.6250     2.2220    68.6960     8.5290     7.7210    10.5600    22.6620   -20.0390 
  107.7500     2.2170    70.3050     8.2000     7.6170     9.9070    22.7530   -19.9530 
  107.8750     2.1890    71.0410     7.7740     7.4180     9.4470    22.8790   -19.8150 
  108.0000     2.1500    72.8290     7.3730     7.2020     9.2690    23.0060   -19.6020 
  108.1250     2.1320    75.8770     7.1100     7.0370     8.9330    23.1390   -19.2480 
