~V
VERS. 2.00: Ver 2.00
~W
STRT.M 55.0000:
STOP.M 236.0000:
STEP.M 0.1250:
NULL. -999.2500:
UWI. F11015:
~C
DEPT.M :
GR.API :
RML.OHMM :
RI. :
RXO.OHMM :
CALI.CM :
DEN.GM/CC :
SP.MV :
~A
# ...
  156.2500    71.5000    83.3990    73.9990    74.4980    24.3640     2.2540   -16.3960 
  156.3750    70.4420    84.6060    74.6640    67.5770    24.3980     2.2560   -16.4190 
  156.5000    66.6680    88.2480    77.6530    72.1100    24.3970     2.2530   -16.5180 
  156.6250    61.8190    95.9250    84.5160    76.0490    24.4000     2.2430   -16.6170 
  156.7500    58.6150   107.7120    95.3740    93.4790    24.4140     2.2290   -16.5730 
  156.8750    58.1230   122.9410   109.6680   131.6890    24.4390     2.2140   -16.4550 
  157.0000    58.5780   138.6300   124.8270   186.3230    24.5000     2.2040   -16.3840 
  157.1250    58.8920   147.4540   134.7550   196.1390    24.5400     2.2020   -16.4000 
  157.2500    59.1510   145.5310   135.6330   224.2250    24.5440     2.2070   -16.4320 
  157.3750    60.5560   134.5890   127.8270   212.5480    24.5050     2.2150   -16.3770 
  157.5000    64.2200   120.5320   115.6370   147.3990    24.4260     2.2250   -16.2490 
  157.6250    67.8770   109.4070   104.6350    95.9470    24.3760     2.2360   -16.2080 
  157.7500    70.1600   102.5590    97.2630    79.9050    24.3750     2.2450   -16.2430 
  157.8750    70.6290    99.2900    93.4580    84.4600    24.4280     2.2450   -16.2590 
  158.0000    69.7080    98.2270    92.2010    95.8260    24.4270     2.2370   -16.2550 
  158.1250    69.6180    97.9700    92.2720   101.0630    24.3390     2.2260   -16.2750 
  158.2500    69.7850    97.5230    92.4100    95.1980    24.3440     2.2200   -16.3640 
  158.3750    69.1920    96.8970    92.3270    86.8600    24.4200     2.2220   -16.5280 
  158.5000    67.2270    96.5830    92.3020    85.4400    24.4980     2.2280   -16.6700 
  158.6250    66.1320    97.2460    92.9500    88.0540    24.5460     2.2340   -16.7050 
  158.7500    67.6580    98.7730    94.3990    91.6920    24.6040     2.2360   -16.7980 
  158.8750    68.1920   100.7080    96.3690    93.3500    24.6580     2.2340   -16.9960 
  159.0000    65.6910   102.4000    98.2470    93.4530    24.6800     2.2330   -17.1760 
  159.1250    62.6650   103.1710    99.2400    98.4220    24.6850     2.2360   -17.2490 
  159.2500    62.5930   103.0310    99.2440   103.0200    24.6970     2.2410   -17.2180 
  159.3750    63.8640   102.2110    98.4700   103.9110    24.7250     2.2440   -17.1740 
  159.5000    63.6770   101.1050    97.2780   101.7720    24.7710     2.2430   -17.2430 
  159.6250    63.5140   100.2050    96.0230    99.1970    24.7780     2.2430   -17.3970 
  159.7500    65.1160    99.8750    95.0690    98.0190    24.7620     2.2440   -17.4410 
  159.8750    66.1800   100.4150    94.7580    95.8820    24.7610     2.2440   -17.3980 
  160.0000    65.0550   102.0050    95.4050    94.3850    24.7830     2.2430   -17.4130 
  160.1250    63.7630   104.7800    97.3160    97.6460    24.7860     2.2410   -17.5380 
  160.2500    63.6130   108.3990   100.1820   103.2100    24.7650     2.2380   -17.6880 
  160.3750    64.5880   112.7900   103.8510   109.3610    24.7260     2.2340   -17.7590 
  160.5000    66.3570   118.0710   108.3050   115.8290    24.6890     2.2300   -17.7240 
  160.6250    66.5290   124.7130   113.8940   118.3550    24.6630     2.2270   -17.7060 
  160.7500    63.9200   132.6110   120.6320   122.0180    24.6700     2.2260   -17.7700 
  160.8750    60.3550   141.1030   128.1530   128.3530    24.6860     2.2240   -17.8060 
  161.0000    59.8090   148.3090   135.1200   142.8080    24.6880     2.2200   -17.7540 
  161.1250    62.0910   150.3500   138.5160   151.7600    24.6760     2.2140   -17.6630 
  161.2500    63.8190   145.6820   136.7050   167.9000    24.6580     2.2090   -17.6320 
  161.3750    63.6010   134.6650   129.3820   171.2340    24.6270     2.2050   -17.6930 
  161.5000    63.1330   119.9990   118.1500   156.9140    24.5890     2.2060   -17.7360 
  161.6250    65.6680   105.8190   106.1590   107.0040    24.5550     2.2120   -17.6750 
  161.7500    70.0080    94.8100    96.3390    80.7370    24.5010     2.2180   -17.6470 
  161.8750    71.5280    87.4940    89.6480    63.4450    24.4000     2.2250   -17.7250 
  162.0000    69.8150    82.9750    85.6410    45.9380    24.2190     2.2350   -17.8090 
  162.1250    69.2500    79.0660    82.5120    41.9030    24.0760     2.2460   -17.7870 
  162.2500    69.5640    73.0430    77.4460    43.0540    23.9880     2.2540   -17.6960 
  162.3750    68.5800    63.7990    58.9060    44.1390    23.9660     2.2600   -17.6220 
  162.5000    68.4960    52.3210    46.0500    41.0820    23.9830     2.2680   -17.6560 
  162.6250    71.8100    41.3640    36.8630    27.7900    24.0290     2.2860   -17.7030 
  162.7500    75.0400    33.0330    29.6470    16.9720    24.0910     2.3060   -17.6220 
  162.8750    77.1720    28.0360    25.0580    13.2570    24.1840     2.3190   -17.5000 
  163.0000    80.1480    26.3550    23.0670    13.7640    24.3320     2.3210   -17.4780 
  163.1250    81.5080    28.2510    23.9100    16.1550    24.5010     2.3130   -17.5820 
  163.2500    79.4980    32.9370    27.1660    21.8980    24.5960     2.3010   -17.6670 
  163.3750    76.5760    39.9480    32.7520    31.2910    24.6480     2.2870   -17.6660 
  163.5000    74.7790    48.3310    40.0550    38.7530    24.6600     2.2760   -17.6490 
  163.6250    74.3180    56.1160    48.9010    39.9030    24.6490     2.2690   -17.7310 
  163.7500    75.1900    61.4310    58.9300    41.9510    24.6470     2.2640   -17.8500 
  163.8750    75.7660    63.7170    61.3300    41.6450    24.6330     2.2590   -17.9280 
  164.0000    74.1330    63.9140    61.1540    40.7360    24.5850     2.2540   -17.9960 
  164.1250    71.9500    63.9900    60.3040    39.8600    24.5840     2.2520   -18.1050 
  164.2500    72.5230    65.6540    60.5700    40.2430    24.6040     2.2510   -18.2590 
  164.3750    75.1180    69.7670    62.7700    41.7610    24.6340     2.2470   -18.4270 
  164.5000    76.5150    76.5990    67.1810    50.3540    24.6570     2.2400   -18.5330 
  164.6250    73.3550    85.9280    75.8850    60.6500    24.6660     2.2330   -18.6110 
  164.7500    66.8420    96.0560    90.0830    69.5260    24.6650     2.2270   -18.7890 
  164.8750    62.2780   105.6130    98.0550    75.0180    24.6430     2.2230   -19.0230 
  165.0000    63.5580   113.7950   105.1670    78.8570    24.5870     2.2170   -19.1680 
  165.1250    67.1820   120.7840   111.5550    78.6980    24.5610     2.2080   -19.1970 
  165.2500    68.5660   127.8930   118.1570    83.2640    24.5230     2.2010   -19.2410 
  165.3750    67.0520   135.8990   125.5270    93.6910    24.4820     2.1980   -19.3950 
  165.5000    64.6160   144.8900   133.6580   106.0440    24.4970     2.1990   -19.6250 
  165.6250    65.0630   154.3740   142.1180   122.7340    24.5170     2.2000   -19.7470 
  165.7500    67.7460   163.5630   150.3340   132.3170    24.5320     2.2020   -19.7710 
  165.8750    68.6150   171.9410   157.9610   140.2730    24.5280     2.2040   -19.8510 
  166.0000    65.7310   179.0830   164.7330   153.7120    24.5250     2.2080   -20.0030 
  166.1250    61.5090   184.1040   169.8810   180.7120    24.5290     2.2100   -20.1220 
  166.2500    59.9390   186.7630   172.9590   204.0870    24.5380     2.2070   -20.1680 
  166.3750    61.3900   186.9710   173.7600   208.2720    24.5410     2.2020   -20.1630 
  166.5000    63.7620   185.1610   172.6350   201.0260    24.5590     2.2000   -20.1740 
  166.6250    64.0000   182.3640   170.4910   185.3000    24.5840     2.2030   -20.2240 
  166.7500    62.8110   180.5750   169.0490   163.1860    24.6320     2.2100   -20.2290 
  166.8750    62.6640   181.4910   169.8160   157.3790    24.6630     2.2170   -20.1780 
  167.0000    63.4020   186.2010   173.8630   165.6610    24.6700     2.2200   -20.1550 
  167.1250    63.9450   195.4610   182.0370   170.5510    24.6740     2.2160   -20.2070 
  167.2500    65.1520   207.4790   193.0040   186.2330    24.6780     2.2130   -20.2500 
  167.3750    64.8240   220.1000   205.0480   225.8920    24.6850     2.2110   -20.1870 
