~V
VERS. 2.00: Ver 2.00
~W
STRT.M 53.0000:
STOP.M 220.0000:
STEP.M 0.1250:
NULL. -999.2500:
UWI. F11005:
~C
DEPT.M :
DEN.GM/CC :
GR.API :
RML.OHMM :
RI. :
RXO.OHMM :
CALI.CM :
SP.MV :
~A
# ...
  154.2500     2.2210    68.2490   114.8520   108.6620    69.0160    25.1970   -20.4920 
  154.3750     2.2250    67.8990   113.6770   108.6240    65.1500    25.2490   -20.4150 
  154.5000     2.2250    68.6440   115.0640   111.2630    73.8960    25.3760   -20.3420 
  154.6250     2.2270    67.9120   118.2370   115.8220    93.7120    25.4660   -20.2550 
  154.7500     2.2310    67.1200   121.0670   120.4900   106.3190    25.4870   -20.1230 
  154.8750     2.2330    68.7960   120.9510   123.1800   104.7610    25.4810   -19.9370 
  155.0000     2.2340    72.1090   114.8350   120.2620    94.9370    25.4670   -19.7410 
  155.1250     2.2430    73.6800    99.9130   106.3870    96.9030    25.5020   -19.4220 
  155.2500     2.2650    72.2650    80.0040    85.2110   104.7340    25.6370   -19.0780 
  155.3750     2.2940    71.6420    59.9630    63.4490    89.9120    25.8000   -18.8220 
  155.5000     2.3180    76.1300    44.1040    46.5720    43.3220    25.5820   -18.5260 
  155.6250     2.3200    83.2190    35.4360    37.4010    19.7890    25.1760   -18.2620 
  155.7500     2.3000    85.4440    32.4880    33.9770    15.5970    24.7910   -18.0980 
  155.8750     2.2700    82.1980    33.9640    35.0690    23.8500    24.6810   -17.9690 
  156.0000     2.2440    77.8460    38.2020    39.4520    38.1860    24.7830   -17.9450 
  156.1250     2.2350    75.3150    42.8690    45.2250    52.8010    24.9070   -18.0970 
  156.2500     2.2420    73.0180    45.5440    49.0000    54.7310    24.9620   -18.2520 
  156.3750     2.2590    71.6570    45.3290    48.8030    60.4400    25.0820   -18.3920 
  156.5000     2.2760    72.3040    43.0420    45.4950    58.9830    25.3490   -18.5590 
  156.6250     2.2850    74.0290    41.1380    42.2480    43.2790    25.5480   -18.7160 
  156.7500     2.2800    74.7280    41.9490    41.6270    30.4250    25.5970   -18.8890 
  156.8750     2.2640    74.3650    46.7860    44.8570    29.2780    25.5410   -19.0760 
  157.0000     2.2450    73.6320    56.2380    52.6220    45.4290    25.4880   -19.2450 
  157.1250     2.2310    73.2070    70.6460    65.6410    72.1880    25.4530   -19.3820 
  157.2500     2.2230    71.5030    87.4140    81.5150    91.1450    25.4330   -19.5090 
  157.3750     2.2220    68.9120   103.5690    96.9730    99.3010    25.4270   -19.6220 
  157.5000     2.2230    68.1330   116.0720   108.4060   103.9680    25.4330   -19.7340 
  157.6250     2.2260    70.3310   122.4380   113.4340   102.4030    25.4530   -19.8540 
  157.7500     2.2290    73.4650   124.2010   114.4220   102.4630    25.4920   -19.9690 
  157.8750     2.2310    75.1680   122.7530   112.9260   101.4460    25.5520   -20.1100 
  158.0000     2.2320    73.3550   119.1450   109.6460    98.3270    25.6220   -20.1980 
  158.1250     2.2320    70.5750   113.6350   104.7510    95.5120    25.6660   -20.2110 
  158.2500     2.2320    70.2310   106.6240    98.6430    91.2530    25.6740   -20.2630 
  158.3750     2.2330    71.9620    98.1150    91.1620    84.6720    25.6580   -20.3450 
  158.5000     2.2340    71.8980    88.3000    82.2780    78.6110    25.6110   -20.3810 
  158.6250     2.2360    69.6100    77.8700    72.5580    73.3930    25.5890   -20.3650 
  158.7500     2.2390    70.0960    68.1080    63.3350    62.3360    25.5820   -20.2760 
  158.8750     2.2430    73.8170    60.0250    55.6140    46.5370    25.6140   -20.1200 
  159.0000     2.2490    78.6700    54.2890    50.0520    34.7640    25.6370   -19.9890 
  159.1250     2.2560    80.4500    51.5220    47.2540    35.5760    25.5980   -19.8440 
  159.2500     2.2620    78.6420    50.9840    46.5620    36.3270    25.5300   -19.6620 
  159.3750     2.2650    77.1130    52.0770    47.4620    36.8680    25.4700   -19.4760 
  159.5000     2.2670    77.9370    54.0490    49.2730    38.1620    25.4940   -19.3560 
  159.6250     2.2680    79.4760    56.1150    51.1650    43.8580    25.5450   -19.2920 
  159.7500     2.2670    78.3290    57.8290    52.5670    47.1360    25.5020   -19.2900 
  159.8750     2.2620    75.0280    59.2930    53.5390    43.2350    25.4440   -19.3130 
  160.0000     2.2550    71.7520    60.9540    54.5710    39.7020    25.4460   -19.3560 
  160.1250     2.2460    71.0400    63.5400    56.4000    44.1750    25.5590   -19.4980 
  160.2500     2.2390    73.0320    67.2750    59.2890    49.8400    25.6620   -19.6360 
  160.3750     2.2300    74.9180    72.1090    63.2860    55.4410    25.6810   -19.7310 
  160.5000     2.2190    76.3320    77.6780    68.1580    60.0410    25.6680   -19.8190 
  160.6250     2.2070    79.2110    83.3650    73.4020    63.1720    25.7540   -19.8630 
  160.7500     2.1980    80.1010    88.5220    78.4340    66.7900    26.1650   -19.8190 
  160.8750     2.1940    76.8610    92.5310    82.9310    71.7090    26.7600   -19.7950 
  161.0000     2.1950    72.5980    94.3820    86.2690    76.1800    27.7090   -19.7470 
  161.1250     2.2010    71.3090    91.7630    86.1730    77.2770    26.3590   -19.6350 
  161.2500     2.2120    70.6470    84.2190    81.0510    74.7200    25.6580   -19.5380 
  161.3750     2.2310    69.0840    72.5340    70.9570    69.6110    25.4260   -19.4520 
  161.5000     2.2570    69.4370    59.0810    58.4170    58.4700    25.4050   -19.3160 
  161.6250     2.2840    73.8610    47.0690    47.0880    40.7480    25.2360   -19.2090 
  161.7500     2.3060    79.3830    37.9000    38.5040    25.3680    25.1220   -19.1990 
  161.8750     2.3220    82.5540    31.4970    32.5470    19.8180    25.0920   -19.1840 
  162.0000     2.3370    82.1780    27.0870    28.4240    22.1620    25.0990   -19.1920 
  162.1250     2.3530    83.5450    23.9510    25.3840    22.6060    25.0990   -19.2460 
  162.2500     2.3690    88.7410    21.4120    22.8120    16.5990    25.0870   -19.2800 
  162.3750     2.3790    93.4820    19.3960    20.6980    12.2800    25.0600   -19.3250 
  162.5000     2.3800    96.2570    17.9950    19.1700    11.2460    24.9810   -19.4270 
  162.6250     2.3730    99.3800    17.4350    18.4680    11.5360    24.8250   -19.5480 
  162.7500     2.3630   100.3230    17.6160    18.5040    12.0800    24.7340   -19.6720 
  162.8750     2.3500    96.5350    18.4790    19.2460    13.0800    24.6880   -19.8060 
  163.0000     2.3390    90.8140    19.9120    20.5930    14.8050    24.6420   -19.9110 
  163.1250     2.3280    87.5010    21.8500    22.4230    16.2420    24.5970   -20.0090 
  163.2500     2.3190    85.5840    24.1320    24.4910    16.5540    24.5730   -20.1490 
  163.3750     2.3080    84.1600    26.7850    26.7740    19.6130    24.5510   -20.2990 
  163.5000     2.2940    82.4170    29.9800    29.3980    28.9060    24.5200   -20.5110 
  163.6250     2.2720    79.6000    34.3950    32.8680    33.5080    24.5250   -20.8660 
  163.7500     2.2450    77.6970    40.7980    37.8720    30.0280    24.5620   -21.2360 
  163.8750     2.2180    76.4200    50.4330    45.6320    34.3440    24.5970   -21.6660 
  164.0000     2.1950    73.6170    64.7830    57.7780    52.5920    24.6210   -22.1830 
  164.1250     2.1810    71.2440    86.3550    77.0690   105.7640    24.5780   -22.6960 
  164.2500     2.1730    71.5730   114.3430   102.9500   149.9240    24.5380   -23.1530 
  164.3750     2.1690    72.7900   146.8230   133.5100   157.1950    24.4870   -23.5710 
  164.5000     2.1670    71.6310   180.0140   164.6020   161.2610    24.4020   -23.8880 
  164.6250     2.1720    66.3640   208.7620   190.8210   188.8910    24.3470   -24.0580 
  164.7500     2.1820    61.3220   231.2600   211.3620   243.8530    24.3960   -24.2140 
  164.8750     2.1950    60.4440   247.2780   226.9100   301.2400    24.5950   -24.3070 
  165.0000     2.2050    64.2030   257.1020   237.7710   319.6000    24.8210   -24.3250 
  165.1250     2.2060    67.2580   260.3480   242.6650   252.8750    24.8310   -24.3210 
  165.2500     2.2000    66.1870   259.2120   243.2850   192.1070    24.6910   -24.2990 
  165.3750     2.1920    62.9020   254.7410   241.3570   196.5850    24.5970   -24.2980 
