~V
VERS. 2.00: Ver 2.00
~W
STRT.M 59.0000:
STOP.M 230.0000:
STEP.M 0.1250:
NULL. -999.2500:
UWI. F11001:
~C
DEPT.M :
GR.API :
RML.OHMM :
RI. :
RXO.OHMM :
CALI.CM :
SP.MV :
DEN.GM/CC :
~A
# ...
  171.5000    58.9770     9.0670     7.1720     8.0730    24.8340    -4.9220     2.4090 
  171.6250    63.9030     9.0940     7.2250     8.7370    24.9340    -5.0180     2.4040 
  171.7500    68.4200     8.8640     7.0620     8.4980    24.9450    -4.9490     2.3980 
  171.8750    69.6110     8.4900     6.7600     7.5330    24.9160    -4.7220     2.3970 
  172.0000    65.9830     8.0880     6.4130     6.6110    24.8490    -4.3770     2.4040 
  172.1250    58.5790     7.7600     6.1100     6.1520    24.7540    -3.9720     2.4130 
  172.2500    51.6710     7.5880     5.9330     6.0330    24.6960    -3.4900     2.4170 
  172.3750    48.3840     7.5440     5.8680     5.9580    24.7250    -3.0040     2.4130 
  172.5000    46.8590     7.5850     5.8850     5.9730    24.7970    -2.5630     2.4050 
  172.6250    44.4110     7.6650     5.9390     6.0830    24.7930    -2.2070     2.3960 
  172.7500    42.6520     7.7540     5.9930     6.0810    24.6970    -1.9670     2.3930 
  172.8750    44.1660     7.8400     6.0340     5.8390    24.6150    -1.8660     2.3940 
  173.0000    47.2130     7.9180     6.0640     5.6940    24.6080    -1.8580     2.3970 
  173.1250    47.3970     7.9820     6.0860     5.7110    24.5980    -1.9260     2.3980 
  173.2500    44.0870     8.0250     6.0990     5.8350    24.5020    -2.0300     2.3980 
  173.3750    41.2640     8.0550     6.1000     5.8950    24.4340    -2.1350     2.3970 
  173.5000    41.0290     8.0870     6.0950     5.9140    24.4300    -2.2930     2.3970 
  173.6250    45.1100     8.1350     6.0940     5.9590    24.4510    -2.5410     2.4010 
  173.7500    52.0020     8.2230     6.1180     6.0850    24.4600    -2.9520     2.4120 
  173.8750    57.7940     8.3570     6.1790     6.2840    24.5030    -3.5510     2.4300 
  174.0000    62.8780     8.5540     6.2880     6.4760    24.5830    -4.3470     2.4510 
  174.1250    69.4780     8.8290     6.4560     6.6360    24.6610    -5.3780     2.4680 
  174.2500    79.4320     9.2030     6.6940     6.9590    24.7460    -6.7720     2.4730 
  174.3750    89.7210     9.6460     6.9810     7.3460    24.8900    -8.4840     2.4660 
  174.5000    97.7340    10.1110     7.2890     7.7560    25.0200   -10.3820     2.4520 
  174.6250   101.3610    10.5280     7.5670     8.2280    25.1370   -12.3800     2.4380 
  174.7500    99.7370    10.7950     7.7330     8.4250    25.1950   -14.3060     2.4290 
  174.8750    98.2360    10.8930     7.7570     8.4800    25.2460   -16.0170     2.4240 
  175.0000    98.5420    10.8430     7.6460     8.4600    25.2570   -17.4960     2.4200 
  175.1250   100.0480    10.7020     7.4440     8.2340    25.1890   -18.6510     2.4130 
  175.2500   101.4170    10.5260     7.2160     7.8710    24.9270   -19.3820     2.4060 
  175.3750   103.4840    10.3370     7.0110     7.8550    24.7120   -19.7930     2.4020 
  175.5000   105.4120    10.1300     6.8380     8.1030    24.7020   -20.0060     2.3990 
  175.6250   105.2350     9.9530     6.7260     8.7300    24.9620   -20.0770     2.3930 
  175.7500   102.2110    10.0510     6.8060     9.4190    25.1290   -20.0250     2.3810 
  175.8750    97.8260    10.7440     7.2370     9.8890    25.1630   -19.8570     2.3740 
  176.0000    94.6190    12.3990     8.2480    10.2700    25.1050   -19.5860     2.3910 
  176.1250    92.5630    15.2720    10.0900    12.3980    24.9990   -19.3020     2.4410 
  176.2500    88.3270    19.2560    13.0510    21.2370    24.9000   -19.0350     2.5200 
  176.3750    81.8260    23.0120    16.4580    40.4190    24.8080   -18.8710     2.5930 
  176.5000    76.5850    24.9960    18.9120    59.3330    24.7080   -18.7910     2.6330 
  176.6250    78.5280    24.1900    18.9170    54.3990    24.6840   -18.8420     2.6270 
  176.7500    91.0780    20.7110    16.3090    34.4730    24.8280   -19.0980     2.5760 
  176.8750   105.6640    16.6080    13.1390    20.5240    25.0200   -19.3970     2.5120 
  177.0000   113.1040    13.1480    10.4580    12.9360    25.1520   -19.6020     2.4540 
  177.1250   111.7540    10.8150     8.5610     9.8650    25.1860   -19.5100     2.4140 
  177.2500   106.3820     9.6010     7.4460     8.8320    25.1040   -18.9270     2.3970 
  177.3750    98.5770     8.9810     6.7980     8.2080    25.0370   -17.7940     2.3920 
  177.5000    87.4850     8.6940     6.4590     7.4240    25.0040   -16.2310     2.3910 
  177.6250    76.3460     8.5800     6.3110     6.5940    25.0030   -14.3570     2.3910 
  177.7500    67.2330     8.5650     6.2950     6.5110    24.9800   -12.2390     2.3910 
  177.8750    58.0000     8.5900     6.3420     6.7810    24.9990   -10.1200     2.3920 
  178.0000    49.7850     8.6180     6.4150     6.8740    25.0230    -8.1500     2.3980 
  178.1250    46.6840     8.6100     6.4730     6.6280    24.9930    -6.4760     2.4060 
  178.2500    49.4290     8.5380     6.4790     6.4890    24.9550    -5.2700     2.4150 
  178.3750    52.0650     8.4310     6.4430     6.4640    24.9250    -4.5130     2.4210 
  178.5000    51.6150     8.3220     6.3850     6.5660    24.9060    -4.0420     2.4220 
  178.6250    48.9890     8.2360     6.3240     6.8360    24.9290    -3.7230     2.4180 
  178.7500    47.8330     8.1750     6.2670     7.7600    24.9810    -3.5190     2.4100 
  178.8750    48.7640     8.1220     6.2020     9.2740    25.0780    -3.4300     2.4050 
  179.0000    49.8820     8.0720     6.1280    10.4510    25.1140    -3.4460     2.4060 
  179.1250    50.1780     8.0330     6.0530    10.3680    25.0810    -3.5470     2.4130 
  179.2500    49.7240     8.0290     6.0000     8.8550    25.0480    -3.7860     2.4200 
  179.3750    49.2490     8.0670     5.9810     7.7680    25.0760    -4.0450     2.4190 
  179.5000    49.1950     8.1390     5.9970     7.2550    25.1060    -4.2600     2.4070 
  179.6250    50.5770     8.2230     6.0350     6.9910    25.0930    -4.3990     2.3890 
  179.7500    52.9530     8.2880     6.0770     6.8130    25.0580    -4.3900     2.3780 
  179.8750    54.5580     8.3210     6.1060     6.6590    25.0050    -4.2720     2.3780 
  180.0000    55.5060     8.3250     6.1240     6.5300    24.9680    -4.0600     2.3880 
  180.1250    57.2200     8.3120     6.1330     6.2510    24.9540    -3.7950     2.4020 
  180.2500    59.3750     8.2830     6.1340     5.8610    24.9530    -3.4110     2.4130 
  180.3750    60.4110     8.2350     6.1250     5.8480    24.9420    -3.0280     2.4180 
  180.5000    61.9540     8.1640     6.1040     6.1870    24.9180    -2.7040     2.4200 
  180.6250    66.9970     8.0780     6.0790     6.3970    24.9050    -2.4650     2.4230 
  180.7500    75.4730     8.0070     6.0670     7.1220    24.9150    -2.3570     2.4290 
  180.8750    80.8450     7.9770     6.0810     9.3810    24.9390    -2.3310     2.4370 
  181.0000    80.3000     7.9880     6.1170    13.5870    24.9470    -2.3500     2.4410 
  181.1250    77.2060     8.0120     6.1560    14.1430    24.9370    -2.3880     2.4400 
  181.2500    77.6140     7.9910     6.1580     9.7900    24.8850    -2.4550     2.4320 
  181.3750    80.8170     7.9000     6.1040     6.9840    24.7930    -2.4750     2.4240 
  181.5000    82.5340     7.7460     5.9960     5.7970    24.6720    -2.4510     2.4190 
  181.6250    80.4790     7.5720     5.8580     5.2480    24.5850    -2.3910     2.4180 
  181.7500    72.4730     7.4310     5.7260     5.0520    24.5350    -2.3000     2.4190 
  181.8750    62.5220     7.3280     5.6150     4.8090    24.5070    -2.2270     2.4200 
  182.0000    57.0160     7.2340     5.5100     4.4870    24.4960    -2.1630     2.4200 
  182.1250    59.9810     7.1110     5.3900     4.3760    24.4920    -2.1290     2.4210 
  182.2500    67.6420     6.9470     5.2480     4.5440    24.4900    -2.1210     2.4200 
  182.3750    72.7630     6.8070     5.1240     4.7680    24.5040    -2.1700     2.4170 
  182.5000    77.4520     6.7780     5.0770     4.9590    24.5540    -2.3660     2.4110 
  182.6250    84.9100     6.9480     5.1680     4.9820    24.6320    -2.6980     2.4040 
