~V
VERS. 2.00: Ver 2.00
~W
STRT.M 57.0000:
STOP.M 272.0000:
STEP.M 0.1250:
NULL. -999.2500:
UWI. F11045:
~C
DEPT.M :
DEN.GM/CC :
GR.API :
RML.OHMM :
RI. :
RXO.OHMM :
CALI.CM :
SP.MV :
~A
# ...
   68.2500     2.1480    66.1910    10.8200     7.8090     9.5480    22.4690    -4.1860 
   68.3750     2.1520    66.8010    10.8270     7.8660     9.5140    22.5600    -4.0720 
   68.5000     2.1550    68.1430    10.8900     7.9220     9.6480    22.6640    -3.9520 
   68.6250     2.1570    69.5090    10.9630     7.9550     9.9360    22.7740    -3.8110 
   68.7500     2.1610    71.1030    10.9280     7.9250    10.1260    22.9190    -3.6400 
   68.8750     2.1710    72.2690    10.7140     7.7970    10.2320    23.1170    -3.4360 
   69.0000     2.1830    73.2290    10.3250     7.5610    10.4570    23.4080    -3.2290 
   69.1250     2.1970    75.5130     9.8420     7.2350     9.9550    23.6740    -3.0330 
   69.2500     2.2150    78.8950     9.3820     6.8910     9.2720    23.8440    -2.8430 
   69.3750     2.2340    80.7110     9.0000     6.5760     8.9620    23.9220    -2.6530 
   69.5000     2.2500    83.2350     8.7170     6.3250     8.5700    23.9690    -2.4390 
   69.6250     2.2590    91.5150     8.5670     6.1680     8.4090    23.9970    -2.2510 
   69.7500     2.2650   100.6680     8.5530     6.0870     8.4170    24.0110    -2.1540 
   69.8750     2.2660   103.2860     8.6630     6.0760     8.4360    23.9800    -2.1390 
   70.0000     2.2560    98.9210     8.8510     6.1360     8.4590    23.8830    -2.2230 
   70.1250     2.2320    93.8360     9.0830     6.2940     8.8830    23.8090    -2.4160 
   70.2500     2.2060    88.0200     9.3570     6.5320    10.2170    23.7490    -2.6940 
   70.3750     2.1870    80.2590     9.6680     6.8130    12.4720    23.6870    -3.0190 
   70.5000     2.1800    73.4870     9.9530     7.0640    13.9380    23.5950    -3.3730 
   70.6250     2.1840    70.7640    10.0970     7.1870    11.5260    23.4750    -3.7510 
   70.7500     2.1900    69.7280    10.0910     7.1780    10.3440    23.4320    -4.1440 
   70.8750     2.1950    68.8380    10.0160     7.0830     9.9150    23.4240    -4.5230 
   71.0000     2.1980    69.2030     9.9960     6.9750     9.6690    23.4090    -4.8360 
   71.1250     2.1980    71.3320    10.1030     6.9330     9.5890    23.3580    -5.0190 
   71.2500     2.1950    72.4040    10.2350     6.9670     9.7990    23.2880    -5.0230 
   71.3750     2.1920    71.2320    10.2710     7.0570    10.5080    23.2330    -4.8900 
   71.5000     2.1900    69.3930    10.1650     7.1640    11.1510    23.1710    -4.6980 
   71.6250     2.1860    70.4110     9.9970     7.2440    10.8160    23.1350    -4.4400 
   71.7500     2.1800    73.5990     9.9010     7.2840    10.4940    23.1060    -4.1050 
   71.8750     2.1750    76.0860     9.9320     7.2960    10.5400    23.0730    -3.7520 
   72.0000     2.1750    76.4420    10.0750     7.3060    11.1640    23.0200    -3.4020 
   72.1250     2.1770    77.2570    10.2580     7.3290    11.7070    23.0130    -3.0420 
   72.2500     2.1780    80.9640    10.3850     7.3450    11.4070    23.0440    -2.7260 
   72.3750     2.1770    83.4530    10.3630     7.3150    10.3480    23.0880    -2.4640 
   72.5000     2.1810    80.0920    10.1310     7.1990     9.7640    23.1220    -2.2330 
   72.6250     2.1930    74.4340     9.7340     6.9740     9.4500    23.1360    -1.9900 
   72.7500     2.2130    74.0870     9.4160     6.7340     9.1730    23.1450    -1.7470 
   72.8750     2.2430    79.3280     9.3980     6.5990     8.8180    23.1460    -1.4990 
   73.0000     2.2830    86.3160     9.7730     6.6530     8.1550    23.1430    -1.2660 
   73.1250     2.3300    90.4680    10.4930     6.9460     7.9930    23.1480    -1.0590 
   73.2500     2.3710    89.1000    11.2580     7.3760     9.5680    23.1790    -0.9010 
   73.3750     2.3900    83.2810    11.7970     7.8090    13.2770    23.2520    -0.8080 
   73.5000     2.3680    78.2190    11.9350     8.0770    13.5800    23.3550    -0.8120 
   73.6250     2.3040    75.7290    11.6690     8.0550    10.5640    23.3500    -0.9570 
   73.7500     2.2430    74.0030    11.2870     7.8650     9.6330    23.2330    -1.1820 
   73.8750     2.2110    72.7620    10.9810     7.6420     9.9520    23.0500    -1.4400 
   74.0000     2.2040    73.8260    10.8490     7.4970    10.1520    22.8840    -1.7000 
   74.1250     2.2060    76.5020    10.9130     7.5120     9.8460    22.8000    -1.9650 
   74.2500     2.2120    77.9080    11.0490     7.6210     9.5320    22.7950    -2.2080 
   74.3750     2.2260    78.0940    11.1690     7.7350     9.2940    22.7850    -2.4240 
   74.5000     2.2450    77.9330    11.2310     7.7960     9.1860    22.7480    -2.5760 
   74.6250     2.2590    77.9210    11.2200     7.7870     9.1500    22.7480    -2.6610 
   74.7500     2.2550    78.2280    11.1790     7.7180     8.9320    22.7860    -2.7120 
   74.8750     2.2350    79.2560    11.1470     7.6030     8.5770    22.8310    -2.7770 
   75.0000     2.2100    78.9640    11.1410     7.4780     8.4640    22.8650    -2.8910 
   75.1250     2.1880    73.4070    11.1150     7.3920     8.6640    22.9030    -3.0780 
   75.2500     2.1690    66.4020    11.0190     7.3630     8.7440    22.9300    -3.3190 
   75.3750     2.1550    64.2630    10.8440     7.3860     8.7960    22.9120    -3.5890 
   75.5000     2.1470    65.4890    10.6330     7.4390     8.9610    22.9060    -3.8770 
   75.6250     2.1430    65.4640    10.4800     7.4890     9.1710    22.9300    -4.1370 
   75.7500     2.1370    66.0200    10.4080     7.5180     9.5270    22.9120    -4.3390 
   75.8750     2.1290    68.8620    10.3980     7.5220     9.8830    22.8760    -4.4630 
   76.0000     2.1210    70.9530    10.4150     7.5090    10.1480    22.8690    -4.5020 
   76.1250     2.1190    68.7160    10.4120     7.4800    10.3250    22.9080    -4.4250 
   76.2500     2.1260    68.6640    10.3590     7.4290    10.3850    22.9660    -4.2480 
   76.3750     2.1380    72.3910    10.2370     7.3420    10.3290    23.0020    -3.9690 
   76.5000     2.1540    75.8110    10.0800     7.2430    10.4080    23.0210    -3.5780 
   76.6250     2.1720    74.3760    10.0480     7.2380    10.4270    23.0610    -3.1010 
   76.7500     2.1880    70.9250    10.3140     7.4310    10.0620    23.1290    -2.6060 
   76.8750     2.2030    68.7770    10.9570     7.8750     9.9670    23.2200    -2.1160 
   77.0000     2.2240    68.0360    11.8500     8.5210    11.3910    23.4350    -1.6040 
   77.1250     2.2710    68.8680    12.5740     9.1340    16.6680    23.7640    -1.0110 
   77.2500     2.3390    72.8710    12.6880     9.3850    22.2450    24.1050    -0.3300 
   77.3750     2.3930    79.3030    11.9930     9.0880    17.5800    24.2420     0.4340 
   77.5000     2.3980    86.6920    10.6870     8.3100    10.9550    24.2320     1.2190 
   77.6250     2.3630    93.2900     9.2480     7.3160     8.3800    24.2550     1.9340 
   77.7500     2.3370    98.3980     8.0590     6.4070     7.7910    24.3060     2.5900 
   77.8750     2.3320   102.2050     7.2280     5.7080     7.4120    24.3730     3.2200 
   78.0000     2.3410   104.3160     6.7600     5.2600     6.9990    24.4250     3.8460 
   78.1250     2.3530   105.7520     6.6740     5.0930     6.7890    24.4620     4.3560 
   78.2500     2.3630   106.8780     6.8640     5.1430     6.6630    24.4550     4.7170 
   78.3750     2.3700   107.8250     7.2620     5.3790     6.8910    24.4100     4.9130 
   78.5000     2.3750   107.9770     7.7440     5.7290     7.5360    24.3240     4.9480 
   78.6250     2.3740   105.6110     8.0460     6.0280     8.1310    24.2080     4.8640 
   78.7500     2.3580   101.4730     8.0130     6.1300     7.5510    24.0010     4.7140 
   78.8750     2.3300    98.8880     7.7050     6.0310     7.1300    23.7630     4.5180 
   79.0000     2.3070    99.8210     7.3660     5.8640     6.9490    23.5240     4.2360 
   79.1250     2.3050   100.1740     7.3520     5.8410     6.9900    23.3460     3.9010 
   79.2500     2.3140    96.0860     7.7740     6.0590     7.3290    23.3340     3.5110 
   79.3750     2.3220    89.2810     8.5590     6.5160     8.4260    23.4660     3.0250 
