~V
VERS. 2.00: Ver 2.00
~W
STRT.M 51.0000:
STOP.M 277.0000:
STEP.M 0.1250:
NULL. -999.2500:
UWI. F11053:
~C
DEPT.M :
GR.API :
RML.OHMM :
RI. :
RXO.OHMM :
CALI.CM :
DEN.GM/CC :
SP.MV :
~A
   51.0000  -999.2500  -999.2500  -999.2500  -999.2500  -999.2500  -999.2500   226.0210 
   51.1250  -999.2500  -999.2500  -999.2500  -999.2500  -999.2500  -999.2500   282.0130 
   51.2500  -999.2500  -999.2500  -999.2500  -999.2500  -999.2500  -999.2500   281.3180 
   51.3750  -999.2500  -999.2500  -999.2500  -999.2500  -999.2500  -999.2500   280.5710 
   51.5000  -999.2500  -999.2500  -999.2500  -999.2500  -999.2500  -999.2500   279.7690 
   51.6250  -999.2500  -999.2500  -999.2500  -999.2500  -999.2500  -999.2500   278.8820 
   51.7500  -999.2500  -999.2500  -999.2500  -999.2500  -999.2500  -999.2500   277.9290 
   51.8750  -999.2500  -999.2500  -999.2500  -999.2500  -999.2500  -999.2500   276.9290 
   52.0000  -999.2500  -999.2500  -999.2500  -999.2500  -999.2500  -999.2500   275.8750 
   52.1250  -999.2500  -999.2500  -999.2500  -999.2500  -999.2500  -999.2500   274.7340 
   52.2500  -999.2500  -999.2500  -999.2500  -999.2500  -999.2500  -999.2500   273.5220 
   52.3750  -999.2500  -999.2500  -999.2500  -999.2500  -999.2500  -999.2500   272.2400 
   52.5000  -999.2500  -999.2500  -999.2500  -999.2500  -999.2500  -999.2500   270.8850 
   52.6250  -999.2500  -999.2500  -999.2500  -999.2500  -999.2500  -999.2500   269.4690 
   52.7500  -999.2500  -999.2500  -999.2500  -999.2500  -999.2500     2.0250   267.9980 
   52.8750  -999.2500  -999.2500  -999.2500  -999.2500  -999.2500     2.0250   266.4250 
   53.0000  -999.2500  -999.2500  -999.2500  -999.2500  -999.2500     2.0250   264.7460 
   53.1250  -999.2500  -999.2500  -999.2500  -999.2500  -999.2500     2.0250   262.9710 
   53.2500  -999.2500  -999.2500  -999.2500  -999.2500  -999.2500     2.0240   261.0840 
   53.3750  -999.2500  -999.2500  -999.2500  -999.2500  -999.2500     2.0260   259.0740 
   53.5000  -999.2500  -999.2500  -999.2500  -999.2500  -999.2500     2.0290   256.9270 
   53.6250  -999.2500  -999.2500  -999.2500  -999.2500  -999.2500     2.0340   254.6200 
   53.7500  -999.2500  -999.2500  -999.2500  -999.2500  -999.2500     2.0360   252.1270 
   53.8750  -999.2500  -999.2500  -999.2500  -999.2500  -999.2500     2.0320   249.4640 
   54.0000  -999.2500  -999.2500  -999.2500  -999.2500  -999.2500     2.0240   246.6150 
   54.1250  -999.2500  -999.2500  -999.2500  -999.2500  -999.2500     2.0190   243.5410 
   54.2500  -999.2500  -999.2500  -999.2500  -999.2500  -999.2500     2.0240   240.2140 
   54.3750  -999.2500  -999.2500  -999.2500  -999.2500  -999.2500     2.0440   236.5580 
   54.5000  -999.2500  -999.2500  -999.2500  -999.2500  -999.2500     2.0760   232.4680 
   54.6250     0.0000     0.0000     0.0000     0.0000     0.0000     2.1040   227.8470 
   54.7500     0.0000     0.0000     0.0000     0.0000     0.0000     2.1150   222.5910 
   54.8750    40.7730     0.7180     2.1830     0.7330    20.7240     2.1020   216.7320 
   55.0000    49.7140     1.0050     2.7390     0.8220    25.9050     2.0720   210.3510 
   55.1250    50.9140     1.3810     2.7370     0.8180    25.9050     2.0440   203.5280 
   55.2500    50.2430     1.9580     2.7300     0.8450    25.9050     2.0350   196.2020 
   55.3750    47.9240     2.5800     2.7260     0.8120    25.9050     2.0500   188.4440 
   55.5000    46.6040     2.9310     2.7250     0.7840    25.9050     2.0780   180.3430 
   55.6250    47.2480     2.8240     2.7310     0.7890    25.9040     2.1020   172.1860 
   55.7500    49.3310     2.3480     2.7480     0.8820    25.9010     2.1140   164.1630 
   55.8750    50.9640     1.8850     2.7780     1.0650    25.8940     2.1150   156.2160 
   56.0000    50.7630     1.9970     2.8200     1.1580    25.8910     2.1120   148.1980 
   56.1250    49.7580     2.7270     2.8610     0.9670    25.8920     2.1070   140.2970 
   56.2500    47.9990     3.6650     2.8920     0.7950    25.8960     2.0950   132.7380 
   56.3750    45.4850     4.2210     2.9100     0.7110    25.9000     2.0680   125.5510 
   56.5000    43.7850     3.9070     2.9180     0.6600    25.9000     2.0250   118.7360 
   56.6250    43.0720     2.9520     2.9170     0.6710    25.8990     1.9750   112.1890 
   56.7500    42.3360     1.8610     2.8980     0.7000    25.9010     1.9270   105.9230 
   56.8750    40.6680     1.0700     2.8400     0.8080    25.9030     1.8850   100.0330 
   57.0000    39.3170     0.6810     2.6700     0.9110    25.8990     1.8590    94.5420 
   57.1250    39.4210     0.4040     2.3170     0.9200    25.9000     1.8560    89.2250 
   57.2500    40.2100     0.0820     1.7690     0.8390    25.9010     1.8900    83.9110 
   57.3750    40.6420    -0.2210     1.1440     0.7290    25.8980     1.9780    78.4790 
   57.5000    41.3790    -0.3890     0.6470     0.7500    25.8990     2.1440    72.7690 
   57.6250    43.7060    -0.4510     0.3390     0.7880    25.9000     2.3660    66.5990 
   57.7500    46.9160    -0.4660     0.1900     0.9080    25.9120     2.5970    59.7340 
   57.8750    50.7640    -0.4590     0.1700     1.6100    26.0210     2.7650    51.9350 
   58.0000    54.6460    -0.4250     0.3120     3.7570    26.4490     2.7950    43.1430 
   58.1250    56.5120    -0.2890     0.6730     7.2640    27.2080     2.6980    33.8190 
   58.2500    57.0930     0.2910     1.3520    10.0860    28.0020     2.5280    24.4680 
   58.3750    59.7820     1.6460     2.4010    11.1180    28.5970     2.3540    15.4420 
   58.5000    65.1280     3.5290     3.6430    10.8650    28.9410     2.2330     7.1150 
   58.6250    67.5670     5.1310     4.6850    10.6020    29.1250     2.1700    -0.2820 
   58.7500    66.2470     6.1010     5.3800    10.4690    29.2230     2.1410    -6.5460 
   58.8750    64.6130     6.6780     5.8600    10.4850    29.3340     2.1260   -11.4420 
   59.0000    63.8500     7.1970     6.3210    10.3670    29.5060     2.1130   -14.7850 
   59.1250    62.7180     7.7310     6.8320    10.1830    29.5690     2.1110   -17.0190 
   59.2500    62.8630     8.2300     7.3340    10.5180    29.4220     2.1280   -18.5680 
   59.3750    65.7770     8.5720     7.6950    11.5770    29.2450     2.1590   -19.6510 
   59.5000    69.0520     8.6000     7.7260    12.1380    29.2000     2.1860   -20.3800 
   59.6250    71.0820     8.3310     7.4390    10.6230    29.2150     2.1930   -20.8670 
   59.7500    74.9580     7.8810     6.9680     8.0260    28.9620     2.1860   -21.1670 
   59.8750    82.6690     7.4090     6.4910     6.2780    28.0620     2.1820   -21.3490 
   60.0000    90.4470     7.0800     6.1750     6.2160    26.8380     2.1990   -21.4590 
   60.1250    94.0880     6.9450     6.0590     6.6110    26.0430     2.2360   -21.5560 
   60.2500    94.5330     6.9880     6.1180     6.8680    25.7180     2.2750   -21.6740 
   60.3750    93.7560     7.1530     6.2910     7.0390    25.6000     2.3010   -21.8420 
   60.5000    93.3140     7.3830     6.5120     7.1420    25.5430     2.3050   -22.0960 
   60.6250    94.5170     7.6430     6.7440     7.1110    25.5150     2.2910   -22.4640 
   60.7500    96.7150     7.9300     7.0040     7.2850    25.4950     2.2650   -22.9410 
   60.8750    97.2480     8.2470     7.3030     8.0180    25.4690     2.2400   -23.4910 
   61.0000    93.8560     8.5680     7.6150     8.6720    25.4620     2.2290   -24.0420 
   61.1250    89.3580     8.8390     7.8800     8.9460    25.4780     2.2380   -24.5480 
   61.2500    86.9090     9.0210     8.0500     9.1060    25.5000     2.2580   -24.9710 
   61.3750    86.8850     9.1070     8.1160     9.3560    25.5030     2.2760   -25.3000 
   61.5000    86.3590     9.1300     8.1170     9.2250    25.4760     2.2760   -25.5300 
   61.6250    82.8340     9.1500     8.1270     9.3970    25.4310     2.2580   -25.6510 
   61.7500    78.4030     9.1840     8.1700    10.3590    25.4230     2.2320   -25.6810 
   61.8750    76.1000     9.1990     8.2100    11.7580    25.4920     2.2070   -25.6260 
   62.0000    74.7900     9.1060     8.1460    11.2060    25.6470     2.1860   -25.5070 
   62.1250    73.0550     8.8580     7.9160     9.8720    25.7430     2.1690   -25.3270 
