~V
VERS. 2.00: Ver 2.00
~W
STRT.M 50.0000:
STOP.M 278.0000:
STEP.M 0.1250:
NULL. -999.2500:
UWI. F11029:
~C
DEPT.M :
SP.MV :
DEN.GM/CC :
GR.API :
RML.OHMM :
RI. :
RXO.OHMM :
CALI.CM :
~A
# ...
  207.5000    -6.3250     2.3620    83.4440     6.9070     5.3670     5.8980    24.7550 
  207.6250    -5.8100     2.3580    82.0790     7.4180     5.7690     6.6230    24.7200 
  207.7500    -5.3360     2.3590    83.0720     7.9820     6.2590     7.5140    24.7050 
  207.8750    -4.9470     2.3670    87.1480     8.4850     6.7610     8.3750    24.6900 
  208.0000    -4.6630     2.3780    90.1900     8.8120     7.1610     8.5930    24.6710 
  208.1250    -4.4320     2.3910    88.2460     8.8640     7.3180     8.5630    24.6800 
  208.2500    -4.2070     2.4040    85.0870     8.7320     7.2600     8.4550    24.6780 
  208.3750    -3.9720     2.4140    86.6000     8.5270     7.0710     8.0900    24.6670 
  208.5000    -3.7690     2.4220    93.8630     8.3580     6.8590     7.3400    24.6950 
  208.6250    -3.5900     2.4230   100.4700     8.3150     6.7140     7.0930    24.7830 
  208.7500    -3.4240     2.4160    99.7310     8.4270     6.6580     7.8120    24.8600 
  208.8750    -3.3240     2.4050    92.9050     8.7810     6.7340     8.7570    24.8420 
  209.0000    -3.3510     2.3950    87.4500     9.5740     7.0420     8.4090    24.7030 
  209.1250    -3.5710     2.3900    88.2750    11.3520     7.9040     7.8400    24.4250 
  209.2500    -3.8660     2.3880    87.5920    14.5400     9.6730     8.4970    24.0110 
  209.3750    -4.1710     2.3820    80.2040    19.7170    12.9830    12.9680    23.6950 
  209.5000    -4.5200     2.3670    68.9850    27.3840    18.6500    30.4940    23.7900 
  209.6250    -5.0200     2.3400    62.4010    37.8740    27.8350    52.4380    24.3820 
  209.7500    -5.5560     2.3080    61.9520    49.3330    39.2920    66.1320    24.9030 
  209.8750    -6.0140     2.2780    65.3520    59.3570    50.3840    74.7850    25.1650 
  210.0000    -6.3940     2.2510    67.6290    65.7950    58.0050    80.6730    25.2590 
  210.1250    -6.7370     2.2320    65.4290    67.6750    60.5980    81.2260    25.1580 
  210.2500    -7.0770     2.2190    62.8810    67.3460    60.7040    83.6990    24.9460 
  210.3750    -7.4170     2.2130    62.4840    66.5510    60.0480    79.3740    24.7700 
  210.5000    -7.7090     2.2120    63.9050    66.1970    59.5210    71.9730    24.7020 
  210.6250    -7.8770     2.2100    64.0740    66.3390    59.4430    66.2960    24.5940 
  210.7500    -7.9470     2.2060    64.0740    66.3220    59.4670    61.4980    24.4790 
  210.8750    -7.9270     2.2020    66.0480    65.5450    58.9980    60.6150    24.4380 
  211.0000    -7.8240     2.2020    68.2090    63.6860    57.5500    66.3510    24.4340 
  211.1250    -7.7020     2.2100    67.8470    60.9170    55.0810    70.7340    24.4480 
  211.2500    -7.5800     2.2210    64.8810    58.2510    52.4920    60.8980    24.4060 
  211.3750    -7.4200     2.2320    61.6770    56.6200    50.6770    49.0430    24.2550 
  211.5000    -7.1900     2.2390    60.9760    56.6740    50.4010    45.0380    24.2080 
  211.6250    -6.9620     2.2370    64.0060    59.3120    52.4820    48.2690    24.3700 
  211.7500    -6.8130     2.2280    66.9360    64.5840    56.6140    57.2520    24.5780 
  211.8750    -6.7210     2.2170    66.6720    71.9220    62.3950    66.6310    24.6680 
  212.0000    -6.6390     2.2090    64.1160    79.7090    69.0310    72.3920    24.6670 
  212.1250    -6.5360     2.2150    62.2480    85.7340    75.2100    77.1960    24.6430 
  212.2500    -6.5160     2.2340    60.5730    89.2350    79.7170    81.5660    24.6390 
  212.3750    -6.5530     2.2560    58.0050    90.0350    81.8040    83.9590    24.5610 
  212.5000    -6.5890     2.2680    56.0650    88.2720    81.3540    90.1990    24.4140 
  212.6250    -6.6150     2.2600    57.9310    84.6030    78.7600    90.7760    24.4820 
  212.7500    -6.6980     2.2400    62.5010    80.5800    75.4880    80.4020    24.5550 
  212.8750    -6.8570     2.2190    66.7530    77.1140    72.5300    68.6340    24.5360 
  213.0000    -7.0540     2.2070    67.5470    74.6420    70.5150    64.5590    24.6420 
  213.1250    -7.1870     2.2040    65.3760    73.1440    69.6160    68.0790    24.8790 
  213.2500    -7.1910     2.2000    61.7740    71.9090    69.1300    66.9240    24.9930 
  213.3750    -7.2320     2.1900    59.2510    70.4180    68.4490    63.0300    24.8620 
  213.5000    -7.3590     2.1760    60.4620    68.4190    67.1380    60.2070    24.8090 
  213.6250    -7.4520     2.1660    62.3810    66.0660    65.1020    57.9920    24.8920 
  213.7500    -7.5470     2.1700    62.2170    63.9990    63.0170    53.9040    24.9000 
  213.8750    -7.7570     2.1900    62.6260    62.8380    61.6060    50.7550    24.8110 
  214.0000    -8.0520     2.2210    64.7980    63.1140    61.4740    50.7820    24.6790 
  214.1250    -8.3760     2.2470    66.2540    65.5300    63.4000    51.4520    24.6000 
  214.2500    -8.7570     2.2560    66.6630    69.9150    67.3850    56.5490    24.7130 
  214.3750    -9.1480     2.2470    67.0660    75.7890    73.3260    67.1280    25.0130 
  214.5000    -9.5320     2.2240    64.7040    82.6210    80.5990    76.2610    25.3370 
  214.6250    -9.9130     2.1990    58.5790    91.7090    87.9460    74.3030    25.5000 
  214.7500   -10.2220     2.1820    55.3630   102.1870    94.0280    70.4100    25.5780 
  214.8750   -10.4680     2.1800    55.8920   110.9080    98.1520    71.4380    25.7260 
  215.0000   -10.6950     2.1940    57.4280   115.3080   100.3020    72.6000    25.6610 
  215.1250   -10.9780     2.2160    59.3450   116.2650   101.0900    79.8750    25.4860 
  215.2500   -11.2920     2.2360    60.7300   117.6920   102.0180    93.8930    25.4470 
  215.3750   -11.5830     2.2440    61.4900   120.7890   104.2650   108.6970    25.6490 
  215.5000   -11.8700     2.2360    60.9850   125.7800   108.6240   107.6740    25.8770 
  215.6250   -12.2500     2.2150    59.0550   132.0210   115.1550   102.2570    25.9770 
  215.7500   -12.6390     2.1900    56.4570   136.9690   121.6340   111.5690    25.9910 
  215.8750   -12.9280     2.1710    54.9630   137.9780   125.2070   139.7410    25.9510 
  216.0000   -13.1920     2.1640    55.0940   133.4080   123.3980   170.2910    25.7310 
  216.1250   -13.4410     2.1700    55.4510   123.4510   115.2730   159.9080    25.4650 
  216.2500   -13.5920     2.1790    57.0210   112.2110   104.7070   124.8590    25.3010 
  216.3750   -13.6810     2.1840    59.4900   102.9130    95.1100    99.3820    25.2900 
  216.5000   -13.7640     2.1820    61.5550    97.6410    88.9450    84.7300    25.2950 
  216.6250   -13.7720     2.1770    61.7610    97.7410    87.9730    85.1210    25.3020 
  216.7500   -13.7450     2.1780    59.9950   101.7050    91.0410    96.1330    25.3380 
  216.8750   -13.7610     2.1890    57.3620   108.2350    97.0150   109.1510    25.3840 
  217.0000   -13.8350     2.2120    55.9390   115.8080   104.4030   117.9070    25.4120 
  217.1250   -13.9560     2.2350    56.5800   122.8270   111.4610   114.2440    25.3310 
  217.2500   -14.0640     2.2430    55.9760   128.5180   117.1700   112.3290    25.0370 
  217.3750   -14.1580     2.2300    56.1490   132.7800   121.4220   117.9210    24.5070 
  217.5000   -14.2860     2.2090    58.5640   135.7420   124.5390   127.4060    23.9410 
  217.6250   -14.4610     2.2060    60.1790   136.9810   126.4290   103.9850    23.7440 
  217.7500   -14.5760     2.2280    59.8310   136.1110   126.5490    90.3150    23.6450 
  217.8750   -14.6900     2.2620    59.9590   132.6850   124.0470    82.3340    23.3660 
  218.0000   -14.8460     2.2810    61.1810   126.9790   118.8120    68.2470    22.9760 
  218.1250   -14.9530     2.2710    62.0050   120.3020   111.9710    56.3060    22.9150 
  218.2500   -15.0340     2.2460    62.8000   114.7330   105.9280    57.6320    23.1650 
  218.3750   -15.1860     2.2220    64.8300   111.5330   102.2690    62.2440    23.5540 
  218.5000   -15.4440     2.2010    66.2960   110.9660   101.5990    73.6820    23.8400 
  218.6250   -15.6840     2.1660    65.8000   112.1130   103.3860    92.7630    23.9980 
