~V
VERS. 2.00: Ver 2.00
~W
STRT.M 50.0000:
STOP.M 257.0000:
STEP.M 0.1250:
NULL. -999.2500:
UWI. F11021:
~C
DEPT.M :
GR.API :
RML.OHMM :
RI. :
RXO.OHMM :
CALI.CM :
SP.MV :
DEN.GM/CC :
~A
# ...
  173.7500    85.3480    39.1640    31.5590    30.4410    24.9030   -12.1740     2.2570 
  173.8750    80.3260    52.0550    40.5180    53.6060    25.1680   -12.6360     2.2450 
  174.0000    78.0040    67.2050    51.9980    81.2650    25.2990   -13.1080     2.2340 
  174.1250    78.2410    82.1910    64.7160    82.7150    25.1940   -13.6430     2.2290 
  174.2500    78.1270    96.2040    77.1480    73.0940    25.0240   -14.2250     2.2300 
  174.3750    76.2960   110.2230    89.3350    77.3710    24.8950   -14.8060     2.2360 
  174.5000    73.3210   126.2010   102.8070    76.8530    24.7400   -15.2930     2.2480 
  174.6250    70.2930   148.3060   121.3020    78.7650    24.6340   -15.6730     2.2570 
  174.7500    67.0840   178.7520   147.1240    88.4340    24.5620   -16.0070     2.2580 
  174.8750    63.8930   218.5030   181.4670   124.5780    24.5200   -16.3230     2.2460 
  175.0000    62.4290   264.7990   222.4690   139.5580    24.4590   -16.5870     2.2240 
  175.1250    64.2920   306.2100   261.7310   125.4960    24.3840   -16.7500     2.1990 
  175.2500    66.9690   327.8060   286.8300   101.9190    24.3050   -16.8710     2.1850 
  175.3750    67.9610   320.6760   288.9400    82.4510    24.1770   -17.0280     2.1840 
  175.5000    67.0570   287.4590   267.4410    72.2350    23.9810   -17.2030     2.1940 
  175.6250    66.3790   240.6290   229.6570    57.2720    23.7720   -17.3360     2.2050 
  175.7500    67.0860   196.5650   190.3590    43.9270    23.6070   -17.4660     2.2070 
  175.8750    68.3910   161.6220   156.8060    41.4430    23.7580   -17.6270     2.2020 
  176.0000    69.0920   137.3840   132.0490    46.1900    24.3120   -17.7710     2.1940 
  176.1250    68.7840   125.0290   118.1710    58.1320    24.9820   -17.8780     2.1930 
  176.2500    68.1820   122.1720   113.4240    58.5420    25.3830   -17.9850     2.2020 
  176.3750    67.3870   128.7510   118.0190    57.2880    25.3870   -18.0960     2.2210 
  176.5000    66.1100   145.3500   132.8300    67.2600    25.2260   -18.1980     2.2410 
  176.6250    64.3060   175.0000   161.3020   113.0580    25.1480   -18.1940     2.2510 
  176.7500    62.4900   215.6930   201.5930   151.9210    25.1430   -18.1250     2.2480 
  176.8750    60.9900   262.0730   248.9060   193.3000    25.1830   -18.0380     2.2330 
  177.0000    60.0470   300.6710   291.0370   307.4640    25.2540   -18.0330     2.2100 
  177.1250    59.7660   307.7210   305.4270   325.5110    25.3830   -18.0590     2.1900 
  177.2500    59.6340   280.8470   286.6400   292.7980    25.4970   -17.9690     2.1780 
  177.3750    59.8490   232.0940   242.7630   263.3090    25.5630   -17.8110     2.1800 
  177.5000    61.7470   180.9300   191.2380   200.6140    25.6130   -17.6730     2.1970 
  177.6250    66.5180   144.1750   150.0830   120.2720    25.4830   -17.5820     2.2250 
  177.7500    71.6240   122.8030   123.8760    78.5490    25.2410   -17.4350     2.2550 
  177.8750    74.4220   114.5280   111.6610    70.8600    25.0240   -17.2430     2.2790 
  178.0000    74.7260   116.8030   111.0970    82.7580    24.9050   -17.0320     2.2890 
  178.1250    74.6400   128.3360   120.8760   105.0060    24.8560   -16.8890     2.2810 
  178.2500    74.6840   144.2530   135.8160   121.2260    24.8710   -16.7970     2.2620 
  178.3750    73.3670   159.7870   151.0930   138.3400    24.9200   -16.6190     2.2340 
  178.5000    70.4740   169.5560   161.2930   206.1740    24.9670   -16.3790     2.2060 
  178.6250    68.5400   168.3860   161.1370   224.4170    24.9500   -16.2600     2.1840 
  178.7500    69.1420   159.1220   152.9240   161.0250    24.8400   -16.2510     2.1750 
  178.8750    71.4770   146.1150   140.5700   109.2870    24.6130   -16.1690     2.1800 
  179.0000    73.9120   133.7510   128.2790    92.2120    24.3280   -15.9340     2.1960 
  179.1250    74.8380   125.1980   119.3110    86.2760    24.1960   -15.6560     2.2170 
  179.2500    73.9630   120.1620   113.7160    85.6510    24.2240   -15.4120     2.2360 
  179.3750    71.9930   117.8090   110.8050    79.4700    24.3050   -15.2000     2.2480 
  179.5000    70.2630   117.2310   109.6710    70.6540    24.3430   -14.9690     2.2520 
  179.6250    69.5790   118.1030   109.8510    66.9400    24.2880   -14.7180     2.2490 
  179.7500    69.4350   120.2780   111.0910    65.9050    24.2330   -14.4660     2.2460 
  179.8750    70.0420   123.9960   113.5920    70.8670    24.2610   -14.2230     2.2460 
  180.0000    72.1570   129.3050   117.4340    77.8800    24.3190   -14.0110     2.2490 
  180.1250    75.2170   136.0600   122.5260    88.2520    24.3420   -13.8280     2.2530 
  180.2500    76.4120   143.4750   128.1930    94.1570    24.3070   -13.7150     2.2540 
  180.3750    74.1530   151.1000   134.0320    86.9140    24.1720   -13.7030     2.2500 
  180.5000    69.8380   158.6540   139.8090    71.6090    23.9310   -13.7120     2.2440 
  180.6250    67.5720   165.8450   145.3780    54.9180    23.5530   -13.6390     2.2360 
  180.7500    68.4750   172.2270   150.5430    43.7850    23.1880   -13.5320     2.2320 
  180.8750    70.3490   176.8150   154.7000    46.6110    23.0260   -13.4980     2.2320 
  181.0000    70.7200   178.0530   156.7100    63.3360    23.2940   -13.4920     2.2350 
  181.1250    69.7200   173.1450   154.2470    93.5130    23.8130   -13.3640     2.2360 
  181.2500    69.7580   162.1590   146.8290   114.5730    24.2080   -13.1140     2.2320 
  181.3750    71.6020   146.2780   134.8950   117.2150    24.3050   -12.8230     2.2250 
  181.5000    74.3870   128.2000   120.3020   110.8740    24.2270   -12.6260     2.2220 
  181.6250    76.1090   111.6310   106.0220    88.7420    24.1700   -12.4490     2.2280 
  181.7500    75.7340    98.7250    94.3860    65.8400    24.1980   -12.2840     2.2430 
  181.8750    74.0050    90.0840    86.3250    53.0680    24.2630   -12.1790     2.2610 
  182.0000    72.8280    85.2530    81.7690    50.5450    24.3240   -12.1500     2.2750 
  182.1250    73.4890    83.3180    80.1520    53.3660    24.3460   -12.1510     2.2770 
  182.2500    74.9150    82.1810    79.5370    57.1230    24.3310   -12.1860     2.2680 
  182.3750    76.3350    80.5090    78.5340    60.0860    24.2570   -12.2720     2.2520 
  182.5000    77.6790    77.5970    76.2330    61.4600    24.1570   -12.3390     2.2370 
  182.6250    80.0670    73.6880    72.5250    60.2190    24.1800   -12.4380     2.2310 
  182.7500    84.7630    70.2360    68.7350    59.3450    24.2780   -12.5590     2.2360 
  182.8750    90.7970    68.5510    66.1650    54.2850    24.2920   -12.6650     2.2480 
  183.0000    94.0170    69.5250    65.8230    41.7530    24.2150   -12.8090     2.2600 
  183.1250    90.3620    73.8500    68.5710    47.1480    24.1530   -12.9950     2.2650 
  183.2500    84.0330    80.6000    73.6920    57.4030    24.1470   -13.1810     2.2620 
  183.3750    79.1050    89.1480    80.5950    69.2310    24.1850   -13.3440     2.2560 
  183.5000    76.1530    99.0230    88.7080    72.7770    24.2660   -13.5410     2.2500 
  183.6250    74.1270   110.4970    98.0350    71.3630    24.3420   -13.7610     2.2470 
  183.7500    73.4000   123.8890   108.8150    71.4580    24.3210   -13.8740     2.2460 
  183.8750    74.0340   139.4810   121.4020    80.3200    24.2140   -13.9140     2.2430 
  184.0000    74.0970   156.5270   135.3140   115.6070    24.2120   -13.9320     2.2370 
  184.1250    71.9240   172.2610   148.3210   150.8830    24.4110   -14.0310     2.2290 
  184.2500    69.8490   183.5750   157.7160   170.1320    24.5370   -14.1880     2.2190 
  184.3750    70.0940   188.7030   161.8510   154.6060    24.4380   -14.2810     2.2090 
  184.5000    72.1240   188.0980   160.8930   124.0810    24.1240   -14.2190     2.1980 
  184.6250    72.7890   184.3670   156.8120    97.0460    23.6630   -14.0860     2.1860 
  184.7500    71.4400   181.8450   153.3690   101.3160    23.1900   -14.0200     2.1780 
  184.8750    70.0210   183.2970   153.0600   123.4790    23.0580   -13.9320     2.1790 
