~V
VERS. 2.00: Ver 2.00
~W
STRT.M 53.0000:
STOP.M 276.0000:
STEP.M 0.1250:
NULL. -999.2500:
UWI. F11074:
~C
DEPT.M :
DEN.GM/CC :
SP.MV :
GR.API :
RML.OHMM :
RI. :
RXO.OHMM :
CALI.CM :
~A
# ...
   64.2500     2.2680   -22.5620    88.8690    10.9520     8.0200    19.0030    24.4420 
   64.3750     2.2990   -22.1300    85.9300    10.9550     8.0180    16.6400    24.4430 
   64.5000     2.2750   -21.8140    85.0040    10.8270     7.9430    12.5730    24.4440 
   64.6250     2.2190   -21.6090    89.0670    10.6110     7.7980    10.8130    24.4490 
   64.7500     2.1800   -21.5260    93.4980    10.4190     7.6530    10.4970    24.4900 
   64.8750     2.1660   -21.5810    94.2550    10.3100     7.5570    10.4440    24.5750 
   65.0000     2.1660   -21.7030    89.7570    10.2920     7.5260    10.1570    24.6360 
   65.1250     2.1690   -21.7950    83.9380    10.3430     7.5460    10.3240    24.6550 
   65.2500     2.1700   -21.8150    82.9750    10.4160     7.5810    10.7260    24.6550 
   65.3750     2.1670   -21.7430    88.5180    10.4880     7.6110    11.2680    24.6550 
   65.5000     2.1630   -21.5670    93.7150    10.5290     7.6230    11.5580    24.6550 
   65.6250     2.1650   -21.3070    93.5750    10.4810     7.5850    11.5470    24.6550 
   65.7500     2.1710   -21.0260    92.6160    10.3450     7.4950    11.1660    24.6550 
   65.8750     2.1820   -20.7720    93.2660    10.1600     7.3650    10.3350    24.6550 
   66.0000     2.1950   -20.5770    94.9610    10.0010     7.2320     9.5880    24.6550 
   66.1250     2.2010   -20.5060    96.9260     9.9530     7.1400     9.8230    24.6550 
   66.2500     2.1920   -20.6190    99.4180    10.0190     7.1090    10.6430    24.6550 
   66.3750     2.1740   -20.9050    98.5850    10.1770     7.1380    11.0610    24.6550 
   66.5000     2.1530   -21.3440    93.1030    10.3870     7.2210    10.9590    24.6550 
   66.6250     2.1350   -21.8980    87.4310    10.6040     7.3470    11.0430    24.6550 
   66.7500     2.1210   -22.4730    85.2010    10.7900     7.4870    11.3180    24.6550 
   66.8750     2.1110   -23.0150    86.0760    10.9220     7.6110    11.4820    24.6550 
   67.0000     2.1080   -23.4910    86.8160    10.9790     7.6880    11.5270    24.6550 
   67.1250     2.1160   -23.8580    85.1450    10.9490     7.6860    11.5290    24.6550 
   67.2500     2.1280   -24.1040    83.4860    10.8870     7.6350    11.5200    24.6540 
   67.3750     2.1380   -24.2350    82.5020    10.8490     7.5800    11.5860    24.6530 
   67.5000     2.1410   -24.3140    80.5840    10.8730     7.5570    11.6410    24.6510 
   67.6250     2.1400   -24.3960    78.9910    10.9650     7.5840    11.6080    24.6520 
   67.7500     2.1370   -24.4590    79.6480    11.1000     7.6430    11.4980    24.6510 
   67.8750     2.1350   -24.4630    79.6580    11.2700     7.7240    11.3970    24.6510 
   68.0000     2.1360   -24.4220    76.6800    11.4760     7.8250    11.4100    24.6490 
   68.1250     2.1440   -24.3560    74.8840    11.7380     7.9670    11.7000    24.6500 
   68.2500     2.1610   -24.2750    76.7970    12.0640     8.1700    11.7570    24.6390 
   68.3750     2.1830   -24.1890    77.7100    12.4600     8.4470    12.0430    24.6010 
   68.5000     2.2030   -24.0600    75.1270    12.9050     8.7900    12.6540    24.5230 
   68.6250     2.2120   -23.8550    73.6170    13.3340     9.1580    13.0400    24.4880 
   68.7500     2.2120   -23.6290    74.7200    13.6760     9.4820    13.3000    24.4740 
   68.8750     2.2090   -23.4030    75.2090    13.9010     9.7250    13.5570    24.4730 
   69.0000     2.2110   -23.2040    72.7200    14.0330     9.8890    14.2710    24.4740 
   69.1250     2.2200   -23.0800    71.7710    14.0580     9.9690    16.6080    24.4660 
   69.2500     2.2380   -23.0570    77.0160    13.8680     9.9100    19.6490    24.4540 
   69.3750     2.2590   -23.1440    82.6280    13.3010     9.6040    18.9200    24.4440 
   69.5000     2.2670   -23.3430    82.9890    12.3450     9.0150    14.8620    24.4410 
   69.6250     2.2390   -23.6310    78.3450    11.2770     8.2820    12.5370    24.4420 
   69.7500     2.1940   -23.9190    73.3750    10.4980     7.6730    12.2810    24.4410 
   69.8750     2.1590   -24.1940    70.4870    10.1720     7.3240    12.4240    24.4420 
   70.0000     2.1440   -24.4160    69.4810    10.2480     7.2490    12.4130    24.4430 
   70.1250     2.1450   -24.5120    72.6830    10.5300     7.3840    12.3920    24.4450 
   70.2500     2.1560   -24.4670    77.2610    10.7650     7.5670    12.3790    24.4440 
   70.3750     2.1700   -24.2900    79.8620    10.8720     7.7220    12.2060    24.4440 
   70.5000     2.1770   -23.9260    78.7720    10.8680     7.8300    12.0650    24.4450 
   70.6250     2.1710   -23.3430    73.1400    10.7940     7.8900    12.2640    24.4480 
   70.7500     2.1590   -22.5920    67.2290    10.6640     7.8970    12.4570    24.4440 
   70.8750     2.1510   -21.6030    65.0880    10.4440     7.8240    12.5140    24.4400 
   71.0000     2.1520   -20.3300    67.7160    10.0830     7.6300    12.4490    24.4380 
   71.1250     2.1620   -18.7680    73.6160     9.4970     7.2430    11.9710    24.4450 
   71.2500     2.1850   -17.0670    83.1230     8.7280     6.6870    10.5020    24.4640 
   71.3750     2.2250   -15.3100    97.9380     7.8850     6.0250     8.2330    24.4910 
   71.5000     2.2760   -13.6390   113.2400     7.1430     5.3760     6.4000    24.5070 
   71.6250     2.3180   -12.1130   119.8140     6.7190     4.8950     5.8340    24.5090 
   71.7500     2.3400   -10.7790   119.1350     6.6240     4.6290     5.7550    24.5080 
   71.8750     2.3450    -9.7700   116.7790     6.8110     4.5750     5.9030    24.5080 
   72.0000     2.3480    -9.1390   115.1520     7.1820     4.6900     6.1050    24.5100 
   72.1250     2.3560    -8.9570   115.0930     7.6610     4.9310     6.2840    24.5100 
   72.2500     2.3680    -9.0900   114.4440     8.2170     5.2510     6.4560    24.5100 
   72.3750     2.3790    -9.4230   111.7740     8.9080     5.6670     6.8120    24.5060 
   72.5000     2.3860    -9.8210   106.9760     9.7760     6.2110     7.6260    24.4830 
   72.6250     2.3870   -10.2470    99.6100    10.7220     6.8660     8.9020    24.4310 
   72.7500     2.3760   -10.6570    91.5830    11.4730     7.4810    10.0690    24.3860 
   72.8750     2.3520   -11.0030    84.9940    11.7730     7.8850    10.9820    24.3680 
   73.0000     2.3190   -11.2360    84.2310    11.5130     7.9530    11.5050    24.3660 
   73.1250     2.2820   -11.2840    94.0100    10.8330     7.6860    10.0930    24.3660 
   73.2500     2.2540   -11.1400   106.2380    10.2210     7.3540     9.5620    24.3660 
   73.3750     2.2510   -10.8680   112.8560    10.0220     7.1860     9.7220    24.3660 
   73.5000     2.2800   -10.5630   110.2180    10.4130     7.3440    10.8950    24.3660 
   73.6250     2.3320   -10.3080   102.1500    11.3260     7.8940    13.4880    24.3660 
   73.7500     2.3740   -10.1260    95.6210    12.1920     8.5470    14.9190    24.3560 
   73.8750     2.3770    -9.9900    92.8830    12.4080     8.8990    14.8990    24.3230 
   74.0000     2.3380    -9.9020    94.0250    11.6160     8.6060    13.0700    24.2610 
   74.1250     2.2840    -9.8260    95.6740    10.0490     7.6610     9.9670    24.2310 
   74.2500     2.2520    -9.7610    95.9710     8.5720     6.6150     8.1010    24.2240 
   74.3750     2.2470    -9.6970    97.3380     7.6200     5.8030     7.2500    24.2250 
   74.5000     2.2550    -9.6200    99.8770     7.2540     5.3410     6.8850    24.2370 
   74.6250     2.2610    -9.5370   102.1870     7.3500     5.2320     6.6400    24.3150 
   74.7500     2.2580    -9.4300   105.7880     7.6210     5.3220     6.5590    24.4650 
   74.8750     2.2490    -9.3320   110.1930     7.9410     5.5350     6.6780    24.5950 
   75.0000     2.2370    -9.2950   111.1850     8.2570     5.8120     6.8260    24.6460 
   75.1250     2.2220    -9.3430   105.8980     8.5470     6.1130     7.1160    24.6460 
   75.2500     2.2040    -9.4040    99.9670     8.7790     6.3810     7.3670    24.6460 
   75.3750     2.1890    -9.4510    99.2250     8.8820     6.5470     7.6010    24.6460 
