~V
VERS. 2.00: Ver 2.00
~W
STRT.M 50.0000:
STOP.M 278.0000:
STEP.M 0.1250:
NULL. -999.2500:
UWI. F11029:
~C
DEPT.M :
SP.MV :
DEN.GM/CC :
GR.API :
RML.OHMM :
RI. :
RXO.OHMM :
CALI.CM :
~A
# ...
  151.2500    -5.0570     2.3140    85.3060     7.6020     6.0650     6.2480    23.4520 
  151.3750    -5.0320     2.3110    84.4570     7.7490     6.2250     6.8200    23.4640 
  151.5000    -5.0580     2.3010    85.0340     7.9260     6.3900     7.3290    23.4680 
  151.6250    -5.0470     2.2840    84.5540     8.2220     6.6020     7.0870    23.4870 
  151.7500    -4.9630     2.2660    84.1760     8.7100     6.9320     7.1680    23.5120 
  151.8750    -4.8790     2.2530    85.0520     9.4280     7.4570     7.4860    23.5150 
  152.0000    -4.9130     2.2480    86.4960    10.3110     8.2090     8.0310    23.4970 
  152.1250    -5.0940     2.2540    87.0440    11.0860     9.0660     9.0160    23.4930 
  152.2500    -5.2880     2.2680    87.3840    11.4060     9.6730    10.6460    23.4760 
  152.3750    -5.4240     2.2850    87.2050    11.0570     9.6770    13.0160    23.4610 
  152.5000    -5.4150     2.3010    85.7180    10.0990     8.9690    12.4470    23.4640 
  152.6250    -5.3820     2.3140    84.2780     8.9200     7.8470     8.7500    23.4760 
  152.7500    -5.4700     2.3230    86.8630     8.0810     6.8950     5.9140    23.4770 
  152.8750    -5.6330     2.3280    92.2520     7.9180     6.4120     5.2180    23.4720 
  153.0000    -5.7270     2.3280    94.3180     8.5550     6.5470     5.8540    23.4790 
  153.1250    -5.6780     2.3170    88.3790    10.1490     7.5080     8.3760    23.4840 
  153.2500    -5.5590     2.3010    82.2560    12.5150     9.1780    12.1390    23.5120 
  153.3750    -5.4410     2.2860    79.4900    15.2990    11.3770    15.0770    23.5520 
  153.5000    -5.4360     2.2760    78.4080    17.8870    13.7040    15.3010    23.5730 
  153.6250    -5.4860     2.2770    76.5210    19.7410    15.6220    14.7650    23.5510 
  153.7500    -5.4210     2.2810    73.9270    21.1590    17.1060    15.1990    23.5230 
  153.8750    -5.2560     2.2820    71.8870    22.5890    18.4560    16.5910    23.5750 
  154.0000    -5.0690     2.2760    69.3230    24.2930    20.0170    18.3750    23.7050 
  154.1250    -4.9490     2.2630    67.1510    26.2770    21.9360    21.7980    23.7540 
  154.2500    -4.9550     2.2490    66.1890    28.1770    23.8860    27.2330    23.7580 
  154.3750    -5.0760     2.2360    65.3660    29.6500    25.4730    32.6150    23.8390 
  154.5000    -5.2100     2.2250    65.5650    30.5290    26.4440    33.6650    23.9870 
  154.6250    -5.3270     2.2130    67.8720    30.8510    26.7960    28.9070    24.1000 
  154.7500    -5.5150     2.2010    71.0420    30.9680    26.9280    24.9320    24.2100 
  154.8750    -5.7790     2.1930    71.7420    31.0410    27.0510    24.4850    24.3350 
  155.0000    -6.1060     2.1920    69.4020    31.0730    27.2010    27.6600    24.3690 
  155.1250    -6.4040     2.1990    67.7890    30.9220    27.2370    29.7460    24.2590 
  155.2500    -6.6080     2.2090    67.9690    30.5820    27.0580    29.6340    24.1290 
  155.3750    -6.7300     2.2170    68.7860    30.2110    26.7390    26.9210    24.0750 
  155.5000    -6.8560     2.2230    68.9320    30.1030    26.5480    24.8460    24.0900 
  155.6250    -7.0100     2.2310    67.9690    30.6700    26.9420    25.1260    24.1480 
  155.7500    -7.1070     2.2470    67.1090    31.9260    28.0520    27.3620    24.1850 
  155.8750    -7.1330     2.2660    66.6460    33.7230    29.8280    30.1730    24.1630 
  156.0000    -7.1230     2.2800    66.4190    35.7500    32.0140    31.5880    24.0880 
  156.1250    -7.2160     2.2770    64.8190    37.5860    34.1830    35.9600    23.8820 
  156.2500    -7.3840     2.2610    61.5670    39.0140    35.9780    37.8630    23.7850 
  156.3750    -7.5670     2.2390    57.8840    40.0410    37.3200    37.5380    23.7630 
  156.5000    -7.7590     2.2220    55.5390    40.8190    38.3410    34.8180    23.7700 
  156.6250    -7.9200     2.2160    55.6010    41.5360    39.2460    31.8180    23.7370 
  156.7500    -8.0800     2.2180    57.2060    42.2970    40.1740    32.0940    23.6540 
  156.8750    -8.2500     2.2200    59.8750    43.0950    41.1230    34.5080    23.5690 
  157.0000    -8.4390     2.2190    64.1610    43.8930    42.0510    37.1970    23.5460 
  157.1250    -8.6270     2.2100    69.1040    44.6560    42.9120    41.2990    23.5330 
  157.2500    -8.7890     2.2000    70.3850    45.3470    43.7090    41.9460    23.5500 
  157.3750    -8.9220     2.1950    66.9930    45.8890    44.3900    39.9450    23.6280 
  157.5000    -8.9860     2.2000    62.3350    46.1910    44.8210    39.2320    23.6630 
  157.6250    -9.0590     2.2180    59.5760    46.2330    44.8600    40.2760    23.6150 
  157.7500    -9.1610     2.2400    57.8250    46.3170    44.7470    42.3060    23.6410 
  157.8750    -9.2630     2.2510    58.2920    46.8880    44.9010    41.1480    23.7100 
  158.0000    -9.3170     2.2420    62.6720    48.4720    45.8610    36.1430    23.9080 
  158.1250    -9.2860     2.2090    67.2810    51.8550    48.4800    33.8660    24.3960 
  158.2500    -9.2450     2.1680    67.2410    57.0500    52.9820    42.3650    24.9720 
  158.3750    -9.2320     2.1340    63.5710    63.8830    59.4290    57.8640    25.4200 
  158.5000    -9.2610     2.1180    58.9020    71.6100    67.3430    69.2970    25.6040 
  158.6250    -9.2280     2.1260    55.1240    78.3690    75.1880    74.1360    25.6130 
  158.7500    -9.1380     2.1470    54.3700    82.1420    80.5890    85.7040    25.6150 
  158.8750    -9.0620     2.1730    56.4780    81.6290    81.6830    97.0690    25.6320 
  159.0000    -9.0720     2.1980    59.9450    76.8780    78.0220    99.3930    25.6160 
  159.1250    -9.1500     2.2170    63.3480    69.1560    70.6160    86.1600    25.5260 
  159.2500    -9.1860     2.2290    66.3450    61.1020    62.3840    67.4380    25.4370 
  159.3750    -9.1470     2.2330    69.6560    54.1390    54.9830    49.1620    25.4050 
  159.5000    -8.9970     2.2320    72.5790    48.9200    49.2740    41.9860    25.4540 
  159.6250    -8.8140     2.2290    71.8550    45.7650    45.7010    41.8850    25.4990 
  159.7500    -8.6960     2.2270    67.2550    44.0540    43.6710    41.4210    25.4990 
  159.8750    -8.6010     2.2280    62.8320    43.4310    42.8490    40.5080    25.4860 
  160.0000    -8.4900     2.2310    62.6800    43.5430    42.9160    40.0530    25.4620 
  160.1250    -8.3110     2.2340    63.8020    44.0420    43.5880    40.4770    25.4620 
  160.2500    -8.1000     2.2360    63.4820    44.4310    44.3270    41.1010    25.4570 
  160.3750    -7.9220     2.2370    63.4620    44.3430    44.6390    41.6680    25.4330 
  160.5000    -7.8560     2.2390    66.2600    43.5450    44.1280    43.4130    25.4020 
  160.6250    -7.9390     2.2410    70.2910    41.9610    42.6100    44.2430    25.3670 
  160.7500    -8.0600     2.2450    71.5610    39.9890    40.5850    39.4370    25.3580 
  160.8750    -8.1800     2.2500    70.5830    37.9250    38.4290    31.8300    25.4170 
  161.0000    -8.2510     2.2520    69.5150    35.9500    36.3590    27.8360    25.4780 
  161.1250    -8.3000     2.2530    69.8650    34.1070    34.4010    31.6100    25.4620 
  161.2500    -8.3910     2.2530    71.0350    32.3030    32.4440    35.0340    25.4100 
  161.3750    -8.5100     2.2540    72.6420    30.5080    30.4280    32.7220    25.3680 
  161.5000    -8.6580     2.2600    74.2910    28.8030    28.4020    26.8260    25.3640 
  161.6250    -8.7930     2.2690    75.0850    27.4830    26.6420    24.1040    25.3740 
  161.7500    -8.8740     2.2800    75.9810    26.7800    25.4460    23.5710    25.3170 
  161.8750    -8.9310     2.2880    76.7700    26.8400    25.0280    23.7620    25.1890 
  162.0000    -8.9700     2.2920    75.6440    27.6200    25.4220    25.3620    25.0940 
  162.1250    -9.0160     2.2890    71.2260    28.8730    26.5030    26.1110    25.0510 
  162.2500    -9.0620     2.2840    67.7080    30.0330    27.6930    31.5460    25.0130 
  162.3750    -9.0660     2.2800    67.5390    30.6730    28.4870    34.2270    24.9530 
