~V
VERS. 2.00: Ver 2.00
~W
STRT.M 63.0000:
STOP.M 273.0000:
STEP.M 0.1250:
NULL. -999.2500:
UWI. F11030:
~C
DEPT.M :
DEN.GM/CC :
GR.API :
RML.OHMM :
RI. :
RXO.OHMM :
CALI.CM :
SP.MV :
~A
# ...
  254.2500     2.4860    66.4410    10.4200     8.1850     7.5930    24.7610    -3.8790 
  254.3750     2.4870    65.3470    10.4780     8.2340     7.5760    24.7690    -3.7640 
  254.5000     2.4890    65.3810    10.5600     8.2980     7.5970    24.7650    -3.7920 
  254.6250     2.4900    66.3640    10.6550     8.3830     7.7340    24.7390    -3.9150 
  254.7500     2.4900    66.7230    10.7420     8.4860     8.0390    24.7260    -4.1050 
  254.8750     2.4900    65.1370    10.7870     8.5860     8.4210    24.7500    -4.2980 
  255.0000     2.4890    64.5010    10.7780     8.6560     8.5640    24.7930    -4.5440 
  255.1250     2.4880    64.3910    10.7160     8.6830     8.5530    24.8010    -4.9000 
  255.2500     2.4890    63.5850    10.6200     8.6710     8.4380    24.7820    -5.2490 
  255.3750     2.4930    62.1360    10.5190     8.6380     8.3360    24.8210    -5.5120 
  255.5000     2.5000    61.2670    10.4390     8.6080     7.9550    24.8650    -5.5820 
  255.6250     2.5050    61.6780    10.3890     8.5900     8.0360    24.8460    -5.4670 
  255.7500     2.5040    62.1200    10.3630     8.5770     8.2940    24.7590    -5.2960 
  255.8750     2.4940    62.0730    10.3440     8.5630     8.5560    24.7200    -5.0560 
  256.0000     2.4800    64.0290    10.3210     8.5490     8.3530    24.7000    -4.6600 
  256.1250     2.4660    67.0070    10.3000     8.5420     8.3320    24.6800    -4.1100 
  256.2500     2.4580    67.7490    10.3030     8.5540     8.4580    24.6630    -3.5530 
  256.3750     2.4620    64.4000    10.3760     8.6160     8.5520    24.6400    -3.0420 
  256.5000     2.4740    60.5580    10.5290     8.7430     9.0080    24.6380    -2.7240 
  256.6250     2.4880    60.7470    10.7520     8.9400     9.4610    24.6570    -2.6460 
  256.7500     2.4980    64.2780    11.0110     9.1890    10.6000    24.6880    -2.6680 
  256.8750     2.5010    66.1430    11.2600     9.4520    14.0430    24.6850    -2.6860 
  257.0000     2.5040    64.1170    11.4650     9.6860    16.6790    24.6870    -2.7280 
  257.1250     2.5090    61.1940    11.6180     9.8750    14.4670    24.7110    -2.9440 
  257.2500     2.5140    60.4930    11.7210    10.0220    11.8260    24.7450    -3.2930 
  257.3750     2.5140    62.7090    11.7760    10.1330    13.3690    24.7550    -3.7360 
  257.5000     2.5070    65.3780    11.7910    10.2160    16.8810    24.8130    -4.0550 
  257.6250     2.4970    65.3260    11.7600    10.2650    17.1750    24.8430    -4.1100 
  257.7500     2.4920    62.1410    11.6800    10.2690    14.6770    24.8410    -4.0580 
  257.8750     2.4890    59.4350    11.5400    10.2070    13.0020    24.7460    -4.0900 
  258.0000     2.4830    58.3020    11.3620    10.0860    12.6030    24.5120    -4.1650 
  258.1250     2.4700    57.9720    11.1720     9.9290    13.7860    24.3620    -4.1900 
  258.2500     2.4540    59.2910    11.0150     9.7780    14.3290    24.3880    -4.1250 
  258.3750     2.4480    61.3580    10.9520     9.6980    14.2630    24.5220    -3.9770 
  258.5000     2.4540    61.7610    10.9960     9.7090    14.4670    24.6030    -3.9190 
  258.6250     2.4660    61.2320    11.1370     9.8090    15.1990    24.5800    -3.9850 
  258.7500     2.4750    62.4920    11.3350     9.9740    13.9870    24.4130    -4.0450 
  258.8750     2.4750    65.8880    11.5240    10.1580    14.3310    24.1540    -4.0750 
  259.0000     2.4740    67.1960    11.6490    10.3030    14.4940    23.9950    -4.0780 
  259.1250     2.4780    67.6440    11.6920    10.3730    14.7010    24.0010    -4.0270 
  259.2500     2.4930    69.0620    11.6800    10.3670    14.5950    24.0330    -3.9250 
  259.3750     2.5150    71.7600    11.6850    10.3380    13.8970    24.0420    -3.7750 
  259.5000     2.5290    72.5440    11.7920    10.3800    11.7730    24.1080    -3.7060 
  259.6250     2.5220    69.9570    12.0530    10.5650    11.0900    24.2590    -3.8100 
  259.7500     2.4920    65.9070    12.4690    10.9190    10.7280    24.3540    -4.0450 
  259.8750     2.4500    62.9390    12.9860    11.4310    10.6840    24.2280    -4.1300 
  260.0000     2.4200    62.6740    13.4690    11.9840    11.4320    24.1400    -4.1110 
  260.1250     2.4150    65.7570    13.8090    12.4610    13.8840    24.2490    -4.1980 
  260.2500     2.4340    69.2530    13.9420    12.7520    17.0210    24.5210    -4.3310 
  260.3750     2.4650    70.3090    13.8570    12.7780    15.6550    24.7050    -4.4240 
  260.5000     2.4930    69.1520    13.6800    12.6460    13.6460    24.7220    -4.4440 
  260.6250     2.5080    66.6620    13.5030    12.4570    12.3510    24.6170    -4.3890 
  260.7500     2.5040    62.5800    13.3860    12.3000    11.5760    24.5600    -4.2980 
  260.8750     2.4790    59.5010    13.3400    12.2170    10.7120    24.6500    -4.2940 
  261.0000     2.4470    60.3860    13.3070    12.1710     9.8850    24.7340    -4.3580 
  261.1250     2.4250    62.3580    13.2390    12.1130     8.8610    24.7210    -4.3760 
  261.2500     2.4250    63.1130    13.1080    12.0170     7.9580    24.6840    -4.4240 
  261.3750     2.4480    64.5130    12.9200    11.8770     7.5150    24.6740    -4.5170 
  261.5000     2.4760    65.3640    12.7230    11.7220     7.6310    24.6700    -4.6040 
  261.6250     2.4960    62.8300    12.5480    11.5730     7.9180    24.7620    -4.6000 
  261.7500     2.5040    59.1650    12.3980    11.4390     8.1810    24.8690    -4.5570 
  261.8750     2.5010    60.0770    12.2390    11.2950     8.2610    24.8900    -4.5520 
  262.0000     2.4930    63.0960    12.0360    11.1060     8.3060    24.8740    -4.6000 
  262.1250     2.4790    64.1260    11.7850    10.8650     8.2730    24.8210    -4.6290 
  262.2500     2.4620    64.6940    11.5140    10.5970     8.1500    24.7660    -4.5700 
  262.3750     2.4510    66.6700    11.2840    10.3590     7.9970    24.7720    -4.4510 
  262.5000     2.4490    67.7900    11.1330    10.1940     7.8230    24.7360    -4.2150 
  262.6250     2.4570    67.8070    11.0650    10.1070     7.6870    24.6560    -3.8990 
  262.7500     2.4690    68.9020    11.0500    10.0780     7.8810    24.6880    -3.6190 
  262.8750     2.4780    70.0100    11.0390    10.0630     8.5070    24.7800    -3.4180 
  263.0000     2.4820    70.0100    10.9990    10.0170     9.0830    24.8250    -3.3300 
  263.1250     2.4830    70.0100    10.9330     9.9320     9.1340    24.8180    -3.3410 
  263.2500     2.4860    70.0100    10.8730     9.8350     8.9950    24.7850    -3.3260 
  263.3750     2.4930    70.0100    10.8640     9.7870     9.5390    24.7590    -3.2750 
  263.5000     2.5030    70.0100    10.9060     9.8170    10.9600    24.7040    -3.3560 
  263.6250     2.5150    70.0100    10.9720     9.9080    13.2760    24.6300    -3.5680 
  263.7500     2.5280    70.0100    11.0120    10.0020    16.1590    24.4810    -3.7190 
  263.8750     2.5370    70.0100    10.9570     9.9890    18.8100    24.2880    -3.7990 
  264.0000     2.5390    70.0100    10.8040     9.8220    19.1410    24.1230    -3.7590 
  264.1250     2.5320    70.0100    10.5780     9.5190    16.7300    24.0880    -3.7040 
  264.2500     2.5140    70.0100    10.3360     9.1540    14.5610    24.2380    -3.8120 
  264.3750     2.4910    70.0100    10.1580     8.8360    10.9620    24.3740    -4.0230 
  264.5000     2.4770    70.0100    10.0810     8.6310     8.8170    24.4450    -4.1950 
  264.6250     2.4780    70.0100    10.1150     8.5610     7.9460    24.4570    -4.3410 
  264.7500     2.4950    70.0100    10.2410     8.6070     7.6600    24.4500    -4.5370 
  264.8750     2.5180    70.0100    10.4280     8.7320     7.5600    24.5500    -4.7470 
  265.0000     2.5340    70.0100    10.6220     8.8780     7.5010    24.6240    -4.9430 
  265.1250     2.5370    70.0100    10.7930     9.0160     7.4570    24.6260    -4.9800 
  265.2500     2.5260    70.0100    10.9240     9.1300     7.4950    24.5370    -4.7900 
  265.3750     2.5060    70.0100    11.0030     9.2170     7.8120    24.4040    -4.5650 
