~V
VERS. 2.00: Ver 2.00
~W
STRT.M 52.0000:
STOP.M 287.0000:
STEP.M 0.1250:
NULL. -999.2500:
UWI. F11078:
~C
DEPT.M :
GR.API :
RML.OHMM :
RI. :
RXO.OHMM :
CALI.CM :
DEN.GM/CC :
SP.MV :
~A
# ...
  243.2500    82.0650     6.8760     5.8120     6.9030    24.0580     2.5050   -10.6270 
  243.3750    86.5970     7.1930     5.9750     7.0470    24.0590     2.5040   -10.8620 
  243.5000    91.2970     7.5310     6.1870     7.2810    24.0560     2.4940   -11.1550 
  243.6250    91.7300     7.8310     6.4160     7.8080    24.0520     2.4760   -11.5090 
  243.7500    90.4850     8.0640     6.6250     8.3640    24.0460     2.4550   -11.8600 
  243.8750    90.7380     8.2360     6.7880     8.3860    24.0320     2.4370   -12.1200 
  244.0000    92.5380     8.3920     6.9120     8.1490    24.0290     2.4310   -12.3050 
  244.1250    92.5870     8.5850     7.0340     8.1650    24.0330     2.4310   -12.4810 
  244.2500    90.3670     8.8280     7.1750     8.3500    24.0430     2.4330   -12.6470 
  244.3750    85.6800     9.0950     7.3410     8.5960    24.0520     2.4300   -12.7920 
  244.5000    82.2220     9.3200     7.5110     8.6920    24.0560     2.4240   -12.9160 
  244.6250    84.4150     9.4650     7.6500     8.7760    24.0570     2.4180   -13.0570 
  244.7500    89.4400     9.5310     7.7380     9.0940    24.0580     2.4150   -13.2810 
  244.8750    90.8500     9.5450     7.7690     9.4090    24.0590     2.4160   -13.6260 
  245.0000    86.6700     9.5370     7.7430     8.9320    24.0720     2.4180   -14.0280 
  245.1250    83.9710     9.5150     7.6870     8.6030    24.0940     2.4170   -14.4110 
  245.2500    85.1860     9.4740     7.6160     8.4620    24.1130     2.4130   -14.7750 
  245.3750    85.7310     9.4180     7.5460     8.3650    24.1170     2.4060   -15.1200 
  245.5000    82.2580     9.3760     7.4970     8.2710    24.1050     2.3970   -15.4380 
  245.6250    78.9050     9.3710     7.4780     8.2210    24.0940     2.3910   -15.6840 
  245.7500    80.1860     9.3990     7.4890     8.1940    24.0940     2.3900   -15.7990 
  245.8750    83.5510     9.4300     7.5240     8.1590    24.0990     2.3960   -15.7430 
  246.0000    83.5880     9.4250     7.5760     8.2150    24.1120     2.4080   -15.5390 
  246.1250    81.7440     9.3810     7.6270     8.3120    24.1170     2.4200   -15.2920 
  246.2500    80.3580     9.3150     7.6570     8.3870    24.1210     2.4280   -15.0350 
  246.3750    80.1940     9.2470     7.6520     8.3740    24.1220     2.4330   -14.7720 
  246.5000    79.2180     9.1830     7.5950     8.3030    24.1180     2.4360   -14.4670 
  246.6250    77.1650     9.1110     7.4990     8.2350    24.0950     2.4410   -14.1120 
  246.7500    77.1680     9.0150     7.3780     8.1140    24.0410     2.4450   -13.7480 
  246.8750    80.2840     8.8830     7.2540     7.8730    23.9890     2.4470   -13.4210 
  247.0000    84.7080     8.7160     7.1540     7.7030    23.9340     2.4410   -13.1420 
  247.1250    88.5970     8.5470     7.0990     7.5790    23.8820     2.4310   -12.8730 
  247.2500    93.4910     8.4200     7.0980     7.5080    23.8300     2.4180   -12.6040 
  247.3750    98.4210     8.3740     7.1470     7.4990    23.8030     2.4060   -12.3380 
  247.5000    98.0820     8.4120     7.2200     7.6410    23.7760     2.3990   -12.1200 
  247.6250    94.9800     8.4440     7.2660     7.7740    23.7420     2.3950   -11.9450 
  247.7500    93.1420     8.3870     7.2490     7.8630    23.7590     2.3910   -11.8130 
  247.8750    92.5260     8.2060     7.1530     7.8710    23.8770     2.3870   -11.7270 
  248.0000    91.7290     7.9900     7.0080     7.6490    23.9600     2.3780   -11.6950 
  248.1250    91.4310     7.9370     6.9350     7.4420    23.9910     2.3640   -11.7400 
  248.2500    92.0450     8.2050     7.0530     7.2970    23.9940     2.3430   -11.8600 
  248.3750    92.9500     8.8580     7.4450     7.2680    23.9950     2.3190   -12.0450 
  248.5000    92.7230     9.8700     8.1800     7.6990    24.0150     2.3030   -12.2640 
  248.6250    90.9840    11.0010     9.1580     9.7380    24.0600     2.3030   -12.5430 
  248.7500    88.7500    12.0340    10.2370    14.1140    24.1040     2.3210   -12.8730 
  248.8750    87.3740    12.7610    11.1930    14.8410    24.1220     2.3490   -13.2340 
  249.0000    86.7860    13.0170    11.7360    12.4810    24.1230     2.3710   -13.6000 
  249.1250    84.2100    12.9940    11.9110    12.4860    24.1310     2.3810   -13.9060 
  249.2500    80.7060    12.9710    11.9390    13.8050    24.1480     2.3790   -14.1150 
  249.3750    79.6300    13.2540    12.1280    14.5150    24.1570     2.3700   -14.2360 
  249.5000    81.5170    14.1050    12.8310    13.5230    24.1450     2.3570   -14.2940 
  249.6250    81.8610    15.3060    14.0310    13.2100    24.1580     2.3430   -14.2710 
  249.7500    78.4580    16.4460    15.4690    16.3730    24.1520     2.3340   -14.1540 
  249.8750    73.4930    16.9850    16.5760    24.1110    24.0120     2.3320   -13.9500 
  250.0000    71.6250    16.3480    16.4420    26.3510    23.7140     2.3390   -13.6530 
  250.1250    73.7540    14.8010    15.0850    21.5760    23.4410     2.3490   -13.3150 
  250.2500    78.6350    12.8300    13.0470    16.3670    23.2880     2.3590   -12.9770 
  250.3750    83.3630    11.0020    11.0210    10.4360    23.2490     2.3680   -12.6610 
  250.5000    85.7530     9.8390     9.5720     8.3750    23.3120     2.3740   -12.3530 
  250.6250    86.0720     9.4090     8.7760     7.9970    23.4900     2.3770   -12.0790 
  250.7500    84.5740     9.7330     8.6460     8.4630    23.7540     2.3720   -11.8800 
  250.8750    81.9290    10.9120     9.2210     9.1030    23.9730     2.3570   -11.7830 
  251.0000    80.3640    13.6000    10.8590    10.7160    24.0580     2.3380   -11.8500 
  251.1250    79.2110    18.0310    13.8550    15.9590    24.0920     2.3230   -12.0850 
  251.2500    75.5560    24.3050    18.7080    24.9510    24.1080     2.3140   -12.4930 
  251.3750    70.0510    32.2310    25.7750    30.7370    24.1020     2.3050   -13.0350 
  251.5000    66.1390    41.3440    35.0650    34.7040    24.1000     2.2850   -13.6450 
  251.6250    64.2760    50.2780    44.7770    52.8310    24.1520     2.2540   -14.2550 
  251.7500    64.2620    57.8190    53.0410    78.5000    24.2110     2.2210   -14.8090 
  251.8750    65.7040    63.4340    58.8170    73.6350    24.2210     2.1970   -15.2820 
  252.0000    65.5470    67.5040    62.3670    54.9810    24.2010     2.1870   -15.6480 
  252.1250    62.4800    71.3630    65.3220    53.9520    24.1910     2.1850   -15.8740 
  252.2500    58.7820    75.6320    68.5290    64.4900    24.1850     2.1860   -15.9550 
  252.3750    58.1560    80.2800    72.2970    75.9830    24.1780     2.1890   -15.8920 
  252.5000    61.3420    84.5920    76.1800    78.2090    24.1660     2.1970   -15.7400 
  252.6250    64.8740    87.9280    79.2300    76.5880    24.1380     2.2110   -15.5840 
  252.7500    66.4220    90.2230    81.1440    76.5540    24.0000     2.2300   -15.5080 
  252.8750    66.1060    91.9370    82.4810    75.8380    23.7300     2.2460   -15.5190 
  253.0000    65.2740    93.5880    84.1220    76.7930    23.4970     2.2510   -15.5690 
  253.1250    65.0900    95.0910    86.0860    76.5440    23.3590     2.2420   -15.6770 
  253.2500    65.4630    95.9030    87.7440    72.6920    23.2280     2.2220   -15.8050 
  253.3750    65.5700    95.5640    88.4110    77.5880    23.1430     2.2010   -15.9230 
  253.5000    64.0790    94.0020    87.6490    83.6140    23.1100     2.1880   -16.0590 
  253.6250    64.3260    92.1170    86.1770    76.5990    23.0220     2.1830   -16.1940 
  253.7500    67.2700    90.6920    84.8210    67.1810    22.8600     2.1860   -16.2880 
  253.8750    68.6750    90.2020    84.2310    66.2490    22.6980     2.1900   -16.3340 
  254.0000    66.1220    90.6750    84.6220    71.8170    22.6050     2.1910   -16.3060 
  254.1250    64.4620    91.4240    85.3850    77.3350    22.5060     2.1890   -16.1630 
  254.2500    65.6850    92.0170    86.0830    82.1180    22.3910     2.1860   -15.9730 
  254.3750    68.4540    92.4020    86.5940    85.3410    22.2860     2.1850   -15.8300 
