~V
VERS. 2.00: Ver 2.00
~W
STRT.M 59.0000:
STOP.M 230.0000:
STEP.M 0.1250:
NULL. -999.2500:
UWI. F11001:
~C
DEPT.M :
GR.API :
RML.OHMM :
RI. :
RXO.OHMM :
CALI.CM :
SP.MV :
DEN.GM/CC :
~A
# ...
   92.7500    75.9480    11.4380     8.1180    11.2790    25.3100   -20.4190     2.1520 
   92.8750    72.7210    11.4410     8.1180    10.8540    25.4510   -20.5600     2.1390 
   93.0000    74.5900    11.3180     8.0270    10.1380    25.4110   -20.7940     2.1370 
   93.1250    76.4940    11.1380     7.8830     9.4010    25.2630   -21.1050     2.1450 
   93.2500    72.7220    11.0070     7.7610     9.3890    25.1260   -21.3740     2.1600 
   93.3750    69.0090    10.9880     7.7150     9.8950    25.0020   -21.6100     2.1770 
   93.5000    69.3880    11.0900     7.7590    10.2020    24.7980   -21.9500     2.1900 
   93.6250    71.3420    11.2730     7.8730     9.9800    24.6840   -22.5900     2.1910 
   93.7500    69.9250    11.4560     8.0120    10.1470    24.9310   -23.6390     2.1770 
   93.8750    67.7560    11.5580     8.1110    11.0310    25.3000   -24.8950     2.1590 
   94.0000    68.6750    11.5420     8.1380    11.7980    25.4090   -26.1310     2.1470 
   94.1250    71.1360    11.4250     8.0980    12.0190    25.2770   -27.1800     2.1490 
   94.2500    70.8320    11.2790     8.0390    11.7710    25.1140   -27.9910     2.1590 
   94.3750    69.7940    11.1980     8.0290    11.6040    25.0870   -28.5690     2.1660 
   94.5000    70.3750    11.2240     8.0990    11.4220    25.0160   -28.8440     2.1610 
   94.6250    70.3800    11.3370     8.2430    11.0050    24.5950   -28.7380     2.1440 
   94.7500    66.3990    11.4470     8.4070    10.8670    24.0400   -28.2140     2.1190 
   94.8750    63.6400    11.4600     8.5120    10.8110    23.8170   -27.4570     2.0960 
   95.0000    64.5020    11.3370     8.5190    10.8630    23.9330   -26.5850     2.0830 
   95.1250    65.9190    11.0890     8.4320    11.0380    24.0570   -25.6480     2.0820 
   95.2500    64.8850    10.7410     8.2680    11.2140    24.0390   -24.5480     2.0930 
   95.3750    64.1720    10.3310     8.0510    10.9370    23.9580   -23.2070     2.1100 
   95.5000    68.0500     9.8680     7.7860    10.0530    23.8610   -21.5790     2.1300 
   95.6250    76.9410     9.3740     7.4830     9.0090    23.8080   -19.7440     2.1490 
   95.7500    85.0090     8.9170     7.1780     8.1170    23.8180   -17.8430     2.1670 
   95.8750    87.7580     8.5740     6.9280     7.0830    23.9140   -15.9810     2.1820 
   96.0000    88.2950     8.3860     6.7700     6.4190    24.1550   -14.1790     2.1920 
   96.1250    90.1430     8.3370     6.7060     6.3790    24.5470   -12.3570     2.2000 
   96.2500    92.2390     8.3380     6.6930     6.7680    24.8860   -10.4660     2.2070 
   96.3750    96.1540     8.2570     6.6390     6.7120    25.0340    -8.6530     2.2180 
   96.5000   103.1260     8.0170     6.4850     6.2200    25.0230    -7.0540     2.2330 
   96.6250   108.8880     7.6140     6.2180     5.6040    24.9860    -5.6880     2.2490 
   96.7500   108.8950     7.1230     5.8810     5.3950    24.9840    -4.5140     2.2600 
   96.8750   107.3720     6.7070     5.5820     5.2930    24.9830    -3.4050     2.2660 
   97.0000   107.0780     6.5030     5.4240     5.2650    24.9410    -2.3760     2.2680 
   97.1250   106.2790     6.6060     5.4910     5.3000    24.9350    -1.5640     2.2790 
   97.2500   103.2070     7.0680     5.8560     5.5170    24.9150    -1.1190     2.3130 
   97.3750    99.4830     7.7080     6.4140     6.4140    24.8680    -0.9120     2.3640 
   97.5000    95.0650     8.3110     7.0160     8.4120    24.8120    -0.8830     2.4120 
   97.6250    90.7140     8.6440     7.4430    11.1590    24.7860    -0.9590     2.4370 
   97.7500    91.3340     8.5060     7.4410     9.7840    24.7930    -1.0920     2.4240 
   97.8750    97.1170     8.0540     7.1130     6.8790    24.8080    -1.2700     2.3900 
   98.0000   105.0380     7.5180     6.6660     5.8890    24.8130    -1.4290     2.3520 
   98.1250   110.0400     7.1230     6.3040     5.9290    24.8240    -1.5220     2.3220 
   98.2500   108.3620     7.0380     6.1910     5.7030    24.8430    -1.6060     2.3000 
   98.3750   102.7500     7.1720     6.2910     5.6740    24.8810    -1.7540     2.2790 
   98.5000    95.8570     7.3950     6.5150     5.8960    24.9110    -1.9260     2.2610 
   98.6250    91.4370     7.5710     6.7370     6.1220    24.8690    -2.0970     2.2520 
   98.7500    92.5510     7.6020     6.8450     6.2980    24.7500    -2.1990     2.2590 
   98.8750    97.3000     7.5280     6.8440     6.2030    24.7220    -2.1970     2.2730 
   99.0000   103.3530     7.4240     6.7840     5.9020    24.7800    -2.2110     2.2850 
   99.1250   106.9960     7.3820     6.7400     5.6000    24.8140    -2.3630     2.2870 
   99.2500   106.7680     7.5040     6.7990     5.7000    24.7700    -2.7760     2.2770 
   99.3750   103.9040     7.7880     6.9700     6.0810    24.6910    -3.3660     2.2650 
   99.5000    98.5970     8.1820     7.2270     6.6650    24.6420    -4.0560     2.2570 
   99.6250    92.2540     8.5810     7.5050     7.1130    24.6100    -4.7910     2.2520 
   99.7500    88.5810     8.7930     7.6650     7.1960    24.5540    -5.5420     2.2470 
   99.8750    88.7600     8.7280     7.6060     7.1710    24.5080    -6.2660     2.2360 
  100.0000    90.1170     8.4190     7.3300     7.3930    24.5180    -6.8160     2.2240 
  100.1250    91.2710     8.0710     6.9920     7.6040    24.5760    -7.0080     2.2190 
  100.2500    93.5550     8.1350     6.9220     7.3090    24.6640    -6.6560     2.2400 
  100.3750    96.9180     9.0550     7.3920     6.8900    24.7540    -5.9840     2.2950 
  100.5000    97.5060    11.2140     8.6550     8.0240    24.8720    -5.1790     2.3850 
  100.6250    92.5360    14.6170    10.9190    13.0540    25.0250    -4.4260     2.4930 
  100.7500    84.2020    18.5890    14.2540    25.7020    25.1010    -3.9540     2.5810 
  100.8750    77.7430    21.7040    17.6210    34.8320    24.9110    -3.8370     2.6170 
  101.0000    76.2590    22.8980    19.5550    31.0910    24.6500    -4.1310     2.5840 
  101.1250    78.5600    21.8770    19.1470    21.2030    24.3460    -4.8700     2.4860 
  101.2500    80.6540    19.2530    16.9410    14.9480    24.1000    -6.0690     2.3450 
  101.3750    81.2240    16.5970    14.6380    12.2580    24.0000    -7.5140     2.2050 
  101.5000    80.6970    14.6940    12.9270    11.7690    24.0340    -9.0940     2.0920 
  101.6250    79.3030    13.7770    11.9820    12.1460    24.1800   -10.6470     2.0180 
  101.7500    78.7410    13.8480    11.8580    12.4130    24.2860   -12.0300     1.9910 
  101.8750    79.9110    14.4940    12.2960    15.6770    24.2810   -13.1990     1.9950 
  102.0000    81.4360    15.4420    13.1190    20.0500    24.3020   -14.1350     2.0200 
  102.1250    80.4790    16.4170    14.1070    21.9000    24.4570   -14.8810     2.0540 
  102.2500    77.2380    17.1230    14.9750    18.7100    24.6650   -15.4330     2.0840 
  102.3750    75.1970    17.4780    15.5490    15.4020    24.8650   -15.7880     2.1020 
  102.5000    75.0480    17.5450    15.8190    13.6440    24.9760   -15.9500     2.1100 
  102.6250    75.8980    17.4990    15.9200    12.8370    24.9900   -16.0170     2.1160 
  102.7500    76.2920    17.5880    16.0790    11.8090    24.9020   -16.0680     2.1280 
  102.8750    75.2850    17.9440    16.4360    11.4250    24.7950   -16.1400     2.1430 
  103.0000    73.3100    18.5930    17.0320    11.6500    24.6800   -16.2360     2.1540 
  103.1250    71.7370    19.4790    17.8380    12.7120    24.5070   -16.3940     2.1540 
  103.2500    72.0540    20.4600    18.7440    13.4940    24.3600   -16.6490     2.1340 
  103.3750    72.7460    21.3180    19.5380    13.7070    24.3120   -17.0080     2.1010 
  103.5000    72.1560    21.8890    20.0460    13.9000    24.2780   -17.4620     2.0640 
  103.6250    70.6990    22.0590    20.1580    14.6100    24.3640   -17.9260     2.0380 
  103.7500    70.7850    21.7130    19.7810    15.2430    24.5250   -18.2920     2.0370 
  103.8750    71.9850    20.9460    19.0410    15.5490    24.5760   -18.5500     2.0550 
