~V
VERS. 2.00: Ver 2.00
~W
STRT.M 60.0000:
STOP.M 273.0000:
STEP.M 0.1250:
NULL. -999.2500:
UWI. F11028:
~C
DEPT.M :
DEN.GM/CC :
GR.API :
RML.OHMM :
RI. :
RXO.OHMM :
CALI.CM :
SP.MV :
~A
# ...
   71.2500     2.1690    65.7300     7.6760     6.7500    10.2990    25.3480   -35.1590 
   71.3750     2.1690    65.8050     7.6260     6.7150    10.4030    25.4470   -34.8830 
   71.5000     2.1680    67.2520     7.6070     6.7100    10.5080    25.5190   -34.5640 
   71.6250     2.1640    66.8810     7.5900     6.7260    10.6150    25.6330   -34.2070 
   71.7500     2.1570    66.4470     7.5650     6.7560    10.7510    25.9750   -33.8130 
   71.8750     2.1470    68.0150     7.5500     6.8010    10.9250    26.5290   -33.4010 
   72.0000     2.1350    69.2460     7.5710     6.8700    10.9740    27.1930   -32.9470 
   72.1250     2.1220    65.7390     7.6740     6.9770    10.8480    27.8710   -32.4360 
   72.2500     2.1120    61.0250     7.8560     7.1170    10.5130    28.2250   -31.8940 
   72.3750     2.1030    58.8260     8.0860     7.2740     9.9720    28.0730   -31.2420 
   72.5000     2.0930    58.4310     8.2810     7.4050     9.4930    27.0280   -30.5420 
   72.6250     2.0760    59.8700     8.2720     7.4060     9.6890    26.1530   -29.7790 
   72.7500     2.0500    62.5430     7.9770     7.2060    10.0310    26.4550   -28.9030 
   72.8750     2.0190    65.8030     7.3960     6.7770     9.7780    27.4830   -27.9490 
   73.0000     1.9990    71.2590     6.6580     6.1810     8.7660    28.0280   -26.9160 
   73.1250     2.0120    77.7750     6.0760     5.6120     7.2800    26.3120   -25.9250 
   73.2500     2.0640    83.8970     5.9450     5.3010     6.1550    23.9810   -24.9850 
   73.3750     2.1500    89.1590     6.4960     5.4380     5.8340    22.8680   -24.1640 
   73.5000     2.2580    94.7670     7.8880     6.1810     6.4360    22.6210   -23.5170 
   73.6250     2.3610    95.6880    10.2580     7.7780     9.6080    22.6300   -23.0680 
   73.7500     2.4410    91.1950    13.0570    10.0240    18.2690    22.5760   -22.8580 
   73.8750     2.4900    87.4730    15.3600    12.3710    29.8880    22.4610   -22.8760 
   74.0000     2.5040    87.8480    15.9620    13.7490    32.0060    22.2500   -23.1380 
   74.1250     2.4750    88.3240    14.1370    13.0740    20.9400    22.5070   -23.5820 
   74.2500     2.4140    86.1280    11.4310    11.2550    13.5720    23.3680   -24.0810 
   74.3750     2.3390    81.0680     9.0870     9.3120    10.8740    24.2920   -24.5850 
   74.5000     2.2710    73.4290     7.6070     7.8080    10.1650    24.9640   -24.9570 
   74.6250     2.2230    66.7140     7.0220     6.9580     9.7490    25.6370   -25.1600 
   74.7500     2.1930    66.5920     6.9270     6.5910     9.2510    26.4040   -25.1920 
   74.8750     2.1720    70.9010     7.0920     6.5970     8.8590    27.2400   -25.0640 
   75.0000     2.1540    72.8710     7.3380     6.8470     8.8250    28.2340   -24.7740 
   75.1250     2.1340    69.8440     7.5480     7.2070     9.5000    28.7580   -24.2280 
   75.2500     2.1170    67.6340     7.6660     7.5180    10.2570    28.7610   -23.5560 
   75.3750     2.1090    68.3290     7.6330     7.6600    10.0230    28.8100   -22.7340 
   75.5000     2.1190    71.5390     7.4010     7.5510     8.3190    27.9730   -21.8510 
   75.6250     2.1520    78.5000     6.9540     7.1630     6.7870    26.1370   -20.9820 
   75.7500     2.2000    88.0910     6.4130     6.6330     6.4240    24.8540   -20.1450 
   75.8750     2.2510    99.1140     5.8670     6.0560     6.6720    23.9830   -19.3480 
   76.0000     2.2920   108.6000     5.3740     5.4950     6.2200    23.7340   -18.5910 
   76.1250     2.3110   112.7540     4.9630     4.9890     5.3010    23.6860   -18.0450 
   76.2500     2.3150   111.3870     4.6340     4.5500     4.8520    23.6840   -17.6570 
   76.3750     2.3130   106.3220     4.4570     4.2340     4.7660    23.9830   -17.4940 
   76.5000     2.3130   100.8570     4.5730     4.1530     4.8500    24.5330   -17.5780 
   76.6250     2.3250    97.2480     5.2780     4.5360     5.1020    25.2130   -17.8660 
   76.7500     2.3520    94.6710     6.6850     5.4770     6.1100    24.9730   -18.3720 
   76.8750     2.3920    89.7460     8.8320     7.0720     9.3060    24.7320   -19.0690 
   77.0000     2.4360    82.2250    11.4440     9.2490    19.3040    24.4810   -19.9580 
   77.1250     2.4640    77.4670    13.4780    11.3450    31.7390    24.3960   -21.0170 
   77.2500     2.4570    75.7450    13.8350    12.2350    36.1460    24.4330   -22.1680 
   77.3750     2.4110    72.7190    12.4290    11.5410    24.9320    24.7260   -23.3960 
   77.5000     2.3400    66.5780    10.2930     9.9540    14.3050    25.1390   -24.5970 
   77.6250     2.2670    62.7440     8.6610     8.4740    10.1420    25.4540   -25.7660 
   77.7500     2.2070    62.8670     7.8060     7.5000     9.3790    25.9190   -26.8280 
   77.8750     2.1680    63.8580     7.5690     7.0300     9.8720    26.3700   -27.7800 
   78.0000     2.1460    63.4990     7.7150     6.9480    10.1080    26.2260   -28.6070 
   78.1250     2.1390    61.4830     8.0360     7.1260     9.7790    25.8160   -29.2210 
   78.2500     2.1380    59.0010     8.3460     7.3680     9.4610    25.4080   -29.7520 
   78.3750     2.1410    57.2160     8.5800     7.5790     9.4660    25.1340   -30.1770 
   78.5000     2.1440    57.6430     8.7280     7.7200     9.7700    25.0630   -30.5720 
   78.6250     2.1470    60.5870     8.7950     7.7790    10.2070    25.0170   -30.9190 
   78.7500     2.1510    64.0720     8.8000     7.7710    10.5100    24.8920   -31.2560 
   78.8750     2.1570    66.7960     8.7370     7.6990    10.5670    24.7810   -31.5750 
   79.0000     2.1650    66.7030     8.6190     7.5690    10.5080    24.6520   -31.8850 
   79.1250     2.1730    64.3190     8.4940     7.4110    10.3960    24.4900   -32.2910 
   79.2500     2.1800    63.6050     8.4200     7.2750    10.4130    24.2820   -32.7090 
   79.3750     2.1840    62.9550     8.4170     7.1970    10.5570    24.1470   -33.1770 
   79.5000     2.1840    60.5520     8.4740     7.1910    10.7550    24.0860   -33.6610 
   79.6250     2.1830    60.2570     8.5710     7.2520    10.9870    24.1140   -34.1510 
   79.7500     2.1840    64.0540     8.6830     7.3400    11.2180    24.2610   -34.6220 
   79.8750     2.1870    66.0920     8.7970     7.4250    11.4800    24.4860   -35.0520 
   80.0000     2.1920    61.9650     8.8970     7.4830    11.8550    24.6800   -35.4610 
   80.1250     2.1940    58.4420     8.9540     7.4990    12.2180    24.8180   -35.7450 
   80.2500     2.1910    60.3950     8.9720     7.4890    12.2390    24.8890   -35.9530 
   80.3750     2.1820    63.5770     8.9710     7.4690    12.3600    25.0600   -36.0500 
   80.5000     2.1720    63.5120     8.9770     7.4510    12.6650    25.1050   -36.0590 
   80.6250     2.1660    61.1950     8.9910     7.4340    12.8870    25.0080   -36.0110 
   80.7500     2.1640    60.0950     8.9890     7.4130    12.9640    24.8000   -35.8860 
   80.8750     2.1640    59.4690     8.9500     7.3810    12.9260    24.6990   -35.7470 
   81.0000     2.1650    58.4020     8.8810     7.3440    12.8370    24.7810   -35.5470 
   81.1250     2.1630    58.4050     8.8230     7.3280    12.6250    25.1870   -35.3000 
   81.2500     2.1590    59.5280     8.8170     7.3510    12.3740    25.6480   -34.9790 
   81.3750     2.1520    61.5890     8.8700     7.4060    12.3110    26.0060   -34.5810 
   81.5000     2.1430    63.6330     8.9570     7.4630    12.4520    26.1410   -34.0580 
   81.6250     2.1320    63.2700     8.9990     7.4660    12.5160    26.0750   -33.3800 
   81.7500     2.1200    61.4930     8.9130     7.3740    12.0920    25.9430   -32.5840 
   81.8750     2.1110    59.4410     8.6490     7.1610    11.0610    25.7390   -31.6040 
   82.0000     2.1080    58.7580     8.2190     6.8370     9.8420    25.5350   -30.5180 
   82.1250     2.1150    60.8710     7.6960     6.4440     9.1520    25.2400   -29.3210 
   82.2500     2.1310    65.2180     7.2040     6.0640     8.5400    24.5930   -28.1100 
   82.3750     2.1550    69.0360     6.8310     5.7520     7.6590    23.8480   -26.9440 
