~V
VERS. 2.00: Ver 2.00
~W
STRT.M 57.0000:
STOP.M 226.0000:
STEP.M 0.1250:
NULL. -999.2500:
UWI. F11011:
~C
DEPT.M :
GR.API :
RML.OHMM :
RI. :
RXO.OHMM :
CALI.CM :
SP.MV :
DEN.GM/CC :
~A
# ...
  192.0000    64.7250   103.6590    99.4480    89.7410    25.2080   -19.7480     2.2070 
  192.1250    63.8000    99.3550    95.1340    79.3510    25.2370   -19.7470     2.2120 
  192.2500    63.9230    98.4850    94.3820    84.9120    25.2500   -19.6590     2.2120 
  192.3750    64.3520   100.5610    96.7510    93.3480    25.2730   -19.5370     2.2100 
  192.5000    65.4780   104.6270   101.3260   101.8920    25.3450   -19.3530     2.2070 
  192.6250    66.6160   109.4930   106.9740   106.2330    25.4720   -19.1400     2.2060 
  192.7500    67.5150   113.7720   112.2490   110.5380    25.5650   -18.9840     2.2060 
  192.8750    67.7230   116.5650   116.2050   116.3190    25.5730   -18.8810     2.2080 
  193.0000    66.7650   117.2750   118.1850   119.4670    25.5050   -18.8390     2.2090 
  193.1250    66.5690   115.1380   117.4070   120.5330    25.4480   -18.7970     2.2070 
  193.2500    68.8540   110.2520   114.0070   124.2940    25.4280   -18.7860     2.2020 
  193.3750    71.3440   103.1760   107.6510   118.7940    25.4490   -18.8480     2.1960 
  193.5000    70.3720    94.8270    98.2360   104.9620    25.5100   -18.9040     2.1940 
  193.6250    67.1570    85.3700    86.4810    93.7830    25.5080   -18.8850     2.2060 
  193.7500    66.3590    75.2130    74.8300    88.9810    25.4400   -18.8020     2.2270 
  193.8750    68.6910    65.7510    65.0920    72.8030    25.3590   -18.6660     2.2420 
  194.0000    71.6610    58.9110    58.3760    48.0200    25.3080   -18.5020     2.2350 
  194.1250    73.0370    56.0560    55.5600    39.2450    25.2520   -18.5290     2.1970 
  194.2500    74.2690    56.0560    55.7210    45.1850    25.2150   -18.7030     2.1510 
  194.3750    76.2050    58.2330    58.2150    51.1820    25.1900   -18.8680     2.1230 
  194.5000    78.0090    61.6700    62.2140    47.1470    25.0680   -19.0300     2.1270 
  194.6250    76.5950    65.1560    66.4850    42.0420    24.7480   -19.2290     2.1580 
  194.7500    73.0360    67.5870    69.6180    46.1250    24.6240   -19.4290     2.1910 
  194.8750    69.3000    68.4610    70.8940    58.6090    24.7860   -19.6080     2.2120 
  195.0000    68.3770    67.8650    70.3780    69.4060    25.1530   -19.7680     2.2200 
  195.1250    72.9780    66.3840    68.6700    66.5100    25.5060   -19.8270     2.2210 
  195.2500    76.9170    65.1250    66.9520    58.1840    25.6830   -19.7650     2.2200 
  195.3750    76.0240    64.8220    66.0830    52.4140    25.7270   -19.6770     2.2150 
  195.5000    72.5620    65.7920    66.5460    52.8900    25.7880   -19.6560     2.2070 
  195.6250    71.1270    67.7810    68.1650    60.3360    25.8220   -19.6690     2.2000 
  195.7500    69.9080    69.6800    69.7220    72.1640    25.7610   -19.7480     2.2010 
  195.8750    68.0730    70.6740    70.2830    77.5260    25.6160   -19.9560     2.2100 
  196.0000    69.2350    70.4910    69.4950    71.7130    25.4930   -20.1830     2.2230 
  196.1250    73.9620    69.6950    67.8680    60.8150    25.4690   -20.3990     2.2320 
  196.2500    76.0250    69.6560    66.8870    51.9210    25.5900   -20.7370     2.2340 
  196.3750    73.2090    71.4380    67.7270    50.2990    25.6440   -21.1790     2.2310 
  196.5000    69.0650    75.8210    71.0500    54.3220    25.5550   -21.6270     2.2280 
  196.6250    67.1680    82.8150    77.2560    65.6110    25.3470   -22.0540     2.2280 
  196.7500    66.0540    90.1900    85.2240    83.9580    25.2030   -22.4710     2.2310 
  196.8750    65.0010    96.8550    93.7840   100.7330    25.0510   -22.9220     2.2310 
  197.0000    64.3160   102.9910   101.6070   107.1500    24.7850   -23.4730     2.2210 
  197.1250    64.6710   108.7070   107.3710   102.9590    24.5110   -24.0280     2.1980 
  197.2500    64.8900   113.1610   111.1050   107.1030    24.4700   -24.4980     2.1730 
  197.3750    65.3840   115.7750   113.0780   104.4710    24.8450   -24.8980     2.1550 
  197.5000    68.2500   117.2070   113.9240    97.4910    25.4290   -25.2590     2.1500 
  197.6250    71.6300   118.4940   114.6850    98.5890    25.9870   -25.4470     2.1550 
  197.7500    71.2930   120.5280   116.3300   104.0380    26.3070   -25.4370     2.1600 
  197.8750    68.1930   123.6180   119.2560   106.8430    26.3320   -25.2490     2.1610 
  198.0000    66.7880   127.4490   123.2470   107.2990    26.1300   -24.9100     2.1630 
  198.1250    68.0620   130.7500   127.1240   115.5290    25.7730   -24.4420     2.1730 
  198.2500    68.7420   132.0000   129.1560   130.8880    25.5400   -23.8480     2.1910 
  198.3750    67.6770   130.2910   128.1080   148.4310    25.4290   -23.1960     2.2090 
  198.5000    65.7040   125.8620   123.9000   141.6630    25.5610   -22.5500     2.2180 
  198.6250    64.4900   120.2130   117.9560   120.6430    25.6570   -21.9710     2.2180 
  198.7500    63.9450   115.5380   112.7730   107.6620    25.7740   -21.4790     2.2140 
  198.8750    63.2590   112.9180   109.5260    95.9460    25.8450   -21.0550     2.2140 
  199.0000    61.4440   112.5590   108.4140    88.8990    25.8850   -20.6640     2.2160 
  199.1250    61.3460   114.2660   109.3280   102.8250    25.9460   -20.2890     2.2230 
  199.2500    65.0060   117.0870   111.4180   132.8740    25.9470   -19.9920     2.2370 
  199.3750    68.4410   120.6590   114.2920   135.2920    25.9140   -19.7450     2.2570 
  199.5000    68.7820   124.8500   117.9260    98.8720    25.7810   -19.4710     2.2770 
  199.6250    65.5940   129.3970   122.4900    69.1750    25.4380   -19.2410     2.2800 
  199.7500    60.8820   133.3580   127.0050    67.4610    25.0320   -19.0530     2.2700 
  199.8750    57.0320   135.6850   130.1520    99.8790    24.8300   -18.8900     2.2680 
  200.0000    55.8490   135.7220   131.0730   111.3340    24.7670   -18.7330     2.3000 
  200.1250    57.5460   133.0630   129.4770   113.1260    24.6340   -18.6360     2.3840 
  200.2500    58.7930   127.8690   125.9880   113.4610    24.4200   -18.5720     2.4910 
  200.3750    59.0280   118.8170   119.6960   102.7160    24.2360   -18.4680     2.5860 
  200.5000    58.5650   104.1350   107.7620   107.0510    24.0510   -18.3110     2.6390 
  200.6250    58.2780    83.0780    86.4620   119.0910    23.9550   -18.0540     2.6290 
  200.7500    61.4750    60.2500    61.2460   116.8580    23.9490   -17.6950     2.5770 
  200.8750    67.5950    39.9490    39.1700    90.2150    24.0580   -17.2660     2.5050 
  201.0000    69.9870    24.7910    23.8960    55.3300    24.1930   -16.8610     2.4390 
  201.1250    64.7080    15.7900    15.6450    26.4570    24.2520   -16.5120     2.3980 
  201.2500    59.0100    10.7120    11.1490    12.6970    24.3770   -16.1460     2.3820 
  201.3750    57.1480     8.1950     8.8530     7.8840    24.5160   -15.8150     2.3780 
  201.5000    58.1750     7.1540     7.8260     6.9120    24.5620   -15.5950     2.3750 
  201.6250    60.5570     6.9760     7.6580     7.1460    24.4890   -15.5110     2.3730 
  201.7500    63.8550     7.1390     7.8950     8.2120    24.4150   -15.4930     2.3730 
  201.8750    68.2950     7.4080     8.2830     9.0430    24.4080   -15.4500     2.3800 
  202.0000    70.7070     7.6380     8.6230     8.3300    24.4280   -15.3120     2.3940 
  202.1250    69.3150     7.7490     8.7840     7.7460    24.4340   -15.1390     2.4090 
  202.2500    66.2700     7.7600     8.7990     7.0750    24.3920   -15.0050     2.4210 
  202.3750    64.9090     7.6910     8.7100     7.0010    24.3760   -14.8720     2.4280 
  202.5000    65.1390     7.5570     8.5400     7.7820    24.4440   -14.7380     2.4260 
  202.6250    65.1800     7.3810     8.2940     8.6440    24.5270   -14.6840     2.4150 
  202.7500    66.1870     7.2280     8.0250     7.4670    24.5800   -14.7520     2.4040 
  202.8750    68.3850     7.1640     7.8070     6.6630    24.6910   -14.9630     2.3990 
  203.0000    71.4400     7.2420     7.7130     7.0410    24.8800   -15.3520     2.4050 
  203.1250    78.2780     7.5010     7.8100     7.6910    24.9200   -15.8710     2.4220 
