~V
VERS. 2.00: Ver 2.00
~W
STRT.M 63.0000:
STOP.M 273.0000:
STEP.M 0.1250:
NULL. -999.2500:
UWI. F11030:
~C
DEPT.M :
DEN.GM/CC :
GR.API :
RML.OHMM :
RI. :
RXO.OHMM :
CALI.CM :
SP.MV :
~A
# ...
   85.5000     2.1650    62.4830     8.3570     6.4960     8.3160    23.6360   -28.6270 
   85.6250     2.1710    61.5370     8.2610     6.5080     8.3680    23.5820   -28.5060 
   85.7500     2.1730    58.3240     8.1520     6.5000     8.3680    23.5030   -28.1080 
   85.8750     2.1710    57.1270     8.0660     6.4850     8.1770    23.3440   -27.4910 
   86.0000     2.1680    59.9710     8.0380     6.4900     8.0130    23.1820   -26.6980 
   86.1250     2.1680    64.8270     8.0920     6.5490     7.9680    23.0890   -25.6120 
   86.2500     2.1710    67.8880     8.1820     6.6470     7.9980    23.0350   -24.3290 
   86.3750     2.1770    69.9620     8.2250     6.7340     7.9750    22.9900   -22.8920 
   86.5000     2.1840    72.8740     8.1050     6.7180     7.8950    22.9490   -21.2090 
   86.6250     2.1990    78.4060     7.6670     6.4520     7.8790    22.9260   -19.2170 
   86.7500     2.2240    85.0100     6.9490     5.9390     7.4470    23.0000   -17.0780 
   86.8750     2.2610    92.9090     6.0730     5.2570     6.4940    23.2420   -14.8990 
   87.0000     2.3020   102.1800     5.2420     4.5560     5.4000    23.6260   -12.7730 
   87.1250     2.3350   107.8420     4.7300     4.0430     4.4620    24.0420   -10.8240 
   87.2500     2.3520   108.6440     4.6260     3.8100     3.8480    24.4270    -9.1580 
   87.3750     2.3550   107.4510     4.9270     3.8870     3.8690    24.7340    -7.9350 
   87.5000     2.3490   107.0840     5.5220     4.2350     4.4080    24.9350    -7.1850 
   87.6250     2.3480   106.9300     6.1980     4.7570     5.5410    24.9370    -6.9470 
   87.7500     2.3530   104.5940     6.6890     5.2330     6.8540    24.7720    -7.0620 
   87.8750     2.3630   101.3500     6.8520     5.4980     7.3210    24.4990    -7.2670 
   88.0000     2.3710    98.7710     6.6920     5.4940     6.4530    24.2620    -7.4050 
   88.1250     2.3700    98.5640     6.3530     5.2710     5.7130    24.0820    -7.6210 
   88.2500     2.3630    98.7020     6.1040     5.0160     5.9810    23.9220    -7.8400 
   88.3750     2.3520    96.8000     6.1330     4.8830     6.1230    23.8410    -7.8200 
   88.5000     2.3490    94.6910     6.5690     5.0110     5.9510    23.8820    -7.6710 
   88.6250     2.3660    95.4720     7.5230     5.5520     5.8250    23.9760    -7.6890 
   88.7500     2.4040    96.5300     8.8040     6.4350     6.7470    24.1070    -8.0070 
   88.8750     2.4490    94.5610    10.1390     7.5280     9.7600    24.2430    -8.7680 
   89.0000     2.4770    89.5370    11.1440     8.5410    16.8150    24.2420    -9.9730 
   89.1250     2.4560    82.1850    11.3630     8.9980    14.8610    24.0530   -11.3000 
   89.2500     2.3950    74.6290    10.8940     8.8450    11.4380    23.9060   -12.5870 
   89.3750     2.3140    71.1020    10.0320     8.3020     9.6900    23.7660   -13.8840 
   89.5000     2.2420    72.1960     9.1430     7.6740     9.2590    23.6090   -15.0290 
   89.6250     2.2010    72.1810     8.5010     7.1940     8.8600    23.3980   -15.5960 
   89.7500     2.1900    71.7580     8.0730     6.8670     8.4610    23.1860   -15.4840 
   89.8750     2.2040    76.4970     7.7540     6.6100     7.9470    23.1160   -14.7540 
   90.0000     2.2360    85.4440     7.4670     6.3440     7.0070    23.2490   -13.5120 
   90.1250     2.2760    91.0790     7.2280     6.0810     5.8350    23.5590   -11.9830 
   90.2500     2.3110    92.5440     7.0960     5.8980     5.3620    23.7820   -10.5250 
   90.3750     2.3310    92.3290     7.1050     5.8490     5.2910    23.7500    -9.2610 
   90.5000     2.3330    92.1170     7.2310     5.9380     5.4460    23.5760    -8.1830 
   90.6250     2.3200    89.6630     7.3810     6.1110     5.9330    23.4370    -7.4630 
   90.7500     2.3040    85.2460     7.4420     6.2550     6.6230    23.4220    -7.1120 
   90.8750     2.2920    81.4170     7.3600     6.2960     7.0300    23.5720    -6.9850 
   91.0000     2.2870    81.2450     7.1550     6.2120     6.8270    23.9030    -7.0520 
   91.1250     2.2850    87.6770     6.9200     6.0460     6.1980    24.2330    -7.2220 
   91.2500     2.2830    95.0230     6.7650     5.8960     5.6420    24.4150    -7.2720 
   91.3750     2.2800    97.5620     6.7370     5.8180     5.4300    24.4470    -7.1470 
   91.5000     2.2780    93.8530     6.8130     5.8240     5.5350    24.4040    -6.8990 
   91.6250     2.2800    89.7200     6.8990     5.8710     6.1520    24.2460    -6.5480 
   91.7500     2.2850    89.5190     6.8810     5.8560     6.9450    24.0970    -6.2140 
   91.8750     2.2960    93.1610     6.6970     5.7050     6.7250    24.0350    -5.9240 
   92.0000     2.3110    98.6420     6.3420     5.4030     5.6820    24.0950    -5.6350 
   92.1250     2.3300    99.8430     5.8710     4.9840     4.7960    24.2920    -5.3590 
   92.2500     2.3510    94.7620     5.4300     4.5540     4.4910    24.5300    -5.1490 
   92.3750     2.3710    89.9640     5.1700     4.2160     4.3770    24.6330    -5.0490 
   92.5000     2.3860    90.7330     5.2550     4.0820     4.2980    24.5360    -5.0490 
   92.6250     2.4050    95.0210     5.9190     4.3320     4.3100    24.5310    -5.2660 
   92.7500     2.4400    96.6340     7.1170     5.0000     4.9860    24.5670    -5.7610 
   92.8750     2.4940    94.7660     8.7000     6.0950     7.8830    24.5430    -6.6160 
   93.0000     2.5500    88.3970    10.2980     7.4770    16.3920    24.4930    -7.8500 
   93.1250     2.5660    78.2100    11.2500     8.6330    22.8920    24.4980    -9.5550 
   93.2500     2.5250    70.0650    11.3070     9.0510    19.9160    24.6210   -11.5260 
   93.3750     2.4350    66.8640    10.6420     8.7140    12.8990    24.8590   -13.5670 
   93.5000     2.3340    66.2960     9.7600     8.0560     9.6960    24.9740   -15.6210 
   93.6250     2.2670    66.1680     9.2580     7.6020     9.3080    24.6680   -17.4490 
   93.7500     2.2440    67.2550     9.2530     7.5130    10.7420    24.3070   -19.0140 
   93.8750     2.2470    68.7030     9.5660     7.7210    15.2700    24.1700   -20.2690 
   94.0000     2.2500    69.3290     9.8870     8.0150    23.8710    24.2270   -21.1760 
   94.1250     2.2350    68.8090     9.9080     8.1010    20.4310    24.3650   -21.7400 
   94.2500     2.2060    69.1940     9.6660     7.9280    12.7540    24.5620   -22.0770 
   94.3750     2.1760    70.7730     9.3580     7.6350    10.0230    24.7120   -22.2800 
   94.5000     2.1620    71.1860     9.2190     7.4200     9.6250    24.6460   -22.3730 
   94.6250     2.1840    69.3170     9.4160     7.4610     9.8320    24.4540   -22.4870 
   94.7500     2.2370    66.9000     9.8120     7.7210    10.0950    24.4290   -22.6100 
   94.8750     2.3040    66.5940    10.1940     8.0690    10.2160    24.5600   -22.7530 
   95.0000     2.3590    68.5710    10.3520     8.3160    10.0820    24.6750   -22.9590 
   95.1250     2.3690    68.6540    10.1350     8.2760    10.0550    24.6720   -23.1120 
   95.2500     2.3410    66.4320     9.7010     8.0160     9.9220    24.5640   -23.1350 
   95.3750     2.2930    63.2930     9.2500     7.6760     9.7230    24.4620   -23.0390 
   95.5000     2.2440    61.2510     8.9700     7.4120     9.6020    24.4520   -22.8520 
   95.6250     2.2100    62.4270     8.9940     7.3660     9.6720    24.4560   -22.5750 
   95.7500     2.1940    64.3730     9.2250     7.5130     9.7630    24.3620   -22.2240 
   95.8750     2.2000    65.0770     9.5290     7.7780    10.8990    24.3030   -21.7230 
   96.0000     2.2280    64.4130     9.7590     8.0460    13.8070    24.5110   -21.0030 
   96.1250     2.2700    63.4910     9.7710     8.1620    16.8070    24.6720   -20.2510 
   96.2500     2.3060    64.7850     9.5910     8.0900    12.3410    24.6120   -19.6160 
   96.3750     2.3220    67.6920     9.2970     7.8790     9.1650    24.4030   -19.0850 
   96.5000     2.3110    71.1030     8.9940     7.6210     8.3110    24.1840   -18.7540 
   96.6250     2.2800    70.9740     8.7780     7.4060     8.5010    24.0250   -18.5850 
