~V
VERS. 2.00: Ver 2.00
~W
STRT.M 55.0000:
STOP.M 274.0000:
STEP.M 0.1250:
NULL. -999.2500:
UWI. F11049:
~C
DEPT.M :
SP.MV :
GR.API :
RML.OHMM :
RI. :
RXO.OHMM :
CALI.CM :
DEN.GM/CC :
~A
# ...
   66.2500   -21.9620    75.0410    10.2910     7.5450     7.7100    23.9560     2.1550 
   66.3750   -21.8730    75.2730    10.4370     7.5620     7.2470    23.9640     2.1670 
   66.5000   -21.7600    75.0870    10.5020     7.5990     7.3520    23.9680     2.1780 
   66.6250   -21.7350    72.9990    10.5380     7.6500     7.8420    23.9660     2.1810 
   66.7500   -21.8110    70.1870    10.6020     7.7210     8.3060    23.9620     2.1800 
   66.8750   -21.8690    68.4950    10.6920     7.8030     8.4060    23.9600     2.1800 
   67.0000   -21.8070    68.4530    10.7690     7.8750     8.4880    23.9610     2.1830 
   67.1250   -21.7200    67.7190    10.7710     7.9040     8.6700    23.9640     2.1900 
   67.2500   -21.7000    66.0570    10.6720     7.8720     8.7870    23.9670     2.2010 
   67.3750   -21.7440    65.6960    10.4660     7.7710     8.6500    23.9650     2.2120 
   67.5000   -21.8060    69.1520    10.1880     7.6090     8.4250    23.9590     2.2190 
   67.6250   -21.7930    76.1390     9.9320     7.4190     8.1130    23.9590     2.2270 
   67.7500   -21.6580    82.0620     9.8030     7.2630     7.5050    23.9590     2.2410 
   67.8750   -21.5050    84.1000     9.8780     7.2040     7.1280    23.9600     2.2560 
   68.0000   -21.4870    82.9660    10.1840     7.2820     7.8160    23.9620     2.2630 
   68.1250   -21.5730    81.6860    10.6890     7.5160     9.3760    23.9660     2.2620 
   68.2500   -21.6540    82.7690    11.2310     7.8170     9.9840    23.9680     2.2620 
   68.3750   -21.6970    84.7690    11.6660     8.0980    10.8540    23.9690     2.2630 
   68.5000   -21.7290    85.1120    11.8790     8.2770    13.1650    23.9700     2.2560 
   68.6250   -21.7990    82.2830    11.7930     8.2870    14.8480    23.9680     2.2350 
   68.7500   -21.9750    78.7550    11.5260     8.1820    12.6480    23.9670     2.2120 
   68.8750   -22.2530    76.0440    11.1840     8.0170    10.3470    23.9670     2.1960 
   69.0000   -22.5030    74.4160    10.8560     7.8390     9.3520    23.9690     2.1900 
   69.1250   -22.6300    74.7890    10.6450     7.7050     9.1790    23.9690     2.1930 
   69.2500   -22.7150    76.4710    10.6330     7.6680     9.2480    23.9680     2.2030 
   69.3750   -22.8280    76.2220    10.8630     7.7680     9.5420    23.9640     2.2160 
   69.5000   -22.9710    72.1280    11.3030     8.0010     9.7790    23.9620     2.2370 
   69.6250   -23.0960    65.1530    11.8110     8.3030     9.6790    23.9640     2.2750 
   69.7500   -23.1560    60.1520    12.1520     8.5350     9.5230    23.9680     2.3160 
   69.8750   -23.0750    60.3490    12.1640     8.5900     9.4000    23.9690     2.3310 
   70.0000   -22.8960    65.7260    11.8280     8.4320     9.3100    23.9700     2.3020 
   70.1250   -22.8130    70.1230    11.2860     8.1210     9.1880    23.9520     2.2510 
   70.2500   -22.8400    69.9300    10.8030     7.8120     8.9880    23.9100     2.2120 
   70.3750   -22.8810    67.9470    10.5050     7.5900     8.8260    23.8770     2.1900 
   70.5000   -22.8880    68.3290    10.4110     7.4840     9.0020    23.8860     2.1790 
   70.6250   -22.8770    69.5650    10.4650     7.4780     9.0940    23.9400     2.1760 
   70.7500   -22.9090    67.6770    10.5380     7.4940     9.1120    23.9580     2.1770 
   70.8750   -23.0500    65.6800    10.5760     7.4970     9.0250    23.9400     2.1810 
   71.0000   -23.2830    68.3610    10.5710     7.4850     8.9160    23.8860     2.1900 
   71.1250   -23.4600    74.4890    10.5420     7.4910     8.8290    23.8590     2.1980 
   71.2500   -23.5080    75.9550    10.5300     7.5370     9.1100    23.8560     2.1980 
   71.3750   -23.4700    71.5130    10.5720     7.6280     9.5700    23.8800     2.1900 
   71.5000   -23.3920    65.7330    10.6830     7.7500     9.8050    23.9340     2.1820 
   71.6250   -23.3350    63.4220    10.8380     7.8700     9.7560    23.9600     2.1810 
   71.7500   -23.2720    63.7770    10.9640     7.9540     9.7000    23.9680     2.1820 
   71.8750   -23.1170    65.9390    10.9950     7.9810     9.7350    23.9590     2.1760 
   72.0000   -22.8280    67.6470    10.8930     7.9420     9.6950    23.9330     2.1650 
   72.1250   -22.4660    66.1180    10.6520     7.8350     9.6230    23.8800     2.1610 
   72.2500   -22.1350    64.2640    10.3480     7.6820     9.4460    23.8620     2.1700 
   72.3750   -21.8630    65.6870    10.0250     7.4950     9.2370    23.8800     2.1910 
   72.5000   -21.6490    69.4010     9.7100     7.2880     8.9670    23.9220     2.2180 
   72.6250   -21.3970    72.0430     9.4550     7.0970     8.7190    23.9360     2.2400 
   72.7500   -21.0830    72.8220     9.3160     6.9680     8.5460    23.9670     2.2510 
   72.8750   -20.8710    75.6560     9.3480     6.9370     8.4130    24.0480     2.2460 
   73.0000   -20.8600    80.0400     9.5870     7.0200     8.2800    24.1060     2.2250 
   73.1250   -21.0120    80.7220    10.0360     7.2280     8.6580    24.1090     2.1930 
   73.2500   -21.2310    75.7210    10.5430     7.4980     9.7140    24.0910     2.1620 
   73.3750   -21.4690    68.7180    10.9630     7.7700    10.1680    24.0850     2.1420 
   73.5000   -21.6880    63.9540    11.1870     7.9780    10.0130    24.0930     2.1390 
   73.6250   -21.9300    61.5490    11.1450     8.0540     9.8660    24.1080     2.1500 
   73.7500   -22.2760    60.8890    10.9440     8.0150     9.8920    24.1120     2.1630 
   73.8750   -22.6130    62.9450    10.6960     7.9090     9.9710    24.1130     2.1760 
   74.0000   -22.8090    66.5370    10.5200     7.8090     9.8800    24.1160     2.1850 
   74.1250   -22.8870    67.1340    10.5060     7.7870     9.7090    24.1130     2.1860 
   74.2500   -22.9220    63.6540    10.6270     7.8470     9.6550    24.1010     2.1770 
   74.3750   -22.9330    59.1890    10.8260     7.9620     9.8120    24.0920     2.1590 
   74.5000   -22.9600    57.2910    11.0150     8.0830    10.1060    24.0940     2.1360 
   74.6250   -22.9830    58.7970    11.0800     8.1390    10.3540    24.1100     2.1210 
   74.7500   -22.8830    61.1840    11.0030     8.1070     9.9440    24.1150     2.1200 
   74.8750   -22.6690    62.9380    10.8300     8.0030     9.5250    24.1090     2.1330 
   75.0000   -22.4950    63.6910    10.6360     7.8740     9.3600    24.0910     2.1520 
   75.1250   -22.3920    63.7890    10.5010     7.7760     9.4340    24.0830     2.1660 
   75.2500   -22.2560    63.7680    10.4360     7.7270    10.2400    24.0870     2.1740 
   75.3750   -22.0600    62.9200    10.4220     7.7180    11.9940    24.1030     2.1730 
   75.5000   -21.7910    62.1460    10.4310     7.7250    14.0380    24.1140     2.1670 
   75.6250   -21.4700    62.0410    10.4460     7.7450    11.5240    24.1140     2.1650 
   75.7500   -21.1710    62.1250    10.4830     7.8000     9.5110    24.1030     2.1690 
   75.8750   -20.9580    62.0760    10.5680     7.9140     8.6660    24.0850     2.1750 
   76.0000   -20.7340    61.9710    10.7120     8.0910     8.9960    24.0730     2.1770 
   76.1250   -20.3500    60.9710    10.9060     8.3080    10.0060    24.0760     2.1750 
   76.2500   -19.9330    59.6950    11.0970     8.5050    10.7820    24.0950     2.1690 
   76.3750   -19.5440    59.5930    11.2620     8.6510    10.7260    24.1130     2.1600 
   76.5000   -19.1510    60.4080    11.3960     8.7400    10.1500    24.1230     2.1520 
   76.6250   -18.7050    60.0300    11.4710     8.7570     9.4340    24.1340     2.1520 
   76.7500   -18.1620    60.6860    11.4220     8.6800     9.0900    24.1490     2.1600 
   76.8750   -17.4440    64.0100    11.1470     8.4690     9.2100    24.1560     2.1820 
   77.0000   -16.5800    69.4080    10.5590     8.0970     9.0860    24.1520     2.2230 
   77.1250   -15.7510    77.3320     9.6700     7.5820     7.8680    24.1380     2.2710 
   77.2500   -14.9560    84.4130     8.8590     7.1000     5.9350    24.1250     2.3000 
   77.3750   -14.1650    87.5080     8.6460     6.8880     5.0740    24.1230     2.3050 
