~V
VERS. 2.00: Ver 2.00
~W
STRT.M 51.0000:
STOP.M 277.0000:
STEP.M 0.1250:
NULL. -999.2500:
UWI. F11053:
~C
DEPT.M :
GR.API :
RML.OHMM :
RI. :
RXO.OHMM :
CALI.CM :
DEN.GM/CC :
SP.MV :
~A
# ...
  141.0000    87.8140     8.3390     7.6650     8.1350    25.9200     2.2530   -11.6880 
  141.1250    94.5500     7.7110     6.9620     6.4860    25.7540     2.2660   -11.6370 
  141.2500    96.6300     7.2720     6.4730     5.9000    25.6090     2.2700   -11.5800 
  141.3750    95.4860     7.0140     6.2230     5.9560    25.5560     2.2710   -11.5020 
  141.5000    94.1120     6.8800     6.1720     6.2760    25.5560     2.2730   -11.4140 
  141.6250    93.3320     6.7700     6.1830     6.5180    25.5480     2.2790   -11.3190 
  141.7500    93.3690     6.6180     6.1490     6.4460    25.5090     2.2900   -11.2480 
  141.8750    94.7230     6.4130     6.0240     6.1750    25.4460     2.3020   -11.1820 
  142.0000    96.9510     6.1920     5.8370     5.8920    25.3740     2.3120   -11.1140 
  142.1250    98.2920     6.0320     5.6770     5.7090    25.3070     2.3170   -11.0500 
  142.2500    98.0800     6.0020     5.6340     5.6910    25.2610     2.3200   -11.0040 
  142.3750    96.1560     6.1500     5.7610     5.8300    25.2370     2.3290   -10.9580 
  142.5000    93.4770     6.4950     6.0690     6.1790    25.2080     2.3530   -10.8970 
  142.6250    91.6740     6.9180     6.4450     7.0580    25.1610     2.3880   -10.8140 
  142.7500    90.2690     7.2370     6.7350     8.2690    25.1130     2.4180   -10.7150 
  142.8750    88.7140     7.2820     6.7880     9.1180    25.0720     2.4300   -10.6010 
  143.0000    89.6220     6.9680     6.5150     8.4030    25.0450     2.4190   -10.4900 
  143.1250    94.7320     6.4660     6.0570     6.9810    25.0170     2.3940   -10.4030 
  143.2500   100.9110     5.9830     5.5940     6.1120    24.9920     2.3690   -10.3220 
  143.3750   105.1660     5.6750     5.2650     5.6880    24.9790     2.3500   -10.2820 
  143.5000   105.2780     5.6740     5.1960     5.5510    24.9690     2.3410   -10.2540 
  143.6250   100.6790     6.0010     5.4190     5.8890    24.9410     2.3410   -10.2520 
  143.7500    93.5330     6.6730     5.9620     6.5720    24.8940     2.3570   -10.2710 
  143.8750    87.4490     7.6720     6.8090     7.4090    24.8420     2.3980   -10.3510 
  144.0000    83.2360     8.8160     7.8330     8.3690    24.8400     2.4590   -10.4400 
  144.1250    77.6550     9.7090     8.7130    10.9400    24.8640     2.5170   -10.5000 
  144.2500    72.2610    10.0190     9.1180    13.4270    24.8920     2.5440   -10.5420 
  144.3750    72.1250     9.7130     8.9270    11.9000    24.9330     2.5300   -10.5560 
  144.5000    77.3710     9.1240     8.3570     8.5540    24.9640     2.4830   -10.5800 
  144.6250    81.5310     8.7430     7.8560     7.1650    24.9750     2.4420   -10.6040 
  144.7500    81.2960     8.8690     7.7390     7.4710    24.9770     2.4320   -10.6190 
  144.8750    77.3100     9.6530     8.1870     9.1260    24.9780     2.4620   -10.6030 
  145.0000    72.1800    11.2470     9.3750    11.4150    24.9880     2.5220   -10.5770 
  145.1250    67.4500    13.4420    11.1570    14.8050    25.0090     2.5880   -10.5470 
  145.2500    62.8150    15.8090    13.2020    17.7360    25.0320     2.6410   -10.5370 
  145.3750    58.6290    17.8070    15.0450    19.4270    25.0430     2.6700   -10.5380 
  145.5000    55.7570    18.9520    16.2150    19.3410    25.0450     2.6700   -10.5320 
  145.6250    54.7370    19.3870    16.7400    18.7490    25.0430     2.6520   -10.5290 
  145.7500    54.5430    19.4610    16.8630    18.2980    25.0310     2.6310   -10.5140 
  145.8750    54.2100    19.4670    16.8350    18.5330    25.0040     2.6180   -10.4950 
  146.0000    53.4770    19.5450    16.8310    19.1900    24.9870     2.6180   -10.5030 
  146.1250    52.2290    19.6740    16.8850    19.0430    24.9900     2.6270   -10.5420 
  146.2500    51.0690    19.8040    16.9700    18.3420    25.0130     2.6370   -10.5800 
  146.3750    50.6180    19.9200    17.0650    17.7250    25.0340     2.6420   -10.6290 
  146.5000    51.3810    20.0250    17.1790    17.8520    25.0440     2.6410   -10.6980 
  146.6250    52.7210    20.1070    17.3220    18.0240    25.0390     2.6370   -10.7880 
  146.7500    53.4150    20.1420    17.4860    18.1170    25.0160     2.6310   -10.9060 
  146.8750    53.7900    20.1210    17.6490    18.5960    24.9520     2.6260   -11.0300 
  147.0000    55.2050    20.0980    17.7790    18.7980    24.8890     2.6190   -11.1420 
  147.1250    56.2770    20.1490    17.8730    18.3690    24.8620     2.6110   -11.2570 
  147.2500    55.7060    20.2920    17.9350    17.5940    24.9160     2.6020   -11.3770 
  147.3750    54.4270    20.4540    17.9530    16.8700    25.0330     2.5940   -11.5110 
  147.5000    54.4960    20.4820    17.8750    17.6830    25.1200     2.5910   -11.6110 
  147.6250    55.7720    20.2990    17.6700    18.3470    25.1720     2.5900   -11.6910 
  147.7500    56.5180    19.9400    17.3510    18.1030    25.2080     2.5880   -11.7720 
  147.8750    57.3000    19.5140    16.9890    16.9930    25.2310     2.5830   -11.8620 
  148.0000    57.7940    19.1610    16.7010    16.5150    25.2380     2.5780   -11.9560 
  148.1250    56.8860    18.9410    16.5640    16.4090    25.2290     2.5740   -12.0470 
  148.2500    54.4110    18.8600    16.5900    16.3290    25.2090     2.5690   -12.1460 
  148.3750    52.7440    18.8980    16.7370    16.6400    25.1950     2.5600   -12.2440 
  148.5000    55.0680    19.0100    16.9120    17.8140    25.1960     2.5470   -12.3650 
  148.6250    58.2950    19.1110    17.0310    18.0320    25.1860     2.5320   -12.5200 
  148.7500    59.0570    19.1370    17.0740    17.2610    25.1730     2.5230   -12.6730 
  148.8750    57.1300    19.0660    17.0630    16.1690    25.1520     2.5240   -12.8350 
  149.0000    56.8000    18.9090    17.0300    15.9350    25.0830     2.5360   -13.0260 
  149.1250    60.5560    18.7070    16.9780    16.5370    24.9900     2.5530   -13.2380 
  149.2500    65.6280    18.4590    16.8770    17.5220    24.9490     2.5690   -13.4320 
  149.3750    68.3350    18.1720    16.6920    18.1520    25.0160     2.5800   -13.6060 
  149.5000    67.7430    18.1030    16.4030    18.0310    25.1240     2.5850   -13.7660 
  149.6250    66.6980    18.3400    16.0590    16.8640    25.1890     2.5870   -13.8920 
  149.7500    66.6780    18.6160    15.7050    15.5170    25.2240     2.5850   -13.9930 
  149.8750    67.0010    18.5810    15.3560    14.5660    25.2550     2.5790   -14.0530 
  150.0000    66.5730    18.1810    15.0060    14.0210    25.3070     2.5600   -14.0870 
  150.1250    65.1550    17.7050    14.6660    13.4920    25.3780     2.5300   -14.0910 
  150.2500    63.0280    17.2740    14.3790    12.9720    25.4650     2.4930   -14.1030 
  150.3750    61.3610    16.9120    14.1900    12.4140    25.5290     2.4660   -14.1470 
  150.5000    61.7460    16.6440    14.1110    12.7580    25.5090     2.4600   -14.2270 
  150.6250    63.2360    16.4230    14.0530    13.6170    25.4400     2.4740   -14.3350 
  150.7500    63.5750    16.1830    13.9060    14.3010    25.3930     2.4960   -14.4780 
  150.8750    62.2670    15.8820    13.6020    14.2740    25.3880     2.5160   -14.6620 
  151.0000    60.5230    15.5440    13.1640    13.0510    25.4060     2.5290   -14.8180 
  151.1250    59.2430    15.2810    12.7440    11.7450    25.4010     2.5390   -14.9640 
  151.2500    58.7330    15.2170    12.5000    11.2350    25.3830     2.5490   -15.0770 
  151.3750    58.7600    15.4330    12.5400    11.5640    25.3770     2.5590   -15.1510 
  151.5000    57.3720    15.9580    12.9260    12.3710    25.4060     2.5670   -15.1760 
  151.6250    54.7970    16.6280    13.5360    13.5200    25.4700     2.5720   -15.1670 
  151.7500    53.4920    17.2190    14.1690    14.7700    25.5500     2.5790   -15.1110 
  151.8750    54.2840    17.5190    14.6060    15.9620    25.6210     2.5910   -15.0270 
  152.0000    55.3620    17.3800    14.6430    15.7410    25.6720     2.6030   -14.9470 
  152.1250    57.2780    16.9260    14.3350    14.8460    25.7110     2.6100   -14.8940 
