~V
VERS. 2.00: Ver 2.00
~W
STRT.M 53.0000:
STOP.M 220.0000:
STEP.M 0.1250:
NULL. -999.2500:
UWI. F11005:
~C
DEPT.M :
DEN.GM/CC :
GR.API :
RML.OHMM :
RI. :
RXO.OHMM :
CALI.CM :
SP.MV :
~A
# ...
  210.5000     2.4260    80.2720    10.1460     8.5250    14.4510    25.0560    -6.2290 
  210.6250     2.4060    80.2720    10.3550     8.7320    14.4660    25.0240    -6.3140 
  210.7500     2.3820    80.2720    10.4460     8.8420    12.4470    24.9180    -6.4050 
  210.8750     2.3630    80.2720    10.4050     8.8310     9.8760    24.8050    -6.4480 
  211.0000     2.3520    80.2720    10.2730     8.7190     7.9020    24.7370    -6.4770 
  211.1250     2.3430    80.2720    10.1260     8.5600     7.3230    24.7850    -6.4830 
  211.2500     2.3330    80.2720    10.0220     8.4230     6.7960    24.7650    -6.4440 
  211.3750     2.3270    80.2720     9.9610     8.3270     6.8640    24.7090    -6.4100 
  211.5000     2.3280    80.2720     9.9060     8.2540     6.7980    24.7130    -6.4380 
  211.6250     2.3360    80.2720     9.8070     8.1610     7.2470    24.8430    -6.4850 
  211.7500     2.3430    80.2720     9.6690     8.0390     8.0100    24.9550    -6.5230 
  211.8750     2.3450    80.2720     9.5460     7.9160     8.4230    24.9830    -6.5650 
  212.0000     2.3480    80.2720     9.5220     7.8550     8.5200    24.9370    -6.6010 
  212.1250     2.3610    80.2720     9.7070     7.9520     8.3840    24.9050    -6.5960 
  212.2500     2.3850    80.2720    10.0840     8.2140     9.3530    24.9690    -6.5880 
  212.3750     2.4120    80.2720    10.5790     8.6050    11.5700    25.1160    -6.5110 
  212.5000     2.4320    80.2720    11.0660     9.0350    13.5920    25.2050    -6.3460 
  212.6250     2.4360    80.2720    11.3870     9.3570    13.0260    25.1460    -6.1210 
  212.7500     2.4310    80.2720    11.5310     9.5200    11.6890    25.1170    -5.8760 
  212.8750     2.4270    80.2720    11.5920     9.5790    11.0670    25.1640    -5.6510 
  213.0000     2.4310    80.2720    11.7380     9.6730    10.9770    25.1940    -5.4650 
  213.1250     2.4460    80.2720    12.1950    10.0000    10.5390    25.1210    -5.3270 
  213.2500     2.4670    80.2720    12.9870    10.6260    11.0030    25.0460    -5.1940 
  213.3750     2.4890    80.2720    14.0350    11.5370    13.1430    25.0290    -5.0400 
  213.5000     2.5090    80.2720    15.1590    12.6130    15.6050    25.0530    -4.8770 
  213.6250     2.5280    80.2720    16.0810    13.6110    16.9200    25.1040    -4.7360 
  213.7500     2.5450    80.2720    16.6470    14.3230    16.0730    25.1630    -4.6220 
  213.8750     2.5560    80.2720    16.8130    14.6590    15.6570    25.1780    -4.4790 
  214.0000     2.5600    80.2720    16.6440    14.6450    16.1540    25.1840    -4.2830 
  214.1250     2.5580    80.2720    16.2670    14.3860    16.8160    25.1540    -4.0900 
  214.2500     2.5520    80.2720    15.8730    14.0780    16.6800    25.1180    -3.9230 
  214.3750     2.5460    80.2720    15.5570    13.8190    15.5380    25.1270    -3.8210 
  214.5000     2.5430    80.2720    15.3560    13.6560    15.1660    25.1440    -3.7670 
  214.6250     2.5450    80.2720    15.2730    13.5910    16.1470    25.1910    -3.7050 
  214.7500     2.5500    80.2720    15.2460    13.5730    16.5090    25.1940    -3.6130 
  214.8750     2.5520    80.2720    15.2410    13.5710    15.8980    25.1510    -3.5220 
  215.0000     2.5430    80.2720    15.2400    13.5700    15.2520    25.1230    -3.4660 
  215.1250     2.5140    80.2720    15.2370    13.5700    14.3900    25.1640    -3.3980 
  215.2500     2.4740    80.2720    15.2360    13.5700    13.1830    25.1990    -3.3550 
  215.3750     2.4360    80.2720    15.2360    13.5700    12.3920    25.1830    -3.2830 
  215.5000     2.4140    80.2720    15.2360    13.5700    12.4120    25.1040    -3.1660 
  215.6250     2.4230    80.2720    15.2360    13.5700    12.8410    25.0470    -3.0610 
  215.7500     2.4510    80.2720    15.2360    13.5700    12.9680    25.0790    -3.0190 
  215.8750     2.4860    80.2720    15.2360    13.5700    14.1700    25.1960    -3.0110 
  216.0000     2.5120    80.2720    15.2360    13.5700    16.4960    25.3130    -2.9890 
  216.1250     2.5220    80.2720    15.2360    13.5700    17.8060    25.3780    -2.9700 
  216.2500     2.5230    80.2720    15.2360    13.5700    17.0460    25.4010    -2.9340 
  216.3750     2.5230    80.2720    15.2360    13.5700    14.9690    25.3290    -2.9570 
  216.5000     2.5240    80.2720    15.2360    13.5700     9.9430    25.1920    -3.1070 
  216.6250     2.5210    80.2720    15.2360    13.5700     8.3570    25.1170    -3.2900 
  216.7500     2.5050    80.2720    15.2360    13.5700     8.8220    25.1900    -3.4110 
  216.8750     2.4770    80.2720    15.2360    13.5700    10.0810    25.2390    -3.5170 
  217.0000     2.4410    80.2720    15.2360    13.5700     9.5270    25.1490    -3.6160 
  217.1250     2.4130    80.2720    15.2360    13.5700    12.0910    25.0330    -3.7100 
  217.2500     2.3960    80.2720    15.2360    13.5700    18.5040    24.9130    -3.8520 
  217.3750     2.3930    80.2720    15.2360    13.5700    22.0730    24.8050    -4.0130 
  217.5000     2.3990    80.2720    15.2360    13.5700    28.2810    24.7320    -4.0870 
  217.6250     2.4140    80.2720    15.2360    13.5700    22.9950    24.6500    -4.1520 
  217.7500     2.4330    80.2720    15.2360    13.5700    20.3400    24.5900    -4.2210 
  217.8750     2.4530    80.2720    15.2360    13.5700    17.7940    24.6280    -4.3040 
  218.0000     2.4720    80.2720    15.2360    13.5700    13.8460    24.6720    -4.4130 
  218.1250     2.4880    80.2720    15.2360    13.5700    12.0260    24.6550    -4.5440 
  218.2500     2.4970    80.2720    15.2360    13.5700    11.2680    24.6000    -4.6030 
  218.3750     2.5000    80.2720    15.2360    13.5700    10.9160    24.5340    -4.6030 
  218.5000     2.4950    80.2720    15.2360    13.5700     8.7010    24.4380    -4.6030 
  218.6250     2.4780    80.2720    15.2360    13.5700     7.7390    24.3750  -999.2500 
  218.7500     2.4440    80.2720    15.2360    13.5700     7.5880    24.1770  -999.2500 
  218.8750     2.3710    80.2720    15.2360    13.5700     7.6820    23.8630  -999.2500 
  219.0000     2.2740    80.2720    15.2360    13.5700     7.5230    23.2370  -999.2500 
  219.1250     2.1720    80.2720    15.2360    13.5700     6.9270    22.1610  -999.2500 
  219.2500     2.0880    80.2720    15.2360    13.5700     6.4430    21.2030  -999.2500 
  219.3750     2.0380    80.2720    15.2360    13.5700     6.2940    20.8520  -999.2500 
  219.5000     2.0130    80.2720    15.2360    13.5700     6.2880    20.7960  -999.2500 
  219.6250     2.0230    80.2720    15.2360    13.5700     6.2870    20.7960  -999.2500 
  219.7500     2.0170    80.2720    15.2360    13.5700     6.2850    20.7960  -999.2500 
  219.8750  -999.2500    80.2720    15.2360    13.5700     6.2820    20.7960  -999.2500 
  220.0000  -999.2500    80.2720    15.2360    13.5700     6.2800    20.7960  -999.2500 
