~V
VERS. 2.00: Ver 2.00
~W
STRT.M 55.0000:
STOP.M 280.0000:
STEP.M 0.1250:
NULL. -999.2500:
UWI. F11032:
~C
DEPT.M :
DEN.GM/CC :
GR.API :
RML.OHMM :
RI. :
RXO.OHMM :
CALI.CM :
SP.MV :
~A
# ...
  167.5000     2.2020    64.3190    22.0430    17.9090    17.0100    24.3160   -18.3160 
  167.6250     2.2000    64.8650    21.1680    16.9050    16.8860    24.3370   -18.2800 
  167.7500     2.1990    66.7460    20.8530    16.3080    16.6940    24.3440   -18.2630 
  167.8750     2.1980    66.7000    21.2680    16.3300    16.6000    24.3500   -18.2180 
  168.0000     2.1970    63.1310    22.5370    17.0770    17.2930    24.3530   -18.1240 
  168.1250     2.1960    61.3070    24.6480    18.5660    19.2230    24.3540   -18.0170 
  168.2500     2.1920    61.2370    26.7910    20.2510    22.7980    24.3540   -17.8610 
  168.3750     2.1850    58.8240    27.9370    21.4190    26.7840    24.3540   -17.6730 
  168.5000     2.1790    54.5730    27.2390    21.3690    28.9860    24.3540   -17.5420 
  168.6250     2.1790    55.7480    24.6400    19.8380    23.6770    24.3540   -17.4200 
  168.7500     2.1870    61.0930    21.7200    17.8300    16.9280    24.3540   -17.2360 
  168.8750     2.2010    65.4400    19.5510    16.1120    14.0970    24.3540   -17.0940 
  169.0000     2.2160    68.0840    18.5360    15.0580    14.0140    24.3540   -17.0280 
  169.1250     2.2240    70.8050    18.5680    14.7660    14.9820    24.3540   -16.9900 
  169.2500     2.2240    72.3030    18.9380    14.8670    15.8300    24.3540   -16.9720 
  169.3750     2.2190    71.6710    19.1730    15.0470    16.1900    24.3540   -16.9390 
  169.5000     2.2130    71.1790    18.9770    15.0310    16.0320    24.3540   -16.8420 
  169.6250     2.2100    71.9770    18.2930    14.7100    14.8670    24.3550   -16.7690 
  169.7500     2.2090    71.2000    17.4910    14.2900    13.5350    24.3630   -16.7440 
  169.8750     2.2100    69.9530    16.8840    13.9470    13.1190    24.3900   -16.6910 
  170.0000     2.2120    71.8100    16.6900    13.7980    13.4480    24.3770   -16.6210 
  170.1250     2.2130    75.0230    17.0480    13.9400    13.7410    24.4090   -16.5880 
  170.2500     2.2150    73.5860    17.7870    14.3330    14.0140    24.4120   -16.6010 
  170.3750     2.2160    69.1580    18.7340    14.9270    14.7820    24.4080   -16.6650 
  170.5000     2.2170    67.3840    19.6760    15.6250    15.7530    24.3790   -16.7830 
  170.6250     2.2170    69.2430    20.3690    16.2810    16.5700    24.3580   -16.9230 
  170.7500     2.2170    71.3540    20.7430    16.7890    17.1900    24.3540   -17.0390 
  170.8750     2.2150    72.4370    20.8150    17.1370    17.4800    24.3540   -17.1130 
  171.0000     2.2130    70.9810    20.6970    17.3620    17.4900    24.3540   -17.1410 
  171.1250     2.2110    67.6720    20.5330    17.4690    17.3800    24.3540   -17.0800 
  171.2500     2.2100    66.4810    20.3940    17.4610    17.1240    24.3540   -16.9050 
  171.3750     2.2090    67.9900    20.2540    17.3620    17.1990    24.3540   -16.7030 
  171.5000     2.2060    71.3090    20.0610    17.2370    17.3320    24.3560   -16.5350 
  171.6250     2.2030    74.9350    19.7830    17.1480    16.9060    24.3700   -16.3700 
  171.7500     2.1980    77.6060    19.4660    17.0910    15.8150    24.4000   -16.2590 
  171.8750     2.1940    78.0230    19.1490    17.0230    15.0200    24.3630   -16.2540 
  172.0000     2.1900    76.3120    18.8090    16.8710    15.4180    24.3230   -16.3070 
  172.1250     2.1870    73.8000    18.2970    16.4940    15.7120    24.2150   -16.4220 
  172.2500     2.1870    71.2050    17.5510    15.8640    14.8220    24.2310   -16.6450 
  172.3750     2.1910    69.6810    16.6470    15.0540    13.8370    24.2600   -16.9220 
  172.5000     2.2000    70.6070    15.8170    14.2480    13.1760    24.2660   -17.1960 
  172.6250     2.2110    72.7070    15.4880    13.7550    12.6680    24.2660   -17.4960 
  172.7500     2.2210    74.9530    15.8880    13.7580    12.1340    24.2660   -17.8080 
  172.8750     2.2280    75.8480    17.2040    14.3960    12.8170    24.2660   -18.1020 
  173.0000     2.2300    75.3570    19.5770    15.7830    15.4190    24.2660   -18.4210 
  173.1250     2.2260    73.9850    23.3790    18.2570    19.6590    24.2660   -18.7990 
  173.2500     2.2180    72.4470    28.6420    21.9280    22.8860    24.2660   -19.2010 
  173.3750     2.2070    72.0980    35.6770    27.0650    26.6950    24.2660   -19.6080 
  173.5000     2.1920    72.7840    44.8940    33.9690    33.7020    24.2670   -20.0670 
  173.6250     2.1750    71.0450    57.0160    43.3280    46.7440    24.3020   -20.5680 
  173.7500     2.1620    66.2080    71.3290    54.7700    67.0130    24.4860   -21.0270 
  173.8750     2.1560    61.8410    86.7360    67.5680    79.4320    24.6960   -21.4900 
  174.0000     2.1590    60.6390   101.6160    80.4050    79.4940    24.7450   -21.9690 
  174.1250     2.1700    59.4630   114.4040    91.7910    77.0620    24.7420   -22.3790 
  174.2500     2.1820    57.0570   125.6210   101.8280    79.3040    24.7050   -22.7640 
  174.3750     2.1900    55.9530   136.2110   111.2570    87.3640    24.6660   -23.1410 
  174.5000     2.1910    57.4580   146.6750   120.6780    97.7780    24.6530   -23.4310 
  174.6250     2.1860    60.4420   155.8610   129.5340   103.7000    24.6170   -23.6610 
  174.7500     2.1790    62.9670   161.5770   136.1430   103.5620    24.6200   -23.8970 
  174.8750     2.1720    63.6100   161.3470   138.4470   100.5910    24.6330   -24.0780 
  175.0000     2.1670    59.8440   153.4580   134.7140    97.0260    24.6050   -24.1980 
  175.1250     2.1700    54.7380   137.7160   123.7910    96.2010    24.5510   -24.3380 
  175.2500     2.1820    55.8810   119.2900   109.2490    96.4890    24.4040   -24.4320 
  175.3750     2.2020    63.0280   102.4220    94.6360    89.8440    24.3310   -24.4760 
  175.5000     2.2250    68.5890    90.0630    83.0270    69.6200    24.4040   -24.5560 
  175.6250     2.2400    65.2450    84.4730    77.1370    56.2940    24.3910   -24.6570 
  175.7500     2.2420    60.3390    84.8000    76.7450    57.0210    24.3460   -24.7290 
  175.8750     2.2350    59.0450    90.6910    81.7510    71.2170    24.3140   -24.7930 
  176.0000     2.2240    58.8860   101.3380    91.6010    91.1310    24.1890   -24.8660 
  176.1250     2.2180    55.3110   114.7620   104.8600    85.7180    24.1030   -24.9080 
  176.2500     2.2170    51.5270   125.7440   116.8360    82.7990    24.0380   -24.9130 
  176.3750     2.2170    52.0080   128.9500   122.4320    97.2970    23.9640   -24.9370 
  176.5000     2.2160    55.6270   121.5200   118.1270   112.5290    23.9310   -24.9670 
  176.6250     2.2120    56.9910   105.3550   104.1130    95.1550    24.0120   -24.9300 
  176.7500     2.2100    57.4210    88.2190    87.5250    65.5650    24.0850   -24.8990 
  176.8750     2.2130    60.8940    74.2740    73.0680    48.0580    24.1660   -24.9410 
  177.0000     2.2240    64.6100    65.1620    63.1100    43.0730    24.2170   -25.0080 
  177.1250     2.2380    64.4840    61.7360    58.6680    43.8450    24.2930   -25.1080 
  177.2500     2.2490    62.9630    62.6630    58.1050    47.5970    24.3820   -25.3030 
  177.3750     2.2540    62.5130    67.2950    60.5840    51.8290    24.4240   -25.4930 
  177.5000     2.2540    62.6290    74.5280    65.3530    55.6500    24.4310   -25.6220 
  177.6250     2.2520    61.9300    82.4820    71.7760    59.9570    24.4320   -25.7910 
  177.7500     2.2510    60.9970    89.1160    78.6140    65.2840    24.4410   -25.9320 
  177.8750     2.2510    60.0700    93.5930    84.9010    71.3090    24.4960   -25.9360 
  178.0000     2.2500    60.4990    95.8380    89.6200    81.8990    24.5880   -25.8700 
  178.1250     2.2430    61.1810    95.7320    91.3410    85.3920    24.6490   -25.8230 
  178.2500     2.2340    59.7730    93.8090    90.1800    82.6090    24.6640   -25.7230 
  178.3750     2.2240    58.5070    90.5320    86.8350    77.9310    24.6930   -25.6050 
  178.5000     2.2160    59.8780    86.8850    82.6130    71.5000    24.7510   -25.5390 
  178.6250     2.2130    61.7380    84.4380    79.1750    65.8070    24.8150   -25.5030 
