~V
VERS. 2.00: Ver 2.00
~W
STRT.M 55.0000:
STOP.M 236.0000:
STEP.M 0.1250:
NULL. -999.2500:
UWI. F11015:
~C
DEPT.M :
GR.API :
RML.OHMM :
RI. :
RXO.OHMM :
CALI.CM :
DEN.GM/CC :
SP.MV :
~A
# ...
  111.2500    61.2920     8.8100     7.2170     9.8400    23.2050     2.1530   -26.2400 
  111.3750    57.0330     8.9890     7.3410    10.9900    23.1600     2.1460   -26.1210 
  111.5000    56.8750     9.1420     7.4750    13.4130    23.1340     2.1390   -25.8920 
  111.6250    62.6310     9.1580     7.5370    14.6910    23.1360     2.1280   -25.5380 
  111.7500    67.6910     9.0230     7.4910    12.0190    23.1590     2.1160   -25.1900 
  111.8750    67.0960     8.7740     7.3470    10.1520    23.2120     2.1090   -24.9060 
  112.0000    62.9120     8.4730     7.1500     9.4600    23.2370     2.1110   -24.6220 
  112.1250    62.9390     8.2110     6.9670     9.2400    23.2240     2.1230   -24.2480 
  112.2500    66.2910     8.0490     6.8520     9.0840    23.1980     2.1340   -23.7710 
  112.3750    68.0390     8.0190     6.8290     9.0920    23.2090     2.1370   -23.1970 
  112.5000    68.0610     8.1230     6.9010     8.9660    23.2540     2.1370   -22.6020 
  112.6250    69.6000     8.3410     7.0560     8.9400    23.2430     2.1380   -22.0660 
  112.7500    71.8820     8.5650     7.2170     9.0040    23.1780     2.1410   -21.5330 
  112.8750    72.7670     8.6750     7.2900     9.2210    23.1070     2.1440   -20.9320 
  113.0000    71.8820     8.5630     7.1910     9.2490    23.0810     2.1500   -20.2390 
  113.1250    70.5050     8.1770     6.8750     8.7450    23.0350     2.1620   -19.4880 
  113.2500    69.8400     7.6660     6.4540     7.8050    22.9750     2.1820   -18.7130 
  113.3750    71.0720     7.1830     6.0410     6.7870    22.9890     2.2050   -17.9380 
  113.5000    72.2930     6.8470     5.7320     6.0500    23.0700     2.2200   -17.2050 
  113.6250    70.2130     6.7330     5.6040     6.4430    23.1170     2.2160   -16.5520 
  113.7500    66.7660     6.8230     5.6630     7.0300    23.1610     2.1990   -15.9330 
  113.8750    65.6840     7.2160     5.9720     7.7180    23.2810     2.1840   -15.2900 
  114.0000    67.7200     8.1540     6.6630     8.3010    23.5160     2.1840   -14.6230 
  114.1250    69.3760    10.1820     8.1080     9.6450    23.7260     2.2080   -13.9400 
  114.2500    69.1260    13.3790    10.4840    12.9040    23.9440     2.2500   -13.2900 
  114.3750    67.9150    17.4330    13.8010    19.8130    24.1930     2.3110   -12.7310 
  114.5000    67.1900    21.0760    17.3060    36.3350    24.4370     2.3850   -12.2300 
  114.6250    67.0380    21.3560    18.4300    41.0760    24.5250     2.4510   -11.7280 
  114.7500    68.1040    17.8280    16.1410    31.4760    24.4720     2.4810   -11.2630 
  114.8750    72.4430    12.6160    12.0330    16.9230    24.3290     2.4640   -10.9670 
  115.0000    80.3250     8.2190     8.2610     7.7020    24.3070     2.4130   -10.9360 
  115.1250    87.4350     5.8610     5.9220     5.3340    24.4480     2.3520   -11.2530 
  115.2500    90.9020     4.9600     4.7050     4.6780    24.5070     2.3010   -11.8450 
  115.3750    92.2550     5.1270     4.3790     5.0350    24.3730     2.2690   -12.6300 
  115.5000    90.4100     6.0850     4.7950     6.5290    23.9590     2.2610   -13.5180 
  115.6250    82.6870     7.5930     5.8980     9.2500    23.4360     2.2820   -14.4740 
  115.7500    72.8030     9.0890     7.2970    11.6110    23.1530     2.3170   -15.4800 
  115.8750    65.2050    10.0900     8.5550    12.3280    23.0610     2.3350   -16.4940 
  116.0000    61.4110    10.3530     9.2780    12.2540    22.9830     2.3170   -17.4480 
  116.1250    61.2740    10.0110     9.3380    12.0110    22.9170     2.2850   -18.2410 
  116.2500    64.8280     9.6000     9.1480    11.7050    22.9380     2.2670   -18.8300 
  116.3750    70.4120     9.4090     8.9820    11.3430    23.0200     2.2610   -19.1990 
  116.5000    75.7590     9.5110     8.9610    11.0890    23.1100     2.2530   -19.3890 
  116.6250    79.6450     9.8140     9.0620    11.0690    23.2110     2.2340   -19.4590 
  116.7500    81.6480    10.0880     9.1440    11.1990    23.3450     2.2100   -19.4920 
  116.8750    80.4670    10.1950     9.1090    11.2760    23.4710     2.1870   -19.5030 
  117.0000    75.3280    10.1010     8.9390    11.1120    23.5200     2.1710   -19.4550 
  117.1250    67.6900     9.8910     8.7030    10.8130    23.4830     2.1700   -19.3440 
  117.2500    62.6290     9.7390     8.5220    10.7610    23.4300     2.1820   -19.1960 
  117.3750    62.8990     9.7360     8.4650    10.9790    23.4170     2.2000   -19.0390 
  117.5000    67.1540     9.8890     8.5470    11.3180    23.4920     2.2190   -18.9360 
  117.6250    70.5910    10.1180     8.7180    12.2880    23.6440     2.2280   -18.9090 
  117.7500    69.9600    10.2900     8.8690    13.3010    23.7670     2.2250   -18.8510 
  117.8750    64.8790    10.3580     8.9480    12.7870    23.7820     2.2120   -18.6690 
  118.0000    58.8610    10.3670     8.9710    11.8480    23.6790     2.1980   -18.4050 
  118.1250    57.5140    10.4170     9.0010    11.1440    23.5400     2.1890   -18.1190 
  118.2500    61.0420    10.5260     9.0760    10.9090    23.4570     2.1880   -17.8710 
  118.3750    65.2870    10.6170     9.1590    10.9040    23.4590     2.1960   -17.6910 
  118.5000    65.9050    10.5680     9.1680    11.4920    23.4720     2.2110   -17.5500 
  118.6250    63.8130    10.2520     8.9880    12.2770    23.4320     2.2350   -17.4080 
  118.7500    63.8910     9.7530     8.6420    11.6360    23.3430     2.2570   -17.2970 
  118.8750    68.0470     9.2340     8.2280     9.9460    23.2540     2.2630   -17.2630 
  119.0000    72.0850     8.8830     7.8810     9.1250    23.1720     2.2460   -17.3180 
  119.1250    69.6060     8.8670     7.7430     9.4440    23.1530     2.2190   -17.4610 
  119.2500    63.6780     9.1160     7.8110    10.0010    23.2080     2.2020   -17.6230 
  119.3750    60.7020     9.5030     8.0220    10.4570    23.3030     2.1960   -17.7800 
  119.5000    63.2830     9.8400     8.2570    10.9170    23.3780     2.1960   -17.9160 
  119.6250    67.3150     9.9150     8.3560    11.4490    23.4320     2.1950   -17.9610 
  119.7500    68.6700     9.7560     8.2950    11.6870    23.5430     2.1890   -17.8610 
  119.8750    66.9620     9.5260     8.1610    11.4680    23.7280     2.1790   -17.6450 
  120.0000    65.0090     9.4620     8.1090    11.1690    23.8830     2.1760   -17.3660 
  120.1250    64.2730     9.9130     8.3780    11.3560    23.9410     2.1850   -17.0130 
  120.2500    63.5420    11.0290     9.1030    12.5620    23.9550     2.2080   -16.6000 
  120.3750    62.3000    12.9010    10.4040    15.8770    24.0070     2.2500   -16.1270 
  120.5000    61.9710    15.4150    12.3120    22.4940    24.1130     2.3150   -15.5830 
  120.6250    62.4780    18.0140    14.5910    28.6190    24.2020     2.3860   -15.0680 
  120.7500    60.6930    19.7000    16.4290    31.9300    24.1860     2.4330   -14.7200 
  120.8750    57.1850    19.6860    17.0030    30.1810    24.0360     2.4450   -14.5730 
  121.0000    55.5010    17.9140    16.0170    24.7730    23.8090     2.4290   -14.5520 
  121.1250    57.9410    15.2300    13.9910    18.5700    23.5850     2.3920   -14.5910 
  121.2500    61.4880    12.8840    12.0220    13.5210    23.4660     2.3430   -14.6610 
  121.3750    64.6090    11.3540    10.5720    11.0400    23.4470     2.2970   -14.7130 
  121.5000    66.1030    10.6960     9.7580    10.2540    23.4980     2.2700   -14.7280 
  121.6250    64.2690    10.7970     9.5780    10.3880    23.4880     2.2750   -14.6870 
  121.7500    61.5730    11.1470     9.7080    10.7330    23.4290     2.2970   -14.5600 
  121.8750    61.0270    11.3180     9.8410    10.8970    23.4260     2.3100   -14.3100 
  122.0000    63.5060    10.9820     9.6740    10.8090    23.5520     2.2920   -13.9160 
  122.1250    65.4530    10.0340     9.0110    10.5830    23.7440     2.2520   -13.3730 
  122.2500    67.1920     8.8700     8.0870     9.8950    23.8460     2.2280   -12.7260 
  122.3750    70.9840     7.8310     7.1640     8.4400    23.9270     2.2310   -12.0150 
