~V
VERS. 2.00: Ver 2.00
~W
STRT.M 55.0000:
STOP.M 229.0000:
STEP.M 0.1250:
NULL. -999.2500:
UWI. F11013:
~C
DEPT.M :
DEN.GM/CC :
GR.API :
RML.OHMM :
RI. :
RXO.OHMM :
CALI.CM :
SP.MV :
~A
# ...
   77.5000     2.1630    69.8860     7.7980     6.1070     6.1790    23.1640   -21.6190 
   77.6250     2.1600    66.8230     8.2560     6.4830     6.2470    23.1110   -21.6660 
   77.7500     2.1640    63.7880     8.5910     6.7680     6.4290    23.1740   -21.6710 
   77.8750     2.1770    60.7560     8.6980     6.8660     6.8230    23.1310   -21.5130 
   78.0000     2.1930    57.2230     8.5770     6.7750     7.3360    22.9860   -21.2490 
   78.1250     2.2150    58.7000     8.2600     6.5210     7.6180    22.8360   -20.8480 
   78.2500     2.2420    69.2110     7.8390     6.1730     7.2580    22.7600   -20.4190 
   78.3750     2.2640    81.0450     7.4600     5.8340     6.1830    22.8230   -19.9680 
   78.5000     2.2690    84.7030     7.2330     5.5870     5.5430    22.9110   -19.5790 
   78.6250     2.2620    82.2730     7.1950     5.4700     5.5230    22.8900   -19.2630 
   78.7500     2.2520    76.8720     7.3120     5.4800     5.8390    22.7520   -19.0200 
   78.8750     2.2420    71.6470     7.4920     5.5920     6.0640    22.6370   -18.8890 
   79.0000     2.2330    73.0930     7.6130     5.7290     6.0900    22.5930   -18.8430 
   79.1250     2.2290    79.3470     7.6210     5.8400     6.0380    22.5850   -18.8660 
   79.2500     2.2340    82.3260     7.5200     5.8980     6.0250    22.5720   -18.8790 
   79.3750     2.2420    79.0560     7.3550     5.8950     6.0330    22.5420   -18.9110 
   79.5000     2.2490    76.9490     7.1890     5.8600     6.0760    22.5200   -18.8970 
   79.6250     2.2570    78.0760     7.0460     5.8110     6.0790    22.5260   -18.8830 
   79.7500     2.2630    78.6350     6.9310     5.7650     6.0250    22.5640   -18.8480 
   79.8750     2.2660    79.3980     6.8550     5.7380     5.9650    22.5910   -18.8490 
   80.0000     2.2640    82.4730     6.8250     5.7370     5.9850    22.5880   -18.8170 
   80.1250     2.2590    84.5580     6.8570     5.7690     6.0560    22.5360   -18.7940 
   80.2500     2.2520    82.0600     6.9640     5.8450     6.1380    22.4460   -18.8160 
   80.3750     2.2430    77.6060     7.1460     5.9760     6.2250    22.3850   -18.8240 
   80.5000     2.2370    75.8570     7.3450     6.1340     6.3220    22.3620   -18.8650 
   80.6250     2.2380    74.6880     7.4930     6.2760     6.4070    22.3480   -18.8460 
   80.7500     2.2480    71.0800     7.5180     6.3410     6.4990    22.3060   -18.8280 
   80.8750     2.2660    67.8730     7.3470     6.2550     6.5240    22.2480   -18.7540 
   81.0000     2.2870    69.9050     7.0400     6.0390     6.3080    22.3120   -18.7140 
   81.1250     2.3070    76.1040     6.6770     5.7430     5.8200    22.5460   -18.7110 
   81.2500     2.3190    82.6660     6.3490     5.4410     5.3200    22.8230   -18.7350 
   81.3750     2.3170    83.4800     6.1540     5.2210     5.1360    22.9250   -18.8570 
   81.5000     2.3010    81.5430     6.0930     5.1140     5.4230    22.9380   -19.0460 
   81.6250     2.2810    80.2880     6.1510     5.1250     5.9680    22.9410   -19.3730 
   81.7500     2.2700    78.1860     6.3320     5.2580     6.3920    22.9530   -19.7540 
   81.8750     2.2800    75.1580     6.7920     5.5970     6.5800    23.0100   -20.1850 
   82.0000     2.3100    73.2780     7.7370     6.2440     6.8450    23.1740   -20.5650 
   82.1250     2.3630    71.5370     9.3950     7.3580     7.0960    23.4500   -20.8900 
   82.2500     2.4360    66.8680    11.8220     9.0620     7.5530    23.6760   -21.1260 
   82.3750     2.5110    61.8370    14.6570    11.3320    10.5600    23.7350   -21.2950 
   82.5000     2.5470    59.5560    16.8320    13.4450    19.3780    23.7220   -21.4100 
   82.6250     2.5150    57.6970    17.3110    14.4000    28.4710    23.6750   -21.4230 
   82.7500     2.4260    56.9150    15.7700    13.6120    22.6120    23.4990   -21.4180 
   82.8750     2.3280    63.0610    13.0100    11.5690    11.9210    23.0950   -21.3630 
   83.0000     2.2620    70.8030    10.5230     9.5660     7.8270    22.5990   -21.3690 
   83.1250     2.2310    72.2810     8.8630     8.1120     6.4210    22.1660   -21.4250 
   83.2500     2.2210    66.7190     8.0270     7.2880     6.0890    21.9050   -21.6010 
   83.3750     2.2160    63.5070     7.8100     7.0370     6.4070    21.8670   -21.8050 
   83.5000     2.2130    66.0350     7.8260     7.0700     6.9220    21.9200   -22.0120 
   83.6250     2.2100    68.8640     7.9090     7.2120     7.3340    21.9670   -22.2240 
   83.7500     2.2050    68.7870     7.9870     7.3430     7.4360    21.9810   -22.3690 
   83.8750     2.1980    68.2120     8.0430     7.4050     7.5970    21.9830   -22.5080 
   84.0000     2.1940    69.8890     8.0830     7.4240     7.6830    21.9880   -22.6070 
   84.1250     2.1960    71.3650     8.1110     7.4180     7.6070    22.0020   -22.6920 
   84.2500     2.2010    67.9520     8.1220     7.3780     7.4180    22.0330   -22.6730 
   84.3750     2.2080    62.6980     8.0820     7.2580     7.2130    22.0490   -22.5940 
   84.5000     2.2200    62.3400     7.9590     7.0410     7.0230    22.0540   -22.4680 
   84.6250     2.2340    66.0160     7.7390     6.7410     6.8560    22.0570   -22.3340 
   84.7500     2.2460    70.2530     7.4560     6.4080     6.7160    22.0670   -22.2510 
   84.8750     2.2470    72.6980     7.2090     6.1280     6.4800    22.0740   -22.2680 
   85.0000     2.2410    74.2970     7.0880     5.9610     6.0400    22.0640   -22.3460 
   85.1250     2.2330    74.4150     7.1390     5.9400     5.5700    22.0040   -22.4780 
   85.2500     2.2260    74.5930     7.3590     6.0670     5.4520    21.8600   -22.6900 
   85.3750     2.2230    74.5580     7.7110     6.3280     5.8590    21.5960   -22.9420 
   85.5000     2.2210    72.7610     8.0890     6.6350     6.4060    21.3820   -23.2540 
   85.6250     2.2200    68.6290     8.4120     6.9200     7.0300    21.3580   -23.6080 
   85.7500     2.2190    64.9640     8.6070     7.1280     7.5140    21.6020   -23.9890 
   85.8750     2.2180    65.8190     8.6190     7.2050     7.8310    22.0550   -24.2840 
   86.0000     2.2170    68.9630     8.5150     7.1800     7.8350    22.4670   -24.5440 
   86.1250     2.2160    70.4260     8.3710     7.0890     7.8300    22.7860   -24.7040 
   86.2500     2.2160    67.6320     8.2450     6.9730     7.7960    22.9260   -24.7330 
   86.3750     2.2150    64.3180     8.1610     6.8690     7.7410    22.9570   -24.6610 
   86.5000     2.2130    63.4200     8.0970     6.7940     7.7280    22.9470   -24.4950 
   86.6250     2.2060    61.2750     8.0280     6.7510     7.7170    22.9220   -24.2730 
   86.7500     2.1980    56.8390     7.9400     6.7280     7.6320    22.8800   -23.9510 
   86.8750     2.1920    54.2000     7.8380     6.7150     7.5380    22.9120   -23.5860 
   87.0000     2.1930    55.8260     7.7770     6.7210     7.5700    23.0730   -23.1110 
   87.1250     2.2020    59.0050     7.8420     6.7900     7.7740    23.2520   -22.5630 
   87.2500     2.2240    61.8980     8.1180     6.9780     7.9810    23.2300   -21.9910 
   87.3750     2.2590    63.4480     8.6520     7.3440     8.3530    23.1040   -21.4060 
   87.5000     2.3050    61.8790     9.2790     7.8140     9.9990    23.0610   -20.7880 
   87.6250     2.3520    59.1960     9.7670     8.2530    14.8390    23.0760   -20.0920 
   87.7500     2.3780    58.4570     9.8650     8.4710    22.2600    23.0260   -19.3290 
   87.8750     2.3610    60.9630     9.3550     8.2410    19.5220    22.9280   -18.4500 
   88.0000     2.3280    63.9530     8.4660     7.6570    12.6550    22.8500   -17.5460 
   88.1250     2.3120    69.5590     7.4770     6.9050     8.4140    22.8910   -16.6430 
   88.2500     2.3160    79.0480     6.6390     6.1940     6.5940    23.1070   -15.8000 
   88.3750     2.3230    85.0480     6.1250     5.6920     5.8020    23.4630   -14.9760 
   88.5000     2.3230    83.7410     5.8660     5.3880     5.5860    23.7010   -14.2190 
   88.6250     2.3210    79.6130     5.7610     5.2290     5.6550    23.7050   -13.5720 
