~V
VERS. 2.00: Ver 2.00
~W
STRT.M 57.0000:
STOP.M 272.0000:
STEP.M 0.1250:
NULL. -999.2500:
UWI. F11045:
~C
DEPT.M :
DEN.GM/CC :
GR.API :
RML.OHMM :
RI. :
RXO.OHMM :
CALI.CM :
SP.MV :
~A
   57.0000     2.2470    52.2620     0.2220     0.2130     0.2080    25.2300    50.7560 
   57.1250     2.2830    57.1340     0.2200     0.2160     0.2150    25.1920    50.0930 
   57.2500     2.3080    61.2720     0.2370     0.1310     0.2170    25.0420    48.8410 
   57.3750     2.3390    67.9770     0.8270     0.0740     0.2150    24.7420    46.8750 
   57.5000     2.3700    80.1980     1.1930     0.1780     0.5090    24.4290    44.1310 
   57.6250     2.3740    93.8270     1.8260     0.4460     2.9270    24.1830    40.5520 
   57.7500     2.3550   101.5010     2.8030     0.9200     3.3360    23.9840    36.5000 
   57.8750     2.3310   103.5430     3.7990     1.5960     4.4660    23.8810    32.2280 
   58.0000     2.3230   102.9690     4.3420     2.3720     5.2820    23.8850    27.9590 
   58.1250     2.3340   100.0400     4.3900     3.1100     6.7900    23.8970    23.9530 
   58.2500     2.3490    96.5500     4.4780     3.7930     7.7990    23.8650    20.3590 
   58.3750     2.3610    96.2230     4.8480     4.4830     9.1690    23.8240    17.3230 
   58.5000     2.3760    98.7460     5.5640     5.2350    11.1680    23.8690    14.9250 
   58.6250     2.3960    97.3350     6.6490     6.0490    14.7250    23.8990    13.2010 
   58.7500     2.4030    91.6630     7.8400     6.8030    18.1300    23.8440    11.8470 
   58.8750     2.3740    86.5360     8.8040     7.3370    11.8980    23.6720    10.7130 
   59.0000     2.3160    83.2520     9.2760     7.5470    10.6030    23.5050     9.7090 
   59.1250     2.2670    82.8560     9.1210     7.4060    10.3190    23.4060     8.7990 
   59.2500     2.2400    86.9720     8.6200     7.0920     9.7500    23.3610     7.9710 
   59.3750     2.2290    92.4630     8.0190     6.7360     8.5070    23.3350     7.2070 
   59.5000     2.2230    93.6040     7.5040     6.4180     7.9910    23.3090     6.4830 
   59.6250     2.2240    91.8070     7.1630     6.1760     7.7040    23.3020     5.8220 
   59.7500     2.2320    93.4310     6.9580     6.0170     7.5550    23.3080     5.2790 
   59.8750     2.2440    96.4300     6.8650     5.9640     7.4410    23.2740     4.8790 
   60.0000     2.2490    95.0590     6.8670     6.0240     7.4820    23.1530     4.6000 
   60.1250     2.2400    88.9300     6.9710     6.1870     7.5030    22.9910     4.3840 
   60.2500     2.2270    85.3570     7.1700     6.3900     7.3710    22.8680     4.1440 
   60.3750     2.2200    86.8740     7.3870     6.5680     7.4710    22.8180     3.8580 
   60.5000     2.2240    92.3110     7.4940     6.6430     7.7740    22.7890     3.5470 
   60.6250     2.2350    96.6040     7.4290     6.5560     7.8060    22.7970     3.2760 
   60.7500     2.2430    96.6690     7.3130     6.3780     7.6930    22.8080     3.0600 
   60.8750     2.2450    95.8540     7.2090     6.1830     7.4260    22.8010     2.8210 
   61.0000     2.2430    96.9830     7.1120     6.0280     7.1420    22.7130     2.5180 
   61.1250     2.2420    98.7780     7.0060     5.9480     6.8390    22.5710     2.2200 
   61.2500     2.2380    99.0720     6.9380     5.9230     6.7090    22.5110     1.9700 
   61.3750     2.2330    98.5310     6.9730     5.9270     6.7420    22.5320     1.7760 
   61.5000     2.2360    97.6220     7.1520     5.9400     7.3100    22.6260     1.6540 
   61.6250     2.2470    95.6640     7.4210     5.9490     6.8910    22.8250     1.5910 
   61.7500     2.2510    94.8420     7.6180     5.9460     7.0630    22.9250     1.5180 
   61.8750     2.2460    95.9870     7.6760     5.9370     7.2530    22.8370     1.4460 
   62.0000     2.2390    98.8150     7.6420     5.9420     7.2360    22.8230     1.4010 
   62.1250     2.2350   103.7820     7.6280     5.9960     7.0590    22.9370     1.3680 
   62.2500     2.2270   106.8490     7.7080     6.1100     7.1810    22.9430     1.3230 
   62.3750     2.2150   104.6260     7.9080     6.2920     7.4610    22.8620     1.2410 
   62.5000     2.2000    99.3990     8.2210     6.5430     7.7070    22.7570     1.0740 
   62.6250     2.1870    96.3570     8.5950     6.8370     7.9710    22.7100     0.7920 
   62.7500     2.1810    92.8220     8.9010     7.1010     8.2390    22.6750     0.4410 
   62.8750     2.1790    87.6540     8.9990     7.2680     8.5330    22.6280     0.0520 
   63.0000     2.1800    84.9730     8.8110     7.2900     8.7740    22.6250    -0.3570 
   63.1250     2.1850    87.1990     8.3990     7.1530     8.6880    22.7580    -0.7400 
   63.2500     2.1960    90.0160     8.0140     6.9380     8.6170    23.0220    -1.0640 
   63.3750     2.2120    92.0920     7.8050     6.7060     8.2060    23.3170    -1.3060 
   63.5000     2.2290    92.8350     7.7950     6.5000     7.6480    23.4300    -1.4840 
   63.6250     2.2330    89.9030     7.8950     6.3460     7.8960    23.3010    -1.6200 
   63.7500     2.2230    84.8340     7.9310     6.2250     8.9200    23.1260    -1.7540 
   63.8750     2.2110    82.4570     7.8240     6.1240    10.4400    23.0580    -1.8880 
   64.0000     2.2120    83.8000     7.6700     6.0750     9.3880    23.0890    -2.0240 
   64.1250     2.2300    85.6980     7.8710     6.2510     9.6100    23.0530    -2.2190 
   64.2500     2.2550    85.3220     8.7890     6.8260    11.6040    22.9120    -2.4780 
   64.3750     2.2860    82.4520    10.6740     7.9800    13.9320    22.8250    -2.7910 
   64.5000     2.3350    78.4810    13.5690     9.8100    16.0140    22.9510    -3.1320 
   64.6250     2.4060    74.2580    16.9280    12.1280    26.1740    23.2620    -3.4860 
   64.7500     2.4630    70.7640    19.1390    13.9520    50.5700    23.4940    -3.8510 
   64.8750     2.4570    69.1820    18.9060    14.3260    37.5720    23.4690    -4.2530 
   65.0000     2.3760    69.6110    16.4830    13.1520    19.6500    23.3290    -4.7040 
   65.1250     2.2780    70.7780    13.5330    11.2860    12.8840    23.2460    -5.1860 
   65.2500     2.2140    69.7350    11.3690     9.6920    10.7860    23.1830    -5.6550 
   65.3750     2.1840    67.9050    10.2060     8.6310    10.3810    23.1100    -6.0880 
   65.5000     2.1660    67.8090     9.8250     8.0730    10.4900    23.0310    -6.4900 
   65.6250     2.1480    69.8720     9.8690     7.8830    10.4460    23.0010    -6.8460 
   65.7500     2.1350    70.7130     9.9570     7.8120    10.2470    23.0060    -7.1350 
   65.8750     2.1300    69.9770     9.9930     7.7740    10.0760    23.0350    -7.3420 
   66.0000     2.1300    69.1290     9.9900     7.7540     9.8660    23.1080    -7.4450 
   66.1250     2.1300    68.6080     9.9820     7.7790     9.8570    23.2010    -7.4320 
   66.2500     2.1280    67.2330     9.9960     7.8420    10.0010    23.3210    -7.3520 
   66.3750     2.1220    66.9630    10.0530     7.9180    10.3010    23.3760    -7.2400 
   66.5000     2.1160    68.7180    10.1520     7.9760    10.7750    23.3350    -7.0820 
   66.6250     2.1150    70.3730    10.2500     7.9850    11.0560    23.2110    -6.8730 
   66.7500     2.1180    70.5390    10.2860     7.9370    10.8920    23.1500    -6.6350 
   66.8750     2.1220    70.3390    10.2400     7.8300    10.4700    23.1060    -6.3710 
   67.0000     2.1270    69.9390    10.1310     7.6680    10.2640    23.0380    -6.1090 
   67.1250     2.1340    68.1370    10.0120     7.4740    10.1740    23.0030    -5.8640 
   67.2500     2.1410    66.2480     9.9520     7.3090    10.0690    22.9740    -5.6130 
   67.3750     2.1470    66.1030     9.9820     7.2190     9.9020    22.9150    -5.3760 
   67.5000     2.1540    68.0270    10.0920     7.2180     9.7200    22.7900    -5.1790 
   67.6250     2.1580    70.4850    10.2650     7.2990     9.5970    22.7120    -5.0190 
   67.7500     2.1580    72.0700    10.4680     7.4160     9.4340    22.6360    -4.8630 
   67.8750     2.1530    71.6240    10.6620     7.5440     9.4170    22.5450    -4.7060 
   68.0000     2.1480    69.3550    10.7950     7.6600     9.5040    22.4640    -4.5170 
   68.1250     2.1460    67.0970    10.8300     7.7460     9.5760    22.4400    -4.3270 
