~V
VERS. 2.00: Ver 2.00
~W
STRT.M 53.0000:
STOP.M 276.0000:
STEP.M 0.1250:
NULL. -999.2500:
UWI. F11074:
~C
DEPT.M :
DEN.GM/CC :
SP.MV :
GR.API :
RML.OHMM :
RI. :
RXO.OHMM :
CALI.CM :
~A
# ...
  255.5000     2.4050    -6.5800   124.7350     7.3090     5.9140     8.5500    24.5650 
  255.6250     2.3980    -6.4910   128.4940     7.0480     5.6920     7.6340    24.5650 
  255.7500     2.3920    -6.4240   127.9430     6.7420     5.4480     6.9340    24.5650 
  255.8750     2.3880    -6.3840   123.6940     6.4970     5.2470     6.6120    24.5650 
  256.0000     2.3870    -6.3660   118.1790     6.3820     5.1430     6.5620    24.5650 
  256.1250     2.3900    -6.3580   114.9060     6.4100     5.1650     6.6890    24.5650 
  256.2500     2.3960    -6.3510   113.7760     6.4910     5.2550     6.8220    24.5650 
  256.3750     2.4020    -6.3480   114.4290     6.5610     5.3600     6.9030    24.5650 
  256.5000     2.4050    -6.3420   115.4400     6.5880     5.4410     6.9360    24.5650 
  256.6250     2.4040    -6.3090   116.2160     6.5690     5.4790     6.9360    24.5650 
  256.7500     2.4040    -6.2740   117.9420     6.5250     5.4830     6.9440    24.5650 
  256.8750     2.4040    -6.2480   119.9500     6.4640     5.4610     6.9460    24.5650 
  257.0000     2.4020    -6.2380   120.5040     6.3940     5.4160     6.8380    24.5650 
  257.1250     2.3930    -6.2190   118.8310     6.3230     5.3560     6.6380    24.5650 
  257.2500     2.3810    -6.1950   118.2700     6.2640     5.2960     6.5140    24.5650 
  257.3750     2.3700    -6.1800   119.7800     6.2280     5.2480     6.4960    24.5650 
  257.5000     2.3650    -6.1770   120.7370     6.2160     5.2130     6.5270    24.5650 
  257.6250     2.3680    -6.2190   116.9010     6.2020     5.1760     6.5990    24.5650 
  257.7500     2.3780    -6.2800   109.2460     6.1530     5.1100     6.5660    24.5650 
  257.8750     2.3910    -6.3420   102.6650     6.0550     5.0060     6.3610    24.5650 
  258.0000     2.4040    -6.4090   102.0730     5.9340     4.8790     6.0590    24.5650 
  258.1250     2.4130    -6.4940   106.7920     5.8730     4.7890     5.7610    24.5650 
  258.2500     2.4230    -6.5800   108.2060     5.9690     4.8090     5.5920    24.5650 
  258.3750     2.4350    -6.6600   104.7540     6.3260     5.0210     5.7790    24.5650 
  258.5000     2.4460    -6.7440   100.2130     7.0370     5.5070     6.7850    24.5650 
  258.6250     2.4470    -6.8330    98.3100     8.1490     6.3680     9.1540    24.5650 
  258.7500     2.4360    -6.9090    95.8440     9.3410     7.4250    11.6270    24.5650 
  258.8750     2.4120    -6.9810    92.3490    10.1570     8.3400    12.1880    24.5650 
  259.0000     2.3790    -7.0250    90.7670    10.1830     8.6960    11.0100    24.5650 
  259.1250     2.3470    -7.0510    91.2000     9.3340     8.2610     9.7350    24.5650 
  259.2500     2.3270    -7.0980    92.6420     8.2650     7.5090     8.6160    24.5650 
  259.3750     2.3170    -7.1500    94.8140     7.4430     6.8380     7.8920    24.5650 
  259.5000     2.3130    -7.1660    97.4120     7.0710     6.4610     7.4440    24.5650 
  259.6250     2.3140    -7.1290    98.4160     7.1610     6.4430     7.6380    24.5650 
  259.7500     2.3200    -7.0950    97.5610     7.4690     6.6270     8.1280    24.5650 
  259.8750     2.3270    -7.0430    96.7740     7.8500     6.9030     8.4570    24.5650 
  260.0000     2.3300    -6.9890    96.9570     8.2150     7.1940     8.4200    24.5650 
  260.1250     2.3300    -6.9490    96.6090     8.5270     7.4640     8.7260    24.5650 
  260.2500     2.3310    -6.8970    95.2470     8.8100     7.7190     8.9000    24.5650 
  260.3750     2.3310    -6.8450    92.8890     9.1060     7.9840     8.9070    24.5650 
  260.5000     2.3270    -6.8240    91.5840     9.4570     8.2930     9.1930    24.5650 
  260.6250     2.3230    -6.8330    91.2610     9.8930     8.6740     9.9580    24.5650 
  260.7500     2.3240    -6.8510    88.6570    10.3740     9.0980    10.9950    24.5650 
  260.8750     2.3290    -6.8970    85.9720    10.8640     9.5360    11.8510    24.5650 
  261.0000     2.3330    -6.9760    88.1280    11.3960     9.9950    12.0460    24.5650 
  261.1250     2.3310    -7.0850    92.3350    12.2710    10.6610    11.8330    24.5650 
  261.2500     2.3230    -7.1990    91.1740    13.9220    11.8710    13.0260    24.5650 
  261.3750     2.3110    -7.3270    84.5180    16.6950    14.0030    17.2890    24.5650 
  261.5000     2.2970    -7.4650    79.1960    20.4610    17.1730    26.2100    24.5650 
  261.6250     2.2880    -7.6190    78.1230    23.9560    20.6290    31.9190    24.5580 
  261.7500     2.2940    -7.7790    77.0560    25.2350    22.5130    32.7260    24.5240 
  261.8750     2.3190    -7.9390    75.0930    23.5340    21.7390    30.2140    24.4550 
  262.0000     2.3580    -8.0810    74.8320    20.0120    19.0440    25.9620    24.3880 
  262.1250     2.3860    -8.1830    80.2810    16.8870    16.2870    19.1120    24.3620 
  262.2500     2.3930    -8.3040    86.4870    15.3160    14.6180    16.5690    24.3570 
  262.3750     2.3950    -8.4010    88.1630    15.4540    14.2800    18.2450    24.3570 
  262.5000     2.4050    -8.4660    85.9930    17.0090    15.1790    25.2780    24.3560 
  262.6250     2.4120    -8.5130    85.0010    19.3480    17.0290    26.1490    24.3440 
  262.7500     2.4020    -8.5270    85.6020    21.1970    18.8210    28.5060    24.3060 
  262.8750     2.3830    -8.5040    85.8700    21.5220    19.5400    35.2540    24.2380 
  263.0000     2.3780    -8.4410    86.9320    19.9780    18.6110    44.4990    24.1120 
  263.1250     2.4050    -8.3630    88.3650    17.1170    16.2970    53.7390    24.0240 
  263.2500     2.4500    -8.2700    88.0760    14.1700    13.7150    39.4900    24.0110 
  263.3750     2.4830    -8.1680    86.8540    11.7320    11.4400    19.4670    24.1500 
  263.5000     2.4860    -8.1050    86.4940    10.0660     9.7480    10.6970    24.3510 
  263.6250     2.4690    -8.0580    86.6360     9.2910     8.7890     8.9090    24.4580 
  263.7500     2.4500    -8.0200    86.0140     9.0390     8.3220     8.8250    24.4890 
  263.8750     2.4330    -8.0370    85.5250     9.0320     8.1540     8.8500    24.4920 
  264.0000     2.4210    -8.1050    84.5190     9.0760     8.1230     9.0950    24.4920 
  264.1250     2.4170    -8.2230    82.6070     9.1030     8.1580     8.9620    24.4910 
  264.2500     2.4120    -8.3500    83.0370     9.1390     8.2320     9.0680    24.4840 
  264.3750     2.4010    -8.4760    86.7590     9.2160     8.3470     9.0730    24.4530 
  264.5000     2.3820    -8.6060    90.2950     9.3260     8.4890     9.0130    24.3800 
  264.6250     2.3700    -8.7280    90.7310     9.4210     8.6110     9.4740    24.3100 
  264.7500     2.3730    -8.8440    90.9080     9.4740     8.6770    10.1740    24.2820 
  264.8750     2.3860    -8.9280    90.8980     9.4830     8.6760    11.0830    24.2790 
  265.0000     2.4030    -8.9720    89.1420     9.4570     8.6140    11.6600    24.2780 
  265.1250     2.4160    -9.0010    89.1420     9.4020     8.5040    11.4860    24.2770 
  265.2500     2.4270    -9.0180    89.1420     9.3370     8.3780    11.0640    24.2770 
  265.3750     2.4330    -9.0160    89.1420     9.2780     8.2540    10.5220    24.2960 
  265.5000     2.4340    -8.9720    89.1420     9.2390     8.1470    10.1090    24.3490 
  265.6250     2.4310    -8.8940    89.1420     9.2170     8.0590     9.8950    24.4360 
  265.7500     2.4260    -8.8070    89.1420     9.1900     7.9730     9.3870    24.4740 
  265.8750     2.4230    -8.7300    89.1420     9.1440     7.8790     8.9720    24.4830 
  266.0000     2.4240    -8.6730    89.1420     9.0860     7.7850     8.9410    24.4830 
  266.1250     2.4310    -8.6170    89.1420     9.0500     7.7200     9.1750    24.4830 
  266.2500     2.4330    -8.5510    89.1420     9.0620     7.6990     9.2260    24.4840 
  266.3750     2.4250    -8.4990    89.1420     9.1150     7.7160     9.3130    24.4900 
  266.5000     2.4090    -8.4530    89.1420     9.1770     7.7450     9.1920    24.5090 
  266.6250     2.3930    -8.4210    89.1420     9.1860     7.7450     9.1910    24.5500 
