~V
VERS. 2.00: Ver 2.00
~W
STRT.M 55.0000:
STOP.M 274.0000:
STEP.M 0.1250:
NULL. -999.2500:
UWI. F11049:
~C
DEPT.M :
SP.MV :
GR.API :
RML.OHMM :
RI. :
RXO.OHMM :
CALI.CM :
DEN.GM/CC :
~A
# ...
  201.2500   -20.2430    65.7440    43.5570    36.9110    47.5480    24.7980     2.5880 
  201.3750   -20.0670    70.4360    38.2230    32.6740    33.3990    24.8100     2.6260 
  201.5000   -19.9090    72.2290    32.5900    28.0650    29.1010    24.8140     2.6320 
  201.6250   -19.8280    71.6390    26.9470    23.2960    29.1070    24.8180     2.6160 
  201.7500   -19.6310    73.4710    21.6960    18.8010    29.2140    24.8220     2.5800 
  201.8750   -19.4520    78.4300    17.2140    14.9470    21.7550    24.8210     2.5280 
  202.0000   -19.3400    84.2160    13.7910    11.9640    13.0730    24.8130     2.4770 
  202.1250   -19.0800    88.8650    11.6840    10.0190    10.1870    24.8090     2.4530 
  202.2500   -18.7320    91.2790    10.5190     8.8060     9.6010    24.8070     2.4480 
  202.3750   -18.4250    91.6250    10.0110     8.1290     9.6270    24.8050     2.4480 
  202.5000   -18.0200    92.3690     9.8380     7.7830     9.7510    24.8040     2.4460 
  202.6250   -17.3880    94.4340     9.6990     7.5860     9.9570    24.7850     2.4450 
  202.7500   -16.7650    96.2540     9.4850     7.4140     9.7690    24.7370     2.4500 
  202.8750   -16.0730    95.9890     9.3290     7.3200     9.1510    24.7090     2.4610 
  203.0000   -15.2840    93.6160     9.4710     7.4390     8.5970    24.7480     2.4740 
  203.1250   -14.6520    89.0590    10.3210     8.0160     9.9780    24.7600     2.4830 
  203.2500   -14.1540    83.0730    12.1040     9.1730    13.2360    24.7240     2.4920 
  203.3750   -13.6430    77.9220    15.0590    11.0810    18.2200    24.6870     2.4980 
  203.5000   -13.1650    75.2750    19.2470    13.8630    22.2740    24.6960     2.5010 
  203.6250   -12.8680    74.8530    24.2170    17.4180    24.3370    24.7620     2.5110 
  203.7500   -12.5530    74.5590    28.2410    20.5920    28.8430    24.7830     2.5350 
  203.8750   -12.2800    75.5430    29.2630    21.7080    34.9050    24.7710     2.5640 
  204.0000   -12.1010    80.1300    26.1450    19.7000    36.6160    24.7400     2.5750 
  204.1250   -11.7830    85.9340    19.9230    15.3900    27.7450    24.7840     2.5480 
  204.2500   -11.3860    86.8650    13.8370    11.1730    15.5490    24.8120     2.4960 
  204.3750   -11.0440    81.5060     9.3540     7.9700     8.2990    24.8210     2.4370 
  204.5000   -10.7380    73.8740     6.7180     5.8970     5.5900    24.8150     2.3930 
  204.6250   -10.4420    67.5460     5.7130     4.8620     5.3790    24.8110     2.3800 
  204.7500   -10.3320    62.5760     5.5680     4.4540     5.5190    24.8060     2.3920 
  204.8750   -10.2990    59.5970     5.8950     4.4810     5.7130    24.7680     2.4080 
  205.0000   -10.2540    58.9240     6.3570     4.7490     5.9190    24.6980     2.4090 
  205.1250   -10.3930    58.2340     6.6390     5.0430     5.9380    24.6200     2.3840 
  205.2500   -10.6170    56.6990     6.6420     5.2070     6.0590    24.6220     2.3580 
  205.3750   -10.7950    58.3900     6.4130     5.2100     6.1460    24.5820     2.3530 
  205.5000   -10.9790    64.3190     6.0690     5.0970     6.0050    24.4160     2.3670 
  205.6250   -11.1950    69.9360     5.7420     4.9380     5.6220    24.2220     2.3810 
  205.7500   -11.2260    73.7050     5.5210     4.8050     5.3930    24.0980     2.3810 
  205.8750   -11.1600    76.6840     5.4300     4.7190     5.3640    24.0700     2.3670 
  206.0000   -11.1000    78.9600     5.4390     4.6740     5.4560    24.1310     2.3460 
  206.1250   -10.8060    79.8400     5.4790     4.6400     5.7350    24.1830     2.3270 
  206.2500   -10.3080    79.8070     5.4860     4.5890     6.1450    24.2050     2.3200 
  206.3750    -9.7790    79.3200     5.4510     4.5130     6.2910    24.2050     2.3280 
  206.5000    -9.2060    78.9790     5.4010     4.4210     6.0140    24.2370     2.3480 
  206.6250    -8.4780    78.8210     5.4190     4.3470     5.7700    24.3290     2.3700 
  206.7500    -7.8470    79.9040     5.5730     4.3390     5.8950    24.3900     2.3850 
  206.8750    -7.2760    82.3500     5.8850     4.4320     6.2070    24.4040     2.3880 
  207.0000    -6.6590    83.0350     6.3140     4.6270     6.6390    24.3890     2.3800 
  207.1250    -6.2300    80.7460     6.7730     4.8860     6.9880    24.3670     2.3660 
  207.2500    -6.0140    79.7420     7.1890     5.1500     7.7230    24.3790     2.3500 
  207.3750    -5.8580    82.5070     7.5590     5.3990     8.0280    24.4010     2.3380 
  207.5000    -5.7480    86.7430     7.9410     5.6540     7.6350    24.4040     2.3310 
  207.6250    -5.8310    88.2050     8.4860     5.9880     7.3410    24.4020     2.3260 
  207.7500    -5.9090    85.5100     9.2940     6.4650     9.2940    24.4190     2.3160 
  207.8750    -5.9770    78.8450    10.4110     7.1270    12.4570    24.4440     2.3010 
  208.0000    -6.1730    73.4670    11.8360     8.0030    13.8010    24.4320     2.2880 
  208.1250    -6.3710    75.5830    13.6250     9.1520    15.0180    24.4040     2.2840 
  208.2500    -6.4500    79.0810    15.7650    10.5550    17.6050    24.3740     2.2890 
  208.3750    -6.5560    78.1990    18.3300    12.2480    21.2390    24.3610     2.3030 
  208.5000    -6.7630    74.5400    21.4330    14.3090    24.7150    24.3850     2.3250 
  208.6250    -6.8750    71.8900    25.2460    16.9030    28.9190    24.4020     2.3500 
  208.7500    -6.9850    68.2960    29.4730    19.8940    35.0900    24.4030     2.3640 
  208.8750    -7.1670    63.4920    33.6730    23.0080    38.5960    24.3890     2.3530 
  209.0000    -7.2680    61.7530    37.3700    25.8860    38.8640    24.3650     2.3170 
  209.1250    -7.3020    65.8140    40.1400    28.1600    39.6370    24.3740     2.2760 
  209.2500    -7.4340    70.6920    42.0760    29.8250    40.2550    24.3960     2.2490 
  209.3750    -7.5530    72.6640    43.0910    30.8100    41.3800    24.3980     2.2370 
  209.5000    -7.5520    70.8390    42.9460    30.9580    42.7390    24.3780     2.2370 
  209.6250    -7.5870    66.8420    41.3470    30.0720    46.1930    24.3710     2.2440 
  209.7500    -7.6220    66.4300    39.0530    28.6460    45.5860    24.3810     2.2560 
  209.8750    -7.5690    70.2920    37.1070    27.3310    39.1340    24.3830     2.2720 
  210.0000    -7.5690    74.6330    36.6770    26.8590    31.7180    24.3630     2.2850 
  210.1250    -7.6050    73.9500    39.1800    28.2040    30.6940    24.3660     2.2810 
  210.2500    -7.5430    70.2030    44.6540    31.6120    43.1860    24.3760     2.2650 
  210.3750    -7.4910    66.5850    52.9440    37.2670    54.1970    24.3630     2.2490 
  210.5000    -7.5550    64.6120    63.2100    44.8920    57.7330    24.3590     2.2430 
  210.6250    -7.5830    63.7390    73.2930    53.2410    62.9880    24.3850     2.2430 
  210.7500    -7.6120    63.5740    80.3820    59.9890    70.2170    24.3870     2.2430 
  210.8750    -7.7130    63.4650    82.7280    63.4370    73.4400    24.3650     2.2390 
  211.0000    -7.7480    63.4110    80.2510    63.0550    67.9880    24.3590     2.2320 
  211.1250    -7.7260    64.8370    74.1940    59.3190    60.2230    24.3750     2.2260 
  211.2500    -7.7990    67.9010    67.7340    54.6150    51.8890    24.3670     2.2230 
  211.3750    -7.8810    69.5570    63.2270    50.8030    45.2240    24.3590     2.2230 
  211.5000    -7.8500    67.4470    62.4250    49.3930    43.4700    24.3830     2.2250 
  211.6250    -7.8810    64.8530    67.1560    52.0580    45.9400    24.3900     2.2240 
  211.7500    -7.9370    66.3930    76.9550    58.7850    46.0050    24.3740     2.2150 
  211.8750    -7.9240    69.1140    91.6440    69.6720    43.6780    24.3620     2.1990 
  212.0000    -7.9880    67.5790   110.3260    84.2040    48.5370    24.3760     2.1800 
  212.1250    -8.1250    62.6920   130.1960   100.5190    66.8530    24.3710     2.1650 
  212.2500    -8.1580    60.7740   145.7980   114.5470    90.2540    24.3590     2.1580 
  212.3750    -8.1820    62.3020   152.3770   122.6140   130.0750    24.3710     2.1570 
