~V
VERS. 2.00: Ver 2.00
~W
STRT.M 54.0000:
STOP.M 281.0000:
STEP.M 0.1250:
NULL. -999.2500:
UWI. F11055:
~C
DEPT.M :
SP.MV :
GR.API :
RML.OHMM :
RI. :
RXO.OHMM :
CALI.CM :
DEN.GM/CC :
~A
# ...
  222.7500    -4.3740    65.3110    65.4640    62.1490    66.2510    24.4780     2.2380 
  222.8750    -4.3510    67.0600    63.9320    60.7100    65.9890    24.4920     2.2280 
  223.0000    -4.3500    68.0400    62.9480    59.9280    66.5590    24.4700     2.2210 
  223.1250    -4.3480    68.0280    62.4270    59.6830    66.2890    24.4700     2.2200 
  223.2500    -4.3620    68.3290    62.2070    59.7510    65.2500    24.4900     2.2230 
  223.3750    -4.3890    68.5700    62.2730    60.0670    65.1870    24.5020     2.2250 
  223.5000    -4.3980    67.6420    62.6470    60.6210    65.3320    24.4850     2.2280 
  223.6250    -4.4300    66.8890    63.3110    61.3780    65.4820    24.4880     2.2350 
  223.7500    -4.4040    68.5620    63.8860    62.0670    67.0880    24.4940     2.2440 
  223.8750    -4.3680    70.9940    63.8100    62.2600    69.1740    24.4730     2.2500 
  224.0000    -4.2930    71.8280    62.4770    61.4350    71.4000    24.4670     2.2500 
  224.1250    -4.1940    71.0590    59.2650    58.9730    73.4340    24.4890     2.2460 
  224.2500    -4.0220    69.6960    54.7420    55.1920    74.3630    24.4790     2.2450 
  224.3750    -3.8080    66.2010    49.5790    50.5320    71.5280    24.4700     2.2510 
  224.5000    -3.5790    61.2830    44.5090    45.6140    58.8690    24.4900     2.2620 
  224.6250    -3.3650    61.3520    40.3940    41.2610    46.4440    24.4840     2.2730 
  224.7500    -3.1570    67.7840    37.5670    37.9560    41.3280    24.4670     2.2800 
  224.8750    -2.9590    74.5010    36.2230    35.9650    38.3030    24.4830     2.2850 
  225.0000    -2.7790    76.0280    36.4410    35.4100    35.7190    24.4880     2.2900 
  225.1250    -2.6300    72.9870    38.4030    36.5330    36.4220    24.4670     2.2950 
  225.2500    -2.5400    70.9980    41.5490    38.8970    41.7270    24.4830     2.2960 
  225.3750    -2.4960    71.2850    45.3860    42.1170    47.9060    24.5080     2.2920 
  225.5000    -2.5340    71.2890    49.3150    45.6550    53.3470    24.4990     2.2840 
  225.6250    -2.5900    70.0140    52.5740    48.7720    58.4220    24.4670     2.2720 
  225.7500    -2.7170    67.8450    54.9110    51.0780    58.3360    24.4780     2.2580 
  225.8750    -2.8840    66.4810    56.4980    52.6160    56.1200    24.4880     2.2490 
  226.0000    -3.0890    65.4400    57.7930    53.7190    56.9430    24.4670     2.2490 
  226.1250    -3.3330    64.4990    59.3000    54.7790    60.1040    24.4720     2.2540 
  226.2500    -3.6040    64.0640    61.2010    56.0100    61.7380    24.4900     2.2560 
  226.3750    -3.8890    65.0390    63.4660    57.4210    62.4030    24.4760     2.2520 
  226.5000    -4.1200    66.1470    65.8410    58.8740    64.4070    24.4690     2.2500 
  226.6250    -4.3620    65.7860    67.9270    60.1210    69.1390    24.4890     2.2500 
  226.7500    -4.5680    66.3810    69.7320    61.1490    73.1960    24.4780     2.2510 
  226.8750    -4.7690    67.2560    71.6080    62.1720    73.4340    24.4580     2.2500 
  227.0000    -4.9490    66.4660    74.0350    63.5360    73.6580    24.4670     2.2460 
  227.1250    -5.1210    64.4510    77.6540    65.7680    74.8280    24.4630     2.2400 
  227.2500    -5.2780    63.5910    82.5580    69.0210    78.1140    24.4950     2.2310 
  227.3750    -5.4350    63.7480    88.6770    73.2980    84.3920    24.5260     2.2240 
  227.5000    -5.6140    63.6000    95.6760    78.3930    97.4600    24.5400     2.2210 
  227.6250    -5.7630    64.6550   103.1760    84.0860    99.6180    24.5460     2.2210 
  227.7500    -5.9090    66.3440   110.7330    90.0120   102.3830    24.5530     2.2200 
  227.8750    -6.0560    66.8970   118.0350    95.8570   104.5010    24.5470     2.2170 
  228.0000    -6.2110    65.9560   124.6410   101.1400   108.2650    24.5410     2.2130 
  228.1250    -6.3670    64.5340   129.4940   104.9330   116.6920    24.5430     2.2090 
  228.2500    -6.5130    62.4240   131.8200   106.6980   129.7130    24.5410     2.2040 
  228.3750    -6.6640    59.9710   131.1800   106.1870   130.8970    24.5430     2.2000 
  228.5000    -6.8090    59.3010   128.0630   103.8120   119.9710    24.5540     2.2030 
  228.6250    -6.9370    61.8890   123.4000   100.3490   117.0140    24.5500     2.2170 
  228.7500    -7.0560    64.2270   118.0050    96.5390   106.9350    24.5440     2.2470 
  228.8750    -7.1420    64.1870   111.5900    92.2220    93.5470    24.5490     2.2910 
  229.0000    -7.1930    64.2200   103.8190    87.0470    79.3590    24.5530     2.3260 
  229.1250    -7.1930    66.1860    95.5050    81.2430    77.3620    24.5460     2.3150 
  229.2500    -7.1530    66.5960    88.9300    76.3090    81.8160    24.5500     2.2880 
  229.3750    -7.0580    64.5120    86.0780    73.9020    85.6650    24.5570     2.3000 
  229.5000    -6.9170    63.1960    88.0050    75.3130    91.9810    24.5600     2.3730 
  229.6250    -6.7560    63.5090    93.8140    80.6150   108.7730    24.5510     2.4800 
  229.7500    -6.5330    62.9890    96.8510    84.6120   141.0830    24.5480     2.5670 
  229.8750    -6.3010    62.3270    89.1560    79.9760   204.5030    24.5390     2.6120 
  230.0000    -6.0560    64.3050    68.8330    63.4960   236.2800    24.5360     2.6250 
  230.1250    -5.8240    68.7460    45.1470    42.3700   160.7490    24.5430     2.6050 
  230.2500    -5.6130    71.3550    27.4220    26.0140    55.8420    24.5450     2.5470 
  230.3750    -5.4620    72.9310    16.6400    15.8840    17.9150    24.5390     2.4720 
  230.5000    -5.3600    76.0970    10.9610    10.4200     8.7170    24.5410     2.4200 
  230.6250    -5.3120    81.6670     8.6120     7.9600     8.8010    24.5480     2.4060 
  230.7500    -5.3050    87.6020     7.6880     6.7720     9.1900    24.5440     2.4030 
  230.8750    -5.3380    93.0380     7.5300     6.3230     8.2110    24.5390     2.3990 
  231.0000    -5.4020   100.3470     7.7200     6.2960     7.4050    24.5400     2.4010 
  231.1250    -5.5070   112.6140     7.9630     6.4690     7.5010    24.5340     2.4090 
  231.2500    -5.6240   127.6040     8.1200     6.6650     7.8040    24.5350     2.4100 
  231.3750    -5.7140   138.7560     8.1880     6.8340     7.7980    24.5430     2.4020 
  231.5000    -5.8040   139.7260     8.1780     6.9560     7.7750    24.5450     2.3960 
  231.6250    -5.8770   132.8470     8.0780     7.0040     7.6740    24.5390     2.4020 
  231.7500    -5.9470   128.6080     7.9400     7.0070     7.5910    24.5420     2.4120 
  231.8750    -5.9990   130.1500     7.8370     7.0040     7.5060    24.5450     2.4150 
  232.0000    -6.0420   132.2950     7.8300     7.0290     7.4950    24.5380     2.4110 
  232.1250    -6.0780   129.9530     7.9520     7.1040     7.6010    24.5370     2.4060 
  232.2500    -6.0900   124.4180     8.1510     7.2130     7.8090    24.5390     2.4020 
  232.3750    -6.0790   117.2620     8.3790     7.3460     7.9910    24.5360     2.4030 
  232.5000    -6.0290   111.5890     8.6050     7.4870     8.2020    24.5350     2.4090 
  232.6250    -5.9680   109.9450     8.8170     7.6150     8.3570    24.5390     2.4150 
  232.7500    -5.8700   110.8950     9.0020     7.7120     8.4250    24.5370     2.4180 
  232.8750    -5.7630   112.4000     9.1380     7.7680     8.5580    24.5360     2.4170 
  233.0000    -5.6380   113.8850     9.2140     7.7800     8.4630    24.5410     2.4140 
  233.1250    -5.4770   116.3420     9.2290     7.7410     8.3730    24.5410     2.4080 
  233.2500    -5.3050   117.7040     9.2010     7.6460     8.4080    24.5330     2.4000 
  233.3750    -5.1140   118.5750     9.1080     7.4630     8.5920    24.5310     2.3890 
  233.5000    -4.9290   120.2430     8.9140     7.1680     8.7370    24.5350     2.3730 
  233.6250    -4.7210   120.9810     8.5940     6.7560     8.5330    24.5360     2.3540 
  233.7500    -4.5110   118.8830     8.2260     6.3090     7.8330    24.5340     2.3360 
  233.8750    -4.2910   115.8210     7.9220     5.9280     7.2610    24.5360     2.3280 
