~V
VERS. 2.00: Ver 2.00
~W
STRT.M 59.0000:
STOP.M 225.0000:
STEP.M 0.1250:
NULL. -999.2500:
UWI. F11010:
~C
DEPT.M :
GR.API :
RML.OHMM :
RI. :
RXO.OHMM :
CALI.CM :
SP.MV :
DEN.GM/CC :
~A
# ...
  182.7500    96.0150    10.2950     7.7870     8.4070    24.7830   -13.1940     2.3530 
  182.8750    99.3300    11.1650     8.4200     9.6660    24.7640   -13.2610     2.3590 
  183.0000   101.3260    12.0790     9.1380    10.4740    24.7570   -13.3050     2.3660 
  183.1250    96.0200    12.8890     9.8180    12.4450    24.7700   -13.3690     2.3720 
  183.2500    88.3980    13.6090    10.4100    13.6820    24.8190   -13.4980     2.3750 
  183.3750    84.6180    14.3910    10.9920    13.6510    24.8820   -13.7590     2.3720 
  183.5000    84.6720    15.4550    11.7280    12.1850    24.9140   -14.1410     2.3600 
  183.6250    83.5940    17.0570    12.8610    13.4820    24.9280   -14.6080     2.3410 
  183.7500    80.2960    19.1010    14.4140    17.4510    24.9360   -15.0650     2.3250 
  183.8750    77.1630    21.4090    16.3290    21.4700    24.9190   -15.4780     2.3160 
  184.0000    74.8640    23.7630    18.4600    23.8140    24.8730   -15.8450     2.3110 
  184.1250    74.4070    26.0420    20.6440    23.4470    24.9060   -16.1390     2.2980 
  184.2500    75.9410    28.3910    22.8670    22.2650    24.9440   -16.3220     2.2720 
  184.3750    77.3470    31.0830    25.3210    25.0750    25.0070   -16.3730     2.2360 
  184.5000    76.0740    34.3670    28.2590    31.3560    25.0600   -16.3160     2.2040 
  184.6250    72.7680    38.3040    31.8760    39.5380    25.0830   -16.1850     2.1860 
  184.7500    71.4440    42.2130    35.7260    43.0510    25.0840   -16.0190     2.1810 
  184.8750    71.6350    45.0410    38.9130    44.2870    25.0820   -15.8470     2.1840 
  185.0000    71.1080    45.5790    40.1620    46.0500    25.0810   -15.6560     2.1940 
  185.1250    70.8120    42.6520    38.0010    47.6300    25.0780   -15.4130     2.2120 
  185.2500    70.9550    37.4130    33.4130    46.5420    25.0740   -15.1340     2.2360 
  185.3750    71.9890    31.3790    27.9890    36.9470    25.0600   -14.8400     2.2620 
  185.5000    74.6860    26.1360    23.3100    24.8560    25.0510   -14.5720     2.2820 
  185.6250    80.2880    23.1070    20.5890    18.5090    25.0380   -14.3660     2.2900 
  185.7500    84.0450    22.5130    19.7880    19.5960    25.0450   -14.2490     2.2870 
  185.8750    80.4370    24.5730    20.9940    21.4370    25.0680   -14.2000     2.2770 
  186.0000    70.5240    29.0960    24.3420    29.6310    25.0860   -14.1870     2.2630 
  186.1250    64.2570    35.5490    30.1590    39.2010    25.0910   -14.1920     2.2490 
  186.2500    66.9960    42.5900    37.5010    46.9850    25.0950   -14.2320     2.2380 
  186.3750    73.4610    49.0860    45.1470    48.3580    25.1090   -14.3080     2.2310 
  186.5000    75.8770    53.5110    51.2070    48.5680    25.1410   -14.3760     2.2260 
  186.6250    73.9910    53.5350    52.6380    52.8950    25.1740   -14.3860     2.2190 
  186.7500    73.1100    49.4350    49.1540    59.1440    25.2030   -14.3140     2.2140 
  186.8750    73.7790    42.4200    42.1440    60.6010    25.2020   -14.1980     2.2120 
  187.0000    75.4050    34.4030    33.8850    44.3850    25.1710   -14.0950     2.2180 
  187.1250    78.1000    28.3820    26.5940    24.7860    25.1430   -14.0460     2.2330 
  187.2500    80.0150    22.7270    21.0900    17.1930    25.1160   -14.0400     2.2540 
  187.3750    78.9360    18.8200    17.3660    20.0670    25.0940   -14.0430     2.2780 
  187.5000    76.3180    16.5800    15.1730    20.8260    25.0870   -14.0630     2.3020 
  187.6250    76.4780    16.3290    14.6460    14.2060    25.0760   -14.1570     2.3160 
  187.7500    77.2050    18.0130    15.6940    12.5540    25.0520   -14.3240     2.3130 
  187.8750    76.9250    21.9160    18.6280    16.7020    25.0440   -14.5440     2.2900 
  188.0000    76.3930    28.1530    23.9040    25.2070    25.0810   -14.7740     2.2570 
  188.1250    77.3520    36.0160    31.9800    36.2770    25.1270   -14.9700     2.2250 
  188.2500    77.5660    42.5810    40.3020    45.6910    25.1410   -15.1170     2.2050 
  188.3750    75.2610    44.9630    44.4130    50.0540    25.1060   -15.2400     2.1980 
  188.5000    72.1170    42.0210    41.5120    51.6080    25.0240   -15.3560     2.2050 
  188.6250    71.1730    35.3890    34.1480    46.8040    24.9350   -15.4730     2.2250 
  188.7500    73.2430    29.3330    27.6450    29.4940    24.9310   -15.6230     2.2460 
  188.8750    76.3280    26.2180    23.9090    17.2820    24.9400   -15.8420     2.2570 
  189.0000    79.0040    27.0490    23.5200    17.1390    24.9600   -16.1660     2.2510 
  189.1250    77.3110    32.7430    27.3370    32.6700    25.0010   -16.6210     2.2300 
  189.2500    72.9750    42.2440    34.9770    53.1410    24.9930   -17.1580     2.2080 
  189.3750    71.3540    54.2970    46.0390    63.1100    24.9550   -17.7440     2.1940 
  189.5000    73.0240    66.5470    58.5210    63.2160    24.9480   -18.3400     2.1880 
  189.6250    71.3790    75.6570    68.1460    63.7410    24.9140   -18.9250     2.1830 
  189.7500    66.6080    80.8990    73.3850    65.7810    24.7960   -19.4770     2.1750 
  189.8750    66.4000    83.1180    75.6070    68.9580    24.6720   -19.9600     2.1650 
  190.0000    72.5020    83.6150    76.5000    67.6070    24.6490   -20.3580     2.1580 
  190.1250    77.1580    82.9970    76.3300    63.8640    24.5790   -20.6460     2.1550 
  190.2500    75.4280    81.6780    75.2480    66.1660    24.5010   -20.8480     2.1570 
  190.3750    69.8420    80.0200    73.6490    74.4810    24.4640   -20.9970     2.1600 
  190.5000    65.8140    78.5010    72.0580    73.4800    24.4820   -21.1220     2.1610 
  190.6250    65.4690    77.4120    70.9060    57.6590    24.4760   -21.1990     2.1590 
  190.7500    64.9920    76.2940    69.9990    53.3270    24.4240   -21.2400     2.1600 
  190.8750    62.5950    74.3700    68.6390    61.6240    24.3390   -21.2220     2.1670 
  191.0000    61.1890    70.9380    65.9800    66.1880    24.2570   -21.1550     2.1810 
  191.1250    63.6760    65.7180    61.5000    57.8360    24.2830   -21.0750     2.1960 
  191.2500    69.8470    59.9100    56.2380    44.4180    24.4100   -21.0110     2.2040 
  191.3750    76.7740    54.8470    51.4440    33.0180    24.5580   -20.9670     2.2030 
  191.5000    80.0920    51.8180    48.3900    28.5800    24.7260   -20.9330     2.1990 
  191.6250    76.8950    52.2780    48.5630    30.1190    24.8180   -20.9150     2.1980 
  191.7500    72.0340    55.9700    51.9120    36.1990    24.8380   -20.8870     2.2040 
  191.8750    69.7340    62.3610    58.2120    49.3220    24.8540   -20.8640     2.2160 
  192.0000    68.8970    70.0750    66.4810    72.9970    24.8640   -20.8680     2.2280 
  192.1250    66.9600    76.3160    74.1400    86.4990    24.8310   -20.8910     2.2330 
  192.2500    65.4240    78.6240    78.0460    88.2880    24.8820   -20.8910     2.2320 
  192.3750    64.7530    75.9470    76.4830    82.9630    24.9450   -20.8510     2.2270 
  192.5000    64.5590    69.0690    70.0370    72.8920    24.9590   -20.7960     2.2270 
  192.6250    65.0980    60.1400    61.0960    57.4040    24.8940   -20.7110     2.2370 
  192.7500    67.5320    51.8310    52.7030    47.1020    24.8680   -20.6190     2.2510 
  192.8750    71.3530    45.2660    46.0660    40.4770    24.9150   -20.5480     2.2610 
  193.0000    75.0740    40.7170    41.4480    36.1110    25.0120   -20.4820     2.2630 
  193.1250    77.6060    38.2020    38.8630    33.7550    25.0710   -20.4430     2.2560 
  193.2500    78.9220    36.9850    37.5900    32.6270    25.0720   -20.4730     2.2480 
  193.3750    78.5940    36.7040    37.2830    32.1670    24.9980   -20.5750     2.2440 
  193.5000    76.4640    37.0780    37.6560    32.4940    24.8450   -20.7240     2.2440 
  193.6250    72.2500    37.9670    38.5510    32.4510    24.6480   -20.9350     2.2430 
  193.7500    67.2050    39.1780    39.7540    33.3040    24.4920   -21.1750     2.2380 
  193.8750    63.2320    40.6740    41.2070    37.1200    24.4490   -21.4100     2.2290 
