~V
VERS. 2.00: Ver 2.00
~W
STRT.M 7.0000:
STOP.M 259.0000:
STEP.M 0.1250:
NULL. -999.2500:
UWI. F11018:
~C
DEPT.M :
DEN.GM/CC :
SP.MV :
GR.API :
RML.OHMM :
RI. :
RXO.OHMM :
CALI.CM :
~A
# ...
  209.5000     2.3820   -12.5730    84.3060    12.1370     8.8920     8.2860    20.8060 
  209.6250     2.3700   -12.8320    77.2480    17.4130    12.9440    10.3990    20.0270 
  209.7500     2.3700   -13.0690    74.5380    27.6980    19.7850    13.4610    19.9430 
  209.8750     2.3700   -13.2930    70.5110    41.2090    30.0990    18.2070    20.4020 
  210.0000     2.3430   -13.5200    62.1450    57.4060    43.4140    24.7790    21.3060 
  210.1250     2.2920   -13.7740    58.9140    72.0670    56.1680    33.0640    22.3150 
  210.2500     2.2390   -14.0700    62.4520    82.1490    65.8870    40.9440    23.0760 
  210.3750     2.2070   -14.3780    64.2240    88.5080    72.5550    46.7050    23.5040 
  210.5000     2.1970   -14.6530    61.6010    94.1770    77.9240    49.2010    23.6510 
  210.6250     2.1970   -14.9120    62.2990   100.9760    83.7090    49.2840    23.6690 
  210.7500     2.1990   -15.1570    65.4210   108.4840    89.9650    49.3980    23.6350 
  210.8750     2.1980   -15.3840    65.4760   114.9820    95.7060    52.8730    23.6070 
  211.0000     2.1960   -15.5720    64.7820   117.6310    98.9730    58.1800    23.5680 
  211.1250     2.1990   -15.7290    66.0420   115.8800    99.0480    58.2820    23.5260 
  211.2500     2.2050   -15.8720    66.0720   110.3510    95.9930    55.6260    23.5030 
  211.3750     2.2110   -16.0240    63.1870   102.6630    90.7130    55.1660    23.5090 
  211.5000     2.2100   -16.1810    61.0610    94.9210    84.6280    53.2080    23.5710 
  211.6250     2.2070   -16.3040    61.0040    88.7940    79.3210    50.0710    23.6360 
  211.7500     2.2060   -16.4190    61.0520    85.1710    75.7990    45.9160    23.6320 
  211.8750     2.2090   -16.5420    60.2230    84.5310    74.8010    44.2360    23.5640 
  212.0000     2.2130   -16.7050    60.0900    87.4940    77.2060    46.3450    23.4790 
  212.1250     2.2140   -16.9020    62.4330    93.1980    82.3390    48.8410    23.4140 
  212.2500     2.2120   -17.0940    67.3890   100.8170    89.5010    50.8130    23.3590 
  212.3750     2.2080   -17.2490    70.8520   108.8610    97.4700    55.2240    23.2900 
  212.5000     2.2070   -17.3570    68.2390   114.3170   103.9080    55.8880    23.2270 
  212.6250     2.2080   -17.4620    63.7650   114.8440   106.6470    54.6490    23.2170 
  212.7500     2.2110   -17.5810    61.6380   109.7080   104.4370    52.4560    23.2370 
  212.8750     2.2160   -17.7240    62.3910   100.5800    97.7570    53.1990    23.2510 
  213.0000     2.2200   -17.8690    63.7950    90.8490    88.8230    52.6820    23.3070 
  213.1250     2.2250   -17.9950    63.9910    83.3520    80.9280    49.9030    23.3360 
  213.2500     2.2310   -18.1080    63.2350    79.1820    75.8320    47.1110    23.3790 
  213.3750     2.2370   -18.2050    61.7950    78.6040    74.3170    48.5950    23.4370 
  213.5000     2.2400   -18.2830    59.4440    81.7950    76.8740    53.8550    23.4580 
  213.6250     2.2350   -18.3510    58.1540    87.2380    82.0170    54.1840    23.4850 
  213.7500     2.2210   -18.4110    58.2440    93.4140    88.3060    48.7400    23.5190 
  213.8750     2.2060   -18.4480    58.9480    98.1630    93.7560    46.3600    23.5290 
  214.0000     2.1960   -18.4510    61.4150    99.0700    95.7370    49.1760    23.5000 
  214.1250     2.1900   -18.4350    65.3470    97.0620    94.9400    51.4770    23.4240 
  214.2500     2.1850   -18.4110    69.8810    91.8300    90.6500    47.8440    23.3480 
  214.3750     2.1850   -18.4220    70.7580    86.3120    85.1050    45.2270    23.3340 
  214.5000     2.1940   -18.4830    67.7480    82.4380    80.3220    43.4170    23.3000 
  214.6250     2.2040   -18.6050    63.4510    81.3580    77.8010    41.7510    23.2070 
  214.7500     2.2070   -18.7610    60.5390    84.0520    78.9840    48.8630    23.1480 
  214.8750     2.2000   -18.9310    61.5290    89.6600    83.2700    54.9950    23.1420 
  215.0000     2.1940   -19.1130    65.1120    97.4130    89.8900    56.9630    23.1610 
  215.1250     2.1920   -19.3180    66.0630   106.3690    97.8630    58.9230    23.2230 
  215.2500     2.1950   -19.5550    63.0030   115.6100   106.2800    60.6230    23.3660 
  215.3750     2.1970   -19.7900    60.0950   124.7430   114.6610    60.6090    23.4470 
  215.5000     2.2010   -20.0290    60.2880   134.1760   123.3400    63.9990    23.4730 
  215.6250     2.2090   -20.2440    61.7010   144.5080   132.9580    69.4160    23.4500 
  215.7500     2.2250   -20.4610    60.8330   156.0230   144.0000    74.5280    23.3670 
  215.8750     2.2390   -20.6710    57.7190   167.9770   155.8010    73.6490    23.3170 
  216.0000     2.2420   -20.8770    56.1370   179.5150   167.5630    77.4820    23.4090 
  216.1250     2.2320   -21.0920    57.1860   189.4130   178.2240    94.1410    23.5830 
  216.2500     2.2160   -21.3040    58.1510   194.7470   185.5610   111.0530    23.6460 
  216.3750     2.2030   -21.4760    58.5030   192.8490   187.4280   112.3330    23.6120 
  216.5000     2.1970   -21.5880    58.6200   181.2950   181.2210   102.5330    23.5480 
  216.6250     2.1960   -21.6650    57.7300   160.8460   165.9140    90.7360    23.4710 
  216.7500     2.1980   -21.7020    55.9580   136.6330   143.7020    81.9200    23.3930 
  216.8750     2.2020   -21.7280    55.8730   115.5380   121.6560    73.1100    23.3180 
  217.0000     2.2090   -21.7400    58.3280   100.5370   104.2310    62.9390    23.2390 
  217.1250     2.2180   -21.7250    60.5570    92.3810    93.5720    51.1650    23.1460 
  217.2500     2.2230   -21.6820    58.6270    91.5800    91.0850    47.6490    23.1260 
  217.3750     2.2230   -21.6480    54.1640    95.7980    94.4910    51.0000    23.2200 
  217.5000     2.2200   -21.6460    52.0950   103.1250   101.7320    55.1520    23.3250 
  217.6250     2.2180   -21.6810    54.4310   110.7280   109.7710    57.5120    23.2890 
  217.7500     2.2170   -21.7400    56.8970   114.3560   114.2330    62.4990    23.2380 
  217.8750     2.2190   -21.8090    58.1340   112.5370   113.2740    66.7700    23.2170 
  218.0000     2.2240   -21.8590    61.3110   106.2770   107.4490    62.2510    23.1800 
  218.1250     2.2310   -21.8810    66.3340    98.1500    99.0840    50.4480    23.1360 
  218.2500     2.2380   -21.8790    66.7240    90.7350    90.8310    46.0780    23.1410 
  218.3750     2.2410   -21.8500    63.7430    85.1060    84.1250    47.0500    23.1210 
  218.5000     2.2410   -21.7940    63.5030    81.6050    79.4630    44.7510    23.1190 
  218.6250     2.2410   -21.6970    67.5860    80.3250    77.0200    41.3810    23.1640 
  218.7500     2.2410   -21.5660    69.8370    81.5750    77.0770    38.9630    23.1870 
  218.8750     2.2380   -21.4160    67.5570    84.9090    79.1230    38.8760    23.2160 
  219.0000     2.2320   -21.2800    63.3050    90.1710    82.9910    41.0910    23.2910 
  219.1250     2.2260   -21.1650    61.0110    96.8480    88.2120    44.5830    23.3300 
  219.2500     2.2250   -21.0730    62.0740   103.6860    93.6570    45.2850    23.3300 
  219.3750     2.2280   -21.0090    64.9090   109.0630    97.8670    46.4140    23.3640 
  219.5000     2.2320   -20.9720    66.4210   111.8340    99.8510    47.2770    23.4790 
  219.6250     2.2340   -20.9570    63.6230   111.3840    99.0750    48.5370    23.6620 
  219.7500     2.2350   -20.9530    59.2700   107.4260    95.2200    47.4560    23.7520 
  219.8750     2.2300   -20.9560    57.4150   101.5570    89.5780    46.5380    23.7490 
  220.0000     2.2140   -20.9540    56.8890    95.0880    83.2700    47.9450    23.7420 
  220.1250     2.2030   -20.9370    54.5440    89.2300    77.3930    46.9800    23.6320 
  220.2500     2.2160   -20.9070    51.5800    85.2450    73.1240    40.6460    23.3120 
  220.3750     2.2370   -20.8540    51.0480    83.3590    70.7440    34.0380    23.1880 
  220.5000     2.2460   -20.7840    52.8130    83.4660    70.2460    32.1510    23.2870 
  220.6250     2.2430   -20.7350    55.3440    84.8120    71.1190    35.4410    23.4450 
