~V
VERS. 2.00: Ver 2.00
~W
STRT.M 53.0000:
STOP.M 257.0000:
STEP.M 0.1250:
NULL. -999.2500:
UWI. F11022:
~C
DEPT.M :
GR.API :
RML.OHMM :
RI. :
RXO.OHMM :
CALI.CM :
SP.MV :
DEN.GM/CC :
~A
# ...
  233.0000    77.9650    13.9750    14.1760    15.5520    24.9970   -19.8550     2.2700 
  233.1250    76.1460    13.5710    13.7250    15.8700    25.0180   -19.9230     2.2750 
  233.2500    77.8820    13.2520    13.3420    14.7220    25.0290   -19.9550     2.2810 
  233.3750    81.3340    12.9800    13.0090    13.5060    25.0330   -19.9780     2.2830 
  233.5000    81.4190    12.7690    12.7410    12.8450    25.0280   -19.9950     2.2810 
  233.6250    77.3490    12.6620    12.5790    12.5250    25.0180   -20.0150     2.2800 
  233.7500    75.0590    12.6200    12.4860    12.3950    25.0310   -20.0380     2.2790 
  233.8750    75.1900    12.5550    12.3800    12.3940    25.0930   -19.9740     2.2750 
  234.0000    74.7930    12.3720    12.1760    12.2950    25.1770   -19.8550     2.2670 
  234.1250    74.7490    12.0660    11.8610    12.5740    25.2500   -19.8550     2.2570 
  234.2500    75.9160    11.8200    11.5940    12.3940    25.3030   -19.9130     2.2490 
  234.3750    75.4850    11.8670    11.5650    12.2120    25.3190   -19.9020     2.2380 
  234.5000    72.2070    12.4120    11.9610    13.1130    25.2290   -19.7450     2.2280 
  234.6250    68.0400    13.6280    12.9940    15.3330    25.0200   -19.5740     2.2240 
  234.7500    64.8670    15.2490    14.5210    18.4890    24.8590   -19.5620     2.2280 
  234.8750    60.6880    16.9300    16.2910    20.8460    24.8460   -19.5910     2.2380 
  235.0000    56.2770    18.2940    17.9300    22.9700    24.9380   -19.4820     2.2530 
  235.1250    57.1210    19.0510    19.0370    24.0520    25.0300   -19.2600     2.2680 
  235.2500    62.8160    19.3380    19.6170    24.0850    25.0650   -19.0920     2.2760 
  235.3750    70.8760    19.2120    19.6810    22.0600    25.0360   -19.0430     2.2800 
  235.5000    77.1020    18.5970    19.1510    20.5880    24.9900   -19.1220     2.2890 
  235.6250    78.5110    17.2250    17.7710    21.7780    24.9700   -19.1270     2.3090 
  235.7500    77.8350    15.2490    15.7700    21.2140    24.9570   -18.9640     2.3380 
  235.8750    77.8940    12.9990    13.5220    15.1080    24.9500   -18.8230     2.3660 
  236.0000    80.5360    10.8960    11.4390    10.3620    24.9490   -18.8600     2.3840 
  236.1250    85.3320     9.3410     9.8620     9.6030    24.9240   -18.9670     2.3930 
  236.2500    90.1650     8.3960     8.8190    10.2760    24.8850   -18.9700     2.3980 
  236.3750    92.8810     8.0970     8.3430    10.5610    24.8670   -18.8770     2.3950 
  236.5000    93.0480     8.4460     8.4550     9.7660    24.9070   -18.7740     2.3760 
  236.6250    91.5220     9.5080     9.2570     9.4500    24.9750   -18.7870     2.3430 
  236.7500    89.0520    11.0800    10.6130    11.5660    25.0390   -18.8350     2.3090 
  236.8750    86.4700    12.9300    12.3780    17.4450    25.0830   -18.8480     2.2850 
  237.0000    84.3790    14.6560    14.2180    22.5890    25.1070   -18.8480     2.2790 
  237.1250    81.5130    15.6900    15.5530    22.5020    25.1160   -18.8580     2.2900 
  237.2500    77.8440    16.0750    16.2450    20.7050    25.0960   -18.8780     2.3030 
  237.3750    76.3710    16.2090    16.5590    19.8900    25.0270   -18.8750     2.3100 
  237.5000    77.6480    16.5260    16.8810    19.7580    24.9610   -18.8420     2.3160 
  237.6250    78.5910    17.2190    17.4370    20.2840    24.9110   -18.8030     2.3260 
  237.7500    77.6150    17.9890    18.0620    23.5930    24.8740   -18.8170     2.3300 
  237.8750    75.3270    18.4910    18.4870    26.8330    24.8590   -18.8080     2.3220 
  238.0000    72.3200    18.5090    18.5040    23.6960    24.8400   -18.6650     2.3090 
  238.1250    69.9210    18.0750    18.0790    18.7260    24.8800   -18.5450     2.2990 
  238.2500    67.9520    17.5470    17.4980    19.4320    24.9100   -18.5390     2.2920 
  238.3750    64.5390    17.0920    16.9300    22.3540    24.9280   -18.6070     2.2860 
  238.5000    59.9280    16.7390    16.4480    22.4370    24.9240   -18.5850     2.2830 
  238.6250    57.3310    16.4510    16.0710    18.8780    24.8860   -18.4340     2.2820 
  238.7500    57.6880    16.1800    15.7540    17.0650    24.8530   -18.3650     2.2800 
  238.8750    60.0270    15.9470    15.4810    17.3860    24.8830   -18.3790     2.2760 
  239.0000    62.4120    15.8310    15.2900    19.1730    25.0170   -18.3590     2.2700 
  239.1250    61.7470    15.9710    15.3080    19.7300    25.1540   -18.3030     2.2680 
  239.2500    58.4970    16.3830    15.5890    19.4760    25.1900   -18.2710     2.2730 
  239.3750    56.0880    17.0900    16.1790    19.2970    25.1640   -18.2340     2.2810 
  239.5000    56.9550    18.1230    17.1130    20.4110    25.1360   -18.1950     2.2840 
  239.6250    59.4390    19.5260    18.4330    23.2980    25.1580   -18.1430     2.2750 
  239.7500    59.6660    21.0970    19.9460    26.9170    25.1990   -18.0080     2.2610 
  239.8750    59.0520    22.5930    21.4280    30.8940    25.2310   -17.8790     2.2490 
  240.0000    60.2100    23.7670    22.6480    33.6340    25.2440   -17.8830     2.2470 
  240.1250    63.7520    24.3460    23.3600    32.6670    25.2360   -17.8740     2.2580 
  240.2500    68.3380    24.2710    23.4870    28.8350    25.2020   -17.7580     2.2720 
  240.3750    71.2960    23.4050    22.8630    25.4530    25.1530   -17.5870     2.2800 
  240.5000    70.0100    21.6660    21.3680    24.9770    25.1360   -17.4620     2.2800 
  240.6250    64.7460    19.1070    19.0330    27.5640    25.1430   -17.3420     2.2910 
  240.7500    59.7720    16.3290    16.4560    26.2480    25.1080   -17.2420     2.3330 
  240.8750    56.2690    13.8430    14.1210    22.3490    25.0430   -17.1800     2.4020 
  241.0000    52.7420    12.0130    12.3480    17.6800    25.0120   -17.0230     2.4710 
  241.1250    50.1160    11.0880    11.3530    14.4620    24.9900   -16.8260     2.5020 
  241.2500    47.9620    10.7960    10.9390    11.3370    24.9670   -16.6600     2.5010 
  241.3750    46.3020    10.8500    10.9020    10.6030    24.9560   -16.5480     2.4780 
  241.5000    47.3050    10.9000    10.9550     9.7120    24.9530   -16.4610     2.4430 
  241.6250    49.9840    10.5810    10.7500    10.4570    24.9420   -16.4490     2.4090 
  241.7500    50.2070     9.8820    10.2060    10.0550    24.9180   -16.4280     2.3860 
  241.8750    48.4530     8.9590     9.4230     8.1030    24.8960   -16.3470     2.3740 
  242.0000    48.5060     8.0300     8.5810     6.6610    24.8980   -16.3880     2.3650 
  242.1250    50.9910     7.3170     7.8680     6.4940    24.9250   -16.4570     2.3630 
  242.2500    52.9660     6.8830     7.3540     6.5850    24.9440   -16.5400     2.3720 
  242.3750    55.3650     6.7460     7.0680     6.3750    24.9510   -16.6380     2.3900 
  242.5000    58.5780     6.8790     7.0100     6.2760    24.9450   -16.7420     2.4040 
  242.6250    59.7440     7.2430     7.1780     6.6500    24.9240   -16.8110     2.4040 
  242.7500    57.6330     7.7180     7.4810     7.3640    24.8940   -16.8670     2.3990 
  242.8750    54.2850     8.2480     7.8700     8.3560    24.8770   -16.9460     2.3990 
  243.0000    53.6610     8.8050     8.3150    10.0470    24.8830   -16.9070     2.4050 
  243.1250    55.5090     9.3900     8.8050    13.1430    24.9250   -16.8790     2.4070 
  243.2500    56.0420     9.9920     9.3250    15.6810    24.9460   -16.8180     2.4070 
  243.3750    54.7590    10.5880     9.8610    16.2810    24.9190   -16.7390     2.4100 
  243.5000    53.4450    11.1390    10.3730    15.9670    24.8990   -16.7540     2.4200 
  243.6250    54.7060    11.5630    10.7700    15.6190    24.9120   -16.7370     2.4310 
  243.7500    56.9380    11.8220    11.0050    15.3520    24.9390   -16.7300     2.4390 
  243.8750    58.5290    11.9100    11.0710    15.1000    24.9500   -16.7590     2.4420 
  244.0000    59.5310    11.8760    11.0150    14.6660    24.9520   -16.7850     2.4380 
  244.1250    59.1770    11.8380    10.9360    14.3150    24.9520   -16.7980     2.4230 
