~V
VERS. 2.00: Ver 2.00
~W
STRT.M 60.0000:
STOP.M 273.0000:
STEP.M 0.1250:
NULL. -999.2500:
UWI. F11028:
~C
DEPT.M :
DEN.GM/CC :
GR.API :
RML.OHMM :
RI. :
RXO.OHMM :
CALI.CM :
SP.MV :
~A
# ...
  206.2500     2.3130    77.2460    10.9270     9.2190    11.8470    21.3650   -13.2080 
  206.3750     2.2960    77.5320    11.3800     9.7890    11.3680    22.0500   -13.0000 
  206.5000     2.2800    77.3760    11.9100    10.3220    11.3520    22.8640   -12.8170 
  206.6250     2.2670    76.1750    12.8780    11.0520    13.0190    23.0800   -12.6910 
  206.7500     2.2570    76.2670    14.3510    12.1170    15.0570    23.1130   -12.6130 
  206.8750     2.2520    76.8420    16.2850    13.5930    15.8540    23.0590   -12.6040 
  207.0000     2.2500    75.0160    18.5490    15.4850    16.9200    22.9560   -12.6220 
  207.1250     2.2490    71.0290    20.9230    17.7250    19.5570    22.7930   -12.7490 
  207.2500     2.2460    68.5500    23.1160    20.0330    20.3110    22.2950   -12.9090 
  207.3750     2.2410    67.0450    24.9140    22.1780    19.9210    21.5110   -13.1240 
  207.5000     2.2360    67.0050    26.1380    23.9300    20.9630    21.0790   -13.3360 
  207.6250     2.2340    70.3560    26.4090    24.8320    21.7760    21.1230   -13.5630 
  207.7500     2.2360    75.4490    25.6180    24.6460    21.3750    21.1840   -13.8060 
  207.8750     2.2410    77.5030    23.7410    23.2530    20.7130    21.1510   -14.0400 
  208.0000     2.2490    75.2060    21.0660    20.8800    18.5040    20.9920   -14.2640 
  208.1250     2.2600    74.9700    18.2300    18.1290    15.4820    20.6390   -14.4910 
  208.2500     2.2720    78.1920    15.9470    15.7590    12.5310    20.5750   -14.7430 
  208.3750     2.2830    81.2370    14.6410    14.1740    11.1250    20.6200   -15.0040 
  208.5000     2.2900    82.2780    14.5730    13.5980    11.4360    20.8060   -15.2950 
  208.6250     2.2900    82.6040    16.2670    14.4670    13.0960    21.0970   -15.5850 
  208.7500     2.2830    81.7860    19.8270    16.9400    14.9670    21.7570   -15.9150 
  208.8750     2.2700    79.0570    25.5850    21.4980    17.5580    22.7800   -16.2540 
  209.0000     2.2530    75.5340    40.3970    28.5770    24.4510    23.5410   -16.6320 
  209.1250     2.2350    71.1460    52.3570    38.2930    41.3680    23.7620   -16.9850 
  209.2500     2.2180    67.3520    63.7830    48.4780    59.5700    23.8680   -17.3250 
  209.3750     2.2040    65.3250    71.6870    56.5260    66.1460    23.9960   -17.6600 
  209.5000     2.1930    65.9340    74.4840    60.5800    62.6680    24.0620   -17.9630 
  209.6250     2.1840    68.2880    73.2990    60.6380    58.9790    24.0790   -18.2820 
  209.7500     2.1760    68.8900    71.9410    59.6000    57.6750    24.1240   -18.5580 
  209.8750     2.1700    66.6100    72.3390    59.3280    57.5240    24.1780   -18.8380 
  210.0000     2.1640    64.4010    75.0690    60.7300    59.0710    24.3380   -19.0860 
  210.1250     2.1620    66.3930    79.7700    63.9830    61.1710    24.1920   -19.3420 
  210.2500     2.1620    68.0380    84.5180    67.8280    63.4400    24.0430   -19.5950 
  210.3750     2.1630    65.1660    87.3420    70.8080    67.1310    23.8320   -19.8300 
  210.5000     2.1650    60.9640    86.6830    71.5290    68.5550    23.5370   -20.0870 
  210.6250     2.1650    60.8320    82.1510    69.1690    65.8710    23.0420   -20.2990 
  210.7500     2.1670    62.1790    76.3260    65.3060    61.3670    22.4860   -20.4890 
  210.8750     2.1690    64.3680    71.2600    61.4890    55.9750    22.2090   -20.6530 
  211.0000     2.1730    67.5730    68.2310    58.9250    52.0700    21.9210   -20.8560 
  211.1250     2.1760    67.6450    67.9160    58.4340    52.7260    21.5060   -21.0280 
  211.2500     2.1770    63.1470    69.4520    59.5330    57.7080    21.1810   -21.2010 
  211.3750     2.1770    60.1210    72.1440    61.7820    57.3590    21.1440   -21.3820 
  211.5000     2.1770    63.7640    75.2750    64.7020    53.6130    21.1870   -21.5820 
  211.6250     2.1770    67.9010    78.2450    67.8270    50.2130    21.2340   -21.8020 
  211.7500     2.1760    66.3260    80.8800    70.7750    50.3520    21.5030   -22.0340 
  211.8750     2.1710    63.1860    83.1870    73.3750    55.9740    21.8910   -22.2790 
  212.0000     2.1640    61.1930    85.0410    75.4410    63.9820    22.3130   -22.4790 
  212.1250     2.1540    59.2000    85.8770    76.4860    63.6720    23.0950   -22.6760 
  212.2500     2.1470    57.3160    85.6520    76.5070    58.5810    23.6130   -22.8300 
  212.3750     2.1450    58.9320    84.8120    75.8490    54.6100    23.7400   -22.9800 
  212.5000     2.1460    63.4590    84.1940    75.1890    57.3570    23.8100   -23.0770 
  212.6250     2.1490    64.4550    84.7820    75.4200    57.5130    23.5620   -23.1780 
  212.7500     2.1490    61.8210    86.6240    76.7850    65.6800    23.0230   -23.2630 
  212.8750     2.1430    59.9100    89.3830    79.1520    78.7070    22.2640   -23.3310 
  213.0000     2.1330    58.5840    92.4700    82.0800    89.5870    21.5190   -23.4010 
  213.1250     2.1200    57.9210    95.2440    84.9930    85.3410    21.9920   -23.4890 
  213.2500     2.1080    60.4030    97.5430    87.5660    82.3930    23.0330   -23.6140 
  213.3750     2.0990    64.5450    99.5330    89.8300    83.7790    23.6250   -23.7170 
  213.5000     2.0960    65.1990   101.4820    91.9940    88.6820    23.9000   -23.8400 
  213.6250     2.0990    60.1710   103.4100    94.1750    98.0690    23.8340   -23.9260 
  213.7500     2.1040    56.7360   104.7770    95.9730   106.0860    23.6790   -24.0260 
  213.8750     2.1100    57.6120   104.8210    96.6700   111.2470    23.6150   -24.1360 
  214.0000     2.1170    61.2780   103.1450    95.7340   112.6910    23.6360   -24.2490 
  214.1250     2.1270    63.7030   100.1420    93.2180   106.4700    23.5820   -24.3270 
  214.2500     2.1380    64.3400    97.3680    90.4640    92.1080    23.5250   -24.4230 
  214.3750     2.1480    64.7790    96.0520    88.6680    80.1370    23.4970   -24.5150 
  214.5000     2.1540    65.2860    96.9940    88.7430    84.3330    23.5290   -24.5970 
  214.6250     2.1550    64.3300   100.7920    91.5020    93.8840    23.5840   -24.6750 
  214.7500     2.1540    62.3130   106.5780    96.3560   103.8630    23.5670   -24.7370 
  214.8750     2.1540    60.2830   113.4910   102.6190   109.4850    23.4670   -24.7860 
  215.0000     2.1560    58.0200   120.4430   109.2660   113.5440    23.4040   -24.8050 
  215.1250     2.1590    54.9650   126.1330   114.9920   119.2900    23.2680   -24.8430 
  215.2500     2.1620    52.1430   130.1100   119.2450   126.2130    23.2380   -24.8080 
  215.3750     2.1630    52.2990   132.1750   121.8680   130.1340    23.2050   -24.7860 
  215.5000     2.1620    56.8420   132.1690   122.7860   129.6140    23.3550   -24.7560 
  215.6250     2.1610    62.3680   129.5510   121.5400   128.4150    23.4870   -24.7370 
  215.7500     2.1600    64.2290   124.8370   118.4150   130.7450    23.4420   -24.7220 
  215.8750     2.1610    63.7550   118.7160   113.8090   129.1820    23.2910   -24.7210 
  216.0000     2.1650    63.9920   112.3750   108.6260   120.6010    23.3970   -24.7500 
  216.1250     2.1710    63.3220   107.4400   104.3010   106.5040    23.4590   -24.7450 
  216.2500     2.1780    61.3790   104.4830   101.6160    97.7170    23.4650   -24.7920 
  216.3750     2.1830    61.0430   103.2430   100.5980    92.6270    23.4740   -24.8400 
  216.5000     2.1860    61.2750   102.4650   100.3630    95.6350    23.4920   -24.9020 
  216.6250     2.1870    60.4340    99.3690    98.4460   107.4390    23.5500   -24.9740 
  216.7500     2.1910    61.3050    92.4860    92.9640   109.2050    23.4920   -25.0610 
  216.8750     2.2000    64.8560    82.6800    84.1190    86.4920    22.9630   -25.1250 
  217.0000     2.2120    69.1450    72.8300    74.2880    61.2560    22.5880   -25.1950 
  217.1250     2.2240    71.4060    66.8900    67.1930    45.6570    22.3980   -25.2910 
  217.2500     2.2320    73.1610    66.3180    64.7290    42.1060    22.4930   -25.3910 
  217.3750     2.2310    72.3720    71.6920    67.8940    50.3240    22.7490   -25.4990 
