~V
VERS. 2.00: Ver 2.00
~W
STRT.M 47.0000:
STOP.M 270.0000:
STEP.M 0.1250:
NULL. -999.2500:
UWI. F11075:
~C
DEPT.M :
GR.API :
RML.OHMM :
RI. :
RXO.OHMM :
CALI.CM :
DEN.GM/CC :
SP.MV :
~A
# ...
  114.5000    70.0310    10.2880     7.8600    10.8140    24.7960     2.1950   -16.7320 
  114.6250    66.6550    11.3400     8.8390    11.9710    24.8830     2.1900   -16.9210 
  114.7500    64.7570    12.6860    10.1820    13.0590    24.9870     2.2120   -17.1020 
  114.8750    62.6810    13.9320    11.6370    15.7870    24.8650     2.2710   -17.2720 
  115.0000    59.7950    14.5120    12.6350    19.9780    24.6640     2.3420   -17.4470 
  115.1250    59.9600    14.1060    12.7210    20.1210    24.5200     2.3920   -17.6260 
  115.2500    64.1290    12.9010    11.9020    14.7850    24.4350     2.3960   -17.7910 
  115.3750    66.8510    11.5200    10.6540    12.0760    24.4060     2.3500   -17.9430 
  115.5000    66.2280    10.5230     9.5680    11.4550    24.3980     2.2880   -18.0950 
  115.6250    66.4010    10.0460     8.8570    11.6940    24.4000     2.2370   -18.2360 
  115.7500    69.2530    10.0220     8.5490    12.1110    24.4250     2.2110   -18.3630 
  115.8750    71.3810    10.3030     8.5740    12.1750    24.5290     2.2040   -18.5280 
  116.0000    71.1050    10.6080     8.6890    12.1270    24.6510     2.2010   -18.6890 
  116.1250    69.2080    10.7940     8.7480    11.8600    24.7210     2.1910   -18.7950 
  116.2500    66.8540    10.8290     8.6910    11.5500    24.7370     2.1740   -18.8760 
  116.3750    67.2470    10.7350     8.5350    11.2100    24.7350     2.1560   -18.9420 
  116.5000    69.0300    10.5810     8.3720    11.0600    24.7330     2.1430   -18.9830 
  116.6250    70.4450    10.4060     8.2690    11.0370    24.7290     2.1420   -18.9960 
  116.7500    70.8990    10.2450     8.2590    11.0350    24.7300     2.1500   -18.9940 
  116.8750    72.0120    10.1330     8.3510    11.0880    24.7280     2.1650   -18.9570 
  117.0000    71.5960    10.0700     8.4930    11.2760    24.7280     2.1790   -18.9030 
  117.1250    67.7810    10.0420     8.6410    11.5400    24.7280     2.1890   -18.8590 
  117.2500    64.8210    10.0260     8.7550    11.5090    24.7300     2.1950   -18.8040 
  117.3750    67.5910    10.0050     8.7980    11.3810    24.7310     2.1980   -18.7360 
  117.5000    70.9060     9.9830     8.7730    11.3320    24.7270     2.2010   -18.6720 
  117.6250    70.9600     9.9780     8.6960    11.4690    24.7230     2.2040   -18.6190 
  117.7500    69.0170    10.0070     8.5980    11.4520    24.7220     2.2060   -18.5630 
  117.8750    69.6310    10.0990     8.5240    11.2820    24.7280     2.2050   -18.5080 
  118.0000    71.4900    10.2480     8.4950    11.2020    24.7460     2.2020   -18.4610 
  118.1250    72.2910    10.4420     8.5120    11.3380    24.7760     2.1960   -18.3910 
  118.2500    71.4240    10.6570     8.5720    11.3940    24.7960     2.1910   -18.3360 
  118.3750    69.8490    10.8510     8.6840    11.4750    24.7990     2.1890   -18.2940 
  118.5000    69.2920    10.9960     8.8400    11.3320    24.7810     2.1930   -18.2410 
  118.6250    68.8880    11.0700     9.0310    11.3410    24.7300     2.2030   -18.1830 
  118.7500    67.0940    11.0540     9.2220    11.5560    24.6690     2.2150   -18.1390 
  118.8750    66.2400    10.9150     9.3350    11.7780    24.7310     2.2250   -18.1060 
  119.0000    67.2550    10.6810     9.3440    11.7860    24.8570     2.2270   -18.0660 
  119.1250    68.9080    10.3980     9.2520    11.7030    24.9350     2.2210   -18.0260 
  119.2500    71.3060    10.1310     9.0900    11.5540    24.9380     2.2100   -17.9860 
  119.3750    73.0210     9.9550     8.9060    11.2890    24.9010     2.1990   -17.9620 
  119.5000    72.5200     9.8750     8.7390    11.0080    24.8590     2.1920   -17.9280 
  119.6250    70.7840     9.8720     8.6060    10.7180    24.8410     2.1890   -17.9040 
  119.7500    71.1150     9.9150     8.5180    10.4970    24.8310     2.1900   -17.9130 
  119.8750    73.4540     9.9900     8.4840    10.4930    24.8150     2.1910   -17.9540 
  120.0000    73.5180    10.0860     8.4820    10.8650    24.7930     2.1930   -18.0420 
  120.1250    71.7010    10.1950     8.4930    11.1800    24.7840     2.1970   -18.1680 
  120.2500    69.4950    10.2950     8.4980    11.6050    24.7800     2.2010   -18.2950 
  120.3750    67.5010    10.3470     8.4910    11.9380    24.7820     2.2060   -18.3790 
  120.5000    67.1600    10.3330     8.4750    11.7470    24.7850     2.2070   -18.4490 
  120.6250    67.5310    10.2420     8.4390    11.3010    24.7930     2.2000   -18.4910 
  120.7500    67.3940    10.0680     8.3620    11.1310    24.8040     2.1870   -18.4710 
  120.8750    66.8230     9.7980     8.2170    10.9570    24.8100     2.1710   -18.3920 
  121.0000    67.0980     9.4690     8.0250    10.4770    24.8110     2.1590   -18.2480 
  121.1250    68.2240     9.1290     7.8260     9.6600    24.8060     2.1550   -18.0590 
  121.2500    69.7160     8.8420     7.6700     9.0110    24.8070     2.1610   -17.8780 
  121.3750    69.8840     8.6840     7.6080     9.0900    24.8240     2.1720   -17.7500 
  121.5000    69.0490     8.6510     7.6250     9.3350    24.8560     2.1860   -17.6370 
  121.6250    68.5910     8.7090     7.6950     9.4630    24.9000     2.1970   -17.5450 
  121.7500    70.7910     8.8090     7.7800     9.3820    24.9480     2.2040   -17.4910 
  121.8750    74.4520     8.9080     7.8380     9.4770    24.9830     2.2070   -17.4580 
  122.0000    76.7290     8.9920     7.8610     9.5680    24.9910     2.2070   -17.4760 
  122.1250    75.8170     9.0710     7.8590     9.5750    24.9940     2.2040   -17.5500 
  122.2500    73.3500     9.1550     7.8550     9.6230    24.9950     2.2010   -17.6300 
  122.3750    71.2650     9.2510     7.8770     9.5170    25.0000     2.1990   -17.7020 
  122.5000    70.5310     9.3630     7.9280     9.4800    25.0150     2.1990   -17.7810 
  122.6250    71.2820     9.5060     8.0050     9.5810    25.0440     2.2010   -17.8600 
  122.7500    73.0110     9.6880     8.0970     9.8010    25.0650     2.2020   -17.9530 
  122.8750    72.9910     9.9050     8.2010     9.8330    25.0710     2.2020   -18.0650 
  123.0000    70.2960    10.1110     8.3040     9.8690    25.0680     2.2000   -18.1440 
  123.1250    68.1300    10.2550     8.4080     9.9640    25.0640     2.1960   -18.1730 
  123.2500    68.3990    10.2900     8.5120    10.0690    25.0590     2.1920   -18.1880 
  123.3750    67.8530    10.1630     8.5790    10.2710    25.0580     2.1890   -18.1880 
  123.5000    65.9630     9.9090     8.5740    10.5830    25.0570     2.1870   -18.1590 
  123.6250    66.0960     9.5790     8.4780    10.9140    25.0570     2.1900   -18.1080 
  123.7500    70.3690     9.2530     8.2970    10.9890    25.0570     2.1980   -18.0350 
  123.8750    74.0410     9.0430     8.0910    10.7520    25.0370     2.2130   -17.9290 
  124.0000    75.4400     9.0060     7.9520    10.4990    24.9940     2.2310   -17.8300 
  124.1250    76.1190     9.1690     7.9500    10.5100    24.9550     2.2470   -17.7810 
  124.2500    76.3990     9.5240     8.1160    10.3690    24.9470     2.2540   -17.7500 
  124.3750    74.0030    10.0330     8.4320    11.0800    24.9640     2.2490   -17.7040 
  124.5000    70.3700    10.5550     8.7740    10.8980    24.9970     2.2350   -17.6840 
  124.6250    67.4180    10.9470     9.0240    10.4500    25.0110     2.2150   -17.6800 
  124.7500    66.4550    11.0760     9.0850    10.2090    24.9360     2.1950   -17.6550 
  124.8750    66.4810    10.8410     8.9010    10.2630    24.7460     2.1840   -17.6150 
  125.0000    67.6750    10.3890     8.5920    10.2240    24.5750     2.1830   -17.5640 
  125.1250    69.9780     9.8750     8.2640    10.0460    24.4450     2.1890   -17.4800 
  125.2500    73.2050     9.4430     8.0100     9.9640    24.3320     2.1970   -17.3850 
  125.3750    75.9190     9.2210     7.9090    10.3190    24.1760     2.2010   -17.3330 
  125.5000    76.0740     9.2010     7.9460    10.9290    24.0610     2.2020   -17.3150 
  125.6250    75.6300     9.3600     8.1020    11.3130    24.0390     2.2000   -17.3030 
