~V
VERS. 2.00: Ver 2.00
~W
STRT.M 58.0000:
STOP.M 272.0000:
STEP.M 0.1250:
NULL. -999.2500:
UWI. F11073:
~C
DEPT.M :
GR.API :
RML.OHMM :
RI. :
RXO.OHMM :
CALI.CM :
DEN.GM/CC :
SP.MV :
~A
   58.0000    58.6790     2.1710     0.3940     3.3390    23.9020     2.6490    56.4180 
   58.1250    67.0290     3.9910     1.0580    15.1070    23.8420     2.6000    44.2550 
   58.2500    71.1670     7.0550     2.3180    23.3510    23.7890     2.4990    32.3640 
   58.3750    68.9500    10.4860     4.1220    15.9380    23.7750     2.3760    21.2050 
   58.5000    65.7720    11.6580     5.8120    10.8280    23.7590     2.2720    11.2150 
   58.6250    67.0910    10.1610     6.6140    10.1690    23.7510     2.2250     3.0310 
   58.7500    71.8250     8.7810     6.8810    10.3080    23.7620     2.2180    -3.3760 
   58.8750    75.5760     8.2140     7.0050     9.7600    23.7980     2.2270    -8.1170 
   59.0000    75.4990     8.3050     7.1680     9.0950    23.8540     2.2270   -11.4730 
   59.1250    72.7620     8.7600     7.3930     8.9010    23.9260     2.2120   -13.6280 
   59.2500    70.9560     9.2590     7.6300     9.2920    23.9910     2.1950   -15.1570 
   59.3750    70.8430     9.6690     7.8490    10.2140    24.0280     2.1770   -16.3930 
   59.5000    70.5830     9.9240     8.0220    11.4710    23.9680     2.1540   -17.4860 
   59.6250    69.7700     9.9570     8.0830    11.8280    23.9270     2.1240   -18.4230 
   59.7500    69.4750     9.8190     8.0140    10.3220    23.8490     2.0990   -19.2380 
   59.8750    69.6560     9.5930     7.8350     9.7220    23.8190     2.0870   -19.9430 
   60.0000    70.3570     9.3840     7.6030     9.5850    23.8420     2.0890   -20.6480 
   60.1250    71.0160     9.2820     7.3920     9.5510    23.8880     2.1010   -21.3420 
   60.2500    72.3510     9.2680     7.2450     9.4760    23.8830     2.1130   -21.8720 
   60.3750    73.3330     9.3000     7.1650     9.4080    23.8700     2.1210   -22.2640 
   60.5000    72.8600     9.3460     7.1400     9.4580    23.8660     2.1240   -22.6080 
   60.6250    70.3580     9.4080     7.1600     9.4400    23.8750     2.1230   -22.9060 
   60.7500    67.6730     9.5020     7.2060     9.4050    23.8850     2.1210   -23.1270 
   60.8750    66.8860     9.6220     7.2660     9.4110    23.8800     2.1220   -23.2390 
   61.0000    67.8290     9.7370     7.3210     9.5290    23.8600     2.1280   -23.2190 
   61.1250    67.9810     9.8010     7.3510     9.7230    23.8410     2.1360   -23.1730 
   61.2500    65.4730     9.7930     7.3470     9.9120    23.8210     2.1420   -23.2260 
   61.3750    61.2220     9.7150     7.3050     9.9330    23.8030     2.1440   -23.2500 
   61.5000    59.4510     9.5890     7.2290     9.8100    23.7710     2.1450   -23.1710 
   61.6250    62.7980     9.4610     7.1330     9.6090    23.7910     2.1470   -23.1190 
   61.7500    66.5740     9.3750     7.0410     9.4360    23.7880     2.1490   -23.1530 
   61.8750    67.5590     9.3520     6.9760     9.2530    23.7830     2.1500   -23.2650 
   62.0000    66.3090     9.3920     6.9570     9.0140    23.7500     2.1500   -23.3790 
   62.1250    64.8950     9.4820     7.0020     9.1080    23.7530     2.1510   -23.4250 
   62.2500    65.4420     9.5800     7.0850     9.2750    23.7710     2.1510   -23.4650 
   62.3750    67.3830     9.6500     7.1740    10.0390    23.7850     2.1490   -23.5140 
   62.5000    67.8010     9.6690     7.2340    12.6380    23.8330     2.1430   -23.5510 
   62.6250    65.6430     9.6280     7.2300    16.1440    23.8440     2.1310   -23.5300 
   62.7500    64.9570     9.5680     7.1740    14.6320    23.8020     2.1200   -23.4690 
   62.8750    67.1120     9.5240     7.0860    10.0910    23.6810     2.1150   -23.4360 
   63.0000    69.8400     9.5200     7.0010     8.1020    23.5700     2.1210   -23.5030 
   63.1250    70.9450     9.5620     6.9530     8.1680    23.5100     2.1320   -23.6040 
   63.2500    71.2090     9.6160     6.9460     8.5550    23.5300     2.1400   -23.6100 
   63.3750    71.0380     9.6590     6.9710     9.0710    23.6360     2.1430   -23.6120 
   63.5000    70.7840     9.6820     7.0120     9.3410    23.7270     2.1440   -23.7230 
   63.6250    69.6860     9.6980     7.0580     9.2480    23.7540     2.1450   -23.8950 
   63.7500    68.5050     9.7310     7.1070     9.0100    23.7410     2.1460   -24.0440 
   63.8750    67.9500     9.7970     7.1700     9.0640    23.7040     2.1470   -24.0930 
   64.0000    67.6040     9.8930     7.2520     9.4550    23.7140     2.1480   -24.0480 
   64.1250    67.9820     9.9950     7.3460    10.0200    23.7910     2.1510   -24.0720 
   64.2500    68.1060    10.0720     7.4260    10.2470    23.9290     2.1530   -24.1270 
   64.3750    66.7040    10.1100     7.4700    10.2850    24.0580     2.1520   -24.0910 
   64.5000    63.2300    10.1010     7.4640    10.4260    24.1230     2.1500   -23.9630 
   64.6250    61.4800    10.0580     7.4180    10.5280    24.0870     2.1440   -23.7680 
   64.7500    62.1460    10.0190     7.3730    10.4360    24.0120     2.1380   -23.5210 
   64.8750    61.3700    10.0020     7.3520    10.2840    23.9240     2.1350   -23.2010 
   65.0000    59.0980     9.9920     7.3450    10.2420    23.8830     2.1370   -22.7490 
   65.1250    60.6820     9.9200     7.2970    10.2650    23.9050     2.1450   -22.1010 
   65.2500    67.5640     9.7400     7.1680    10.1770    23.9640     2.1560   -21.4470 
   65.3750    77.7070     9.4610     6.9560     9.7340    24.0040     2.1700   -20.8700 
   65.5000    86.7680     9.1630     6.7090     8.5740    24.0190     2.1880   -20.3090 
   65.6250    90.5310     8.9950     6.5190     7.6300    24.0050     2.2090   -19.8310 
   65.7500    90.1110     9.0260     6.4470     6.9920    23.9680     2.2260   -19.5280 
   65.8750    88.5670     9.2550     6.5110     7.1820    23.9190     2.2310   -19.4900 
   66.0000    86.8170     9.6160     6.6910     8.2510    23.8790     2.2200   -19.6990 
   66.1250    79.6650     9.9800     6.9220     9.3300    23.8650     2.1960   -20.0410 
   66.2500    69.9570    10.2250     7.1120     9.7570    23.8710     2.1720   -20.4140 
   66.3750    65.4790    10.3090     7.2170     9.6260    23.8920     2.1560   -20.8820 
   66.5000    66.9060    10.2590     7.2380     9.4620    23.9040     2.1490   -21.4640 
   66.6250    67.9560    10.1490     7.2030     9.3680    23.8930     2.1490   -22.0500 
   66.7500    67.2120    10.0580     7.1620     9.2320    23.8710     2.1510   -22.5320 
   66.8750    68.7490    10.0050     7.1300     9.1970    23.8520     2.1540   -22.8450 
   67.0000    71.8710     9.9750     7.1060     9.3870    23.8130     2.1540   -23.0510 
   67.1250    70.9660     9.9400     7.0790     9.9210    23.8200     2.1500   -23.2840 
   67.2500    67.3270     9.8870     7.0460    10.0800    23.8190     2.1470   -23.5190 
   67.3750    65.1340     9.8200     7.0030     9.9990    23.8190     2.1480   -23.6210 
   67.5000    65.2090     9.7490     6.9460    10.1140    23.8660     2.1520   -23.5280 
   67.6250    64.5250     9.6900     6.8910    10.3360    23.9030     2.1590   -23.2250 
   67.7500    63.1330     9.6540     6.8610    10.3310    23.9310     2.1640   -22.8020 
   67.8750    64.0210     9.6530     6.8750    10.1160    23.9380     2.1630   -22.3430 
   68.0000    67.4640     9.7070     6.9450     9.9060    23.9300     2.1580   -21.8260 
   68.1250    69.0960     9.8560     7.0820     9.8030    23.9100     2.1540   -21.0790 
   68.2500    67.8130    10.0830     7.2510     9.8800    23.8950     2.1520   -20.1110 
   68.3750    66.8710    10.3080     7.3930     9.9940    23.8820     2.1500   -19.0210 
   68.5000    66.7830    10.3810     7.4220    10.0530    23.8730     2.1500   -17.8780 
   68.6250    64.6310    10.0810     7.2090     9.9430    23.8670     2.1570   -16.6850 
   68.7500    63.8780     9.4230     6.7670     9.5850    23.8420     2.1700   -15.3940 
   68.8750    70.2310     8.5580     6.1800     8.5380    23.7970     2.1870   -13.9750 
   69.0000    83.5380     7.7380     5.5970     6.8030    23.7840     2.2100   -12.5080 
   69.1250    95.6390     7.2560     5.1940     5.2690    23.8390     2.2410   -11.2260 
