~V
VERS. 2.00: Ver 2.00
~W
STRT.M 55.0000:
STOP.M 281.0000:
STEP.M 0.1250:
NULL. -999.2500:
UWI. F11051:
~C
DEPT.M :
SP.MV :
GR.API :
RML.OHMM :
RI. :
RXO.OHMM :
CALI.CM :
DEN.GM/CC :
~A
# ...
  156.2500   -15.0420    82.4850     4.5710     3.5920     3.7770    24.4310     2.3670 
  156.3750   -15.0850    88.4280     4.7960     3.7110     3.8680    24.4210     2.3610 
  156.5000   -15.1470    95.9050     5.0670     3.8630     4.0560    24.3980     2.3620 
  156.6250   -15.2080    99.3230     5.3020     4.0030     4.2960    24.3680     2.3610 
  156.7500   -15.2910    97.3320     5.4190     4.0810     4.5040    24.3300     2.3550 
  156.8750   -15.3700    92.4840     5.3830     4.0710     4.5120    24.3020     2.3460 
  157.0000   -15.4730    87.3840     5.2370     3.9870     4.4580    24.3090     2.3390 
  157.1250   -15.5860    85.7780     5.1190     3.8930     4.2990    24.3630     2.3370 
  157.2500   -15.7060    88.0440     5.1940     3.8840     4.3560    24.4340     2.3390 
  157.3750   -15.8800    90.1480     5.6390     4.0730     4.7390    24.4640     2.3430 
  157.5000   -16.0360    86.7880     6.6920     4.6120     5.8910    24.4660     2.3480 
  157.6250   -16.2140    78.4510     8.8960     5.8500     8.3750    24.4770     2.3460 
  157.7500   -16.4040    70.8560    12.6290     8.0710    12.0520    24.5230     2.3310 
  157.8750   -16.5840    64.5260    18.4280    11.7560    18.6770    24.5940     2.2990 
  158.0000   -16.7830    59.7800    26.6230    17.3860    39.2290    24.6770     2.2560 
  158.1250   -16.9640    59.7950    37.0160    25.3510    58.6530    24.7270     2.2170 
  158.2500   -17.1480    62.6340    47.2350    34.1590    60.4910    24.7060     2.1920 
  158.3750   -17.3090    64.9240    54.1740    41.4200    55.8790    24.6350     2.1800 
  158.5000   -17.4510    65.8600    54.7780    44.1940    56.4160    24.5790     2.1780 
  158.6250   -17.5840    66.1890    47.5660    40.0740    62.7750    24.5600     2.1820 
  158.7500   -17.6750    66.7920    37.1350    32.2490    64.3640    24.5560     2.1930 
  158.8750   -17.7430    66.8770    27.1080    23.9870    44.1410    24.5230     2.2130 
  159.0000   -17.7950    67.7500    19.5190    17.4050    20.5200    24.4310     2.2460 
  159.1250   -17.8310    72.8310    15.2530    13.4440    10.0990    24.3150     2.2880 
  159.2500   -17.8730    81.2550    13.2460    11.3210     8.5230    24.2760     2.3290 
  159.3750   -17.9050    88.1140    12.8290    10.5270    10.0870    24.2750     2.3630 
  159.5000   -17.9440    90.0270    13.4290    10.6580    11.2670    24.2020     2.3840 
  159.6250   -17.9930    89.5190    14.4980    11.3850    11.5570    24.0990     2.3950 
  159.7500   -18.0610    88.0850    15.4290    12.2080    11.0950    24.0480     2.4040 
  159.8750   -18.1560    85.0880    15.9860    12.8800    10.5330    24.0740     2.4140 
  160.0000   -18.2270    81.3040    16.2580    13.3760    10.2090    24.1210     2.4240 
  160.1250   -18.3280    78.4850    16.6380    13.8880    10.6660    24.1860     2.4310 
  160.2500   -18.4050    76.7120    17.5230    14.6640    11.9690    24.2580     2.4290 
  160.3750   -18.4680    75.3690    19.1210    15.8770    13.2070    24.3660     2.4180 
  160.5000   -18.5590    73.5410    21.3980    17.5910    14.7760    24.4910     2.4020 
  160.6250   -18.6160    70.5130    23.9850    19.6770    17.0600    24.5930     2.3840 
  160.7500   -18.6820    70.1410    26.1020    21.5770    21.2150    24.6260     2.3660 
  160.8750   -18.7580    74.4230    27.0660    22.6830    24.2760    24.6600     2.3490 
  161.0000   -18.8300    80.1740    26.5300    22.5770    22.5940    24.6840     2.3370 
  161.1250   -18.9110    81.1110    24.6380    21.2410    18.0220    24.6180     2.3330 
  161.2500   -18.9960    79.6710    22.4320    19.5060    15.8700    24.5580     2.3410 
  161.3750   -19.0670    80.5880    20.6130    17.9530    15.0460    24.4990     2.3590 
  161.5000   -19.1370    83.1280    19.6110    16.9420    13.7700    24.4420     2.3800 
  161.6250   -19.2230    81.9430    19.7770    16.7750    12.7140    24.4160     2.3880 
  161.7500   -19.3030    78.8510    20.9610    17.4020    14.4920    24.4970     2.3770 
  161.8750   -19.3880    76.8680    23.1110    18.8540    19.2510    24.6190     2.3490 
  162.0000   -19.4820    76.0030    26.1090    21.1130    22.9140    24.5910     2.3140 
  162.1250   -19.5810    73.0610    29.8030    24.1550    23.3830    24.3200     2.2860 
  162.2500   -19.6780    70.0420    33.6630    27.5620    26.8470    23.9760     2.2720 
  162.3750   -19.8110    68.7870    37.1900    30.9140    33.4780    23.7280     2.2720 
  162.5000   -19.9290    70.3040    39.9280    33.7490    36.7470    23.6000     2.2780 
  162.6250   -20.0540    73.3090    41.4180    35.5410    35.9720    23.5370     2.2840 
  162.7500   -20.1900    76.3060    41.9270    36.3820    35.7800    23.5540     2.2880 
  162.8750   -20.3220    78.0650    41.8810    36.5620    35.6110    23.6560     2.2880 
  163.0000   -20.4750    76.5440    41.9470    36.6210    35.0140    23.7800     2.2860 
  163.1250   -20.5810    71.4880    43.0700    37.3410    33.4480    23.8850     2.2780 
  163.2500   -20.7170    67.0830    45.5690    39.0910    33.1690    24.0830     2.2660 
  163.3750   -20.8670    65.3970    49.4240    41.9680    35.6840    24.4200     2.2500 
  163.5000   -21.0020    64.8260    54.2620    45.7960    43.9410    24.7760     2.2350 
  163.6250   -21.1490    64.7430    59.3810    50.1600    50.8420    24.8340     2.2260 
  163.7500   -21.2840    66.4690    64.0040    54.3570    56.6130    24.7900     2.2220 
  163.8750   -21.4010    68.0250    67.7670    57.9710    59.4090    24.8630     2.2200 
  164.0000   -21.5110    67.4600    70.6380    60.8470    59.3220    24.9270     2.2150 
  164.1250   -21.6090    66.1090    72.6040    62.9020    62.3930    24.8860     2.2100 
  164.2500   -21.6830    65.6400    73.7280    64.2270    67.2180    24.7960     2.2080 
  164.3750   -21.7430    65.9150    73.7780    64.6620    68.9440    24.7060     2.2090 
  164.5000   -21.8130    66.1840    72.5070    63.9940    61.8220    24.5300     2.2120 
  164.6250   -21.8740    68.0410    69.6540    61.9210    50.2070    24.2380     2.2130 
  164.7500   -21.9360    71.0430    65.8360    58.8690    43.5700    23.9450     2.2140 
  164.8750   -22.0250    71.0060    61.7250    55.3540    40.7860    23.7280     2.2230 
  165.0000   -22.0960    67.8120    58.1380    52.0860    39.1330    23.5340     2.2460 
  165.1250   -22.1910    66.1520    56.2400    50.0940    37.3900    23.3470     2.2790 
  165.2500   -22.2980    68.2520    56.5760    49.9100    37.2200    23.2730     2.3030 
  165.3750   -22.3740    70.4630    59.6390    51.9920    42.0740    23.3420     2.3100 
  165.5000   -22.4640    69.7660    65.6710    56.6490    53.9990    23.2560     2.2980 
  165.6250   -22.5200    67.9680    74.7070    64.1900    79.0320    22.9280     2.2730 
  165.7500   -22.5750    66.2890    84.8740    73.1980    97.1450    22.7350     2.2460 
  165.8750   -22.6220    64.6170    94.0310    81.9040    98.5810    22.6610     2.2220 
  166.0000   -22.6560    63.2420    99.8950    88.2150    95.8360    22.7620     2.2040 
  166.1250   -22.7010    63.2410   100.2460    89.8100   100.2670    23.1790     2.2000 
  166.2500   -22.7240    64.7930    96.5260    87.4330    97.2850    23.7650     2.2060 
  166.3750   -22.7520    66.5650    90.7800    82.6410    86.2400    24.2590     2.2180 
  166.5000   -22.7740    66.7280    85.2980    77.4780    75.9250    24.4760     2.2320 
  166.6250   -22.7810    65.7240    82.4470    74.1270    64.9770    24.4800     2.2450 
  166.7500   -22.7970    65.6220    83.0980    73.5870    59.1440    24.4280     2.2540 
  166.8750   -22.7940    65.3400    87.6590    76.3970    60.3720    24.3540     2.2580 
  167.0000   -22.7760    63.8780    95.7760    82.4540    70.2860    24.2910     2.2570 
  167.1250   -22.7660    63.1520   106.2890    91.0480    75.6400    24.2460     2.2520 
  167.2500   -22.7620    64.6310   116.4670    99.9200    76.1250    24.2300     2.2460 
  167.3750   -22.7630    65.4220   124.1050   107.1360    78.3600    24.2710     2.2390 
