~V
VERS. 2.00: Ver 2.00
~W
STRT.M 47.0000:
STOP.M 270.0000:
STEP.M 0.1250:
NULL. -999.2500:
UWI. F11075:
~C
DEPT.M :
GR.API :
RML.OHMM :
RI. :
RXO.OHMM :
CALI.CM :
DEN.GM/CC :
SP.MV :
~A
# ...
  249.5000    40.1310     8.5740     8.0850     8.6000    25.1860     2.4770   -14.5440 
  249.6250    39.0670     8.6780     8.0560     8.7900    25.2080     2.4830   -14.5400 
  249.7500    38.6520     8.8350     8.0260     9.0760    25.2010     2.4720   -14.4750 
  249.8750    38.0770     8.9210     7.9430     9.1950    25.1370     2.4460   -14.3470 
  250.0000    38.1660     8.8420     7.7770     9.0960    25.0590     2.4160   -14.1890 
  250.1250    39.8510     8.6010     7.5390     8.4360    25.0110     2.3910   -14.0100 
  250.2500    42.7560     8.2900     7.2860     7.4730    24.9930     2.3780   -13.8160 
  250.3750    46.8230     8.0660     7.0950     7.3230    24.9900     2.3800   -13.6220 
  250.5000    49.7560     8.0030     6.9880     7.8530    24.9900     2.3900   -13.4430 
  250.6250    50.5480     8.0770     6.9550     8.4040    24.9960     2.4020   -13.2850 
  250.7500    50.6140     8.2080     6.9770     8.5700    25.0050     2.4120   -13.1570 
  250.8750    51.8450     8.2940     7.0400     8.4660    25.0060     2.4200   -13.0550 
  251.0000    53.2270     8.3170     7.1140     8.2970    25.0010     2.4270   -12.9710 
  251.1250    53.1310     8.3080     7.1760     8.4450    24.9980     2.4310   -12.9200 
  251.2500    52.1970     8.3060     7.1980     8.8470    24.9940     2.4300   -12.8870 
  251.3750    51.4110     8.2970     7.1540     8.8800    24.9860     2.4200   -12.8560 
  251.5000    51.3510     8.2380     7.0550     8.5620    24.9810     2.4060   -12.8320 
  251.6250    51.3180     8.1230     6.9270     8.1140    24.9830     2.3930   -12.8310 
  251.7500    50.8430     8.0070     6.8160     7.6770    24.9820     2.3850   -12.8510 
  251.8750    50.4380     8.0040     6.7880     7.4110    24.9640     2.3870   -12.9130 
  252.0000    50.9580     8.1320     6.8460     7.6990    24.9520     2.3940   -12.9760 
  252.1250    52.3070     8.3030     6.9350     8.1280    24.9450     2.4040   -13.0270 
  252.2500    54.2700     8.3730     6.9610     8.3680    24.9360     2.4120   -13.0860 
  252.3750    56.9980     8.2070     6.8240     8.4250    24.9310     2.4160   -13.1460 
  252.5000    61.0310     7.9040     6.5780     8.3370    24.9310     2.4140   -13.2000 
  252.6250    69.4590     7.6260     6.3280     7.7280    24.9390     2.4080   -13.2360 
  252.7500    83.3060     7.5300     6.1870     6.7640    24.9560     2.3970   -13.2840 
  252.8750    94.5770     7.7380     6.2650     6.8650    25.0270     2.3880   -13.3320 
  253.0000    97.6070     8.1750     6.5440     8.4980    25.1680     2.3850   -13.3610 
  253.1250    95.2550     8.7300     6.9680    10.1480    25.3140     2.3920   -13.3630 
  253.2500    92.7000     9.2520     7.4400    10.1660    25.4000     2.4060   -13.3210 
  253.3750    91.4960     9.5580     7.8060     9.9760    25.4100     2.4240   -13.2660 
  253.5000    91.1360     9.6310     8.0020    10.0060    25.4000     2.4380   -13.1860 
  253.6250    92.1040     9.5390     8.0420    10.1750    25.3830     2.4450   -13.1000 
  253.7500    94.0580     9.3940     7.9930    10.1150    25.3710     2.4450   -12.9850 
  253.8750    97.0830     9.2880     7.9170    10.0740    25.3470     2.4410   -12.8570 
  254.0000   102.0380     9.2430     7.8650     9.8500    25.3190     2.4360   -12.7510 
  254.1250   106.0810     9.2630     7.8650     9.7750    25.2930     2.4320   -12.6780 
  254.2500   107.5960     9.3500     7.9300    10.0530    25.2770     2.4300   -12.6340 
  254.3750   110.1860     9.4880     8.0420    10.2030    25.2710     2.4290   -12.5990 
  254.5000   115.8170     9.6080     8.1300    10.4660    25.2700     2.4280   -12.5900 
  254.6250   120.8280     9.6500     8.1400    10.7750    25.2640     2.4240   -12.5870 
  254.7500   120.6300     9.5980     8.0520    10.2160    25.2550     2.4200   -12.5830 
  254.8750   118.0200     9.4810     7.9000     9.7080    25.2490     2.4150   -12.5700 
  255.0000   116.7620     9.3730     7.7620     9.4010    25.2470     2.4100   -12.5500 
  255.1250   115.5770     9.3120     7.6840     9.3320    25.2450     2.4070   -12.5190 
  255.2500   112.9210     9.3150     7.6930     9.3460    25.2400     2.4050   -12.5030 
  255.3750   109.1820     9.3910     7.7990     9.7520    25.2320     2.4080   -12.4720 
  255.5000   104.3590     9.5110     7.9510    10.0250    25.2270     2.4190   -12.4450 
  255.6250    99.5540     9.6410     8.1080    10.1210    25.2220     2.4350   -12.4120 
  255.7500    98.8060     9.7410     8.2370    10.1780    25.2150     2.4500   -12.3790 
  255.8750   102.4590     9.7830     8.3180    10.2910    25.2070     2.4570   -12.3550 
  256.0000   106.0550     9.7910     8.3710    10.2870    25.2050     2.4560   -12.3320 
  256.1250   108.6360     9.7990     8.4140    10.2450    25.2080     2.4490   -12.3080 
  256.2500   109.8910     9.8370     8.4630    10.1380    25.2170     2.4370   -12.2630 
  256.3750   108.7630     9.9240     8.5180    10.4140    25.2160     2.4220   -12.2500 
  256.5000   107.0520    10.0220     8.5570    10.6150    25.2130     2.4040   -12.2370 
  256.6250   106.4530    10.0870     8.5690    10.5780    25.2090     2.3860   -12.2300 
  256.7500   103.9240    10.0780     8.5400    10.4080    25.2080     2.3710   -12.2120 
  256.8750    98.0210     9.9570     8.4400    10.3400    25.2080     2.3630   -12.1900 
  257.0000    93.9340     9.7390     8.2710    10.1540    25.2130     2.3590   -12.1640 
  257.1250    94.3120     9.4340     8.0300    10.0710    25.2140     2.3570   -12.1390 
  257.2500    96.7050     9.0810     7.7350     9.9310    25.2090     2.3560   -12.1170 
  257.3750    97.4650     8.7980     7.4730     9.5070    25.2030     2.3630   -12.0840 
  257.5000    98.3560     8.7310     7.3780     9.1560    25.1960     2.3840   -12.0370 
  257.6250   101.2330     9.0100     7.5520     8.8600    25.1840     2.4190   -11.9780 
  257.7500   103.9910     9.6970     8.0450     9.3150    25.1680     2.4550   -11.9200 
  257.8750   103.1310    10.7410     8.8740    11.4890    25.1480     2.4740   -11.8520 
  258.0000   100.4940    11.7790     9.8040    13.6910    25.1350     2.4680   -11.7850 
  258.1250    99.7830    12.4560    10.5300    13.5000    25.1440     2.4410   -11.7120 
  258.2500   101.4480    12.5300    10.7820    12.6640    25.1810     2.4050   -11.6350 
  258.3750   103.5320    11.9640    10.4450    12.3070    25.2110     2.3750   -11.5580 
  258.5000   104.0160    11.1700     9.8510    11.4490    25.2210     2.3550   -11.4890 
  258.6250   102.8810    10.4780     9.2880    10.4540    25.2200     2.3410   -11.4360 
  258.7500   101.8360    10.1180     8.9620     9.7810    25.2300     2.3290   -11.3940 
  258.8750   102.4440    10.2660     9.0300    10.1780    25.2480     2.3160   -11.3630 
  259.0000   103.6680    10.8220     9.4370    11.6140    25.2550     2.3000   -11.3320 
  259.1250   104.2000    11.6580    10.1120    13.9290    25.2590     2.2850   -11.3060 
  259.2500   104.2430    12.5480    10.8970    15.2090    25.2700     2.2750   -11.2990 
  259.3750   104.4320    13.1550    11.5130    15.4050    25.2750     2.2740   -11.2970 
  259.5000   104.7970    13.3480    11.7980    15.0790    25.2700     2.2780   -11.2990 
  259.6250   104.7970    13.1860    11.7640    14.6900    25.2630     2.2850   -11.2850 
  259.7500   104.7970    12.8750    11.5650    14.1930    25.2650     2.2910   -11.2700 
  259.8750   104.7970    12.6850    11.4160    13.7000    25.2620     2.2930   -11.2720 
  260.0000   104.7970    12.7240    11.4310    13.7810    25.2650     2.2930   -11.2960 
  260.1250   104.7970    12.9370    11.5950    15.3490    25.2650     2.2930   -11.3150 
  260.2500   104.7970    13.1450    11.7980    16.6280    25.2690     2.2970   -11.3220 
  260.3750   104.7970    13.0580    11.8110    16.1170    25.2690     2.3060   -11.3200 
  260.5000   104.7970    12.5830    11.4950    15.3050    25.2650     2.3190   -11.3300 
  260.6250   104.7970    11.7900    10.8650    14.3410    25.2670     2.3330   -11.3500 
