~V
VERS. 2.00: Ver 2.00
~W
STRT.M 60.0000:
STOP.M 276.0000:
STEP.M 0.1250:
NULL. -999.2500:
UWI. F11026:
~C
DEPT.M :
DEN.GM/CC :
GR.API :
RML.OHMM :
RI. :
RXO.OHMM :
CALI.CM :
SP.MV :
~A
# ...
  105.0000     2.1910    61.8000     8.7520     7.2810     8.4050    23.5590   -17.6500 
  105.1250     2.2090    64.1680     8.6440     7.2480     8.4990    23.5860   -17.2560 
  105.2500     2.2190    64.8330     8.5750     7.2220     8.4650    23.6850   -16.8490 
  105.3750     2.2210    65.6790     8.5690     7.2240     8.4250    23.7520   -16.3920 
  105.5000     2.2190    66.4430     8.6250     7.2660     8.4810    23.7260   -15.8500 
  105.6250     2.2170    64.8620     8.6970     7.3370     8.5280    23.7420   -15.2400 
  105.7500     2.2180    62.5700     8.6890     7.3750     8.5050    23.8720   -14.5980 
  105.8750     2.2250    62.1040     8.5150     7.2930     8.4520    24.0740   -13.8510 
  106.0000     2.2420    64.0670     8.1260     7.0230     8.4190    24.2010   -13.0420 
  106.1250     2.2680    67.6670     7.5210     6.5310     8.2000    24.1970   -12.2560 
  106.2500     2.2950    73.6110     6.8420     5.9330     7.3450    24.2530   -11.5490 
  106.3750     2.3140    80.8420     6.2110     5.3410     5.9670    24.4820   -10.9110 
  106.5000     2.3170    84.8280     5.7340     4.8550     5.0450    24.7260   -10.3790 
  106.6250     2.3010    84.0630     5.5080     4.5670     4.8180    24.8810   -10.0360 
  106.7500     2.2750    84.7380     5.5170     4.4690     4.8310    24.8920    -9.9440 
  106.8750     2.2510    88.6300     5.7480     4.5610     4.9610    24.6890   -10.1430 
  107.0000     2.2380    90.0080     6.1780     4.8310     5.6000    24.2300   -10.5500 
  107.1250     2.2450    83.8560     6.7690     5.2710     6.2810    23.7720   -11.0920 
  107.2500     2.2660    76.3550     7.3970     5.7910     6.6890    23.6130   -11.7170 
  107.3750     2.2870    71.5250     7.9420     6.2970     6.8700    23.7140   -12.3810 
  107.5000     2.2930    68.7450     8.2940     6.6790     7.2250    23.9750   -13.0490 
  107.6250     2.2720    67.7350     8.3600     6.8180     8.2100    24.2870   -13.7510 
  107.7500     2.2350    68.4760     8.2430     6.7690     8.8740    24.4980   -14.5150 
  107.8750     2.1990    70.2040     8.0770     6.6240     8.2670    24.5410   -15.3240 
  108.0000     2.1770    71.7200     7.9980     6.4930     7.2470    24.3810   -16.0870 
  108.1250     2.1720    70.6420     8.1120     6.4770     7.5380    23.9930   -16.6840 
  108.2500     2.1730    67.6740     8.3640     6.5770     8.1040    23.8050   -17.1120 
  108.3750     2.1710    66.2180     8.6590     6.7530     8.5470    23.7820   -17.4520 
  108.5000     2.1610    69.3290     8.8940     6.9370     8.7840    23.8330   -17.7680 
  108.6250     2.1470    71.6440     8.9830     7.0540     8.8250    23.8550   -17.9710 
  108.7500     2.1350    68.4200     8.9600     7.0940     8.6800    23.8390   -17.9960 
  108.8750     2.1290    62.5690     8.8750     7.0860     8.6150    23.7750   -17.8820 
  109.0000     2.1310    59.6720     8.7780     7.0610     8.5270    23.6980   -17.8540 
  109.1250     2.1370    61.8800     8.7000     7.0380     8.3680    23.6270   -17.7780 
  109.2500     2.1430    65.0150     8.6400     7.0180     8.2540    23.5750   -17.7880 
  109.3750     2.1450    66.1860     8.5950     7.0020     8.2560    23.5170   -17.8420 
  109.5000     2.1430    66.2340     8.5670     6.9960     8.2540    23.4700   -17.8280 
  109.6250     2.1430    67.0560     8.5910     7.0310     8.2680    23.4390   -17.7600 
  109.7500     2.1500    68.7350     8.7020     7.1410     8.1360    23.4350   -17.7950 
  109.8750     2.1680    69.8700     8.9200     7.3530     8.0670    23.4280   -17.9430 
  110.0000     2.1930    70.6140     9.2140     7.6660     8.1700    23.3960   -18.1370 
  110.1250     2.2180    69.9570     9.4370     8.0000     8.7950    23.4620   -18.2300 
  110.2500     2.2370    66.1710     9.3880     8.1630     9.8870    23.6360   -18.1040 
  110.3750     2.2510    62.7030     8.9100     7.9500     9.9850    23.8420   -17.7270 
  110.5000     2.2620    63.4570     7.9780     7.2560     8.7390    24.0610   -17.1620 
  110.6250     2.2770    69.7080     6.7450     6.1610     7.3680    24.3640   -16.2650 
  110.7500     2.2970    79.5950     5.5720     5.0360     5.8990    24.6580   -15.0820 
  110.8750     2.3210    92.0770     4.6980     4.1260     4.6450    24.8540   -13.8000 
  111.0000     2.3420   103.9530     4.2420     3.5540     3.7990    24.8480   -12.5870 
  111.1250     2.3500   109.2270     4.2760     3.4000     3.9630    24.6530   -11.5850 
  111.2500     2.3390   107.8340     4.6860     3.5760     5.1670    24.3930   -10.9990 
  111.3750     2.3110   102.4630     5.4520     4.0690     7.2000    24.2620   -10.8570 
  111.5000     2.2780    96.3560     6.5740     4.8990     7.6680    24.2670   -11.0120 
  111.6250     2.2710    89.0990     8.0520     6.1470     7.6240    24.3270   -11.4020 
  111.7500     2.3040    79.9370     9.6390     7.6680     8.1980    24.3560   -11.8060 
  111.8750     2.3670    73.2660    10.9850     9.1890    10.9650    24.4020   -12.0810 
  112.0000     2.4300    72.7480    11.6530    10.2260    18.3870    24.5040   -12.1190 
  112.1250     2.4460    77.7560    11.1610    10.0910    27.6420    24.6430   -11.6970 
  112.2500     2.4150    84.8720     9.8160     8.9850    18.6350    24.7070   -10.9390 
  112.3750     2.3590    94.0100     8.1010     7.4510     8.8880    24.5800   -10.0920 
  112.5000     2.3120   101.8090     6.5460     6.0400     5.5680    24.3490    -9.3110 
  112.6250     2.2950   101.9930     5.5860     5.1200     5.1250    24.1590    -8.6570 
  112.7500     2.2970    98.3590     5.1720     4.6550     5.0380    24.0780    -8.1250 
  112.8750     2.3020    96.9430     5.1660     4.5610     4.9910    24.0540    -7.6860 
  113.0000     2.3030    98.4970     5.3800     4.7090     5.1350    24.0570    -7.3800 
  113.1250     2.3020    98.5730     5.6070     4.9430     5.4570    24.1570    -7.3120 
  113.2500     2.3060    96.9400     5.7000     5.1080     5.5170    24.3290    -7.2150 
  113.3750     2.3140    98.7940     5.6120     5.1270     5.2010    24.4970    -6.9540 
  113.5000     2.3250   105.4040     5.3680     4.9920     4.8650    24.5060    -6.5690 
  113.6250     2.3340   110.0060     5.0490     4.7510     4.6640    24.2900    -6.2230 
  113.7500     2.3380   109.7250     4.7730     4.5150     4.5200    24.0340    -6.0220 
  113.8750     2.3380   107.1050     4.6040     4.3420     4.3400    23.9540    -5.9240 
  114.0000     2.3330   104.6160     4.5700     4.2560     4.1490    24.0260    -5.8310 
  114.1250     2.3270   104.4570     4.6710     4.2570     4.2880    24.0690    -5.7680 
  114.2500     2.3270   106.0060     4.8420     4.3030     4.6660    24.0080    -5.8730 
  114.3750     2.3340   108.1210     5.0320     4.3700     4.9660    23.9750    -6.1070 
  114.5000     2.3450   110.0480     5.1920     4.4390     5.0310    24.1080    -6.4040 
  114.6250     2.3540   112.3870     5.2780     4.4850     4.8470    24.2950    -6.6300 
  114.7500     2.3580   112.3190     5.2870     4.4880     4.7960    24.3880    -6.6870 
  114.8750     2.3550   107.8600     5.2300     4.4400     5.0030    24.3480    -6.6460 
  115.0000     2.3500   101.5770     5.1320     4.3490     5.2450    24.2360    -6.6220 
  115.1250     2.3430    98.9650     5.0360     4.2420     5.2030    24.2030    -6.7480 
  115.2500     2.3330   100.9900     5.0190     4.1740     4.8130    24.2710    -7.0430 
  115.3750     2.3230   104.2700     5.1890     4.2230     4.6870    24.2880    -7.4670 
  115.5000     2.3170   102.8550     5.6680     4.4890     5.2470    24.1000    -7.9530 
  115.6250     2.3280    93.9170     6.6100     5.1200     6.2330    23.8090    -8.5480 
  115.7500     2.3520    84.2620     7.9100     6.1040     6.9130    23.6850    -9.3010 
  115.8750     2.3730    78.1610     9.3540     7.3650     8.9870    23.7360   -10.1830 
  116.0000     2.3710    75.7190    10.5870     8.6530    14.1090    23.8440   -11.1040 
  116.1250     2.3300    75.4380    11.1160     9.4480    16.4880    23.8920   -11.8550 
