~V
VERS. 2.00: Ver 2.00
~W
STRT.M 50.0000:
STOP.M 276.0000:
STEP.M 0.1250:
NULL. -999.2500:
UWI. F11044:
~C
DEPT.M :
SP.MV :
GR.API :
RML.OHMM :
RI. :
RXO.OHMM :
CALI.CM :
DEN.GM/CC :
~A
# ...
  252.5000    -5.5640    60.6640     6.0010     4.8130     6.0790    24.7960     2.4220 
  252.6250    -5.4370    57.6940     5.9810     4.7890     6.2400    24.7960     2.3650 
  252.7500    -5.3300    56.7310     5.9560     4.7590     6.1860    24.7760     2.2360 
  252.8750    -5.2700    56.9010     5.9380     4.7320     5.9720    24.7460     2.0800 
  253.0000    -5.2430    58.1250     5.9430     4.7150     5.8060    24.7370     1.9700 
  253.1250    -5.2400    61.2410     5.9830     4.7120     5.6650    24.7400     1.9740 
  253.2500    -5.2590    63.4620     6.0430     4.7150     5.6190    24.7590     2.0570 
  253.3750    -5.2450    63.3480     6.1000     4.7170     5.6790    24.7840     2.1470 
  253.5000    -5.1470    63.5610     6.1290     4.7190     5.7770    24.7900     2.1830 
  253.6250    -5.0070    65.2280     6.1040     4.7240     5.8270    24.7700     2.1500 
  253.7500    -4.8490    65.2910     6.0380     4.7300     5.8720    24.7420     2.1110 
  253.8750    -4.6660    62.7840     5.9600     4.7360     5.9150    24.7270     2.1120 
  254.0000    -4.4730    60.5670     5.9120     4.7370     5.8910    24.7070     2.1570 
  254.1250    -4.3020    59.9830     5.9370     4.7360     5.7820    24.6910     2.2060 
  254.2500    -4.1050    60.0680     6.0280     4.7410     5.7750    24.7200     2.2240 
  254.3750    -3.9270    61.3680     6.1550     4.7570     5.8870    24.7600     2.2130 
  254.5000    -3.8960    62.6290     6.2810     4.7840     6.0840    24.8060     2.1970 
  254.6250    -3.9940    59.9890     6.3760     4.8140     6.2150    24.8120     2.2050 
  254.7500    -4.0860    56.1510     6.4380     4.8400     6.2060    24.7560     2.2370 
  254.8750    -4.1380    56.5490     6.4770     4.8590     6.2480    24.6760     2.2790 
  255.0000    -4.1850    61.0060     6.5050     4.8690     6.2410    24.6260     2.3130 
  255.1250    -4.3000    64.1490     6.5290     4.8740     6.0340    24.6490     2.3280 
  255.2500    -4.4540    65.3770     6.5510     4.8800     6.0360    24.7160     2.3280 
  255.3750    -4.5550    65.5320     6.5720     4.8910     6.1740    24.7760     2.3180 
  255.5000    -4.5890    64.4780     6.5920     4.9060     6.3250    24.7970     2.3040 
  255.6250    -4.6130    63.1440     6.6150     4.9230     6.4300    24.7920     2.2860 
  255.7500    -4.6270    63.4520     6.6470     4.9400     6.3310    24.7970     2.2690 
  255.8750    -4.6030    64.1500     6.6860     4.9560     6.1150    24.8010     2.2520 
  256.0000    -4.5570    63.8470     6.7270     4.9710     5.9850    24.8030     2.2400 
  256.1250    -4.4980    64.1920     6.7600     4.9840     6.1080    24.8030     2.2390 
  256.2500    -4.3840    64.4770     6.7780     4.9950     6.2190    24.8020     2.2500 
  256.3750    -4.2890    63.9140     6.7840     5.0010     6.2700    24.8040     2.2700 
  256.5000    -4.2620    64.2130     6.7770     5.0000     6.1120    24.8200     2.2900 
  256.6250    -4.2460    65.2480     6.7620     4.9940     6.1250    24.8490     2.2950 
  256.7500    -4.2360    64.7940     6.7420     4.9830     6.0920    24.8620     2.2780 
  256.8750    -4.2220    63.2760     6.7200     4.9710     6.0910    24.8640     2.2460 
  257.0000    -4.1590    63.6120     6.7030     4.9600     6.1720    24.8570     2.2170 
  257.1250    -4.1030    65.3280     6.6970     4.9560     6.3090    24.8420     2.2180 
  257.2500    -4.1500    65.3670     6.7030     4.9610     6.4120    24.8260     2.2510 
  257.3750    -4.2590    63.8950     6.7150     4.9730     6.4050    24.8260     2.3020 
  257.5000    -4.2750    62.4280     6.7250     4.9900     6.3000    24.8150     2.3440 
  257.6250    -4.1930    62.0820     6.7280     5.0040     6.3110    24.8070     2.3540 
  257.7500    -4.1530    62.1510     6.7220     5.0120     6.3030    24.8010     2.3430 
  257.8750    -4.1560    61.8720     6.7100     5.0130     6.2770    24.8030     2.3300 
  258.0000    -4.1660    62.7040     6.6910     5.0080     6.3110    24.8180     2.3250 
  258.1250    -4.0700    65.2010     6.6650     4.9980     6.2930    24.8420     2.3250 
  258.2500    -3.9090    66.8670     6.6390     4.9840     6.3650    24.8330     2.3170 
  258.3750    -3.7630    66.1330     6.6170     4.9690     6.3840    24.8090     2.3030 
  258.5000    -3.6270    64.9810     6.6040     4.9570     6.3390    24.7970     2.2910 
  258.6250    -3.4360    63.3870     6.6100     4.9560     6.2300    24.8010     2.2960 
  258.7500    -3.1720    61.0530     6.6430     4.9730     6.1340    24.8030     2.3150 
  258.8750    -2.9170    59.8570     6.7160     5.0200     6.1120    24.8030     2.3390 
  259.0000    -2.7420    61.1740     6.8360     5.1080     6.1160    24.8030     2.3610 
  259.1250    -2.5960    63.4630     6.9960     5.2380     6.1890    24.8030     2.3720 
  259.2500    -2.4860    64.6440     7.1500     5.3790     6.3150    24.8030     2.3710 
  259.3750    -2.3940    63.2730     7.2550     5.4950     6.4420    24.8020     2.3550 
  259.5000    -2.3450    59.8340     7.2730     5.5460     6.4220    24.8000     2.3240 
  259.6250    -2.3460    59.2570     7.1770     5.4990     6.3100    24.7980     2.2820 
  259.7500    -2.4150    62.4090     7.0130     5.3860     6.2320    24.7990     2.2430 
  259.8750    -2.5130    64.2590     6.8260     5.2440     6.2130    24.8000     2.2140 
  260.0000    -2.5240    62.9220     6.6660     5.1130     6.1880    24.7970     2.2010 
  260.1250    -2.4950    62.5670     6.5750     5.0290     6.2810    24.7950     2.2040 
  260.2500    -2.4250    64.5330     6.5470     4.9930     6.4070    24.7960     2.2210 
  260.3750    -2.3210    65.1300     6.5590     4.9950     6.4670    24.7980     2.2490 
  260.5000    -2.2550    63.3720     6.5840     5.0140     6.4660    24.7990     2.2860 
  260.6250    -2.2370    61.3840     6.5920     5.0320     6.4630    24.8010     2.3220 
  260.7500    -2.1430    60.4030     6.5740     5.0390     6.4730    24.8010     2.3490 
  260.8750    -1.9810    59.3460     6.5330     5.0350     6.4420    24.7980     2.3670 
  261.0000    -1.8760    59.4740     6.4860     5.0200     6.3910    24.7890     2.3790 
  261.1250    -1.9340    61.6180     6.4660     5.0090     6.3540    24.7720     2.3850 
  261.2500    -2.0530    62.5370     6.5000     5.0230     6.3120    24.7570     2.3860 
  261.3750    -2.1190    60.7370     6.6010     5.0790     6.1890    24.7650     2.3790 
  261.5000    -2.1330    58.9420     6.7610     5.1870     6.0230    24.7660     2.3680 
  261.6250    -2.1910    60.1570     6.9420     5.3350     5.9370    24.7750     2.3620 
  261.7500    -2.3290    62.7070     7.0870     5.4820     6.0090    24.7770     2.3670 
  261.8750    -2.4520    64.5960     7.1620     5.5900     6.1810    24.7720     2.3830 
  262.0000    -2.5630    63.8470     7.1670     5.6430     6.5390    24.7410     2.4010 
  262.1250    -2.6560    60.3460     7.1360     5.6510     6.8520    24.7080     2.4130 
  262.2500    -2.7070    58.2530     7.1240     5.6580     7.0050    24.7040     2.4140 
  262.3750    -2.7630    58.9130     7.1560     5.6880     6.8890    24.7070     2.4080 
  262.5000    -2.7810    59.8240     7.2260     5.7510     6.7280    24.7350     2.3980 
  262.6250    -2.7790    57.8880     7.2900     5.8260     6.8080    24.7730     2.3890 
  262.7500    -2.7680    56.6380     7.2940     5.8720     7.0440    24.7910     2.3810 
  262.8750    -2.7850    57.7350     7.2130     5.8520     7.2470    24.7940     2.3700 
  263.0000    -2.8260    59.1210     7.0530     5.7600     7.4370    24.7930     2.3550 
  263.1250    -2.8220    58.8300     6.8610     5.6180     8.2970    24.7870     2.3420 
  263.2500    -2.8450    58.6840     6.7130     5.4890     8.9930    24.7720     2.3380 
  263.3750    -2.8580    58.7770     6.6530     5.4160     8.6250    24.7570     2.3510 
  263.5000    -2.8640    57.3500     6.7000     5.4230     8.1580    24.7570     2.3780 
  263.6250    -2.8830    55.2630     6.8360     5.5140     7.0970    24.7890     2.4080 
