~V
VERS. 2.00: Ver 2.00
~W
STRT.M 62.0000:
STOP.M 218.0000:
STEP.M 0.1250:
NULL. -999.2500:
UWI. F11008:
~C
DEPT.M :
DEN.GM/CC :
GR.API :
RML.OHMM :
RI. :
RXO.OHMM :
CALI.CM :
SP.MV :
~A
# ...
  208.2500     2.4270   107.4260     5.3480     4.5910     5.1890    24.3030    -7.6640 
  208.3750     2.4300   107.4260     5.5100     4.7240     5.6000    24.3070    -7.7060 
  208.5000     2.4310   107.4260     5.6840     4.8810     6.0630    24.3050    -7.7340 
  208.6250     2.4330   107.4260     5.8320     5.0270     6.4250    24.3120    -7.7550 
  208.7500     2.4340   107.4260     5.9270     5.1280     6.8650    24.3230    -7.7980 
  208.8750     2.4350   107.4260     5.9500     5.1660     6.7960    24.3180    -7.8130 
  209.0000     2.4330   107.4260     5.8950     5.1440     6.3600    24.3080    -7.7700 
  209.1250     2.4260   107.4260     5.7640     5.0800     6.0590    24.3010    -7.6850 
  209.2500     2.4160   107.4260     5.5980     5.0100     5.9130    24.3020    -7.5870 
  209.3750     2.4050   107.4260     5.4300     4.9500     5.9370    24.3030    -7.4530 
  209.5000     2.3970   107.4260     5.2890     4.8960     5.9380    24.3070    -7.2940 
  209.6250     2.3960   107.4260     5.2030     4.8300     5.8420    24.3060    -7.1310 
  209.7500     2.3990   107.4260     5.1730     4.7450     5.6740    24.3030    -6.9680 
  209.8750     2.4080   107.4260     5.1990     4.6600     5.5830    24.3010    -6.8270 
  210.0000     2.4190   107.4260     5.2810     4.6080     5.4750    24.3010    -6.7210 
  210.1250     2.4310   107.4260     5.3890     4.6230     5.5050    24.3010    -6.6470 
  210.2500     2.4390   107.4260     5.7080     4.8550     6.9790    24.3090    -6.5500 
  210.3750     2.4400   107.4260     5.9880     5.1300     9.5270    24.3170    -6.4540 
  210.5000     2.4340   107.4260     6.3350     5.4590    10.4000    24.3190    -6.4000 
  210.6250     2.4260   107.4260     6.7410     5.7950     7.9150    24.3270    -6.3560 
  210.7500     2.4230   107.4260     7.1700     6.0970     5.9400    24.3100    -6.3000 
  210.8750     2.4230   107.4260     7.5490     6.3240     5.6770    24.2830    -6.2110 
  211.0000     2.4250   107.4260     7.8330     6.4830     5.9170    24.2610    -6.1100 
  211.1250     2.4280   107.4260     8.0140     6.5880     6.2660    24.2580    -5.9640 
  211.2500     2.4340   107.4260     8.1230     6.6620     6.6620    24.2440    -5.8360 
  211.3750     2.4430   107.4260     8.2090     6.7270     7.2320    24.2170    -5.6800 
  211.5000     2.4480   107.4260     8.3160     6.8120     7.8510    24.2520    -5.4850 
  211.6250     2.4440   107.4260     8.4490     6.9390     8.0920    24.2670    -5.2940 
  211.7500     2.4330   107.4260     8.6030     7.1190     7.5950    24.2860    -5.1400 
  211.8750     2.4240   107.4260     8.7770     7.3420     7.3280    24.2780    -5.0040 
  212.0000     2.4290   107.4260     8.9650     7.5660     7.9650    24.2320    -4.8800 
  212.1250     2.4460   107.4260     9.1580     7.7560     8.3800    24.2040    -4.8440 
  212.2500     2.4640   107.4260     9.3400     7.8920     8.2160    24.2910    -4.8040 
  212.3750     2.4740   107.4260     9.4810     7.9620     8.1490    24.4190    -4.7800 
  212.5000     2.4710   107.4260     9.5790     7.9910     8.3040    24.4220    -4.7830 
  212.6250     2.4610   107.4260     9.6380     7.9970     8.8790    24.3110    -4.8040 
  212.7500     2.4540   107.4260     9.6660     7.9930     9.8550    24.1100    -4.8350 
  212.8750     2.4560   107.4260     9.6630     7.9840    10.5930    23.9230    -4.9060 
  213.0000     2.4660   107.4260     9.6440     7.9730    10.1810    23.7450    -4.9990 
  213.1250     2.4810   107.4260     9.6250     7.9580     9.6430    23.6370    -5.0420 
  213.2500     2.4970   107.4260     9.6230     7.9430     9.6840    23.6580    -5.1340 
  213.3750     2.5100   107.4260     9.6500     7.9290    10.1520    23.7850    -5.2410 
  213.5000     2.5050   107.4260     9.6890     7.9190    11.3780    23.9160    -5.3660 
  213.6250     2.4680   107.4260     9.7230     7.9140    12.7530    24.0530    -5.4950 
  213.7500     2.3940   107.4260     9.7420     7.9110    14.0510    24.2790    -5.5370 
  213.8750     2.2970   107.4260     9.7470     7.9100    14.1010    24.5130    -5.4660 
  214.0000     2.2190   107.4260     9.7480     7.9090    11.7810    24.6390    -5.3960 
  214.1250     2.1940   107.4260     9.7480     7.9090     8.3890    24.5150    -5.3350 
  214.2500     2.2250   107.4260     9.7480     7.9090     6.4620    24.1970    -5.2500 
  214.3750     2.2930   107.4260     9.7480     7.9090     6.1310    24.0230    -5.1470 
  214.5000     2.3590   107.4260     9.7480     7.9090     6.4640    23.9910    -5.0480 
  214.6250     2.4030   107.4260     9.7480     7.9090     6.2780    24.0220    -4.9220 
  214.7500     2.4260   107.4260     9.7480     7.9090     5.6770    24.0650    -4.8590 
  214.8750     2.4390   107.4260     9.7480     7.9090     5.4750    24.1250    -4.8670 
  215.0000     2.4530   107.4260     9.7480     7.9090     5.4110    24.1290    -4.8440 
  215.1250     2.4680   107.4260     9.7480     7.9090     5.4950    24.0820    -4.8300 
  215.2500     2.4800   107.4260     9.7480     7.9090     5.7870    24.0060    -4.8160 
  215.3750     2.4830   107.4260     9.7480     7.9090     8.8640    24.0210    -4.8300 
  215.5000     2.4740   107.4260     9.7480     7.9090    17.6900    24.0880    -4.8410 
  215.6250     2.4580   107.4260     9.7480     7.9090    22.5670    24.0760    -4.8610 
  215.7500     2.4390   107.4260     9.7480     7.9090    17.4050    23.9740    -4.8530 
  215.8750     2.4260   107.4260     9.7480     7.9090    14.1180    23.9910    -4.8500 
  216.0000     2.4240   107.4260     9.7480     7.9090    14.0530    24.0120    -4.9020 
  216.1250     2.4300   107.4260     9.7480     7.9090    13.4000    23.9290    -4.9350 
  216.2500     2.4360   107.4260     9.7480     7.9090    11.5910    23.7610    -4.9690 
  216.3750     2.4290   107.4260     9.7480     7.9090    10.7830    23.4840    -4.9830 
  216.5000     2.4040   107.4260     9.7480     7.9090    10.8350    23.1350    -4.9690 
  216.6250     2.3710   107.4260     9.7480     7.9090    10.6040    22.6480    -4.9690 
  216.7500     2.3440   107.4260     9.7480     7.9090     9.7150    21.7120    -4.9690 
  216.8750     2.3330   107.4260     9.7480     7.9090     7.9470    19.7090  -999.2500 
  217.0000     2.3410   107.4260     9.7480     7.9090     6.7020    17.1990  -999.2500 
  217.1250     2.3580   107.4260     9.7480     7.9090     5.7900    14.6240  -999.2500 
  217.2500     2.3770   107.4260     9.7480     7.9090     5.3020    12.5480  -999.2500 
  217.3750     2.3920   107.4260     9.7480     7.9090     5.1700    11.8440  -999.2500 
  217.5000     2.3990   107.4260     9.7480     7.9090     5.1450    11.6610  -999.2500 
  217.6250     2.3810   107.4260     9.7480     7.9090     5.1440    11.6610  -999.2500 
  217.7500     2.2110   107.4260     9.7480     7.9090     5.1450    11.6630  -999.2500 
  217.8750     1.7860   107.4260     9.7480     7.9090     5.1440    11.6640  -999.2500 
  218.0000     1.3860   107.4260     9.7480     7.9090     5.1450    11.6640  -999.2500 
