~V
VERS. 2.00: Ver 2.00
~W
STRT.M 57.0000:
STOP.M 283.0000:
STEP.M 0.1250:
NULL. -999.2500:
UWI. F11039:
~C
DEPT.M :
SP.MV :
GR.API :
RML.OHMM :
RI. :
RXO.OHMM :
CALI.CM :
DEN.GM/CC :
~A
# ...
  225.7500   -10.7070    56.6970   112.0400    99.4070   120.9910    24.9110     2.2420 
  225.8750   -10.7340    55.5660   105.6810    93.5410    96.9040    24.7180     2.2650 
  226.0000   -10.7480    54.1780   102.0410    89.8780    79.0330    24.6000     2.2580 
  226.1250   -10.8080    53.3400   100.9850    88.4870    73.7260    24.6550     2.2300 
  226.2500   -10.8550    53.5990   101.5120    88.6450    84.5370    24.7520     2.2010 
  226.3750   -10.8680    55.2400   102.0530    89.1160    98.2570    24.7960     2.1860 
  226.5000   -10.8930    56.2940   101.3200    88.7270   104.8950    24.8120     2.1830 
  226.6250   -10.9130    57.0140    98.9210    87.0270   103.0050    24.8140     2.1880 
  226.7500   -10.9490    58.2730    95.2750    84.2120    96.4170    24.7930     2.1940 
  226.8750   -10.9600    58.9600    91.4340    81.0350    89.2350    24.7370     2.1970 
  227.0000   -10.9900    57.4560    88.3130    78.3330    87.3590    24.6840     2.1940 
  227.1250   -11.0190    54.0000    86.1110    76.3700    91.6280    24.6490     2.1900 
  227.2500   -11.1100    52.9070    84.6100    75.0320   102.4020    24.6280     2.1860 
  227.3750   -11.2150    57.0490    83.4190    74.0080    93.3100    24.6070     2.1860 
  227.5000   -11.2870    61.9350    82.1130    72.8980    81.1850    24.5840     2.1880 
  227.6250   -11.3640    63.5490    80.5500    71.5320    72.6510    24.5750     2.1910 
  227.7500   -11.4470    60.8390    78.8210    69.9440    69.4790    24.5730     2.1930 
  227.8750   -11.5710    57.1520    77.3520    68.4450    70.2180    24.5700     2.1920 
  228.0000   -11.6490    55.7070    76.6040    67.4380    68.3200    24.5620     2.1900 
  228.1250   -11.6770    56.8110    76.9240    67.2320    61.2560    24.5410     2.1880 
  228.2500   -11.6500    59.3150    78.4850    68.0120    58.0990    24.5030     2.1880 
  228.3750   -11.5390    59.1210    81.4600    69.9790    56.6600    24.4580     2.1910 
  228.5000   -11.3580    57.3220    85.4710    72.8620    55.7350    24.4400     2.1970 
  228.6250   -11.1090    57.0420    90.3970    76.5820    52.0690    24.4320     2.2040 
  228.7500   -10.7920    57.8380    96.3030    81.2270    49.8100    24.4250     2.2110 
  228.8750   -10.4340    58.3670   103.8000    87.4790    53.7560    24.4170     2.2090 
  229.0000   -10.0300    58.9280   113.3640    95.9080    62.7450    24.4180     2.1970 
  229.1250    -9.5800    60.5830   125.7050   107.2760    74.0310    24.4710     2.1760 
  229.2500    -9.0850    60.4390   140.8150   121.7020    89.1060    24.6340     2.1550 
  229.3750    -8.5920    56.4310   155.5240   136.6890   108.4570    24.7670     2.1570 
  229.5000    -8.0660    53.5800   163.2260   146.1250   125.4400    24.7670     2.1950 
  229.6250    -7.4900    53.4500   157.2190   143.6320   141.7380    24.6400     2.2730 
  229.7500    -6.8890    53.4100   132.9510   124.5240   162.3930    24.4510     2.3780 
  229.8750    -6.2670    52.4890    93.4450    89.6570   194.7640    24.3280     2.4770 
  230.0000    -5.6760    52.9420    56.7320    55.1310   175.3120    24.2580     2.5320 
  230.1250    -5.1120    54.1550    31.6300    30.7350   109.7400    24.2440     2.5310 
  230.2500    -4.5540    55.1160    17.4760    16.9400    40.7750    24.2580     2.4890 
  230.3750    -4.0780    56.0060    11.0630    10.7080    15.0480    24.2770     2.4330 
  230.5000    -3.7670    55.9610     7.9850     7.6220     7.7930    24.3030     2.3870 
  230.6250    -3.6440    55.5430     6.6570     6.1570     6.1340    24.3190     2.3550 
  230.7500    -3.6890    58.1800     6.2640     5.6020     5.7680    24.2790     2.3380 
  230.8750    -3.9460    64.0690     6.4800     5.7100     5.5210    24.2000     2.3330 
  231.0000    -4.3760    67.9670     7.0150     6.1990     5.5110    24.1350     2.3360 
  231.1250    -4.9580    69.3900     7.7440     6.9430     5.6760    24.0850     2.3450 
  231.2500    -5.7350    71.6130     8.5470     7.8170     6.2590    24.0060     2.3590 
  231.3750    -6.5780    75.3320     9.2630     8.6560     7.2640    23.8270     2.3740 
  231.5000    -7.3810    77.0780     9.7730     9.3010     8.2660    23.4760     2.3820 
  231.6250    -8.1290    76.6430    10.0210     9.6530     8.5540    22.9730     2.3820 
  231.7500    -8.8440    78.2910    10.0260     9.6940     8.5000    22.6440     2.3760 
  231.8750    -9.4390    86.3360     9.8630     9.4670     8.4630    22.7720     2.3690 
  232.0000    -9.9280    95.7230     9.6360     9.1430     8.4450    23.0700     2.3670 
  232.1250   -10.3440    99.7990     9.4050     8.8250     8.5460    23.3350     2.3700 
  232.2500   -10.6400    98.6730     9.1960     8.5710     8.7910    23.5920     2.3780 
  232.3750   -10.8500    98.5210     8.9620     8.4220     9.2200    23.9060     2.3860 
  232.5000   -11.0590   102.7320     8.9070     8.3790     9.7050    24.1670     2.3930 
  232.6250   -11.2820   108.6840     9.1150     8.4710    10.1110    24.3380     2.3950 
  232.7500   -11.4840   110.9650     9.5790     8.7510    10.4990    24.4180     2.3920 
  232.8750   -11.7060   105.8850    10.5120     9.3270    11.0060    24.4330     2.3850 
  233.0000   -11.8790    97.9580    11.6190    10.1990    11.8690    24.4350     2.3780 
  233.1250   -12.0060    89.3860    12.9560    11.3450    13.3180    24.4340     2.3720 
  233.2500   -12.0720    82.2010    14.3940    12.6760    15.6160    24.4340     2.3710 
  233.3750   -12.0880    79.3340    15.7360    14.0260    18.5840    24.4340     2.3720 
  233.5000   -12.0760    80.5080    16.8490    15.2050    20.8850    24.4330     2.3720 
  233.6250   -12.0000    82.6830    17.6520    16.0750    22.6600    24.4330     2.3670 
  233.7500   -11.8850    82.9440    18.0750    16.5340    23.3650    24.4340     2.3590 
  233.8750   -11.6850    81.8670    17.9540    16.4230    22.5520    24.4340     2.3510 
  234.0000   -11.4770    79.9340    17.3090    15.7970    22.0680    24.4330     2.3490 
  234.1250   -11.2590    77.7590    16.1970    14.7310    22.2900    24.4320     2.3540 
  234.2500   -11.0810    76.7810    14.8320    13.4200    22.7670    24.4290     2.3630 
  234.3750   -10.9520    80.6190    13.6340    12.2180    19.4840    24.4180     2.3720 
  234.5000   -10.8380    87.5810    13.0270    11.4530    16.0560    24.3890     2.3770 
  234.6250   -10.7880    92.1760    13.3750    11.3860    14.8120    24.3350     2.3800 
  234.7500   -10.7960    91.1700    15.0050    12.2690    15.3810    24.2620     2.3790 
  234.8750   -10.8770    86.6000    18.4890    14.6240    18.8190    24.1590     2.3750 
  235.0000   -11.0320    80.1490    23.7300    18.5530    23.2950    24.0650     2.3670 
  235.1250   -11.2550    71.0170    30.6060    24.1980    28.3160    24.0170     2.3530 
  235.2500   -11.5060    63.4520    38.5930    31.3740    38.7620    24.0430     2.3330 
  235.3750   -11.7580    62.8410    46.5450    39.3640    56.4280    24.1470     2.3110 
  235.5000   -12.0100    62.6810    53.0860    46.6910    65.5880    24.3140     2.2930 
  235.6250   -12.2400    59.3880    57.3220    52.1630    67.7760    24.5220     2.2810 
  235.7500   -12.4300    57.3050    59.0730    55.1580    73.1610    24.7080     2.2760 
  235.8750   -12.5960    59.6980    58.7920    55.6520    80.0080    24.7940     2.2750 
  236.0000   -12.7390    61.5720    57.8680    55.0040    78.5820    24.8200     2.2750 
  236.1250   -12.8310    62.4900    56.9550    53.9990    69.8180    24.8130     2.2770 
  236.2500   -12.9200    63.8750    56.2800    53.0530    62.6190    24.7780     2.2790 
  236.3750   -13.0270    64.0970    55.9040    52.3960    60.3320    24.6970     2.2820 
  236.5000   -13.1220    63.4450    55.8310    52.1080    61.8170    24.5820     2.2850 
  236.6250   -13.2130    63.8440    56.2460    52.3540    65.5010    24.4680     2.2860 
  236.7500   -13.3370    64.3190    57.4910    53.3980    64.9370    24.3630     2.2850 
  236.8750   -13.5020    61.4400    60.1650    55.7570    62.0950    24.2660     2.2800 
