~V
VERS. 2.00: Ver 2.00
~W
STRT.M 60.0000:
STOP.M 274.0000:
STEP.M 0.1250:
NULL. -999.2500:
UWI. F11079:
~C
DEPT.M :
GR.API :
RML.OHMM :
RI. :
RXO.OHMM :
CALI.CM :
DEN.GM/CC :
SP.MV :
~A
# ...
  116.2500    66.3720     8.6640     7.8130    10.2710    24.2020     2.1100   -10.5860 
  116.3750    65.1290     8.6240     7.7930    10.2960    24.2230     2.1230   -10.3640 
  116.5000    67.6990     8.6200     7.7650    10.0440    24.2390     2.1400   -10.0870 
  116.6250    73.3060     8.6760     7.7470     9.8550    24.1860     2.1600    -9.7600 
  116.7500    77.4880     8.7540     7.7280     9.9180    24.1110     2.1790    -9.4110 
  116.8750    79.0590     8.7860     7.6780     9.9480    24.0180     2.1930    -9.0160 
  117.0000    77.4110     8.6920     7.5520     9.7040    23.9360     2.1980    -8.5510 
  117.1250    73.0910     8.3860     7.2980     9.6930    23.8710     2.1990    -8.0350 
  117.2500    71.0000     7.9180     6.9360     9.3060    23.8470     2.2040    -7.5150 
  117.3750    73.3930     7.3710     6.5090     8.6780    23.8950     2.2140    -7.0230 
  117.5000    76.8270     6.8790     6.1030     8.0520    24.0130     2.2270    -6.5880 
  117.6250    78.1560     6.6880     5.8820     7.9390    24.0040     2.2390    -6.2550 
  117.7500    79.1060     6.9740     5.9890     8.0670    23.9010     2.2530    -6.0580 
  117.8750    80.0580     7.8710     6.5510     8.3710    23.8170     2.2720    -6.0270 
  118.0000    78.9010     9.3730     7.6370     9.3410    23.8180     2.2960    -6.1630 
  118.1250    73.9530    11.2280     9.2020    13.0230    23.9650     2.3290    -6.4720 
  118.2500    67.8750    12.7330    10.7250    20.5560    24.1130     2.3640    -6.9180 
  118.3750    64.8080    13.2300    11.5710    26.0840    24.0620     2.3880    -7.4970 
  118.5000    65.8120    12.4740    11.3270    22.0090    23.7920     2.3830    -8.1860 
  118.6250    66.4450    10.8650    10.1480    14.0030    23.4990     2.3340    -8.9520 
  118.7500    64.4780     9.3240     8.8360    10.3530    23.4420     2.2680    -9.6950 
  118.8750    63.6050     8.2640     7.7930     9.3050    23.7660     2.2080   -10.3500 
  119.0000    65.5200     7.7680     7.1560     9.3650    24.3480     2.1670   -10.9100 
  119.1250    69.7650     7.7640     6.9400     9.5480    24.6770     2.1450   -11.3720 
  119.2500    73.0620     7.9620     6.9580     9.5220    24.6870     2.1350   -11.7350 
  119.3750    72.4550     8.1940     7.0870     9.3310    24.5730     2.1380   -11.9940 
  119.5000    67.6230     8.3590     7.2380     9.0750    24.4470     2.1520   -12.1580 
  119.6250    64.0230     8.4330     7.3600     9.1120    24.4840     2.1690   -12.2130 
  119.7500    65.9000     8.4450     7.4340     9.1860    24.5370     2.1810   -12.2290 
  119.8750    69.4150     8.3930     7.4400     9.0470    24.5470     2.1860   -12.2220 
  120.0000    70.3750     8.2700     7.3730     8.8780    24.5930     2.1860   -12.1600 
  120.1250    69.4110     8.1040     7.2570     8.8820    24.6340     2.1840   -12.0260 
  120.2500    69.3860     7.9660     7.1470     8.8410    24.5990     2.1850   -11.8560 
  120.3750    70.9640     7.9090     7.0780     8.5410    24.4590     2.1900   -11.6580 
  120.5000    73.2450     7.9590     7.0730     8.5070    24.3200     2.1940   -11.4360 
  120.6250    73.5460     8.0930     7.1380     9.0790    24.3200     2.1920   -11.2180 
  120.7500    69.3150     8.2210     7.2240     9.4570    24.4270     2.1760   -11.0010 
  120.8750    63.2480     8.2830     7.2930     8.6270    24.4230     2.1520   -10.8100 
  121.0000    60.4920     8.2660     7.3190     7.8730    24.3030     2.1310   -10.7120 
  121.1250    63.5830     8.1910     7.2930     7.6890    24.1890     2.1230   -10.7260 
  121.2500    68.5780     8.1090     7.2400     7.7960    24.1530     2.1220   -10.7980 
  121.3750    71.7850     8.0520     7.1900     7.9510    24.1080     2.1170   -10.9210 
  121.5000    72.4000     8.0310     7.1650     7.8960    24.0160     2.1080   -11.0930 
  121.6250    71.8890     8.0390     7.1690     7.8250    24.0140     2.1010   -11.3080 
  121.7500    71.2560     8.0600     7.1890     7.9570    24.1150     2.1000   -11.5550 
  121.8750    68.9090     8.0850     7.2190     8.2690    24.0990     2.1000   -11.7870 
  122.0000    65.1710     8.1000     7.2500     8.5330    24.0250     2.0970   -11.9370 
  122.1250    62.5310     8.0970     7.2790     8.5880    24.1930     2.0890   -11.9940 
  122.2500    62.8490     8.0940     7.3090     8.7320    24.7060     2.0750   -12.0080 
  122.3750    65.0830     8.1070     7.3450     8.9600    25.0510     2.0600   -11.9820 
  122.5000    67.2920     8.1380     7.3780     9.0520    25.0170     2.0560   -11.8970 
  122.6250    67.6930     8.1660     7.3860     8.7610    24.6600     2.0780   -11.7490 
  122.7500    66.6100     8.1660     7.3560     8.3770    24.3180     2.1150   -11.5740 
  122.8750    64.6150     8.1320     7.2910     8.1190    24.0910     2.1470   -11.4220 
  123.0000    61.6030     8.0750     7.2060     7.8200    23.8920     2.1600   -11.3310 
  123.1250    60.8440     8.0220     7.1230     7.2480    23.7750     2.1500   -11.2830 
  123.2500    63.6060     7.9710     7.0430     7.1590    23.7020     2.1300   -11.2350 
  123.3750    65.7590     7.8790     6.9470     7.6630    23.7120     2.1090   -11.1590 
  123.5000    64.7150     7.6930     6.8020     8.1080    23.7980     2.0980   -11.0530 
  123.6250    64.2060     7.4370     6.6130     8.2300    23.9630     2.1030   -10.8780 
  123.7500    65.2260     7.3350     6.5080     8.4080    24.1460     2.1200   -10.5960 
  123.8750    66.0240     7.7090     6.6970     8.6490    24.2580     2.1430   -10.2180 
  124.0000    67.2340     8.8890     7.4230     8.7570    24.2930     2.1710    -9.7860 
  124.1250    69.3480    11.2360     9.0600     9.9170    24.2740     2.2220    -9.3820 
  124.2500    69.1380    14.3330    11.5060    15.0480    24.2480     2.3090    -9.0630 
  124.3750    64.3690    17.2570    14.2360    30.6830    24.2580     2.4220    -8.8730 
  124.5000    59.1960    18.5120    15.9820    45.4190    24.2700     2.5130    -8.8240 
  124.6250    60.2640    16.7530    15.1750    32.3600    24.2100     2.5100    -8.9600 
  124.7500    64.1910    13.5500    12.8080    16.0470    24.0570     2.4420    -9.2820 
  124.8750    67.0590    10.5440    10.2580     9.9200    23.8680     2.3510    -9.7380 
  125.0000    67.5700     8.5710     8.3340     8.5930    23.6230     2.2600   -10.2600 
  125.1250    66.5660     7.7800     7.3070     8.8410    23.4520     2.1860   -10.7350 
  125.2500    65.8470     7.6200     6.8690     9.2090    23.5090     2.1330   -11.1100 
  125.3750    66.3620     7.7550     6.8030     9.2890    23.6170     2.1000   -11.3650 
  125.5000    68.9580     7.9450     6.9110     9.1630    23.3550     2.0880   -11.4830 
  125.6250    73.2160     8.0560     7.0380     9.0900    23.0370     2.1070   -11.4560 
  125.7500    75.7190     8.0870     7.1100     9.0380    22.8670     2.1440   -11.3070 
  125.8750    76.0300     8.0680     7.1230     8.9580    22.8110     2.1770   -11.0900 
  126.0000    73.9190     8.0240     7.0940     8.9090    22.9140     2.1940   -10.8450 
  126.1250    73.3210     7.9740     7.0440     8.8430    23.3110     2.1860   -10.6450 
  126.2500    75.5030     7.9380     6.9910     8.7390    23.8160     2.1650   -10.4980 
  126.3750    78.4940     7.9220     6.9430     8.5900    24.0690     2.1450   -10.3920 
  126.5000    79.2420     7.9230     6.9040     8.4550    24.1320     2.1330   -10.3400 
  126.6250    77.1620     7.9420     6.8920     8.3170    24.1080     2.1230   -10.3390 
  126.7500    75.6070     7.9860     6.9210     8.2150    23.9780     2.1070   -10.3930 
  126.8750    76.1170     8.0680     6.9900     8.0130    23.7480     2.0800   -10.4610 
  127.0000    77.2240     8.1890     7.0880     7.7740    23.4270     2.0570   -10.5130 
  127.1250    77.3600     8.3270     7.1880     7.4540    22.9820     2.0620   -10.5190 
  127.2500    76.8420     8.4420     7.2640     7.2420    22.5240     2.0900   -10.4990 
  127.3750    77.3850     8.5070     7.3010     7.3380    22.3060     2.1210   -10.4570 
