~V
VERS. 2.00: Ver 2.00
~W
STRT.M 51.0000:
STOP.M 240.0000:
STEP.M 0.1250:
NULL. -999.2500:
UWI. F11016:
~C
DEPT.M :
GR.API :
RML.OHMM :
RI. :
RXO.OHMM :
CALI.CM :
DEN.GM/CC :
SP.MV :
~A
# ...
  186.0000    51.5300    85.8970    79.1840    84.7000    24.0950     2.6990   -14.1420 
  186.1250    50.8280    94.8300    88.6060   104.8580    23.9980     2.7260   -13.7980 
  186.2500    50.6950    99.0670    93.8890   117.4140    23.9560     2.7320   -13.3980 
  186.3750    49.2110    94.2510    90.5450   128.9980    23.9440     2.7120   -12.9220 
  186.5000    47.2890    79.5650    77.3350   142.5250    23.9480     2.6680   -12.3340 
  186.6250    46.9770    58.9910    57.7190   153.5910    23.9610     2.6030   -11.6140 
  186.7500    48.3640    38.7330    37.8490   148.5350    23.9620     2.5310   -10.7630 
  186.8750    49.5100    23.8730    23.2300    98.1720    23.9750     2.4670    -9.7970 
  187.0000    49.1110    14.8210    14.4390    42.4990    24.0740     2.4200    -8.7630 
  187.1250    47.5200     9.7360     9.5500    15.9930    24.3010     2.3970    -7.7430 
  187.2500    46.2650     7.0280     7.0220     7.3730    24.5450     2.3930    -6.8110 
  187.3750    45.8970     6.0050     5.9060     5.0800    24.5870     2.4050    -6.0250 
  187.5000    44.9940     5.8860     5.5590     4.6060    24.4210     2.4230    -5.4110 
  187.6250    43.0180     6.0390     5.5920     4.5930    24.1550     2.4400    -4.9860 
  187.7500    41.0800     6.2640     5.8040     4.6440    23.8590     2.4500    -4.7740 
  187.8750    41.0060     6.4390     6.0460     4.6460    23.6360     2.4540    -4.7690 
  188.0000    42.2340     6.5270     6.2310     4.7110    23.6390     2.4520    -4.9020 
  188.1250    42.0130     6.5450     6.3270     4.9100    23.8050     2.4460    -5.1090 
  188.2500    39.5650     6.5270     6.3430     5.0880    23.9660     2.4410    -5.3590 
  188.3750    37.8430     6.5100     6.3020     5.2250    23.9860     2.4370    -5.6190 
  188.5000    38.2120     6.4950     6.2350     5.2600    23.8480     2.4330    -5.8580 
  188.6250    39.0190     6.4690     6.1650     5.2490    23.7160     2.4300    -6.0690 
  188.7500    39.9490     6.4260     6.0960     5.2300    23.7260     2.4270    -6.2380 
  188.8750    41.5470     6.3810     6.0260     5.3200    23.8760     2.4230    -6.3530 
  189.0000    41.5070     6.3360     5.9550     5.4960    24.1740     2.4210    -6.4320 
  189.1250    38.9710     6.2910     5.8860     5.5980    24.6300     2.4200    -6.4720 
  189.2500    37.4060     6.2570     5.8280     5.5830    25.1010     2.4220    -6.4590 
  189.3750    38.7940     6.2510     5.7940     5.4860    25.1230     2.4250    -6.4170 
  189.5000    40.5040     6.2660     5.7870     5.4270    24.6830     2.4290    -6.3830 
  189.6250    40.6870     6.2870     5.7980     5.4430    24.1110     2.4320    -6.3590 
  189.7500    40.3010     6.2940     5.8160     5.5410    23.8000     2.4310    -6.3570 
  189.8750    40.2610     6.2850     5.8270     5.6810    23.8130     2.4300    -6.3880 
  190.0000    40.4050     6.2880     5.8300     5.8370    23.8340     2.4270    -6.4360 
  190.1250    41.3050     6.3360     5.8420     5.9120    23.5650     2.4230    -6.5080 
  190.2500    43.5610     6.4460     5.8860     5.9030    23.0250     2.4200    -6.6090 
  190.3750    45.7400     6.6210     5.9830     5.8680    22.6190     2.4190    -6.6840 
  190.5000    45.4530     6.8360     6.1250     5.9020    22.5710     2.4210    -6.7060 
  190.6250    42.6320     7.0400     6.2820     6.0150    22.7760     2.4280    -6.7140 
  190.7500    40.6180     7.1810     6.4130     6.2810    23.0250     2.4390    -6.7270 
  190.8750    41.9130     7.2140     6.4700     6.5390    23.1820     2.4500    -6.7130 
  191.0000    44.2010     7.1440     6.4410     6.5770    23.2850     2.4590    -6.6820 
  191.1250    44.7860     7.0130     6.3430     6.4850    23.3720     2.4660    -6.6670 
  191.2500    44.2100     6.8670     6.2080     6.3570    23.3270     2.4680    -6.6700 
  191.3750    43.2270     6.7630     6.0800     6.1490    23.0350     2.4630    -6.6990 
  191.5000    41.6920     6.7380     5.9980     5.8860    22.8160     2.4500    -6.7680 
  191.6250    40.6500     6.8040     5.9820     5.6620    22.9210     2.4260    -6.8890 
  191.7500    41.9080     6.9550     6.0370     5.5820    23.2000     2.3890    -7.0580 
  191.8750    44.6660     7.1610     6.1560     5.6880    23.4750     2.3420    -7.2800 
  192.0000    45.8490     7.3650     6.3070     5.9810    23.6780     2.2950    -7.5660 
  192.1250    45.4610     7.5260     6.4540     6.3750    23.7540     2.2580    -7.9260 
  192.2500    46.0230     7.6400     6.5860     6.6910    23.6600     2.2380    -8.3630 
  192.3750    48.9950     7.7590     6.7190     6.7670    23.4120     2.2310    -8.8890 
  192.5000    53.8310     7.9550     6.8900     6.6880    22.9640     2.2280    -9.4970 
  192.6250    59.7580     8.2540     7.1150     6.6330    22.1990     2.2200   -10.1610 
  192.7500    66.4720     8.6240     7.3800     6.6950    21.2120     2.2040   -10.8630 
  192.8750    72.8280     8.9610     7.6230     6.9780    20.5610     2.1870   -11.5880 
  193.0000    77.2290     9.1590     7.7730     7.3650    20.8200     2.1770   -12.3170 
  193.1250    78.0940     9.1720     7.7930     7.6540    22.1250     2.1760   -13.0460 
  193.2500    75.4010     9.0210     7.6880     7.9220    24.0020     2.1840   -13.7650 
  193.3750    71.9960     8.7760     7.4970     8.2350    25.5350     2.1950   -14.4610 
  193.5000    70.7180     8.5240     7.2860     8.4690    26.3140     2.2060   -15.1470 
  193.6250    72.1140     8.3220     7.1090     8.5130    26.6030     2.2170   -15.8330 
  193.7500    75.4910     8.1900     6.9910     8.4920    26.7030     2.2290   -16.5010 
  193.8750    78.5360     8.1270     6.9410     8.5430    26.7390     2.2480   -17.1460 
  194.0000    78.5930     8.1190     6.9450     8.5100    26.7490     2.2730   -17.7870 
  194.1250    76.4150     8.1470     6.9850     8.4000    26.7120     2.3020   -18.3990 
  194.2500    74.8260     8.2000     7.0480     8.4210    26.5010     2.3300   -18.9500 
  194.3750    74.7490     8.2720     7.1290     8.3450    25.8750     2.3500   -19.4050 
  194.5000    74.7020     8.3650     7.2290     8.2030    25.0650     2.3630   -19.7520 
  194.6250    73.6970     8.4850     7.3500     8.2170    24.5270     2.3700   -19.9840 
  194.7500    71.5510     8.6350     7.4930     8.3430    24.3500     2.3740   -20.1010 
  194.8750    68.9110     8.8140     7.6510     8.5510    24.3640     2.3780   -20.0840 
  195.0000    67.2760     9.0050     7.8100     9.0410    24.4030     2.3820   -19.9180 
  195.1250    67.8160     9.1820     7.9480     9.5750    24.4320     2.3860   -19.6170 
  195.2500    71.4540     9.3220     8.0460     9.7510    24.4540     2.3910   -19.2240 
  195.3750    77.4680     9.4000     8.0790     9.6430    24.4920     2.3970   -18.7730 
  195.5000    82.6800     9.4060     8.0360     9.6270    24.5350     2.4040   -18.2720 
  195.6250    85.0360     9.3360     7.9240     9.7540    24.5440     2.4110   -17.7500 
  195.7500    84.4690     9.2000     7.7590     9.7560    24.5220     2.4170   -17.2390 
  195.8750    82.6210     9.0380     7.5840     9.5710    24.4790     2.4200   -16.7780 
  196.0000    81.5810     8.9220     7.4560     9.2010    24.4380     2.4210   -16.3950 
  196.1250    82.6510     8.9270     7.4270     8.7620    24.4050     2.4200   -16.0980 
  196.2500    84.2600     9.0980     7.5310     8.4640    24.4020     2.4190   -15.8690 
  196.3750    84.9070     9.4390     7.7850     8.6280    24.4560     2.4210   -15.6720 
  196.5000    85.4290     9.8860     8.1590     9.3940    24.5160     2.4260   -15.5050 
  196.6250    84.6800    10.3550     8.5970    10.1620    24.5530     2.4370   -15.3380 
  196.7500    81.3030    10.7930     9.0540    10.5450    24.5730     2.4510   -15.1140 
  196.8750    76.6150    11.1640     9.4890    10.7770    24.5480     2.4650   -14.7810 
  197.0000    73.3660    11.4460     9.8580    11.1230    24.4830     2.4750   -14.3240 
  197.1250    73.0650    11.5910    10.1030    11.5410    24.4170     2.4780   -13.7180 
