~V
VERS. 2.00: Ver 2.00
~W
STRT.M 58.0000:
STOP.M 271.0000:
STEP.M 0.1250:
NULL. -999.2500:
UWI. F11072:
~C
DEPT.M :
DEN.GM/CC :
GR.API :
RML.OHMM :
RI. :
RXO.OHMM :
CALI.CM :
SP.MV :
~A
# ...
  260.5000     2.3650    57.9060     6.8960     5.9310     6.2050    23.5930    -3.5830 
  260.6250     2.3630    56.0070     6.8800     5.9130     6.0110    23.5430    -3.5190 
  260.7500     2.3610    53.8510     6.8060     5.8520     5.8520    23.4940    -3.4740 
  260.8750     2.3630    53.2000     6.6840     5.7560     5.8110    23.5280    -3.4470 
  261.0000     2.3680    53.2000     6.5400     5.6430     5.8650    23.6200    -3.4440 
  261.1250     2.3760    53.2000     6.4090     5.5370     5.9800    23.6540    -3.4570 
  261.2500     2.3800    53.2000     6.3200     5.4580     5.9980    23.6760    -3.4720 
  261.3750     2.3770    53.2000     6.2830     5.4100     5.9220    23.7160    -3.4810 
  261.5000     2.3630    53.2000     6.2870     5.3890     5.7460    23.7060    -3.4850 
  261.6250     2.3450    53.2000     6.3060     5.3840     5.5130    23.6510    -3.4870 
  261.7500     2.3320    53.2000     6.3120     5.3770     5.3350    23.6550    -3.4800 
  261.8750     2.3260    53.2000     6.2940     5.3600     5.2840    23.6750    -3.4690 
  262.0000     2.3280    53.2000     6.2590     5.3340     5.3660    23.6240    -3.4480 
  262.1250     2.3320    53.2000     6.2260     5.3020     5.4330    23.5890    -3.4290 
  262.2500     2.3320    53.2000     6.2070     5.2760     5.3910    23.6450    -3.4200 
  262.3750     2.3300    53.2000     6.2070     5.2600     5.2910    23.7310    -3.4250 
  262.5000     2.3280    53.2000     6.2250     5.2530     5.2450    23.7510    -3.4380 
  262.6250     2.3300    53.2000     6.2550     5.2530     5.2850    23.7030    -3.4470 
  262.7500     2.3350    53.2000     6.2850     5.2530     5.3530    23.7080    -3.4730 
  262.8750     2.3400    53.2000     6.3050     5.2490     5.4280    23.7760    -3.5070 
  263.0000     2.3410    53.2000     6.3080     5.2430     5.4750    23.8600    -3.5450 
  263.1250     2.3400    53.2000     6.2900     5.2360     5.4340    23.9230    -3.6040 
  263.2500     2.3380    53.2000     6.2620     5.2280     5.3910    23.9370    -3.6710 
  263.3750     2.3410    53.2000     6.2330     5.2170     5.3810    23.8760    -3.7250 
  263.5000     2.3470    53.2000     6.2070     5.2010     5.4000    23.8220    -3.7800 
  263.6250     2.3560    53.2000     6.1900     5.1810     5.4560    23.8300    -3.8300 
  263.7500     2.3640    53.2000     6.1800     5.1640     5.5640    23.8850    -3.8330 
  263.8750     2.3690    53.2000     6.1750     5.1530     5.6520    23.9580    -3.8110 
  264.0000     2.3690    53.2000     6.1730     5.1480     5.6360    24.0510    -3.7870 
  264.1250     2.3660    53.2000     6.1720     5.1470     5.6020    24.1210    -3.7490 
  264.2500     2.3620    53.2000     6.1720     5.1470     5.5630    24.1840    -3.6940 
  264.3750     2.3580    53.2000     6.1780     5.1460     5.5120    24.2190    -3.7010 
  264.5000     2.3540    53.2000     6.1950     5.1470     5.4630    24.2360    -3.7090 
  264.6250     2.3520    53.2000     6.2240     5.1480     5.3710    24.2370    -3.7330 
  264.7500     2.3510    53.2000     6.2570     5.1490     5.3120    24.2260    -3.7770 
  264.8750     2.3540    53.2000     6.2860     5.1500     5.2350    24.1980    -3.8080 
  265.0000     2.3620    53.2000     6.3040     5.1500     5.1550    24.1790    -3.8100 
  265.1250     2.3740    53.2000     6.3080     5.1480     5.1040    24.1580    -3.7700 
  265.2500     2.3880    53.2000     6.3000     5.1460     5.1150    24.1630    -3.6680 
  265.3750     2.3990    53.2000     6.2810     5.1440     5.1760    24.1980    -3.5000 
  265.5000     2.4050    53.2000     6.2510     5.1420     5.2540    24.2720    -3.2980 
  265.6250     2.4050    53.2000     6.2140     5.1420     5.2700    24.3500    -3.0900 
  265.7500     2.3950    53.2000     6.1800     5.1410     5.2800    24.3660    -2.9030 
  265.8750     2.3770    53.2000     6.1560     5.1410     5.3160    24.3550    -2.7510 
  266.0000     2.3500    53.2000     6.1450     5.1410     5.3210    24.4000    -2.6320 
  266.1250     2.3220    53.2000     6.1470     5.1420     5.2900    24.5180    -2.5550 
  266.2500     2.3010    53.2000     6.1550     5.1420     5.3470    24.6340    -2.5130 
  266.3750     2.2910    53.2000     6.1650     5.1420     5.4700    24.7640    -2.5150 
  266.5000     2.2900    53.2000     6.1740     5.1420     5.7550    24.8920    -2.5460 
  266.6250     2.2930    53.2000     6.1790     5.1420     5.7910    24.8140    -2.5860 
  266.7500     2.2960    53.2000     6.1810     5.1420     5.5880    24.5800    -2.6200 
  266.8750     2.2960    53.2000     6.1810     5.1420     5.4610    24.4260    -2.6340 
  267.0000     2.2970    53.2000     6.1810     5.1420     5.4100    24.4520    -2.6490 
  267.1250     2.3010    53.2000     6.1810     5.1420     5.5430    24.5430    -2.6590 
  267.2500     2.3070    53.2000     6.1810     5.1420     5.6220    24.5420    -2.6690 
  267.3750     2.3160    53.2000     6.1810     5.1420     5.6300    24.4540  -999.2500 
  267.5000     2.3250    53.2000     6.1810     5.1420     5.4360    24.3180  -999.2500 
  267.6250     2.3330    53.2000     6.1810     5.1420     5.2880    24.0920  -999.2500 
  267.7500     2.3370    53.2000     6.1810     5.1420     5.2370    23.8360  -999.2500 
  267.8750     2.3330    53.2000     6.1810     5.1420     5.1950    23.6050  -999.2500 
  268.0000     2.3130    53.2000     6.1810     5.1420     5.1150    23.3720  -999.2500 
  268.1250     2.2640    53.2000     6.1810     5.1420     5.0480    23.0480  -999.2500 
  268.2500     2.1950    53.2000     6.1810     5.1420     4.9820    22.6920  -999.2500 
  268.3750     2.1210    53.2000     6.1810     5.1420     4.7300    22.3180  -999.2500 
  268.5000     2.0580    53.2000     6.1810     5.1420     4.3020    21.8700  -999.2500 
  268.6250     2.0180    53.2000     6.1810     5.1420     3.9040    21.1870  -999.2500 
  268.7500     1.9970    53.2000     6.1810     5.1420     3.6980    20.8010  -999.2500 
  268.8750     1.9880    53.2000     6.1810     5.1420     3.6390    20.6710  -999.2500 
  269.0000     1.9850    53.2000     6.1810     5.1420     3.6320    20.6970  -999.2500 
  269.1250     1.9840    53.2000     6.1810     5.1420     3.6310    20.7640  -999.2500 
  269.2500     1.9840    53.2000     6.1810     5.1420     3.6310    20.7540  -999.2500 
  269.3750     1.9850    53.2000     6.1810     5.1420     3.6310    20.7680  -999.2500 
  269.5000     1.9870    53.2000     6.1810     5.1420     3.6320    20.7450  -999.2500 
  269.6250     1.9890    53.2000     6.1810     5.1420     3.6320    20.7380  -999.2500 
  269.7500     1.9920    53.2000     6.1810     5.1420     3.6320    20.7650  -999.2500 
  269.8750     1.9930    53.2000     6.1810     5.1420     3.6320    20.7580  -999.2500 
  270.0000     1.9940    53.2000     6.1810     5.1420     3.6320    20.7790  -999.2500 
  270.1250     1.9940    53.2000     6.1810     5.1420     3.6310    20.8000  -999.2500 
  270.2500     1.9930    53.2000     6.1810     5.1420     3.6310    20.7820  -999.2500 
  270.3750     1.9910    53.2000     6.1810     5.1420     3.6310    20.7940  -999.2500 
  270.5000     1.9890    53.2000     6.1810     5.1420     3.6310    20.7780  -999.2500 
  270.6250     1.9880    53.2000     6.1810     5.1420     3.6320    20.7180  -999.2500 
  270.7500     1.9870    53.2000     6.1810     5.1420     3.6320    20.7370  -999.2500 
  270.8750     1.9870    53.2000     6.1810     5.1420     3.6320    20.7510  -999.2500 
  271.0000     1.9870    53.2000     6.1810     5.1420     3.6310    20.7270  -999.2500 
