~V
VERS. 2.00: Ver 2.00
~W
STRT.M 57.0000:
STOP.M 226.0000:
STEP.M 0.1250:
NULL. -999.2500:
UWI. F11011:
~C
DEPT.M :
GR.API :
RML.OHMM :
RI. :
RXO.OHMM :
CALI.CM :
SP.MV :
DEN.GM/CC :
~A
# ...
   68.2500    64.5250     9.2130     9.6760     7.2290    24.2390   -21.0570     2.1530 
   68.3750    65.3740     9.1960     9.6580     6.8810    24.4350   -21.7850     2.1460 
   68.5000    66.9780     9.0730     9.6140     6.9240    24.2250   -22.4640     2.1550 
   68.6250    68.3090     8.8520     9.5610     7.3420    23.7780   -23.0620     2.1760 
   68.7500    69.5490     8.6950     9.5180     7.6080    23.4610   -23.5580     2.1960 
   68.8750    69.8470     8.7810     9.4940     7.7530    23.3270   -23.9900     2.2090 
   69.0000    67.1040     9.2120     9.4870     7.8800    23.2990   -24.3490     2.2140 
   69.1250    62.6420     9.9050     9.4740     7.7340    23.3070   -24.6430     2.2150 
   69.2500    62.3930    10.5140     9.4230     7.6700    23.3580   -24.8930     2.2190 
   69.3750    66.2390    10.7830     9.3040     7.8250    23.4650   -25.0150     2.2250 
   69.5000    69.5090    10.6380     9.1150     8.0730    23.5180   -24.9820     2.2240 
   69.6250    70.1560    10.2270     8.9010     8.1740    23.5740   -24.7700     2.2030 
   69.7500    70.6600     9.8800     8.7490     7.8450    23.6950   -24.3860     2.1670 
   69.8750    72.5200     9.7790     8.7280     7.2290    23.8720   -23.9470     2.1320 
   70.0000    73.8390     9.9710     8.8740     6.8780    23.9790   -23.5980     2.1190 
   70.1250    72.6130    10.3860     9.1730     7.3310    23.9340   -23.3640     2.1440 
   70.2500    70.7760    10.7880     9.4880     8.5940    23.7390   -23.2250     2.1830 
   70.3750    70.3870    11.0040     9.6930    10.4040    23.3200   -23.2300     2.2140 
   70.5000    71.8250    10.9570     9.7090     9.8340    22.8490   -23.4000     2.2200 
   70.6250    72.1560    10.6820     9.5380     8.9710    22.7080   -23.7990     2.2060 
   70.7500    71.1000    10.3790     9.3070     8.5810    22.7710   -24.3330     2.1980 
   70.8750    70.7340    10.1960     9.1010     8.9400    22.9000   -24.9010     2.2080 
   71.0000    70.7470    10.2250     8.9580     9.5080    22.9760   -25.4110     2.2350 
   71.1250    71.3360    10.4840     8.8850    10.4180    22.9930   -25.7480     2.2670 
   71.2500    70.1750    10.8180     8.8460     9.0870    22.9910   -26.0040     2.2840 
   71.3750    68.7630    11.0980     8.8200     8.2770    23.0560   -26.1950     2.2790 
   71.5000    70.0970    11.2510     8.7930     8.2370    23.1350   -26.3140     2.2500 
   71.6250    75.4290    11.2510     8.7460     8.1320    23.0040   -26.4040     2.2040 
   71.7500    80.6090    11.1620     8.6800     7.8810    22.8060   -26.4690     2.1600 
   71.8750    82.8330    11.0020     8.6030     7.4920    22.8050   -26.4340     2.1310 
   72.0000    80.9020    10.7770     8.5340     7.4210    22.9120   -26.3400     2.1240 
   72.1250    75.9750    10.5060     8.5000     7.6060    22.9970   -26.2590     2.1380 
   72.2500    72.1660    10.2660     8.5090     7.9430    22.9790   -26.1360     2.1590 
   72.3750    70.0390    10.1040     8.5500     8.2920    22.9540   -25.9970     2.1790 
   72.5000    67.5050     9.9860     8.6050     8.4740    22.9740   -25.8390     2.1920 
   72.6250    64.7510     9.8000     8.6460     8.1820    23.0890   -25.5210     2.1920 
   72.7500    65.4320     9.4960     8.6520     7.8950    23.3580   -25.1140     2.1820 
   72.8750    69.3720     9.1110     8.5890     7.7730    23.7200   -24.7020     2.1680 
   73.0000    72.5720     8.7220     8.4190     7.7370    24.0360   -24.2370     2.1570 
   73.1250    72.7130     8.3880     8.0920     8.2590    24.1720   -23.6520     2.1600 
   73.2500    73.5850     8.0810     7.6370     8.1250    24.1930   -22.9720     2.1790 
   73.3750    77.3470     7.7530     7.1030     7.1650    24.2250   -22.2220     2.2070 
   73.5000    84.1750     7.3750     6.5580     5.8640    24.2690   -21.4690     2.2380 
   73.6250    93.2430     6.9720     6.0820     5.4710    24.3080   -20.8310     2.2580 
   73.7500    99.3580     6.6220     5.7140     5.3870    24.3440   -20.4110     2.2660 
   73.8750   100.3540     6.3970     5.4850     5.3510    24.3700   -20.3120     2.2630 
   74.0000    98.7980     6.3470     5.4170     5.2670    24.3460   -20.5660     2.2520 
   74.1250    97.0520     6.5180     5.5470     5.2620    24.2410   -21.3250     2.2350 
   74.2500    91.1560     6.8420     5.8360     5.5960    24.0080   -22.5530     2.2160 
   74.3750    79.7860     7.2590     6.2470     6.2990    23.7080   -24.0670     2.1950 
   74.5000    68.4620     7.7000     6.7130     6.7850    23.4780   -25.7270     2.1760 
   74.6250    63.6190     8.0840     7.1170     6.9530    23.3400   -27.4790     2.1610 
   74.7500    64.7130     8.3560     7.3790     6.9500    23.2640   -29.1120     2.1510 
   74.8750    68.2860     8.4860     7.4820     6.9330    23.2040   -30.5180     2.1460 
   75.0000    70.3590     8.4830     7.4640     6.9680    23.2330   -31.6460     2.1400 
   75.1250    71.2120     8.3880     7.3810     6.9630    23.2680   -32.2590     2.1310 
   75.2500    74.6650     8.2760     7.2830     6.8980    23.2560   -32.3750     2.1210 
   75.3750    79.5950     8.1600     7.1700     6.8450    23.1960   -32.0700     2.1190 
   75.5000    82.1390     8.0050     7.0150     6.8270    23.1580   -31.3170     2.1350 
   75.6250    83.2200     7.7280     6.7630     6.7140    23.1380   -30.0710     2.1740 
   75.7500    86.5970     7.3290     6.4140     6.4870    23.0830   -28.5910     2.2230 
   75.8750    92.3660     6.8730     6.0050     6.2720    23.0910   -26.9230     2.2630 
   76.0000    99.7420     6.4740     5.6060     5.8520    23.1540   -25.1670     2.2830 
   76.1250   107.6090     6.2830     5.3230     5.1830    23.2950   -23.6090     2.2820 
   76.2500   111.9580     6.3250     5.1940     4.9060    23.4750   -22.3680     2.2740 
   76.3750   111.1420     6.5820     5.2240     4.9990    23.7180   -21.5330     2.2730 
   76.5000   107.6180     6.9960     5.3850     5.4100    24.0020   -21.2120     2.2800 
   76.6250   103.9990     7.4780     5.6300     5.7160    24.2990   -21.5630     2.2900 
   76.7500   100.4520     7.9110     5.8820     5.9110    24.4570   -22.4640     2.2910 
   76.8750    96.8700     8.2110     6.0980     5.9260    24.4080   -23.7860     2.2830 
   77.0000    92.4430     8.3370     6.2610     6.2120    24.1830   -25.3380     2.2670 
   77.1250    85.1530     8.2890     6.3550     6.7460    23.9260   -26.9680     2.2400 
   77.2500    77.6520     8.1850     6.3980     7.0320    23.7120   -28.5090     2.2030 
   77.3750    74.4660     8.1600     6.4380     7.0600    23.6620   -29.9010     2.1550 
   77.5000    77.4640     8.3860     6.5940     7.0530    23.7760   -31.1120     2.1120 
   77.6250    80.4700     9.1650     7.1120     7.2080    23.9790   -31.9310     2.1140 
   77.7500    78.8610    10.5670     8.1150     8.1210    24.1830   -32.3620     2.1830 
   77.8750    74.9070    12.4680     9.6240    11.5030    24.3300   -32.5450     2.3120 
   78.0000    73.6410    14.3780    11.3740    21.4920    24.3140   -32.6090     2.4570 
   78.1250    75.1990    15.3040    12.5260    31.3950    24.1080   -32.6910     2.5420 
   78.2500    75.6150    14.8350    12.4590    27.1710    23.9210   -32.8560     2.5390 
   78.3750    76.3120    13.1910    11.2960    15.0060    23.8520   -33.0460     2.4620 
   78.5000    77.9990    11.1030     9.7150     8.7940    23.8970   -33.2880     2.3550 
   78.6250    79.4330     9.4620     8.4110     7.4250    23.7900   -33.6830     2.2680 
   78.7500    79.9070     8.5500     7.5790     7.4090    23.5970   -34.1450     2.2150 
   78.8750    78.8010     8.2710     7.1930     7.6240    23.3880   -34.6060     2.1910 
   79.0000    76.8270     8.3870     7.1390     7.8020    23.2260   -35.0810     2.1840 
   79.1250    78.2810     8.6910     7.2860     7.7710    23.1010   -35.4780     2.1860 
   79.2500    83.5520     9.0220     7.4720     7.6580    23.0130   -35.7430     2.1900 
   79.3750    86.4110     9.3310     7.6330     7.6310    22.9420   -35.8950     2.1960 
