~V
VERS. 2.00: Ver 2.00
~W
STRT.M 53.0000:
STOP.M 279.0000:
STEP.M 0.1250:
NULL. -999.2500:
UWI. F11068:
~C
DEPT.M :
GR.API :
RML.OHMM :
RI. :
RXO.OHMM :
CALI.CM :
SP.MV :
DEN.GM/CC :
~A
# ...
  176.7500    79.2760    32.6360    28.0030    34.4840    24.7310   -22.3780     2.3550 
  176.8750    81.3510    34.6230    30.4740    36.5970    24.5870   -22.3380     2.3590 
  177.0000    85.6230    35.6050    31.7790    37.9710    24.4810   -22.3710     2.3600 
  177.1250    88.1380    36.0240    32.1440    35.7350    24.4530   -22.4390     2.3520 
  177.2500    88.2490    36.7820    32.5330    29.9780    24.4170   -22.4770     2.3390 
  177.3750    88.3420    38.5170    33.7330    26.7100    24.3710   -22.4830     2.3220 
  177.5000    89.1940    41.4600    36.3140    34.0640    24.3390   -22.4800     2.3090 
  177.6250    85.7970    44.9800    40.3440    44.8840    24.2970   -22.5370     2.3060 
  177.7500    79.8730    47.1610    44.0820    51.2890    24.2630   -22.5890     2.3170 
  177.8750    78.0310    46.1710    45.0530    50.5440    24.2280   -22.6270     2.3450 
  178.0000    82.4870    41.3010    41.3590    44.9130    24.1800   -22.6370     2.3820 
  178.1250    88.3200    33.5890    33.5900    35.5200    24.1210   -22.7350     2.4140 
  178.2500    91.2510    26.0120    25.6940    27.1180    24.1330   -22.9270     2.4320 
  178.3750    92.7540    20.2090    19.6680    17.2140    24.2510   -23.1960     2.4330 
  178.5000    93.7650    16.6710    15.9360    12.7020    24.4500   -23.4850     2.4240 
  178.6250    96.8090    15.3610    14.3660    11.3240    24.6500   -23.6660     2.4200 
  178.7500    99.9360    15.3260    14.1140    11.4370    24.6710   -23.7680     2.4270 
  178.8750    98.6460    15.9930    14.7610    12.6610    24.4210   -23.8060     2.4420 
  179.0000    93.9590    16.8200    15.8270    15.5910    24.0230   -23.8070     2.4580 
  179.1250    92.0620    17.2790    16.6630    17.1730    23.7160   -23.6280     2.4680 
  179.2500    93.7700    17.2380    16.9050    15.2160    23.6160   -23.3850     2.4700 
  179.3750    94.9940    16.8140    16.6020    13.0030    23.6410   -23.0830     2.4680 
  179.5000    94.1540    16.2720    16.0280    13.0120    23.7380   -22.7870     2.4650 
  179.6250    91.4710    15.9690    15.5200    13.7300    24.0220   -22.5610     2.4610 
  179.7500    88.5430    16.1230    15.3170    13.3570    24.2810   -22.3500     2.4510 
  179.8750    88.1150    16.8900    15.5790    13.1000    24.3220   -22.1850     2.4320 
  180.0000    90.1210    18.3870    16.4430    12.8340    24.1100   -22.0840     2.4050 
  180.1250    91.2820    20.8110    18.1820    13.3860    23.8320   -22.0700     2.3770 
  180.2500    89.7150    23.9650    20.7630    15.9890    23.6750   -22.0800     2.3570 
  180.3750    86.0720    27.6220    24.0780    22.2440    23.6450   -22.1000     2.3490 
  180.5000    82.2660    31.4220    27.7600    29.4010    23.6740   -22.0950     2.3500 
  180.6250    80.3780    34.9380    31.1980    32.3840    23.7330   -22.1220     2.3560 
  180.7500    81.6710    38.0990    34.0740    31.3290    23.7870   -22.2070     2.3590 
  180.8750    83.6840    41.1300    36.5290    31.7420    23.8210   -22.3010     2.3580 
  181.0000    81.5710    44.3810    39.0200    37.5570    23.8590   -22.4170     2.3520 
  181.1250    75.2880    48.1040    42.0270    44.0660    23.8880   -22.5920     2.3470 
  181.2500    71.5660    52.0000    45.3570    50.6720    23.9000   -22.7460     2.3420 
  181.3750    73.2190    55.6420    48.5160    56.0960    23.8970   -22.8540     2.3370 
  181.5000    75.1880    58.7450    51.0940    60.6830    23.8790   -22.9410     2.3280 
  181.6250    73.1100    61.4330    53.0600    67.6920    23.8440   -22.9380     2.3150 
  181.7500    71.5520    64.4350    55.1080    57.9770    23.8320   -22.9040     2.3010 
  181.8750    72.4390    68.4740    58.0220    50.9240    23.8540   -22.8790     2.2870 
  182.0000    73.9590    74.0640    62.4540    55.8370    23.9410   -22.8120     2.2750 
  182.1250    73.9650    81.4960    68.9520    65.6560    24.0700   -22.6500     2.2640 
  182.2500    72.7440    89.8400    76.8510    72.8310    24.3210   -22.5300     2.2560 
  182.3750    71.0920    97.9340    85.1840    81.1620    24.6560   -22.5070     2.2520 
  182.5000    68.3470   104.3620    92.5240    91.1240    24.9800   -22.5660     2.2540 
  182.6250    65.9710   107.3180    96.9300   107.0090    25.1870   -22.6040     2.2630 
  182.7500    65.7080   106.7880    98.1150   116.8780    25.2220   -22.6060     2.2750 
  182.8750    67.4120   103.0740    96.1260   110.3050    25.1970   -22.5890     2.2850 
  183.0000    70.0840    96.9640    91.4020    98.1490    25.2090   -22.5590     2.2940 
  183.1250    70.6560    89.5210    84.7070    88.6880    25.2160   -22.5700     2.2960 
  183.2500    68.0290    82.2520    77.7060    82.2690    25.1680   -22.5280     2.2910 
  183.3750    64.6780    76.0890    71.4980    72.6870    25.0770   -22.4000     2.2810 
  183.5000    63.8500    71.6080    66.8270    61.2130    25.0170   -22.1490     2.2690 
  183.6250    66.7710    69.2740    64.2840    57.8800    25.0880   -21.8820     2.2650 
  183.7500    68.5640    68.5250    63.3580    56.3880    25.1140   -21.6510     2.2710 
  183.8750    69.0910    68.9330    63.5910    56.8000    25.0100   -21.4300     2.2840 
  184.0000    70.4580    70.0850    64.4820    60.4100    24.8190   -21.2270     2.2980 
  184.1250    72.7600    71.9280    65.7690    64.3720    24.6710   -21.0570     2.3060 
  184.2500    74.1330    74.6970    67.6200    61.7660    24.6020   -20.8570     2.3050 
  184.3750    73.7280    79.0390    70.7060    57.0700    24.6310   -20.6380     2.2980 
  184.5000    71.9210    85.6220    75.8400    58.7040    24.7080   -20.5110     2.2880 
  184.6250    70.5130    95.1010    83.9690    75.7820    24.7520   -20.4850     2.2780 
  184.7500    69.5920   106.2700    94.1320   100.0980    24.7850   -20.4930     2.2730 
  184.8750    68.8110   117.4600   104.6940   125.1940    24.8160   -20.5360     2.2760 
  185.0000    68.8220   126.7270   113.5090   141.4390    24.8500   -20.6260     2.2850 
  185.1250    70.2400   132.2740   118.6390   136.5670    24.8710   -20.6200     2.2920 
  185.2500    71.6430   134.8690   121.1640   121.6930    24.8720   -20.5830     2.2930 
  185.3750    70.9430   135.2590   122.2540   105.7030    24.8490   -20.5420     2.2880 
  185.5000    69.3570   133.5530   122.1920   100.4120    24.7960   -20.4540     2.2820 
  185.6250    69.1490   128.3940   119.3030   116.2940    24.7110   -20.2570     2.2820 
  185.7500    69.8350   119.7070   112.6320   134.6180    24.6480   -20.0450     2.2870 
  185.8750    69.8850   108.3880   102.6200   128.7070    24.6520   -19.8420     2.2940 
  186.0000    69.3440    96.4770    91.3060    97.4370    24.6920   -19.5680     2.2970 
  186.1250    69.4730    86.6830    81.5870    79.3820    24.7460   -19.2950     2.2950 
  186.2500    70.4930    80.0380    74.8030    73.8340    24.7650   -19.1310     2.2900 
  186.3750    71.2290    76.6020    71.1720    74.1800    24.7130   -19.0640     2.2850 
  186.5000    71.0170    75.7900    70.2420    75.8430    24.6440   -19.0180     2.2830 
  186.6250    70.1730    76.8820    71.3700    75.1860    24.7110   -19.0910     2.2880 
  186.7500    70.2050    78.6360    73.2500    74.6730    24.8280   -19.1390     2.2950 
  186.8750    72.1970    80.4410    75.1740    76.2440    24.9120   -19.1740     2.3030 
  187.0000    73.2740    81.9930    76.7420    78.7560    24.9370   -19.3040     2.3090 
  187.1250    69.9150    83.2700    77.8460    79.8330    24.9200   -19.5410     2.3080 
  187.2500    66.8500    84.5550    78.7980    80.1530    24.8650   -19.7670     2.3020 
  187.3750    67.4890    86.0980    79.9180    79.7670    24.7210   -19.9650     2.2950 
  187.5000    69.8170    88.0820    81.4630    79.6260    24.4540   -20.1630     2.2900 
  187.6250    71.0420    90.6850    83.6780    80.4030    24.2300   -20.3110     2.2910 
  187.7500    72.1300    93.8300    86.5000    86.4610    24.3110   -20.4620     2.2970 
  187.8750    73.4540    97.4640    89.8990    93.5460    24.5550   -20.5710     2.3030 
