~V
VERS. 2.00: Ver 2.00
~W
STRT.M 53.0000:
STOP.M 276.0000:
STEP.M 0.1250:
NULL. -999.2500:
UWI. F11074:
~C
DEPT.M :
DEN.GM/CC :
SP.MV :
GR.API :
RML.OHMM :
RI. :
RXO.OHMM :
CALI.CM :
~A
# ...
  120.5000     2.2830   -13.9210   114.6970     8.0740     6.4110     7.9150    24.5560 
  120.6250     2.2920   -14.1960   104.5240     8.2140     6.4840     7.9250    24.5220 
  120.7500     2.2930   -14.7680    95.2370     8.4180     6.6320     7.8790    24.4520 
  120.8750     2.2870   -15.6010    92.3360     8.6750     6.8350     7.8770    24.3470 
  121.0000     2.2700   -16.6050    92.4780     9.0150     7.1150     8.1950    24.2020 
  121.1250     2.2430   -17.6890    88.7010     9.4530     7.5020     8.9940    24.1080 
  121.2500     2.2080   -18.7770    82.8120     9.8960     7.9380     9.8290    24.0750 
  121.3750     2.1670   -19.7870    79.0530    10.2390     8.3340    10.4470    24.0660 
  121.5000     2.1230   -20.6500    77.7560    10.3990     8.5970    10.6500    24.0490 
  121.6250     2.0930   -21.3680    78.5290    10.3280     8.6500    10.5350    24.0160 
  121.7500     2.0850   -21.9400    80.2880    10.1140     8.5490    10.5500    24.0050 
  121.8750     2.1010   -22.3100    81.6330     9.8260     8.3510    10.4740    24.0170 
  122.0000     2.1300   -22.5100    82.3050     9.5200     8.1070    10.1900    24.0470 
  122.1250     2.1580   -22.6180    84.6860     9.2670     7.8660     9.9300    24.0790 
  122.2500     2.1780   -22.7590    87.7750     9.1390     7.6890     9.9960    24.1400 
  122.3750     2.1920   -22.9790    90.0660     9.2000     7.6320    10.2360    24.2230 
  122.5000     2.2010   -23.2650    90.5050     9.4640     7.7270    10.5380    24.2730 
  122.6250     2.1970   -23.5470    87.5380     9.9030     7.9870    10.7440    24.2850 
  122.7500     2.1780   -23.7960    82.1070    10.3890     8.3290    11.1150    24.2850 
  122.8750     2.1570   -24.0260    78.4270    10.8090     8.6760    11.5870    24.2850 
  123.0000     2.1430   -24.2650    78.2340    11.0750     8.9510    11.9700    24.2850 
  123.1250     2.1430   -24.4720    77.4730    11.1240     9.0870    12.1070    24.2850 
  123.2500     2.1540   -24.5940    77.4650    11.0350     9.1150    12.1520    24.2850 
  123.3750     2.1670   -24.6050    79.8350    10.8930     9.0840    12.1640    24.2800 
  123.5000     2.1760   -24.5440    83.4810    10.7770     9.0480    12.2150    24.2550 
  123.6250     2.1810   -24.4120    84.1060    10.7490     9.0520    12.1610    24.1690 
  123.7500     2.1880   -24.2530    83.2130    10.7950     9.0990    11.9670    24.0250 
  123.8750     2.1960   -24.1080    83.8700    10.8930     9.1790    11.6900    23.8500 
  124.0000     2.1990   -23.9570    85.5060    11.0130     9.2700    11.5050    23.7100 
  124.1250     2.1960   -23.7980    84.9930    11.1270     9.3420    11.2760    23.6590 
  124.2500     2.1890   -23.6570    80.9400    11.2070     9.3720    11.1430    23.6500 
  124.3750     2.1840   -23.5250    76.1700    11.2320     9.3450    11.0370    23.6520 
  124.5000     2.1840   -23.4060    76.2480    11.1850     9.2520    10.9200    23.6610 
  124.6250     2.1900   -23.3260    80.3700    11.0630     9.0950    10.9080    23.6920 
  124.7500     2.1970   -23.2340    82.6560    10.9280     8.9250    11.0300    23.7580 
  124.8750     2.1990   -23.1150    83.6130    10.8740     8.8090    11.2470    23.8540 
  125.0000     2.1950   -22.9400    84.4860    11.0300     8.8450    11.4380    23.9510 
  125.1250     2.1940   -22.7110    85.5250    11.6370     9.2100    11.6840    23.9890 
  125.2500     2.2040   -22.4120    85.6840    12.8180     9.9980    12.3270    23.9800 
  125.3750     2.2300   -22.0940    84.7660    14.7420    11.3540    13.3940    23.9320 
  125.5000     2.2780   -21.7670    83.3230    17.5120    13.4190    15.6890    23.9020 
  125.6250     2.3590   -21.5150    83.2580    20.9020    16.2400    23.1230    23.9850 
  125.7500     2.4530   -21.3850    83.3800    23.6800    18.9600    40.1700    24.1630 
  125.8750     2.5210   -21.3420    80.8540    24.2620    20.1750    55.0460    24.2840 
  126.0000     2.5270   -21.4240    79.2800    21.7180    18.7890    45.8200    24.2100 
  126.1250     2.4490   -21.6250    84.0910    17.0130    15.3000    26.1190    23.9460 
  126.2500     2.3380   -21.9300    88.2600    12.8200    11.8800    15.0070    23.6160 
  126.3750     2.2410   -22.2850    87.5490    10.2060     9.4350    11.5730    23.3140 
  126.5000     2.1870   -22.6610    84.4640     9.1640     8.0820    10.6420    23.0640 
  126.6250     2.1760   -22.9490    83.0590     9.3320     7.6980    10.4670    22.9300 
  126.7500     2.1830   -23.1310    82.2140     9.9670     7.8170    10.7990    22.8850 
  126.8750     2.1920   -23.2660    83.2410    10.6610     8.1680    11.4570    22.8790 
  127.0000     2.1980   -23.3370    86.7210    11.1530     8.5310    11.9560    22.8860 
  127.1250     2.2010   -23.3970    88.5730    11.3580     8.7740    12.0920    22.9080 
  127.2500     2.2010   -23.4430    88.2750    11.4180     8.9170    12.2590    22.9430 
  127.3750     2.2010   -23.4540    86.9480    11.3900     8.9820    12.6020    23.0140 
  127.5000     2.1990   -23.3910    85.9560    11.2760     8.9680    12.7170    23.2040 
  127.6250     2.2010   -23.1920    86.6990    11.0360     8.8390    11.6750    23.5630 
  127.7500     2.2110   -22.8500    90.6030    10.7090     8.6090     9.7790    23.8700 
  127.8750     2.2280   -22.3200    95.7220    10.3960     8.3320     8.3050    24.0470 
  128.0000     2.2440   -21.5770    97.6910    10.2370     8.1140     8.0370    24.1640 
  128.1250     2.2410   -20.6210    95.4450    10.3720     8.0790     9.0320    24.3460 
  128.2500     2.2240   -19.6040    92.6840    10.7200     8.2170     9.6800    24.5110 
  128.3750     2.1990   -18.6110    90.7130    11.1390     8.4580     9.8900    24.6020 
  128.5000     2.1740   -17.7120    89.2510    11.4720     8.6950     9.9270    24.6280 
  128.6250     2.1500   -16.9670    89.3420    11.5950     8.8270    10.0880    24.6280 
  128.7500     2.1310   -16.3960    90.1750    11.5730     8.8640    10.2950    24.6280 
  128.8750     2.1190   -16.0030    91.0680    11.4920     8.8510    10.4570    24.6280 
  129.0000     2.1110   -15.8120    92.4880    11.4020     8.8210    10.4430    24.6280 
  129.1250     2.1070   -15.8300    93.2120    11.3000     8.7780    10.2980    24.6280 
  129.2500     2.1090   -15.9090    91.1790    11.1680     8.7130    10.1940    24.6280 
  129.3750     2.1160   -15.9970    87.0380    10.9880     8.6190    10.2300    24.6280 
  129.5000     2.1280   -16.0300    83.5280    10.7540     8.4920    10.3430    24.6280 
  129.6250     2.1430   -16.0080    84.8650    10.4680     8.3290    10.3080    24.6280 
  129.7500     2.1620   -15.9010    89.1840    10.1660     8.1410    10.0470    24.6280 
  129.8750     2.1800   -15.7070    93.6830     9.8940     7.9520     9.7310    24.6280 
  130.0000     2.1970   -15.4430    95.9120     9.7040     7.8030     9.6790    24.6280 
  130.1250     2.2070   -15.0240    93.5480     9.6160     7.7230     9.7530    24.6280 
  130.2500     2.2100   -14.4410    90.3980     9.5120     7.6510     9.6000    24.6280 
  130.3750     2.2150   -13.7340    90.9100     9.2280     7.4730     9.0190    24.6370 
  130.5000     2.2290   -12.9880    95.0700     8.6270     7.0690     8.0350    24.6740 
  130.6250     2.2550   -12.2240   100.0280     7.7220     6.4020     6.9990    24.7820 
  130.7500     2.2850   -11.5340   104.2150     6.8360     5.6850     6.6810    24.8980 
  130.8750     2.3080   -10.9270   109.6990     6.2180     5.1090     6.9690    24.9740 
  131.0000     2.3160   -10.3740   115.8090     5.9640     4.7810     6.9250    24.9940 
  131.1250     2.3090    -9.9720   119.1660     6.0630     4.7370     6.6370    24.9840 
  131.2500     2.3000    -9.7320   118.0100     6.3280     4.8630     6.5250    24.9790 
  131.3750     2.2910    -9.6160   113.0340     6.6420     5.0850     6.7960    24.9790 
  131.5000     2.2790    -9.5610   106.7240     6.9250     5.3390     7.0350    24.9940 
  131.6250     2.2680    -9.5540   103.6360     7.1140     5.5670     7.1170    25.0260 
