~V
VERS. 2.00: Ver 2.00
~W
STRT.M 55.0000:
STOP.M 236.0000:
STEP.M 0.1250:
NULL. -999.2500:
UWI. F11015:
~C
DEPT.M :
GR.API :
RML.OHMM :
RI. :
RXO.OHMM :
CALI.CM :
DEN.GM/CC :
SP.MV :
~A
# ...
  133.7500    63.3120    16.6610    15.3120    17.3770    24.3500     2.4770    -4.9940 
  133.8750    61.9880    16.4020    15.3000    19.7080    24.2880     2.4670    -5.0280 
  134.0000    59.4310    16.0940    15.1280    19.1890    24.2830     2.4630    -5.0400 
  134.1250    55.9340    15.9440    15.0030    16.3950    24.3440     2.4580    -5.0260 
  134.2500    52.7090    16.0530    15.0420    15.1650    24.3980     2.4540    -5.0310 
  134.3750    50.2210    16.5120    15.3270    15.4430    24.4500     2.4550    -5.0950 
  134.5000    49.2200    17.3600    15.9240    16.5230    24.4870     2.4630    -5.1860 
  134.6250    50.2610    18.4930    16.8350    18.8160    24.4810     2.4830    -5.2260 
  134.7500    51.9010    19.4960    17.7730    20.2340    24.4230     2.5100    -5.1830 
  134.8750    54.5760    19.9840    18.4080    20.7200    24.3960     2.5340    -5.1080 
  135.0000    59.5950    19.7750    18.5010    20.4190    24.4170     2.5390    -5.0700 
  135.1250    64.7570    18.9930    18.0220    18.2320    24.4500     2.5150    -5.1000 
  135.2500    65.6880    18.1880    17.3870    16.6030    24.4630     2.4820    -5.1640 
  135.3750    63.1110    17.7110    16.9220    16.3300    24.5380     2.4600    -5.2330 
  135.5000    60.8160    17.7310    16.8360    17.0120    24.5630     2.4530    -5.2470 
  135.6250    60.0570    18.3390    17.2840    18.3100    24.5700     2.4540    -5.1950 
  135.7500    58.6500    19.3320    18.1450    20.8160    24.5700     2.4550    -5.1640 
  135.8750    57.6960    20.5120    19.2580    23.2490    24.5580     2.4530    -5.2020 
  136.0000    59.3220    21.5960    20.3620    23.0940    24.5480     2.4490    -5.2890 
  136.1250    60.6530    22.1480    21.0490    23.3780    24.5460     2.4450    -5.3790 
  136.2500    58.5930    22.0040    21.1160    23.3000    24.5260     2.4370    -5.4440 
  136.3750    55.9180    21.2150    20.5620    22.0230    24.4770     2.4260    -5.4780 
  136.5000    56.4220    20.0960    19.6320    19.5970    24.4600     2.4180    -5.5080 
  136.6250    58.7970    19.1690    18.7650    17.2400    24.4880     2.4210    -5.5480 
  136.7500    59.7740    18.7750    18.2960    16.5740    24.4780     2.4270    -5.5810 
  136.8750    59.5760    19.0090    18.3560    17.0500    24.4740     2.4270    -5.6060 
  137.0000    59.5050    19.7510    18.9100    18.8490    24.5180     2.4260    -5.6360 
  137.1250    58.8600    20.6830    19.7630    21.1490    24.5220     2.4380    -5.6700 
  137.2500    56.7510    21.3830    20.5260    23.7820    24.4990     2.4620    -5.7000 
  137.3750    54.8000    21.6610    20.9770    23.9240    24.5060     2.4860    -5.6940 
  137.5000    54.4240    21.5410    21.0650    21.9370    24.5360     2.4970    -5.6660 
  137.6250    55.3410    21.1640    20.8440    20.5940    24.5560     2.4960    -5.6980 
  137.7500    55.9570    20.7100    20.4720    20.2290    24.5250     2.4950    -5.8130 
  137.8750    55.5080    20.1980    19.9900    21.2680    24.4620     2.5000    -5.9500 
  138.0000    54.4620    19.5760    19.3850    22.1680    24.4110     2.5110    -6.0320 
  138.1250    54.0340    18.7830    18.6170    20.3400    24.4150     2.5140    -6.0320 
  138.2500    54.2890    17.9130    17.7710    18.0780    24.4700     2.5000    -5.9950 
  138.3750    54.9030    17.1160    16.9780    17.2480    24.5330     2.4780    -5.9860 
  138.5000    54.9750    16.5700    16.3920    16.7960    24.5640     2.4650    -6.0560 
  138.6250    55.4040    16.4810    16.2050    16.3360    24.5730     2.4710    -6.1910 
  138.7500    55.9010    16.7910    16.3920    16.2820    24.6130     2.4810    -6.2790 
  138.8750    55.6430    17.3710    16.8690    16.6370    24.6670     2.4810    -6.2940 
  139.0000    54.4640    18.0210    17.4830    17.6930    24.7110     2.4710    -6.2820 
  139.1250    54.5810    18.5000    18.0180    18.9380    24.7480     2.4530    -6.2970 
  139.2500    56.9070    18.7250    18.3450    19.5690    24.7760     2.4340    -6.3370 
  139.3750    59.1900    18.7470    18.4560    18.9660    24.7720     2.4210    -6.3620 
  139.5000    59.5690    18.7170    18.4570    18.0970    24.7110     2.4180    -6.3670 
  139.6250    58.3950    18.8310    18.5250    18.4210    24.6570     2.4280    -6.3420 
  139.7500    56.7470    19.1440    18.7550    19.1640    24.6030     2.4460    -6.3030 
  139.8750    55.2870    19.6020    19.1410    20.1400    24.5580     2.4670    -6.2490 
  140.0000    54.4490    20.0630    19.5830    21.0890    24.5200     2.4870    -6.1840 
  140.1250    54.2390    20.3140    19.8910    21.1800    24.5820     2.4960    -6.1240 
  140.2500    54.2030    20.3330    19.9970    20.9470    24.6500     2.5000    -6.0800 
  140.3750    53.5450    20.2540    19.9780    20.8670    24.6740     2.5070    -6.0990 
  140.5000    50.6300    20.3060    20.0080    20.7430    24.6520     2.5190    -6.1590 
  140.6250    46.5500    20.7480    20.3110    20.3530    24.5990     2.5300    -6.1940 
  140.7500    45.6850    21.5040    20.8910    19.9300    24.5740     2.5350    -6.2070 
  140.8750    48.6180    22.2970    21.5760    21.5500    24.5660     2.5370    -6.2300 
  141.0000    51.0060    22.7050    22.0200    24.1710    24.5500     2.5380    -6.2930 
  141.1250    51.4050    22.2520    21.7630    24.9360    24.5310     2.5380    -6.3900 
  141.2500    51.6540    21.1250    20.8770    22.5260    24.4730     2.5340    -6.5150 
  141.3750    50.9970    19.7290    19.6670    18.9280    24.3510     2.5300    -6.6450 
  141.5000    49.6530    18.5410    18.5380    17.0820    24.2690     2.5320    -6.7200 
  141.6250    51.1230    17.9810    17.8830    17.1230    24.3560     2.5390    -6.7240 
  141.7500    54.7800    17.9650    17.7140    18.2580    24.5140     2.5440    -6.7230 
  141.8750    57.1080    18.2820    17.9070    19.3270    24.6110     2.5480    -6.7670 
  142.0000    55.8980    18.6480    18.2370    20.0600    24.6010     2.5520    -6.8410 
  142.1250    54.1280    18.7840    18.4400    19.8000    24.5790     2.5540    -6.9330 
  142.2500    54.3910    18.6520    18.4100    19.5380    24.5400     2.5510    -7.0060 
  142.3750    56.7840    18.3350    18.1820    19.0300    24.5350     2.5410    -7.0470 
  142.5000    58.8350    17.9590    17.8530    17.9800    24.6040     2.5260    -7.0730 
  142.6250    56.9420    17.6410    17.5390    17.5100    24.6410     2.5080    -7.0970 
  142.7500    53.7430    17.4390    17.3080    17.8530    24.6150     2.4940    -7.1160 
  142.8750    54.3240    17.3760    17.1880    17.7650    24.5740     2.4830    -7.1250 
  143.0000    59.1060    17.4340    17.1640    17.1300    24.5450     2.4740    -7.1460 
  143.1250    62.5180    17.5360    17.1780    16.5330    24.4570     2.4700    -7.1790 
  143.2500    62.1050    17.5470    17.1280    16.5480    24.2770     2.4710    -7.1980 
  143.3750    59.7570    17.3800    16.9490    16.4310    24.0690     2.4720    -7.1470 
  143.5000    56.2990    17.0410    16.6330    15.8590    23.9210     2.4700    -7.0970 
  143.6250    52.8800    16.6460    16.2490    14.8230    23.9750     2.4690    -7.1560 
  143.7500    53.9530    16.3530    15.9150    14.3310    24.2190     2.4730    -7.2580 
  143.8750    58.7240    16.2350    15.7080    14.4890    24.5040     2.4800    -7.3100 
  144.0000    61.9350    16.2880    15.6630    15.5510    24.6430     2.4880    -7.2860 
  144.1250    59.7990    16.4510    15.7730    16.8700    24.6360     2.4950    -7.2180 
  144.2500    57.4330    16.6150    15.9340    17.3920    24.6140     2.5000    -7.1820 
  144.3750    56.8840    16.7460    16.0880    16.4830    24.6290     2.5030    -7.2370 
  144.5000    56.0850    16.8790    16.2340    16.2100    24.6330     2.5050    -7.2980 
  144.6250    53.8390    17.1130    16.4430    16.8710    24.6010     2.5100    -7.2520 
  144.7500    51.9400    17.4750    16.7540    17.7100    24.6050     2.5150    -7.1840 
  144.8750    51.5100    17.8850    17.1150    18.1900    24.6350     2.5200    -7.1860 
