~V
VERS. 2.00: Ver 2.00
~W
STRT.M 57.0000:
STOP.M 278.0000:
STEP.M 0.1250:
NULL. -999.2500:
UWI. F11043:
~C
DEPT.M :
SP.MV :
GR.API :
RML.OHMM :
RI. :
RXO.OHMM :
CALI.CM :
DEN.GM/CC :
~A
# ...
  180.7500   -26.7690    75.5540   111.3020    91.3050    79.3320    23.8390     2.2390 
  180.8750   -26.8500    77.8430   101.3650    83.6440    67.6200    23.8390     2.2430 
  181.0000   -27.0010    77.4900    92.6890    76.2750    54.1870    23.8100     2.2490 
  181.1250   -27.1500    73.6830    87.3550    71.1200    46.6140    23.8040     2.2560 
  181.2500   -27.1680    71.1930    85.4550    68.7330    50.3080    23.8240     2.2620 
  181.3750   -27.0850    72.4220    86.6620    69.0890    52.6590    23.8380     2.2640 
  181.5000   -26.9680    74.1100    90.1520    71.5910    51.2910    23.8100     2.2600 
  181.6250   -26.9470    70.9240    94.7960    75.3570    49.9590    23.8020     2.2570 
  181.7500   -27.0220    66.3520    99.0610    79.0570    48.9830    23.8250     2.2570 
  181.8750   -27.1210    64.2670   101.9990    81.8570    48.3230    23.8470     2.2550 
  182.0000   -27.1860    65.8070   103.1320    83.2940    48.4520    23.8430     2.2510 
  182.1250   -27.1460    71.2850   102.1810    83.0800    52.0490    23.8440     2.2480 
  182.2500   -27.1060    76.3340    99.8120    81.6210    58.9190    23.9120     2.2520 
  182.3750   -27.1260    76.2500    96.7080    79.3230    65.4680    23.9940     2.2600 
  182.5000   -27.1790    70.8180    93.9050    76.9300    71.2650    24.0420     2.2700 
  182.6250   -27.2010    65.9180    92.8300    75.5350    74.3080    24.0660     2.2790 
  182.7500   -27.2140    64.2730    93.8560    75.5890    73.7590    24.0680     2.2820 
  182.8750   -27.2280    64.8770    96.9240    77.1640    74.5550    24.0480     2.2790 
  183.0000   -27.2380    66.7720   101.4790    80.0150    86.2170    24.0360     2.2750 
  183.1250   -27.2670    67.5560   106.4840    83.7650    96.1540    24.0460     2.2710 
  183.2500   -27.2620    65.9750   110.7070    87.6880    99.5320    24.0570     2.2650 
  183.3750   -27.2250    64.4690   113.5180    91.2970    97.0610    24.0410     2.2540 
  183.5000   -27.2060    65.9250   114.8810    94.2530    94.8550    24.0210     2.2430 
  183.6250   -27.2130    68.2440   115.2760    96.4220   100.5200    24.0220     2.2340 
  183.7500   -27.2110    67.2110   115.7270    98.3700   104.8640    24.0300     2.2300 
  183.8750   -27.2000    64.9500   117.0290   100.7570   101.0570    24.0320     2.2280 
  184.0000   -27.1250    64.7150   119.8520   104.2690    86.7340    24.0020     2.2280 
  184.1250   -27.0210    66.4240   124.6040   109.5350    74.2110    23.9470     2.2280 
  184.2500   -26.9990    67.7830   129.1120   115.0590    68.2500    23.8740     2.2260 
  184.3750   -26.9960    69.1150   128.8060   117.0430    68.0490    23.8370     2.2220 
  184.5000   -26.9400    70.5060   118.1610   110.0480    75.8740    23.8320     2.2180 
  184.6250   -26.8500    70.2520    95.1220    90.5760    78.1630    23.8330     2.2170 
  184.7500   -26.7470    69.0350    69.5540    67.2570    62.9390    23.8040     2.2180 
  184.8750   -26.6440    68.8760    48.9120    47.6350    34.6770    23.7530     2.2200 
  185.0000   -26.5910    69.6310    36.0560    34.9130    16.5680    23.7060     2.2290 
  185.1250   -26.5600    70.2560    31.6840    29.6590    12.4010    23.6910     2.2480 
  185.2500   -26.4770    69.8980    33.5710    29.6000    15.3110    23.6690     2.2680 
  185.3750   -26.3760    69.9700    41.7090    34.6920    24.7030    23.6520     2.2780 
  185.5000   -26.2530    70.0400    56.9850    46.1050    36.7540    23.6580     2.2740 
  185.6250   -26.1090    69.0770    82.4640    67.5390    43.8390    23.6870     2.2640 
  185.7500   -25.9590    67.5020   117.6860    99.0060    55.5030    23.6890     2.2520 
  185.8750   -25.8280    65.4570   161.2880   138.7310    82.2550    23.6660     2.2350 
  186.0000   -25.7570    63.8330   208.5260   181.4100   121.6330    23.6540     2.2170 
  186.1250   -25.7680    61.3160   249.2890   217.6410   158.2640    23.6680     2.2020 
  186.2500   -25.8720    58.0120   275.7680   240.8620   142.0750    23.6840     2.1930 
  186.3750   -26.0600    56.1820   286.9900   249.7540   103.1480    23.6660     2.1910 
  186.5000   -26.3050    57.7760   289.6240   249.4020    84.6810    23.6450     2.1960 
  186.6250   -26.5550    61.1290   292.5850   247.6910    79.2450    23.6470     2.2020 
  186.7500   -26.7860    63.1240   298.4320   248.5700    67.0870    23.6680     2.2020 
  186.8750   -26.9810    63.8340   303.9890   250.6930    56.3280    23.6890     2.1980 
  187.0000   -27.0780    64.3400   304.9210   251.1730    57.1330    23.7230     2.1950 
  187.1250   -27.1220    62.8190   298.1840   247.3460    74.9810    23.8880     2.1980 
  187.2500   -27.1260    61.0960   287.6830   240.7650   104.7180    24.1200     2.2050 
  187.3750   -27.0940    61.9700   278.0480   234.4330   146.3700    24.2720     2.2140 
  187.5000   -27.0770    64.0100   272.6120   231.1630   200.6180    24.2930     2.2230 
  187.6250   -27.0870    63.7010   272.2790   232.1450   242.8200    24.2760     2.2290 
  187.7500   -27.1370    61.5660   273.0440   234.2920   267.1270    24.2680     2.2310 
  187.8750   -27.2140    59.2540   270.2290   233.6600   273.6110    24.2650     2.2300 
  188.0000   -27.3070    56.9820   260.2780   226.9280   284.9730    24.2660     2.2280 
  188.1250   -27.3600    56.4150   243.6990   213.6280   264.9700    24.2700     2.2280 
  188.2500   -27.4070    58.3410   227.9210   199.8020   215.1450    24.2700     2.2270 
  188.3750   -27.4680    60.9650   218.7720   190.9110   155.4540    24.2680     2.2230 
  188.5000   -27.5370    62.5510   219.2640   190.3120   138.7200    24.2660     2.2140 
  188.6250   -27.6390    63.0180   229.9510   199.1460   172.8930    24.2670     2.2040 
  188.7500   -27.7440    63.2690   244.0710   211.7200   259.0300    24.2580     2.1930 
  188.8750   -27.8860    64.0570   253.8930   221.5980   346.1170    24.2230     2.1840 
  189.0000   -28.0910    65.3580   252.2780   222.6130   327.7980    24.1620     2.1780 
  189.1250   -28.2770    66.5370   236.5280   211.2160   252.1970    24.1620     2.1810 
  189.2500   -28.3860    66.7160   216.1230   194.1850   187.6800    24.1820     2.1920 
  189.3750   -28.4820    66.0160   198.5320   177.9440   157.5710    24.1540     2.2050 
  189.5000   -28.6080    64.6170   187.7040   166.7670   153.8460    24.1170     2.2140 
  189.6250   -28.7480    64.2680   185.4540   163.0900   168.6390    24.1230     2.2150 
  189.7500   -28.8760    65.2460   189.5080   165.1990   186.4810    24.1620     2.2150 
  189.8750   -28.9720    65.3160   198.8140   172.0820   197.1210    24.1810     2.2130 
  190.0000   -29.0520    63.2080   212.5580   182.8650   200.5260    24.1560     2.2100 
  190.1250   -29.2010    60.8520   230.5750   197.2900   215.6680    24.1650     2.2060 
  190.2500   -29.3660    60.2790   251.1000   213.8950   246.7090    24.2010     2.2020 
  190.3750   -29.4570    61.1730   272.0260   231.0460   294.8410    24.1980     2.2010 
  190.5000   -29.4470    61.4880   289.9530   246.0570   351.5870    24.1590     2.2010 
  190.6250   -29.3510    60.5940   298.9700   254.2150   364.6630    24.1800     2.1990 
  190.7500   -29.2510    58.9140   297.0630   253.7570   342.0520    24.2400     2.1940 
  190.8750   -29.1520    57.3690   284.0400   244.2700   307.5740    24.2800     2.1920 
  191.0000   -29.0860    57.3140   261.8830   227.0410   276.2890    24.3060     2.1960 
  191.1250   -29.0130    58.4530   233.2890   203.8530   244.5030    24.3000     2.2020 
  191.2500   -28.9660    58.6330   203.4130   178.7980   219.1400    24.2860     2.2060 
  191.3750   -28.9360    58.6010   175.8200   154.8270   197.3000    24.2860     2.2080 
  191.5000   -28.8760    60.9460   153.1570   134.4270   166.5830    24.3050     2.2090 
  191.6250   -28.8260    63.9260   137.9160   120.1980   132.5930    24.3010     2.2090 
  191.7500   -28.7930    64.3340   129.1300   111.7580   109.9140    24.2740     2.2090 
  191.8750   -28.7930    64.5220   126.0210   108.6800   110.0640    24.2410     2.2070 
