~V
VERS. 2.00: Ver 2.00
~W
STRT.M 52.0000:
STOP.M 279.0000:
STEP.M 0.1250:
NULL. -999.2500:
UWI. F11031:
~C
DEPT.M :
DEN.GM/CC :
GR.API :
RML.OHMM :
RI. :
RXO.OHMM :
CALI.CM :
SP.MV :
~A
# ...
  142.0000     2.2680    84.0550     5.8890     5.1550     5.1690    23.9460    -8.3660 
  142.1250     2.2720    85.3740     5.9940     5.3120     5.7310    23.7180    -8.5880 
  142.2500     2.2820    86.3350     6.0460     5.4150     6.2180    23.6800    -8.7720 
  142.3750     2.2970    84.0430     6.0110     5.4210     6.0850    23.6670    -8.9250 
  142.5000     2.3160    79.7030     5.8830     5.3190     5.7440    23.7300    -9.0370 
  142.6250     2.3300    76.9410     5.6800     5.1200     5.2940    23.8660    -9.1150 
  142.7500     2.3360    75.9860     5.4550     4.8870     4.9700    24.0330    -9.1560 
  142.8750     2.3340    78.2370     5.2540     4.6630     4.7990    24.1430    -9.1560 
  143.0000     2.3270    82.0550     5.1140     4.4770     4.6610    24.2170    -9.1290 
  143.1250     2.3190    80.8300     5.0600     4.3520     4.5800    24.2170    -9.0610 
  143.2500     2.3130    77.2440     5.0610     4.2810     4.5120    24.2000    -9.0090 
  143.3750     2.3080    76.6740     5.0860     4.2570     4.4850    24.1800    -8.9480 
  143.5000     2.3020    79.5170     5.1140     4.2680     4.5440    23.9600    -8.9150 
  143.6250     2.2940    81.8570     5.1500     4.3010     4.6080    23.6830    -8.8820 
  143.7500     2.2880    81.7800     5.2120     4.3380     4.7140    23.7220    -8.8320 
  143.8750     2.2860    80.6880     5.2930     4.3660     4.7410    23.8310    -8.7820 
  144.0000     2.2880    79.4790     5.3510     4.3760     4.7790    23.8950    -8.7070 
  144.1250     2.2950    78.5360     5.3420     4.3590     4.8120    23.9670    -8.6530 
  144.2500     2.3040    77.5930     5.2860     4.3200     4.7200    24.1250    -8.5750 
  144.3750     2.3130    76.5580     5.2190     4.2660     4.5790    24.1740    -8.4970 
  144.5000     2.3210    75.5430     5.1720     4.2100     4.5410    24.1260    -8.4070 
  144.6250     2.3260    73.0250     5.1440     4.1660     4.5910    24.1640    -8.3370 
  144.7500     2.3280    70.0600     5.1110     4.1330     4.5990    24.4470    -8.3120 
  144.8750     2.3240    71.5150     5.0690     4.1130     4.5970    24.6650    -8.3240 
  145.0000     2.3170    77.3610     5.0390     4.1050     4.6260    24.7690    -8.3580 
  145.1250     2.3110    81.6550     5.0650     4.1110     4.5590    24.6890    -8.3910 
  145.2500     2.3100    82.5890     5.1520     4.1320     4.4970    24.4550    -8.4550 
  145.3750     2.3150    83.0130     5.2920     4.1690     4.5120    24.1040    -8.5420 
  145.5000     2.3260    84.6980     5.4650     4.2160     4.5800    23.7010    -8.6510 
  145.6250     2.3400    87.6930     5.6250     4.2600     4.6170    23.7060    -8.7860 
  145.7500     2.3510    92.5610     5.7260     4.2900     4.6560    23.8350    -8.9190 
  145.8750     2.3580    95.6230     5.7430     4.3040     4.6920    23.8920    -9.0650 
  146.0000     2.3610    92.7960     5.6860     4.3060     4.7190    23.8080    -9.2120 
  146.1250     2.3590    86.8160     5.6100     4.3090     4.6510    23.6620    -9.3500 
  146.2500     2.3510    82.7420     5.5760     4.3230     4.6120    23.5300    -9.4830 
  146.3750     2.3400    80.4840     5.6070     4.3470     4.6460    23.2930    -9.5970 
  146.5000     2.3280    79.3870     5.6940     4.3760     4.7420    23.4410    -9.7120 
  146.6250     2.3200    80.2920     5.7880     4.3960     4.8240    23.6000    -9.7910 
  146.7500     2.3180    81.4630     5.8460     4.4070     4.7860    23.2880    -9.8820 
  146.8750     2.3210    82.1650     5.8720     4.4130     4.7510    22.5830    -9.9420 
  147.0000     2.3260    81.7170     5.9150     4.4270     4.8040    21.4740   -10.0230 
  147.1250     2.3300    77.3020     6.0400     4.4580     4.9350    20.9490   -10.1030 
  147.2500     2.3350    70.9000     6.2230     4.4990     4.9160    20.8820   -10.1660 
  147.3750     2.3410    67.8130     6.3940     4.5420     4.8880    21.2520   -10.2700 
  147.5000     2.3460    71.0270     6.4700     4.5750     4.8790    22.2000   -10.3700 
  147.6250     2.3500    76.5050     6.3980     4.5820     4.7780    23.2730   -10.4910 
  147.7500     2.3480    80.3060     6.2440     4.5620     4.7480    23.9270   -10.6050 
  147.8750     2.3410    80.7760     6.0750     4.5230     4.7410    24.1960   -10.7240 
  148.0000     2.3310    77.6800     5.9400     4.4770     4.7090    24.3570   -10.8520 
  148.1250     2.3210    75.9190     5.8650     4.4400     4.6910    24.5840   -10.9910 
  148.2500     2.3140    78.0800     5.8400     4.4170     4.7000    24.6400   -11.1390 
  148.3750     2.3120    79.1150     5.8660     4.4040     4.7080    24.6980   -11.2770 
  148.5000     2.3130    75.2250     5.9230     4.3980     4.6720    24.7150   -11.4130 
  148.6250     2.3160    72.0820     5.9640     4.3960     4.6270    24.7410   -11.5500 
  148.7500     2.3170    74.1040     5.9470     4.3950     4.6050    24.7800   -11.7060 
  148.8750     2.3160    77.2500     5.8720     4.3890     4.6210    24.7800   -11.8700 
  149.0000     2.3140    78.3500     5.7760     4.3700     4.5990    24.7410   -12.0230 
  149.1250     2.3140    78.1950     5.7180     4.3330     4.5710    24.6460   -12.2120 
  149.2500     2.3160    79.3400     5.7040     4.2850     4.5730    24.6490   -12.4010 
  149.3750     2.3190    81.1750     5.7020     4.2390     4.6120    24.7140   -12.5990 
  149.5000     2.3200    81.4070     5.6690     4.2030     4.6200    24.7240   -12.7980 
  149.6250     2.3140    79.4640     5.5960     4.1860     4.6150    24.6910   -12.9760 
  149.7500     2.3010    78.6340     5.5310     4.1800     4.5480    24.6600   -13.1360 
  149.8750     2.2850    79.6180     5.5100     4.1770     4.5260    24.6430   -13.2920 
  150.0000     2.2680    80.0510     5.5290     4.1690     4.4950    24.6350   -13.4500 
  150.1250     2.2560    80.1980     5.5360     4.1500     4.4890    24.6250   -13.5660 
  150.2500     2.2500    79.4700     5.4880     4.1210     4.4960    24.6250   -13.7030 
  150.3750     2.2490    77.6530     5.3860     4.0820     4.4900    24.6280   -13.8410 
  150.5000     2.2500    75.1400     5.2580     4.0310     4.3930    24.6400   -13.9870 
  150.6250     2.2500    72.0750     5.1550     3.9690     4.2840    24.7040   -14.1520 
  150.7500     2.2510    72.3670     5.0980     3.8990     4.1330    24.6660   -14.3200 
  150.8750     2.2520    77.7620     5.0800     3.8300     3.9350    24.4880   -14.5280 
  151.0000     2.2530    84.7410     5.0770     3.7700     3.8630    24.0980   -14.7680 
  151.1250     2.2540    85.4470     5.0500     3.7260     3.9870    24.1330   -15.0460 
  151.2500     2.2520    81.9610     4.9730     3.6950     4.0760    24.2570   -15.3350 
  151.3750     2.2490    80.3360     4.8440     3.6710     4.0700    24.2870   -15.6160 
  151.5000     2.2420    80.3690     4.6880     3.6440     4.0150    24.3470   -15.8840 
  151.6250     2.2350    79.2720     4.5500     3.6110     3.9330    24.1280   -16.1440 
  151.7500     2.2270    77.9410     4.4470     3.5820     3.8850    23.8810   -16.3970 
  151.8750     2.2220    77.1650     4.3830     3.5670     3.9030    23.7790   -16.6090 
  152.0000     2.2230    78.3530     4.3680     3.5770     3.9450    23.8450   -16.7940 
  152.1250     2.2330    82.1200     4.4280     3.6190     4.0580    24.1540   -16.9430 
  152.2500     2.2500    85.9480     4.5540     3.6790     4.1390    24.5150   -17.0860 
  152.3750     2.2700    88.7440     4.7280     3.7440     4.1980    24.6630   -17.2160 
  152.5000     2.2860    89.7740     4.9090     3.8020     4.2360    24.5300   -17.3550 
  152.6250     2.2940    89.9920     5.0420     3.8370     4.1970    24.4830   -17.5280 
  152.7500     2.2960    89.7310     5.1040     3.8480     4.1680    24.3540   -17.7180 
  152.8750     2.2960    88.8030     5.1090     3.8370     4.1640    24.1870   -17.9480 
  153.0000     2.2960    87.3120     5.0910     3.8130     4.2230    24.1730   -18.1780 
  153.1250     2.2970    85.0650     5.0870     3.7970     4.3170    24.0710   -18.4300 
