~V
VERS. 2.00: Ver 2.00
~W
STRT.M 53.0000:
STOP.M 279.0000:
STEP.M 0.1250:
NULL. -999.2500:
UWI. F11068:
~C
DEPT.M :
GR.API :
RML.OHMM :
RI. :
RXO.OHMM :
CALI.CM :
SP.MV :
DEN.GM/CC :
~A
# ...
   86.7500    66.4460     9.8210     8.3860     9.5510    23.9100   -16.8690     2.2710 
   86.8750    65.8570     9.7940     8.5230     9.5270    23.9190   -16.3360     2.2800 
   87.0000    65.8860     9.5000     8.3850     7.8330    23.8140   -15.8030     2.2660 
   87.1250    65.8170     9.0800     8.0420     6.9260    23.7270   -15.3640     2.2310 
   87.2500    64.4650     8.7640     7.7170     6.8490    23.6870   -15.0150     2.1980 
   87.3750    62.7220     8.6940     7.5630     6.9740    23.7150   -14.8230     2.1860 
   87.5000    61.3920     8.9140     7.6600     7.1630    23.7950   -14.7830     2.2120 
   87.6250    62.7080     9.3660     8.0020     8.5180    23.8810   -14.8510     2.2770 
   87.7500    67.0190     9.8210     8.3990    12.1650    23.8890   -14.9140     2.3430 
   87.8750    69.8560    10.0890     8.6660    15.8140    23.8150   -14.9480     2.3760 
   88.0000    68.6460    10.0500     8.6710    12.6430    23.7000   -14.8920     2.3630 
   88.1250    64.5830     9.6700     8.3720     8.3540    23.5750   -14.7130     2.3120 
   88.2500    61.9290     9.1390     7.9360     6.8020    23.5090   -14.4580     2.2630 
   88.3750    62.6100     8.6210     7.4850     6.5160    23.4820   -14.1480     2.2330 
   88.5000    65.5180     8.2510     7.1020     6.5810    23.4880   -13.9450     2.2210 
   88.6250    66.2920     8.1680     6.8940     6.6690    23.5190   -13.8220     2.2200 
   88.7500    64.9050     8.3630     6.9080     6.7010    23.5390   -13.8860     2.2230 
   88.8750    63.8500     8.8050     7.1680     6.8260    23.5940   -14.0510     2.2390 
   89.0000    63.2610     9.4030     7.6380     7.2370    23.7700   -14.3160     2.2700 
   89.1250    59.8930    10.0020     8.2110    10.0950    24.0570   -14.6790     2.3050 
   89.2500    55.4610    10.4570     8.7070    17.3260    24.2280   -15.1610     2.3220 
   89.3750    53.7160    10.7190     9.0250    19.2510    24.1610   -15.6610     2.3060 
   89.5000    55.9580    10.8480     9.1840    11.3670    24.0090   -16.0730     2.2610 
   89.6250    59.5560    10.9670     9.3060     8.0480    23.8870   -16.3440     2.2040 
   89.7500    61.9010    11.1370     9.4790     7.4950    23.7980   -16.4780     2.1570 
   89.8750    61.8610    11.2810     9.6700     8.1400    23.6770   -16.5110     2.1270 
   90.0000    61.1100    11.2460     9.7590     9.0390    23.4430   -16.4560     2.1120 
   90.1250    60.8270    10.8520     9.5460     9.1500    23.3010   -16.3090     2.1060 
   90.2500    60.6050    10.2090     9.0550     8.5840    23.3550   -16.0710     2.1060 
   90.3750    60.2890     9.5080     8.4380     8.1340    23.4580   -15.7590     2.1080 
   90.5000    61.3360     8.9520     7.8880     7.6830    23.4740   -15.4720     2.1110 
   90.6250    64.5630     8.6700     7.5530     7.5190    23.4570   -15.3130     2.1130 
   90.7500    66.2220     8.5530     7.3840     7.1950    23.5190   -15.2670     2.1160 
   90.8750    64.9930     8.4710     7.2900     7.1140    23.6140   -15.2810     2.1270 
   91.0000    65.0740     8.3140     7.1700     7.1830    23.6770   -15.2940     2.1490 
   91.1250    69.7580     8.0380     6.9620     7.2630    23.6970   -15.1500     2.1870 
   91.2500    75.5010     7.7340     6.7160     7.1950    23.6720   -14.8820     2.2280 
   91.3750    81.3660     7.5090     6.5070     6.9220    23.6340   -14.4570     2.2610 
   91.5000    86.3340     7.4560     6.4050     6.6250    23.6060   -13.7860     2.2760 
   91.6250    86.4450     7.6510     6.4810     6.7610    23.4770   -12.8740     2.2690 
   91.7500    80.8290     8.0110     6.7010     7.0510    23.2970   -11.7460     2.2500 
   91.8750    73.8680     8.4240     7.0080     7.0850    23.1350   -10.5730     2.2290 
   92.0000    68.8350     8.7550     7.3150     6.9570    23.0360    -9.4390     2.2100 
   92.1250    66.4420     8.8590     7.5040     6.9310    22.9940    -8.5660     2.1970 
   92.2500    65.2850     8.7610     7.5410     6.9540    22.9620    -7.9120     2.1890 
   92.3750    65.3360     8.5450     7.4530     6.9700    22.9650    -7.6160     2.1860 
   92.5000    68.0800     8.3300     7.3110     6.9010    23.0280    -7.6740     2.1900 
   92.6250    73.5450     8.2230     7.2080     6.7160    23.1700    -8.1160     2.2000 
   92.7500    76.8010     8.2150     7.1860     6.5780    23.2920    -8.7500     2.2130 
   92.8750    75.0500     8.2320     7.2210     6.6630    23.3540    -9.4220     2.2280 
   93.0000    71.1460     8.1700     7.2320     6.9840    23.4050   -10.0590     2.2440 
   93.1250    70.3530     7.9020     7.0780     7.3400    23.4690   -10.5650     2.2650 
   93.2500    73.9020     7.4620     6.7360     7.3970    23.5440   -10.8640     2.2900 
   93.3750    80.8700     6.9590     6.2770     6.9310    23.6660   -10.9340     2.3140 
   93.5000    88.4970     6.5650     5.8400     6.2310    23.8320   -10.8330     2.3320 
   93.6250    91.6940     6.5040     5.6220     5.9170    23.9410   -10.6390     2.3350 
   93.7500    87.9450     6.8020     5.6900     6.2390    23.9270   -10.5340     2.3250 
   93.8750    79.5880     7.4110     6.0580     6.6970    23.7790   -10.6200     2.3060 
   94.0000    72.2730     8.1980     6.6780     7.5160    23.5610   -10.8810     2.2870 
   94.1250    70.7240     8.9410     7.4190     8.5300    23.3790   -11.2990     2.2750 
   94.2500    72.7970     9.4480     8.0490     8.2450    23.2760   -11.7990     2.2690 
   94.3750    74.2270     9.6340     8.4110     7.4190    23.2640   -12.3680     2.2640 
   94.5000    74.4220     9.5320     8.4700     7.0420    23.3310   -12.9430     2.2540 
   94.6250    74.1320     9.2520     8.2920     7.1980    23.4070   -13.4000     2.2380 
   94.7500    73.3800     8.9570     8.0530     7.1890    23.4710   -13.6720     2.2230 
   94.8750    72.2880     8.7140     7.8350     6.9400    23.5240   -13.6770     2.2140 
   95.0000    72.0210     8.5460     7.6570     6.8600    23.5740   -13.5520     2.2120 
   95.1250    72.6050     8.5290     7.5270     6.9430    23.6350   -13.2410     2.2190 
   95.2500    72.3880     8.7810     7.5270     6.9200    23.7000   -12.8860     2.2400 
   95.3750    71.3960     9.4520     7.8220     6.7130    23.8230   -12.3720     2.2880 
   95.5000    71.9940    10.5860     8.5580     6.6110    24.0300   -11.7200     2.3690 
   95.6250    73.4670    11.9520     9.7760     8.2000    24.3060   -10.9550     2.4720 
   95.7500    72.6510    12.9080    11.0050    13.7310    24.5580   -10.1750     2.5590 
   95.8750    70.6440    12.8640    11.5540    25.7350    24.6200    -9.4140     2.6000 
   96.0000    73.6320    11.6250    10.8800    35.5580    24.5240    -8.6370     2.5860 
   96.1250    84.5000     9.6790     9.1340    23.9040    24.4850    -7.8990     2.5310 
   96.2500    97.3010     7.9510     7.3100    10.7600    24.4560    -7.2630     2.4740 
   96.3750   105.3530     6.7780     5.8920     6.0880    24.3010    -6.7910     2.4320 
   96.5000   106.4230     6.1420     5.0150     5.0900    24.1380    -6.4440     2.4070 
   96.6250   104.7350     6.0230     4.7060     5.3080    24.0150    -6.2670     2.3890 
   96.7500   105.4200     6.2480     4.7520     5.3860    23.8710    -6.2210     2.3670 
   96.8750   106.6120     6.6300     5.0080     5.5010    23.7080    -6.2670     2.3390 
   97.0000   103.4710     7.0060     5.3330     5.6880    23.5330    -6.3880     2.3110 
   97.1250    96.9880     7.2710     5.6080     5.8530    23.3530    -6.6060     2.2910 
   97.2500    92.2990     7.4130     5.7950     6.0480    23.2070    -6.8490     2.2830 
   97.3750    91.2140     7.4440     5.8930     6.2150    23.1510    -7.0910     2.2810 
   97.5000    91.9510     7.3930     5.9160     6.2370    23.1440    -7.3820     2.2810 
   97.6250    91.7270     7.3020     5.8820     6.1840    23.1430    -7.6230     2.2750 
   97.7500    90.0330     7.2210     5.8180     6.1920    23.1300    -7.8820     2.2600 
   97.8750    87.9460     7.1680     5.7340     6.2630    23.1100    -8.1550     2.2370 
