~V
VERS. 2.00: Ver 2.00
~W
STRT.M 7.0000:
STOP.M 259.0000:
STEP.M 0.1250:
NULL. -999.2500:
UWI. F11018:
~C
DEPT.M :
DEN.GM/CC :
SP.MV :
GR.API :
RML.OHMM :
RI. :
RXO.OHMM :
CALI.CM :
~A
# ...
  164.5000     2.2940    -8.2250    73.5450    14.7230    12.7220    13.2810    24.1020 
  164.6250     2.2810    -8.2060    76.1110    15.2130    12.9920    15.0350    24.1270 
  164.7500     2.2710    -8.1880    76.7530    15.7900    13.4150    16.1740    24.1840 
  164.8750     2.2710    -8.1810    74.9150    16.1440    13.7720    15.3170    24.2400 
  165.0000     2.2780    -8.1810    74.0370    15.9090    13.7340    16.4730    24.3230 
  165.1250     2.2870    -8.2110    75.5850    15.2080    13.3010    16.3770    24.4380 
  165.2500     2.2960    -8.2600    76.3030    14.3920    12.6900    14.7110    24.5170 
  165.3750     2.3050    -8.3030    75.1680    13.8740    12.2180    13.1170    24.5430 
  165.5000     2.3050    -8.3650    75.2780    14.0540    12.2300    11.9520    24.5420 
  165.6250     2.2970    -8.4120    75.2870    14.9120    12.7870    14.2750    24.5340 
  165.7500     2.2860    -8.4540    75.2660    16.3320    13.8640    19.9710    24.4980 
  165.8750     2.2780    -8.5330    77.2080    18.0370    15.3010    23.8520    24.4120 
  166.0000     2.2760    -8.6140    79.2010    19.5800    16.7670    22.4470    24.3140 
  166.1250     2.2750    -8.6670    78.1370    20.6790    17.9330    21.4430    24.2420 
  166.2500     2.2710    -8.7390    76.4180    21.3490    18.7090    21.8060    24.1990 
  166.3750     2.2650    -8.8560    76.9560    21.8170    19.2300    22.7240    24.1790 
  166.5000     2.2630    -8.9210    78.6540    22.3350    19.7160    24.1240    24.1560 
  166.6250     2.2660    -8.9750    78.3830    22.9030    20.2460    25.8640    24.1340 
  166.7500     2.2700    -9.0550    76.4490    23.3470    20.7280    26.7930    24.1670 
  166.8750     2.2740    -9.1170    74.1550    23.4550    21.0050    26.2920    24.2700 
  167.0000     2.2800    -9.1200    74.3000    22.9770    20.8610    26.0000    24.3420 
  167.1250     2.2860    -9.1290    74.2760    22.0220    20.3190    24.9800    24.3520 
  167.2500     2.2910    -9.1150    72.6580    20.8090    19.5070    23.3230    24.2690 
  167.3750     2.2960    -9.0250    72.7840    19.6470    18.6530    20.8600    24.0880 
  167.5000     2.3010    -8.9420    75.8440    18.8510    18.0290    18.2530    23.9490 
  167.6250     2.3030    -8.8750    77.9000    18.4450    17.7140    16.9270    23.8730 
  167.7500     2.3020    -8.7570    77.1270    18.3400    17.6760    16.6540    23.8470 
  167.8750     2.2980    -8.6090    76.1090    18.3530    17.7800    17.3080    23.9280 
  168.0000     2.2930    -8.5280    76.4920    18.2340    17.7960    17.8350    24.1980 
  168.1250     2.2910    -8.4800    77.2630    17.8640    17.5620    17.4440    24.5020 
  168.2500     2.2960    -8.4600    77.2120    17.2710    17.0590    16.3500    24.6750 
  168.3750     2.3050    -8.5100    76.5930    16.5950    16.3920    15.1310    24.7180 
  168.5000     2.3140    -8.6500    78.3340    16.0660    15.7610    14.9490    24.6130 
  168.6250     2.3220    -8.8880    79.8340    15.8840    15.3590    15.6990    24.2960 
  168.7500     2.3260    -9.2360    76.6450    16.2920    15.3840    16.7390    23.8240 
  168.8750     2.3250    -9.6870    71.8710    17.6300    16.1060    18.3830    23.5000 
  169.0000     2.3150   -10.2670    72.5230    20.6770    18.1900    20.7450    23.3450 
  169.1250     2.2990   -10.9070    75.5170    25.9130    22.2080    23.3390    23.2990 
  169.2500     2.2770   -11.6170    74.3030    34.1880    29.1650    28.8700    23.2690 
  169.3750     2.2500   -12.4140    69.2700    46.4960    40.1820    45.7870    23.2190 
  169.5000     2.2210   -13.2270    64.6060    64.2800    56.4890    93.1050    23.2480 
  169.6250     2.2020   -14.0130    61.2510    85.3470    75.6330   135.6730    23.4340 
  169.7500     2.1970   -14.8030    60.1960   105.7300    94.0480   129.2730    23.8460 
  169.8750     2.2070   -15.5630    61.7400   121.2870   108.3560   111.7320    24.4420 
  170.0000     2.2210   -16.2130    62.9300   131.1170   117.4340   129.6520    24.9350 
  170.1250     2.2290   -16.8260    62.4100   139.7870   124.7720   157.6270    25.0730 
  170.2500     2.2310   -17.4120    62.2240   150.1200   132.9330   174.4610    25.0370 
  170.3750     2.2300   -17.8930    64.5460   163.2060   143.2950   156.5960    24.9510 
  170.5000     2.2230   -18.2790    68.0320   179.7800   157.0910   130.3440    24.6660 
  170.6250     2.2100   -18.6250    68.8860   199.2830   174.3240   139.1790    24.0830 
  170.7500     2.1920   -18.9300    66.1390   220.5240   194.4090   207.4160    23.4800 
  170.8750     2.1790   -19.1800    60.4640   239.9090   214.7010   303.3220    23.2300 
  171.0000     2.1790   -19.3520    56.9550   248.8330   228.3410   330.2080    23.5700 
  171.1250     2.1890   -19.4910    58.7180   243.0500   230.1310   281.8660    24.2690 
  171.2500     2.2030   -19.5930    62.9900   223.8960   218.6780   236.9410    24.9090 
  171.3750     2.2160   -19.6620    65.7260   198.0940   197.8410   211.6860    25.1810 
  171.5000     2.2230   -19.7360    64.5190   173.7330   174.6120   219.8040    25.2080 
  171.6250     2.2270   -19.8320    62.4490   154.8110   154.9140   189.2890    25.2250 
  171.7500     2.2310   -19.9460    61.8780   142.3580   140.9650   139.3660    25.2330 
  171.8750     2.2370   -20.0820    64.1520   136.3600   133.4170   100.4190    25.1830 
  172.0000     2.2350   -20.2810    68.6170   137.2080   133.0000    98.0550    25.0590 
  172.1250     2.2250   -20.5020    70.2470   142.8670   137.7520   101.2030    24.8600 
  172.2500     2.2120   -20.7100    67.9880   151.8380   146.2400   106.4940    24.6440 
  172.3750     2.2070   -20.9350    65.1070   162.1190   156.5080    97.4430    24.4800 
  172.5000     2.2090   -21.1930    65.2490   171.3940   166.2550    83.6570    24.3760 
  172.6250     2.2140   -21.4440    65.8210   178.7670   174.2760    82.7290    24.3430 
  172.7500     2.2180   -21.6270    64.3370   184.4810   180.5310    94.3840    24.4290 
  172.8750     2.2210   -21.8070    61.6870   189.1060   185.4890   119.3870    24.6120 
  173.0000     2.2230   -21.9990    58.8030   192.3660   189.1270   155.6100    24.7960 
  173.1250     2.2210   -22.1330    57.2010   193.2630   190.8050   178.0020    24.8980 
  173.2500     2.2170   -22.2400    59.2830   190.3380   189.1850   174.8830    24.9110 
  173.3750     2.2150   -22.3860    63.5260   182.7210   183.1790   160.9940    24.8820 
  173.5000     2.2210   -22.5030    64.1180   170.5330   172.1800   147.3780    24.8590 
  173.6250     2.2300   -22.5680    61.6480   157.0670   158.8880   135.4630    24.8530 
  173.7500     2.2360   -22.6840    61.6260   145.3230   146.2400   116.5400    24.8580 
  173.8750     2.2380   -22.7940    65.1390   137.7700   137.1310    98.1910    24.8690 
  174.0000     2.2360   -22.8230    66.8770   136.8810   134.6540    95.3530    24.8530 
  174.1250     2.2330   -22.8540    65.8020   142.0040   138.6310   104.7880    24.8100 
  174.2500     2.2280   -22.9320    62.7430   161.6180   148.4860   125.4540    24.7150 
  174.3750     2.2210   -22.9640    60.5490   179.0500   162.3090   143.5510    24.5960 
  174.5000     2.2160   -22.9360    58.9180   192.1910   176.1440   168.7520    24.4860 
  174.6250     2.2170   -22.9050    57.7750   199.1370   185.3920   176.6960    24.4230 
  174.7500     2.2270   -22.8740    58.8870   197.7760   187.4710   158.1110    24.3990 
  174.8750     2.2440   -22.8830    61.7310   189.1720   182.3070   131.2860    24.3700 
  175.0000     2.2630   -22.9410    63.1160   175.8560   171.2610   123.5190    24.2490 
  175.1250     2.2770   -23.0140    62.0580   161.2410   157.7540   121.3300    24.0190 
  175.2500     2.2840   -23.1150    61.8960   146.8110   143.5070   114.4500    23.7310 
  175.3750     2.2870   -23.2240    65.8770   133.8040   129.9200    95.1960    23.4640 
  175.5000     2.2870   -23.3840    69.8660   124.3520   119.0170    73.4550    23.3040 
  175.6250     2.2870   -23.5960    71.0110   119.6070   112.1370    61.9280    23.2320 
