~V
VERS. 2.00: Ver 2.00
~W
STRT.M 40.0000:
STOP.M 275.0000:
STEP.M 0.1250:
NULL. -999.2500:
UWI. F11027:
~C
DEPT.M :
DEN.GM/CC :
GR.API :
RML.OHMM :
RI. :
RXO.OHMM :
CALI.CM :
SP.MV :
~A
# ...
  220.0000     2.2750    58.4210    53.2190    52.3990    63.8040    24.0680    -8.3740 
  220.1250     2.2730    60.9000    52.0840    51.1450    61.6120    24.1410    -8.5740 
  220.2500     2.2790    60.9030    51.0050    49.8530    53.3180    24.2050    -8.8440 
  220.3750     2.2870    61.2090    50.1430    48.7310    46.4700    24.2360    -9.0910 
  220.5000     2.2880    63.5610    49.6480    47.9870    44.9400    24.2210    -9.2650 
  220.6250     2.2720    65.5220    49.6330    47.7900    48.8670    24.1660    -9.3640 
  220.7500     2.2440    64.2320    49.9580    47.9620    52.6380    24.1420    -9.4850 
  220.8750     2.2120    60.2760    50.5630    48.3530    52.0650    24.1350    -9.6650 
  221.0000     2.1910    58.0070    51.5180    48.9080    49.7100    24.1160    -9.8690 
  221.1250     2.2000    59.6820    53.2220    49.9300    49.0110    24.0930   -10.0080 
  221.2500     2.2370    61.1640    55.9170    51.8210    49.4750    24.0710   -10.0800 
  221.3750     2.2830    60.3250    59.6900    54.8770    52.6420    23.9890   -10.1470 
  221.5000     2.3140    59.2240    64.2300    58.9570    60.5780    23.7510   -10.2600 
  221.6250     2.3110    58.6420    68.6970    63.2630    72.8340    23.6370   -10.4370 
  221.7500     2.2870    57.4470    72.1910    66.6610    81.6710    23.7240   -10.6660 
  221.8750     2.2620    57.9690    74.3120    68.5170    82.7380    23.8390   -10.9500 
  222.0000     2.2500    60.9970    75.2730    68.8780    79.5490    23.8290   -11.2610 
  222.1250     2.2520    61.3880    75.8760    68.4900    77.3070    23.6490   -11.5720 
  222.2500     2.2540    58.6720    77.1450    68.5210    77.2050    23.4750   -11.9260 
  222.3750     2.2510    55.7410    79.6340    69.6290    78.7890    23.4500   -12.2990 
  222.5000     2.2420    55.1920    83.6450    72.1010    83.3010    23.4920   -12.6280 
  222.6250     2.2270    56.7110    88.7640    76.0320    93.1800    23.5010   -12.9850 
  222.7500     2.2070    59.3290    93.0690    80.5950   107.2980    23.5480   -13.3640 
  222.8750     2.1820    61.5340    95.2110    84.8350   122.5880    23.6730   -13.7050 
  223.0000     2.1530    61.3040    95.2360    87.7780   130.7520    23.9530   -13.9590 
  223.1250     2.1260    58.5590    94.2240    88.5380   142.4270    24.1800   -14.1710 
  223.2500     2.1080    58.0040    93.1610    87.6950   160.4130    24.2350   -14.3430 
  223.3750     2.1060    59.3590    92.2320    86.1020   155.4360    24.2170   -14.4200 
  223.5000     2.1200    59.2160    91.8390    84.7820   127.5150    24.2600   -14.4650 
  223.6250     2.1490    57.7790    92.5260    84.7040   116.7230    24.3340   -14.4120 
  223.7500     2.1840    59.6240    94.1030    85.7360   129.7770    24.3020   -14.1880 
  223.8750     2.2140    63.4880    95.8930    87.2870   134.3370    24.2220   -13.8580 
  224.0000     2.2350    64.1810    96.9560    88.4450   113.0970    24.1570   -13.5380 
  224.1250     2.2410    60.4560    96.1050    87.9390   101.1870    24.1380   -13.2350 
  224.2500     2.2400    58.4670    93.3690    85.5340    97.2190    24.1250   -12.9820 
  224.3750     2.2380    58.3970    89.2920    81.6100    93.7110    24.1140   -12.8480 
  224.5000     2.2390    57.1680    84.8700    77.0870    85.5930    24.1400   -12.7930 
  224.6250     2.2450    56.0220    81.3930    73.2250    70.9920    24.1880   -12.7610 
  224.7500     2.2500    56.7940    79.4170    70.7750    58.7400    24.2570   -12.7440 
  224.8750     2.2500    57.0600    78.8810    69.9370    55.6440    24.3340   -12.6950 
  225.0000     2.2410    54.2980    79.0760    70.2620    63.3600    24.3780   -12.6400 
  225.1250     2.2260    52.0410    78.4980    70.4720    78.8560    24.3840   -12.5500 
  225.2500     2.2130    53.3820    75.9320    69.1190    85.5080    24.3820   -12.3870 
  225.3750     2.2100    55.6480    70.9630    65.4720    76.7150    24.4060   -12.1730 
  225.5000     2.2200    56.3920    64.1090    59.7540    63.5940    24.3860   -11.8770 
  225.6250     2.2390    57.1330    56.6240    53.0280    53.2320    24.1220   -11.5020 
  225.7500     2.2600    59.1530    49.8990    46.7680    44.3490    23.6750   -11.1480 
  225.8750     2.2790    61.4440    44.5810    41.6850    38.6190    23.3400   -10.8860 
  226.0000     2.2980    63.7630    40.8800    38.0380    37.0140    23.3910   -10.6690 
  226.1250     2.3170    67.0480    38.9510    36.0440    36.3570    23.7330   -10.4930 
  226.2500     2.3340    69.3880    38.1980    35.3330    34.5590    24.0210   -10.3480 
  226.3750     2.3420    69.2910    38.0180    35.6050    33.7430    24.2200   -10.1710 
  226.5000     2.3380    66.7970    37.4840    36.1240    35.7040    24.3460    -9.9670 
  226.6250     2.3300    63.3050    35.2360    35.2110    39.4130    24.3910    -9.8530 
  226.7500     2.3390    62.1640    31.0400    31.8170    39.3000    24.3270    -9.8080 
  226.8750     2.3820    63.7580    25.4550    26.2850    28.9260    24.2340    -9.7590 
  227.0000     2.4600    66.0410    19.6480    20.1880    15.7470    24.1280    -9.6370 
  227.1250     2.5490    67.2140    15.0020    15.2970     9.1940    24.0380    -9.4240 
  227.2500     2.6100    68.6700    11.8480    11.9430     7.4480    24.0010    -9.1670 
  227.3750     2.6210    70.9750    10.0380     9.9190     8.3800    23.9950    -8.9070 
  227.5000     2.5870    72.0240     9.2080     8.8850     9.7590    24.0260    -8.6670 
  227.6250     2.5310    71.5950     9.0360     8.6080     9.9070    23.9970    -8.3470 
  227.7500     2.4810    72.2630     9.1020     8.6780     9.6550    23.9850    -7.8950 
  227.8750     2.4450    75.2430     9.2150     8.8700     9.7100    23.9480    -7.3430 
  228.0000     2.4190    79.5050     9.2720     9.0200     9.9230    23.9380    -6.7500 
  228.1250     2.3980    82.9110     9.2270     9.0410     9.8560    23.9450    -6.2350 
  228.2500     2.3840    88.0550     9.1100     8.9540     9.6210    24.0820    -5.8930 
  228.3750     2.3780    94.5150     8.9460     8.7800     9.4330    24.2380    -5.7750 
  228.5000     2.3830    97.9930     8.7580     8.5420     9.3000    24.2980    -5.8350 
  228.6250     2.3970    96.6370     8.5820     8.2640     9.2030    24.2860    -5.9690 
  228.7500     2.4120    96.5930     8.4670     7.9850     9.1920    24.3020    -6.2410 
  228.8750     2.4240    99.9800     8.4850     7.7600     9.2690    24.3290    -6.6910 
  229.0000     2.4310   104.3890     8.7290     7.6770     9.4490    24.2980    -7.3060 
  229.1250     2.4320   106.5030     9.3800     7.8940     9.8510    24.2270    -7.9960 
  229.2500     2.4300   105.8420    10.4950     8.4900    11.1570    24.1730    -8.6460 
  229.3750     2.4280   102.4930    12.1210     9.5560    14.0360    24.1620    -9.2090 
  229.5000     2.4260    97.0590    14.2100    11.1390    17.9230    24.1500    -9.6980 
  229.6250     2.4220    88.7950    16.6000    13.2150    20.6550    24.1430   -10.2330 
  229.7500     2.4160    79.8090    18.9390    15.4390    22.5540    24.1450   -10.7450 
  229.8750     2.4070    74.6550    20.9660    17.4860    25.1310    24.1700   -11.1850 
  230.0000     2.3970    73.9400    22.5270    19.0940    27.6030    24.2250   -11.5230 
  230.1250     2.3880    74.0930    23.5420    20.1170    27.7320    24.2290   -11.7390 
  230.2500     2.3840    73.9380    24.2010    20.7580    27.5050    24.1710   -11.8710 
  230.3750     2.3820    75.0470    24.6270    21.1320    28.1130    24.0740   -11.9220 
  230.5000     2.3800    76.1520    24.9320    21.3120    28.5880    23.9850   -11.9080 
  230.6250     2.3740    74.4890    25.2640    21.4080    27.6200    23.9490   -11.8550 
  230.7500     2.3650    73.6760    25.7720    21.6070    26.1130    23.9150   -11.7920 
  230.8750     2.3600    75.1240    26.5470    22.0600    25.3990    23.8620   -11.7160 
  231.0000     2.3650    77.2540    27.5640    22.8370    26.0550    23.8130   -11.6640 
  231.1250     2.3830    76.7470    28.6130    23.8760    28.0130    23.7750   -11.6410 
