~V
VERS. 2.00: Ver 2.00
~W
STRT.M 57.0000:
STOP.M 272.0000:
STEP.M 0.1250:
NULL. -999.2500:
UWI. F11045:
~C
DEPT.M :
DEN.GM/CC :
GR.API :
RML.OHMM :
RI. :
RXO.OHMM :
CALI.CM :
SP.MV :
~A
# ...
  113.2500     2.3050   105.2500     5.7770     4.3730     5.8780    24.2720     6.6250 
  113.3750     2.2990   105.4970     5.9010     4.4320     5.8090    24.2510     6.9230 
  113.5000     2.2980   103.6280     5.9740     4.4530     5.7640    24.1960     7.0960 
  113.6250     2.2980   101.7890     5.8710     4.3740     5.8700    24.2090     7.1530 
  113.7500     2.2960   101.9230     5.5570     4.1790     6.1720    24.2720     7.1490 
  113.8750     2.2930   104.6500     5.0630     3.8820     6.9150    24.3190     7.0910 
  114.0000     2.2880   107.3350     4.5190     3.5480     9.0000    24.3230     6.9710 
  114.1250     2.2820   108.2480     4.2190     3.3310    10.1580    24.2840     6.7730 
  114.2500     2.2830   107.3090     4.4290     3.3960     8.1940    24.2020     6.4870 
  114.3750     2.3000   106.3270     5.3850     3.9060     6.4470    24.0310     6.1140 
  114.5000     2.3360   103.0510     7.2630     5.0220     7.1030    23.8300     5.6670 
  114.6250     2.3890    93.3080    10.1810     6.9750    11.3520    23.7770     5.1060 
  114.7500     2.4460    81.4690    13.3630     9.4070    20.3390    23.7880     4.4210 
  114.8750     2.4780    74.3570    15.5380    11.4760    27.3970    23.7120     3.6110 
  115.0000     2.4470    73.1030    15.5350    12.1280    21.9350    23.4660     2.7220 
  115.1250     2.3480    72.3380    13.4550    11.0710    14.7180    23.2250     1.7510 
  115.2500     2.2530    71.6400    11.1850     9.5610    11.7240    23.0990     0.7800 
  115.3750     2.1980    74.4140     9.6560     8.3030    11.1320    23.0390    -0.1600 
  115.5000     2.1830    77.9520     9.0500     7.5390    11.3790    23.0200    -1.0530 
  115.6250     2.1870    75.7250     9.1860     7.2890    11.6940    23.0390    -1.8440 
  115.7500     2.1890    69.2630     9.5350     7.2910    11.6260    23.0910    -2.5170 
  115.8750     2.1840    66.1140     9.8150     7.3720    11.1210    23.1640    -3.0700 
  116.0000     2.1760    68.6610     9.9100     7.4200    10.3340    23.3010    -3.5100 
  116.1250     2.1680    72.2520     9.8390     7.3860     9.7920    23.5030    -3.8110 
  116.2500     2.1610    71.7600     9.7160     7.3020     9.6640    23.7020    -4.0370 
  116.3750     2.1520    69.1320     9.5840     7.1980     9.7650    23.8240    -4.1890 
  116.5000     2.1450    68.7440     9.4530     7.1060     9.9090    23.8860    -4.2640 
  116.6250     2.1410    70.8730     9.3440     7.0530    10.0970    23.9560    -4.2850 
  116.7500     2.1410    72.5840     9.2930     7.0480    10.2340    23.9890    -4.2720 
  116.8750     2.1420    72.4360     9.3300     7.0930    10.4110    23.9810    -4.1900 
  117.0000     2.1420    70.4790     9.4400     7.1780    10.5640    23.9190    -4.0230 
  117.1250     2.1440    68.1210     9.5380     7.2540    10.5830    23.8220    -3.7420 
  117.2500     2.1480    67.3930     9.5170     7.2440    10.4060    23.7470    -3.3720 
  117.3750     2.1550    68.0740     9.3000     7.0700    10.2550    23.6950    -2.9200 
  117.5000     2.1650    68.9690     8.8630     6.6930    10.0240    23.6130    -2.3730 
  117.6250     2.1820    72.8720     8.2100     6.1270     9.2940    23.5920    -1.6960 
  117.7500     2.2040    79.5870     7.4710     5.5250     7.9450    23.6680    -0.9060 
  117.8750     2.2280    84.8280     6.7670     5.0130     6.8210    23.8670    -0.0570 
  118.0000     2.2460    85.8700     6.2420     4.6890     6.3390    24.1200     0.7490 
  118.1250     2.2500    85.1000     6.1070     4.6370     6.3430    24.3210     1.4210 
  118.2500     2.2460    85.1140     6.3320     4.7950     6.5710    24.3940     1.9560 
  118.3750     2.2370    83.6790     6.7780     5.0750     7.0520    24.4080     2.3400 
  118.5000     2.2270    80.1550     7.1970     5.3500     7.8630    24.4080     2.5770 
  118.6250     2.2230    78.9750     7.2800     5.4590     8.2150    24.4050     2.6650 
  118.7500     2.2320    83.0000     7.0140     5.3670     7.7870    24.3890     2.6700 
  118.8750     2.2550    90.8090     6.5480     5.1210     6.8850    24.3500     2.6520 
  119.0000     2.2860    98.5490     6.1010     4.8210     6.3510    24.2960     2.6590 
  119.1250     2.3070   101.5290     5.8720     4.5870     6.1640    24.2650     2.7070 
  119.2500     2.3120    98.8740     5.8540     4.4700     6.1280    24.1630     2.7860 
  119.3750     2.3060    92.3610     5.9850     4.4780     6.0510    23.8650     2.9240 
  119.5000     2.2950    85.7580     6.1870     4.5840     6.0520    23.3710     3.1010 
  119.6250     2.2840    83.1450     6.3720     4.7280     6.3160    23.1500     3.2550 
  119.7500     2.2750    85.0060     6.4810     4.8350     6.4570    23.2660     3.3620 
  119.8750     2.2700    88.8640     6.4920     4.8710     6.4520    23.6290     3.4240 
  120.0000     2.2680    91.5440     6.4230     4.8380     6.4010    24.0110     3.4700 
  120.1250     2.2720    92.6420     6.3110     4.7630     6.4330    24.2190     3.5120 
  120.2500     2.2830    92.6700     6.2110     4.6840     6.3130    24.3050     3.5820 
  120.3750     2.2960    91.8410     6.1560     4.6190     6.2400    24.3320     3.6550 
  120.5000     2.3070    90.1650     6.1430     4.5670     6.2160    24.3240     3.7050 
  120.6250     2.3140    88.7090     6.1120     4.5100     6.3020    24.2950     3.8030 
  120.7500     2.3200    88.3220     6.0110     4.4260     6.3130    24.2790     3.9320 
  120.8750     2.3270    90.3730     5.8280     4.3070     6.1410    24.2490     4.0660 
  121.0000     2.3350    92.8630     5.6000     4.1590     5.9010    24.1810     4.1660 
  121.1250     2.3440    92.3200     5.4180     4.0290     5.8750    24.1520     4.2100 
  121.2500     2.3500    90.8370     5.3750     3.9740     5.8050    24.1320     4.1910 
  121.3750     2.3470    92.1760     5.5350     4.0290     5.6740    24.0290     4.0850 
  121.5000     2.3300    95.2570     5.8930     4.1950     5.8980    23.7330     3.9180 
  121.6250     2.3050    93.3290     6.3420     4.4400     6.0650    23.4310     3.6730 
  121.7500     2.2870    86.6690     6.6990     4.6870     6.3620    23.2690     3.3820 
  121.8750     2.2820    80.1260     6.8820     4.8920     6.5190    23.2670     3.0550 
  122.0000     2.2860    77.3670     6.9270     5.0600     6.5490    23.3460     2.7250 
  122.1250     2.2950    77.9530     7.0220     5.2700     6.4720    23.4500     2.3960 
  122.2500     2.3080    78.4550     7.3620     5.6030     6.5280    23.5270     2.0790 
  122.3750     2.3230    77.9430     8.0120     6.1030     7.2710    23.5130     1.7900 
  122.5000     2.3320    76.1260     8.8710     6.7460     9.5210    23.3730     1.5190 
  122.6250     2.3230    72.7750     9.6310     7.3830    14.1100    23.0730     1.2480 
  122.7500     2.2960    70.2550     9.9870     7.7970    14.7480    22.7680     0.9650 
  122.8750     2.2570    70.4050     9.8500     7.8820    11.2470    22.5610     0.6590 
  123.0000     2.2210    71.7730     9.3820     7.7020     8.7020    22.4770     0.3310 
  123.1250     2.2040    70.9430     8.9590     7.4570     7.9560    22.4810     0.0500 
  123.2500     2.2000    68.3860     8.8760     7.3540     7.9070    22.5520    -0.1770 
  123.3750     2.2050    66.9380     9.2070     7.4740     8.3310    22.7230    -0.3350 
  123.5000     2.2140    69.6300     9.8430     7.8010     9.2650    23.0000    -0.4040 
  123.6250     2.2270    73.5160    10.4450     8.1800    10.3080    23.3070    -0.3680 
  123.7500     2.2380    74.7360    10.5880     8.3340     9.8940    23.5250    -0.2590 
  123.8750     2.2430    73.1070    10.0090     8.0390     8.8910    23.5990    -0.0630 
  124.0000     2.2450    73.3670     8.7470     7.2410     7.7440    23.5700     0.2270 
  124.1250     2.2590    78.9190     7.2000     6.1210     6.2710    23.5340     0.5970 
  124.2500     2.2820    85.6420     5.9180     5.0710     5.0680    23.6200     1.0280 
  124.3750     2.3040    90.7440     5.1560     4.3130     4.6980    23.8420     1.4730 
