~V
VERS. 2.00: Ver 2.00
~W
STRT.M 55.0000:
STOP.M 276.0000:
STEP.M 0.1250:
NULL. -999.2500:
UWI. F11046:
~C
DEPT.M :
GR.API :
RML.OHMM :
RI. :
RXO.OHMM :
CALI.CM :
DEN.GM/CC :
SP.MV :
~A
# ...
  100.0000    67.7900     9.1920     7.6910    10.2620    25.1570     2.1710   -24.6340 
  100.1250    70.3530     9.0320     7.6330     9.8360    25.2340     2.1770   -24.8160 
  100.2500    68.6840     8.7940     7.4730     9.4430    25.3000     2.1810   -24.7020 
  100.3750    64.6730     8.5340     7.2520     9.5150    25.3050     2.1790   -24.2620 
  100.5000    62.9710     8.3140     7.0230     9.0850    25.1980     2.1740   -23.6090 
  100.6250    64.2400     8.2010     6.8560     8.4380    24.9550     2.1730   -22.8400 
  100.7500    66.5590     8.1980     6.7790     8.2220    24.8000     2.1760   -22.2050 
  100.8750    68.8980     8.2840     6.7970     8.5940    24.8600     2.1840   -21.6670 
  101.0000    69.9710     8.4160     6.8880     8.9850    25.0100     2.1930   -21.2900 
  101.1250    68.3500     8.5320     7.0060     9.2770    25.0820     2.2010   -21.0430 
  101.2500    65.5250     8.6000     7.1020     9.3380    25.1180     2.2080   -20.9540 
  101.3750    65.2960     8.6230     7.1610     9.1440    25.1280     2.2120   -21.0670 
  101.5000    67.0430     8.6310     7.2000     8.9130    25.1280     2.2130   -21.3080 
  101.6250    67.3620     8.6550     7.2450     8.8860    25.1120     2.2130   -21.6270 
  101.7500    67.4510     8.6860     7.3000     9.3690    25.0670     2.2160   -21.8600 
  101.8750    68.2840     8.6880     7.3380     9.8360    25.0110     2.2240   -21.9980 
  102.0000    69.0970     8.6140     7.3240    10.1100    24.9850     2.2330   -22.1200 
  102.1250    67.5270     8.4360     7.2110     9.9330    25.1130     2.2390   -22.2860 
  102.2500    64.9870     8.2080     7.0310     9.4610    25.2030     2.2400   -22.5410 
  102.3750    63.9760     7.9990     6.8380     8.9410    25.2410     2.2360   -22.7410 
  102.5000    64.9600     7.8690     6.6940     8.5120    25.2500     2.2270   -22.9250 
  102.6250    68.4890     7.8580     6.6470     8.8390    25.2410     2.2120   -23.0840 
  102.7500    71.3200     7.9190     6.6770     9.2390    25.2200     2.1950   -23.2060 
  102.8750    69.8090     8.0020     6.7540     9.7290    25.2420     2.1820   -23.3280 
  103.0000    66.0770     8.0590     6.8370     9.2990    25.2970     2.1760   -23.2790 
  103.1250    65.5010     8.0600     6.8920     8.8610    25.2330     2.1830   -23.1540 
  103.2500    68.8510     8.0200     6.9210     8.6550    25.0700     2.1950   -22.9320 
  103.3750    72.3100     7.9500     6.9260     8.7860    24.9300     2.2070   -22.6860 
  103.5000    73.2480     7.8550     6.8980     8.8190    24.8420     2.2140   -22.3460 
  103.6250    71.9560     7.7470     6.8260     8.3820    24.6960     2.2160   -21.8880 
  103.7500    71.0640     7.6600     6.7330     7.9250    24.4400     2.2190   -21.3930 
  103.8750    72.6320     7.6470     6.6530     7.8190    24.1990     2.2240   -20.8990 
  104.0000    74.8460     7.7510     6.6290     7.5950    24.0260     2.2280   -20.5820 
  104.1250    73.9580     7.9660     6.7080     7.3370    23.9430     2.2200   -20.3700 
  104.2500    70.5500     8.1440     6.8220     7.7130    24.0240     2.1980   -20.2280 
  104.3750    68.1070     8.1020     6.8270     8.6530    24.3560     2.1710   -19.9990 
  104.5000    69.2130     7.7170     6.5690     9.3160    24.8620     2.1540   -19.5620 
  104.6250    72.5220     7.0310     5.9970     9.2230    25.1840     2.1660   -18.8620 
  104.7500    76.1190     6.4220     5.3870     8.0750    25.2260     2.2050   -18.0120 
  104.8750    80.4760     6.2870     5.0150     6.4050    24.9210     2.2640   -17.2130 
  105.0000    82.7010     6.9970     5.1260     6.0770    24.7020     2.3390   -16.4800 
  105.1250    79.9750     9.0810     6.1420     9.7050    24.6540     2.4310   -15.7370 
  105.2500    75.4660    12.5220     8.3160    19.4780    24.6730     2.5360   -15.0700 
  105.3750    69.4530    17.0550    11.9490    34.8430    24.6490     2.6380   -14.6550 
  105.5000    61.3100    21.6190    16.8000    53.9740    24.5230     2.7150   -14.7280 
  105.6250    54.6290    23.9300    20.7970    59.5740    24.3150     2.7310   -15.4380 
  105.7500    54.6390    23.0610    21.4700    51.0660    24.1510     2.6860   -16.6330 
  105.8750    59.1290    19.6420    18.8860    37.5140    24.0240     2.5910   -18.1250 
  106.0000    62.5200    15.3840    15.0750    24.4660    23.9560     2.4730   -19.7270 
  106.1250    64.5320    12.0320    11.8680    15.7140    23.9450     2.3630   -21.4560 
  106.2500    66.2030     9.9420     9.6410    11.7990    24.0380     2.2820   -23.0810 
  106.3750    66.7900     8.9100     8.2810    10.9730    24.2750     2.2290   -24.5320 
  106.5000    65.9280     8.6120     7.5970    10.9520    24.6230     2.1990   -25.6900 
  106.6250    64.2790     8.7590     7.4520    10.8710    24.9480     2.1840   -26.4210 
  106.7500    63.6310     8.9900     7.5380    10.6160    25.0510     2.1780   -26.7490 
  106.8750    64.7870     9.1230     7.6640    10.7770    25.0070     2.1770   -26.7110 
  107.0000    67.2630     9.0890     7.7100    10.9560    24.9610     2.1780   -26.4040 
  107.1250    69.2790     8.9170     7.6440    10.5390    24.9760     2.1780   -25.8800 
  107.2500    70.4620     8.7440     7.5470     9.6190    25.0330     2.1760   -25.4920 
  107.3750    70.7890     8.6600     7.4860     8.8450    25.0770     2.1750   -25.2690 
  107.5000    69.7250     8.7110     7.5060     9.1110    25.0910     2.1770   -25.2020 
  107.6250    67.5570     8.8910     7.6250    10.1600    25.0740     2.1820   -25.2570 
  107.7500    66.4740     9.0960     7.7820    10.6560    25.0650     2.1860   -25.3210 
  107.8750    66.2960     9.2230     7.9010    10.7720    25.0660     2.1900   -25.3580 
  108.0000    65.8360     9.1860     7.8980    10.7100    25.0790     2.1910   -25.3240 
  108.1250    66.2050     8.9430     7.7010    10.5280    25.1070     2.1900   -25.2430 
  108.2500    67.6520     8.6120     7.3940     9.9350    25.1270     2.1880   -25.0220 
  108.3750    68.9850     8.3220     7.0840     8.7200    25.1410     2.1850   -24.7370 
  108.5000    69.3950     8.1860     6.8770     7.1190    25.1550     2.1820   -24.6160 
  108.6250    69.6060     8.2920     6.8690     7.3930    25.1390     2.1820   -24.7790 
  108.7500    69.5730     8.5640     7.0310     8.6510    25.1040     2.1850   -25.2630 
  108.8750    67.7090     8.9070     7.3070    10.3020    25.0610     2.1900   -25.9390 
  109.0000    64.7820     9.2140     7.6110    11.2550    25.0220     2.1980   -26.7580 
  109.1250    63.5850     9.3960     7.8470    11.4210    24.9970     2.2060   -27.7330 
  109.2500    63.1500     9.4730     7.9930    11.4300    24.9830     2.2100   -28.7020 
  109.3750    61.5560     9.4980     8.0720    11.3520    24.9920     2.2080   -29.5890 
  109.5000    59.3920     9.5200     8.1270    11.3480    25.0640     2.2010   -30.1760 
  109.6250    60.5280     9.5250     8.1690    11.5670    25.1430     2.1930   -30.4020 
  109.7500    61.7610     9.4470     8.1530    11.6270    25.1940     2.1890   -30.2410 
  109.8750    60.8670     9.2180     8.0120    11.5040    25.1960     2.1930   -29.7670 
  110.0000    59.9030     8.8270     7.7140    11.3180    25.1940     2.2010   -29.0170 
  110.1250    61.3060     8.3450     7.2910    10.8310    25.2290     2.2080   -28.0600 
  110.2500    65.9070     7.9240     6.8750     9.9240    25.2820     2.2090   -27.1310 
  110.3750    72.6230     7.6760     6.5710     8.9850    25.2740     2.2040   -26.3020 
  110.5000    78.9600     7.6450     6.4420     8.7080    25.1910     2.1920   -25.7090 
  110.6250    81.4280     7.8160     6.5170     9.0290    25.0340     2.1780   -25.2690 
  110.7500    79.4640     8.0370     6.7000     9.8210    24.9150     2.1650   -25.0010 
  110.8750    75.9090     8.1880     6.8910    10.8540    24.9530     2.1590   -24.8920 
  111.0000    74.6140     8.1930     6.9970    11.5740    25.1560     2.1620   -24.9520 
  111.1250    76.6800     8.0470     6.9690    11.4720    25.2740     2.1750   -25.1780 
