~V
VERS. 2.00: Ver 2.00
~W
STRT.M 57.0000:
STOP.M 280.0000:
STEP.M 0.1250:
NULL. -999.2500:
UWI. F11041:
~C
DEPT.M :
SP.MV :
GR.API :
RML.OHMM :
RI. :
RXO.OHMM :
CALI.CM :
DEN.GM/CC :
~A
# ...
  102.0000    -4.5640    72.8250     7.9930     6.8190     7.3730    23.5240     2.2280 
  102.1250    -4.3630    72.0410     7.6180     6.5810     7.3450    23.6050     2.2400 
  102.2500    -4.2020    70.0210     7.3240     6.3650     7.1240    23.7050     2.2580 
  102.3750    -4.0950    68.0800     7.2360     6.2350     6.9690    23.7370     2.2810 
  102.5000    -4.0530    68.5980     7.4600     6.2600     7.4990    23.6920     2.2960 
  102.6250    -4.0730    72.2330     8.1260     6.5380     8.1190    23.6510     2.2960 
  102.7500    -4.1330    75.7470     9.1320     7.0460     7.9710    23.7180     2.2930 
  102.8750    -4.2390    77.8100    10.2980     7.7260     7.9650    23.8620     2.2970 
  103.0000    -4.3660    77.6750    11.3120     8.4320     8.3170    24.0750     2.3030 
  103.1250    -4.5070    73.9500    11.7070     8.8910     8.2370    24.2020     2.2880 
  103.2500    -4.6780    68.5390    11.4160     8.9620     7.8660    24.2470     2.2540 
  103.3750    -4.8720    65.9720    10.6100     8.6620     7.1630    24.1690     2.2230 
  103.5000    -5.0750    66.1010     9.6250     8.1440     6.3210    24.0130     2.2080 
  103.6250    -5.2850    65.2420     8.8430     7.6320     6.6130    23.9010     2.2030 
  103.7500    -5.4760    64.3360     8.4150     7.2850     8.5910    23.8610     2.2000 
  103.8750    -5.6300    64.6810     8.3430     7.1540    10.9160    23.8530     2.2000 
  104.0000    -5.7360    65.9400     8.5480     7.2160    10.0010    23.8690     2.2060 
  104.1250    -5.7970    65.1330     8.8970     7.4090     8.6690    23.9270     2.2200 
  104.2500    -5.7830    63.2040     9.1910     7.6040     8.8040    23.9890     2.2400 
  104.3750    -5.7170    61.8570     9.2660     7.6930     9.7750    23.9400     2.2570 
  104.5000    -5.5910    62.2250     9.0260     7.5920     9.3950    23.7570     2.2570 
  104.6250    -5.4010    63.6830     8.5030     7.2770     8.3570    23.5950     2.2390 
  104.7500    -5.1710    63.2690     7.9350     6.8890     7.8320    23.5240     2.2230 
  104.8750    -4.9080    61.6910     7.4850     6.5480     7.6350    23.5450     2.2170 
  105.0000    -4.6280    61.2130     7.2290     6.3370     7.4650    23.6240     2.2170 
  105.1250    -4.3340    61.3730     7.1740     6.2780     7.2890    23.6970     2.2170 
  105.2500    -4.0550    61.8680     7.2170     6.2800     7.2840    23.7370     2.2210 
  105.3750    -3.7530    63.7670     7.2910     6.2730     7.1620    23.7300     2.2280 
  105.5000    -3.4520    68.4280     7.3570     6.2240     6.8520    23.6510     2.2360 
  105.6250    -3.1640    73.6990     7.3720     6.1310     6.6640    23.5720     2.2410 
  105.7500    -2.9030    76.7610     7.3190     6.0200     6.6220    23.5230     2.2430 
  105.8750    -2.6880    79.5640     7.2090     5.9120     6.6680    23.4770     2.2440 
  106.0000    -2.5250    81.7610     7.0800     5.8210     6.6720    23.4660     2.2480 
  106.1250    -2.4340    80.7390     6.9840     5.7680     6.6090    23.4900     2.2570 
  106.2500    -2.4040    78.6650     6.9650     5.7650     6.5530    23.4730     2.2670 
  106.3750    -2.4560    78.4670     7.0620     5.8220     6.5600    23.4440     2.2720 
  106.5000    -2.5760    79.9790     7.2800     5.9430     6.6010    23.4380     2.2710 
  106.6250    -2.7380    79.0860     7.5730     6.1230     6.7650    23.4460     2.2650 
  106.7500    -2.9180    77.5930     7.8260     6.3140     7.0940    23.4040     2.2560 
  106.8750    -3.1260    77.7620     7.9550     6.4680     7.3320    23.3730     2.2440 
  107.0000    -3.3520    78.8710     7.9260     6.5460     7.1710    23.3660     2.2290 
  107.1250    -3.5510    78.6600     7.7690     6.5220     6.8250    23.3730     2.2130 
  107.2500    -3.7130    77.7940     7.5820     6.4360     6.6560    23.3760     2.1990 
  107.3750    -3.8290    76.2300     7.4160     6.3200     6.6620    23.3690     2.1900 
  107.5000    -3.8910    74.3580     7.2860     6.2050     6.7870    23.3820     2.1870 
  107.6250    -3.9130    72.0040     7.1740     6.1040     6.8780    23.4360     2.1910 
  107.7500    -3.8880    70.1370     7.0570     6.0110     6.9490    23.5030     2.1960 
  107.8750    -3.8280    71.2180     6.9350     5.9200     6.9860    23.5280     2.2020 
  108.0000    -3.7580    73.7250     6.8270     5.8350     6.8810    23.5260     2.2060 
  108.1250    -3.7000    75.6430     6.7580     5.7670     6.7180    23.5330     2.2120 
  108.2500    -3.6240    75.8080     6.7300     5.7300     6.5790    23.5390     2.2160 
  108.3750    -3.5440    75.5650     6.7420     5.7270     6.5310    23.5490     2.2140 
  108.5000    -3.4540    74.5040     6.7840     5.7520     6.5570    23.5770     2.2030 
  108.6250    -3.3430    73.3650     6.8500     5.7850     6.6620    23.6080     2.1930 
  108.7500    -3.2600    75.2160     6.9180     5.8110     6.7620    23.5930     2.1900 
  108.8750    -3.1940    78.5040     6.9710     5.8270     6.8280    23.5300     2.1970 
  109.0000    -3.1320    79.5130     7.0020     5.8410     6.8310    23.4940     2.2060 
  109.1250    -3.0670    76.5090     7.0230     5.8650     6.8620    23.5040     2.2130 
  109.2500    -3.0260    73.5950     7.0490     5.9000     6.9710    23.5330     2.2140 
  109.3750    -2.9900    71.9300     7.0710     5.9340     7.1080    23.5650     2.2110 
  109.5000    -2.9630    70.0610     7.0650     5.9520     7.0560    23.6170     2.2070 
  109.6250    -2.9560    69.3460     6.9960     5.9250     6.7590    23.6700     2.2050 
  109.7500    -2.9510    72.2400     6.8640     5.8510     6.5160    23.7140     2.2040 
  109.8750    -2.9330    77.2930     6.6880     5.7410     6.3810    23.7470     2.2070 
  110.0000    -2.9150    81.1820     6.5180     5.6230     6.3650    23.7330     2.2130 
  110.1250    -2.9050    81.9310     6.4840     5.5760     6.4830    23.6860     2.2280 
  110.2500    -2.8890    81.9520     6.6710     5.6600     6.5990    23.7010     2.2520 
  110.3750    -2.8860    81.2250     7.1020     5.9030     6.6150    23.8500     2.2810 
  110.5000    -2.9230    80.1820     7.7260     6.2910     6.6530    24.0800     2.3140 
  110.6250    -3.0320    78.7820     8.4020     6.7710     7.5490    24.2030     2.3480 
  110.7500    -3.2080    77.1920     8.8630     7.1870     9.7470    24.1520     2.3700 
  110.8750    -3.4470    75.3760     8.8830     7.3770    10.9230    23.9040     2.3580 
  111.0000    -3.7120    73.9760     8.4340     7.2610     9.0260    23.6070     2.3040 
  111.1250    -3.9580    73.2810     7.7740     6.9100     7.6550    23.5060     2.2410 
  111.2500    -4.1760    71.4250     7.3130     6.5680     7.5260    23.5180     2.2080 
  111.3750    -4.3630    68.6670     7.2490     6.3900     7.9890    23.5290     2.2030 
  111.5000    -4.4880    66.6160     7.5800     6.4360     8.2450    23.5050     2.2120 
  111.6250    -4.5100    66.0350     8.1040     6.6700     8.0050    23.4990     2.2260 
  111.7500    -4.4250    66.1200     8.5090     6.9310     8.1300    23.5190     2.2400 
  111.8750    -4.2120    66.3570     8.6890     7.1300     8.1960    23.5580     2.2480 
  112.0000    -3.9040    68.1220     8.6990     7.2460     7.9820    23.6120     2.2450 
  112.1250    -3.5230    70.2780     8.6750     7.3020     7.7960    23.6660     2.2390 
  112.2500    -3.1020    71.7800     8.7480     7.3560     7.6910    23.7260     2.2370 
  112.3750    -2.6360    73.0510     8.9690     7.4480     7.6160    23.8280     2.2400 
  112.5000    -2.1350    73.2650     9.3090     7.5870     7.5730    23.9590     2.2440 
  112.6250    -1.5910    73.9670     9.6130     7.7210     7.5210    24.0790     2.2470 
  112.7500    -1.0040    77.6750     9.7000     7.7610     7.3840    24.1300     2.2520 
  112.8750    -0.4120    85.4950     9.4830     7.6410     7.0160    24.2680     2.2620 
  113.0000     0.1640    95.3300     9.0460     7.3780     6.2370    24.5670     2.2780 
  113.1250     0.6890   102.4480     8.6520     7.0890     5.7960    24.7920     2.2930 
