~V
VERS. 2.00: Ver 2.00
~W
STRT.M 65.0000:
STOP.M 225.0000:
STEP.M 0.1250:
NULL. -999.2500:
UWI. F11012:
~C
DEPT.M :
SP.MV :
GR.API :
RML.OHMM :
RI. :
RXO.OHMM :
CALI.CM :
DEN.GM/CC :
~A
# ...
  211.2500   -13.2250    74.7320    10.3090     8.9580    13.9900    23.5520     2.3690 
  211.3750   -13.2190    74.1720    10.0660     8.8050    12.1910    23.5560     2.3830 
  211.5000   -13.1770    74.1480     9.7540     8.5610    10.6680    23.5380     2.4060 
  211.6250   -13.1080    70.9520     9.4470     8.2820     9.9110    23.5420     2.4330 
  211.7500   -13.0380    66.9930     9.2330     8.0350     8.8250    23.6740     2.4510 
  211.8750   -13.0300    66.5600     9.1400     7.8660     8.3390    23.7450     2.4560 
  212.0000   -13.0210    68.1050     9.1650     7.7860     8.5770    23.8010     2.4520 
  212.1250   -12.9940    69.4760     9.2690     7.7830     9.2370    23.8670     2.4430 
  212.2500   -13.0040    71.1550     9.3910     7.8220     9.8110    23.9800     2.4300 
  212.3750   -13.0170    73.1530     9.4770     7.8580     9.8070    23.8750     2.4170 
  212.5000   -13.0620    73.3770     9.5190     7.8720     9.3770    23.6590     2.4100 
  212.6250   -13.1190    72.7480     9.5340     7.8660     8.1340    23.6280     2.4110 
  212.7500   -13.1900    75.4940     9.5690     7.8670     7.3100    23.7020     2.4130 
  212.8750   -13.2510    78.3670     9.6630     7.8980     7.6790    23.6840     2.4190 
  213.0000   -13.3270    77.9080     9.8370     7.9740     8.5060    23.6090     2.4330 
  213.1250   -13.3900    75.2380    10.0900     8.1040     8.9920    23.4970     2.4550 
  213.2500   -13.4010    73.5560    10.4330     8.3140     8.2320    23.5130     2.4750 
  213.3750   -13.4160    71.8490    10.8650     8.6160     7.8360    23.4940     2.4900 
  213.5000   -13.4350    70.2670    11.4030     9.0330     9.1820    23.4400     2.4960 
  213.6250   -13.4530    72.0650    12.0590     9.5690    12.5480    23.4480     2.4950 
  213.7500   -13.4570    78.4380    12.8100    10.2110    13.9500    23.3750     2.4950 
  213.8750   -13.4180    82.4190    13.5510    10.8700    12.9100    23.1950     2.5030 
  214.0000   -13.3560    80.5800    14.1740    11.4570    13.9610    22.9620     2.5110 
  214.1250   -13.3220    77.1240    14.6090    11.9030    16.7980    22.7660     2.5120 
  214.2500   -13.3280    76.0370    14.7970    12.1400    15.0640    22.6590     2.5090 
  214.3750   -13.3200    75.6530    14.7740    12.1920    14.1100    22.6580     2.5110 
  214.5000   -13.3300    74.3860    14.5240    12.0470    14.4440    22.7470     2.5150 
  214.6250   -13.3430    74.0800    14.0190    11.6840    14.8950    22.9760     2.5170 
  214.7500   -13.3510    75.2800    13.2590    11.0960    14.1280    23.1010     2.5130 
  214.8750   -13.3800    75.3370    12.4280    10.4290    13.2800    23.1140     2.5040 
  215.0000   -13.4100    74.8850    11.7310     9.8400    12.4320    23.1600     2.4840 
  215.1250   -13.4180    74.8850    11.3670     9.4820    10.9840    23.3060     2.4580 
  215.2500   -13.3900    74.8850    11.5500     9.5270     9.6530    23.4080     2.4460 
  215.3750   -13.3650    74.8850    12.1980     9.9450     9.4670    23.4190     2.4520 
  215.5000   -13.2750    74.8850    13.1750    10.6740    10.8720    23.4410     2.4650 
  215.6250   -13.1580    74.8850    14.2570    11.5790    13.3730    23.4560     2.4760 
  215.7500   -13.0320    74.8850    15.1320    12.4320    15.1300    23.3030     2.4880 
  215.8750   -12.9030    74.8850    15.6530    13.0490    15.5030    23.1170     2.5030 
  216.0000   -12.7600    74.8850    15.8360    13.3820    15.7030    23.0080     2.5180 
  216.1250   -12.6180    74.8850    15.8130    13.4960    15.3150    22.9090     2.5300 
  216.2500   -12.4930    74.8850    15.7470    13.5030    14.5380    22.7760     2.5410 
  216.3750   -12.3990    74.8850    15.7360    13.5100    14.6400    22.6600     2.5500 
  216.5000   -12.3600    74.8850    15.7860    13.5440    15.5250    22.6210     2.5550 
  216.6250   -12.3760    74.8850    15.8800    13.6080    16.5520    22.7110     2.5530 
  216.7500   -12.4210    74.8850    15.9960    13.6970    16.6510    22.8100     2.5430 
  216.8750   -12.4900    74.8850    16.1130    13.7950    16.1020    22.7450     2.5280 
  217.0000   -12.5870    74.8850    16.2190    13.8930    15.5650    22.6760     2.5100 
  217.1250   -12.6650    74.8850    16.3110    13.9870    16.0920    22.7860     2.4910 
  217.2500   -12.7040    74.8850    16.3770    14.0750    17.3960    23.0390     2.4760 
  217.3750   -12.7220    74.8850    16.4140    14.1500    17.6170    23.2120     2.4720 
  217.5000   -12.7250    74.8850    16.4230    14.2080    16.7190    23.2890     2.4820 
  217.6250   -12.6980    74.8850    16.4210    14.2490    16.0800    23.3020     2.5030 
  217.7500   -12.6700    74.8850    16.4420    14.2910    16.2570    23.2770     2.5260 
  217.8750   -12.6450    74.8850    16.5140    14.3610    16.8230    23.2920     2.5430 
  218.0000   -12.6420    74.8850    16.6570    14.4860    17.5270    23.3980     2.5490 
  218.1250   -12.6770    74.8850    16.8640    14.6800    18.0540    23.6140     2.5450 
  218.2500   -12.7720    74.8850    17.1120    14.9390    17.8940    23.7750     2.5360 
  218.3750   -12.8760    74.8850    17.3600    15.2220    18.1530    23.8460     2.5300 
  218.5000   -12.9760    74.8850    17.5840    15.4900    18.5950    23.8260     2.5290 
  218.6250   -13.0570    74.8850    17.7710    15.7070    18.6790    23.7510     2.5290 
  218.7500   -13.1220    74.8850    17.9080    15.8380    18.9670    23.6790     2.5230 
  218.8750   -13.1720    74.8850    18.0070    15.9020    19.6330    23.6550     2.5150 
  219.0000   -13.1710    74.8850    18.0670    15.9250    20.0670    23.6410     2.5120 
  219.1250   -13.1330    74.8850    18.0910    15.9320    18.7420    23.6050     2.5190 
  219.2500   -13.0910    74.8850    18.0860    15.9410    16.3330    23.5150     2.5320 
  219.3750   -13.0280    74.8850    18.0720    15.9520    17.6350    23.4580     2.5420 
  219.5000   -12.9600    74.8850    18.0610    15.9610    22.3010    23.5380     2.5440 
  219.6250   -12.9160    74.8850    18.0580    15.9660    25.1990    23.6250     2.5440 
  219.7500   -12.8590    74.8850    18.0610    15.9710    24.7800    23.5710     2.5450 
  219.8750   -12.8130    74.8850    18.0660    15.9780    20.9520    23.4200     2.5420 
  220.0000   -12.8050    74.8850    18.0680    15.9850    18.3620    23.3030     2.5250 
  220.1250   -12.8150    74.8850    18.0620    15.9880    17.2690    23.3450     2.4910 
  220.2500   -12.8260    74.8850    18.0470    15.9860    16.5650    23.4970     2.4540 
  220.3750   -12.8430    74.8850    18.0340    15.9790    17.0510    23.5970     2.4250 
  220.5000   -12.8560    74.8850    18.0280    15.9710    18.6740    23.6530     2.4050 
  220.6250   -12.8360    74.8850    18.0290    15.9670    21.8560    23.7310     2.4030 
  220.7500   -12.8260    74.8850    18.0310    15.9660    26.4320    23.6850     2.4400 
  220.8750   -12.8460    74.8850    18.0300    15.9650    30.7090    23.5640     2.5000 
  221.0000   -12.8340    74.8850    18.0300    15.9650    30.3500    23.5010     2.5500 
  221.1250   -12.7890    74.8850    18.0300    15.9650    26.9140    23.6060     2.5600 
  221.2500   -12.7200    74.8850    18.0300    15.9650    28.2790    23.5990     2.5430 
  221.3750   -12.6780    74.8850    18.0300    15.9650    31.0990    23.4990     2.5270 
  221.5000   -12.6540    74.8850    18.0300    15.9650    32.2660    23.4160     2.5180 
  221.6250   -12.5350    74.8850    18.0300    15.9650    28.4410    23.3740     2.5120 
  221.7500   -12.2930    74.8850    18.0300    15.9650    24.9100    23.3440     2.5110 
  221.8750   -12.0030    74.8850    18.0300    15.9650    22.3850    23.2730     2.5150 
  222.0000   -11.7350    74.8850    18.0300    15.9650    21.0760    23.1690     2.5250 
  222.1250   -11.5060    74.8850    18.0300    15.9650    20.1340    23.0060     2.5400 
  222.2500   -11.2780    74.8850    18.0300    15.9650    19.2350    22.7930     2.5540 
  222.3750   -11.0160    74.8850    18.0300    15.9650    18.7400    22.6170     2.5580 
