~V
VERS. 2.00: Ver 2.00
~W
STRT.M 51.0000:
STOP.M 277.0000:
STEP.M 0.1250:
NULL. -999.2500:
UWI. F11053:
~C
DEPT.M :
GR.API :
RML.OHMM :
RI. :
RXO.OHMM :
CALI.CM :
DEN.GM/CC :
SP.MV :
~A
# ...
  197.2500    65.1540   101.0520    99.5590   110.6300    26.2290     2.2200   -22.7730 
  197.3750    66.7930    92.5310    90.8780    96.9780    26.2920     2.2240   -22.6260 
  197.5000    66.9730    84.3280    81.6830    81.4910    26.4000     2.2360   -22.5100 
  197.6250    66.6410    78.8360    74.9100    59.4310    26.5130     2.2470   -22.4030 
  197.7500    65.6330    77.2280    72.2570    45.2880    26.6060     2.2480   -22.2950 
  197.8750    64.1870    79.5880    74.0160    48.9750    26.7050     2.2380   -22.2150 
  198.0000    63.1120    85.2710    79.2910    77.7440    26.8310     2.2260   -22.1480 
  198.1250    62.6510    92.1390    85.5730    99.3270    26.9820     2.2210   -22.0850 
  198.2500    61.8780    98.2710    90.8820    93.5160    27.1150     2.2260   -22.0300 
  198.3750    60.4040   102.4830    94.3270    79.6060    27.2070     2.2380   -21.9860 
  198.5000    59.3580   104.0830    95.7690    68.9910    27.2560     2.2470   -21.8980 
  198.6250    59.2090   103.0480    95.3990    69.5730    27.2900     2.2430   -21.8130 
  198.7500    59.0830    98.8730    92.4190    78.3420    27.3060     2.2270   -21.7160 
  198.8750    59.1000    91.0810    85.7580    99.3690    27.3100     2.2040   -21.6210 
  199.0000    59.6430    79.6500    75.4770    95.1820    27.2850     2.1890   -21.5300 
  199.1250    59.9740    66.9750    64.2060    67.7810    27.1990     2.1910   -21.4370 
  199.2500    60.3300    55.8730    54.2660    41.6470    27.0610     2.2060   -21.3310 
  199.3750    61.9320    48.0950    46.7890    32.6680    26.9580     2.2270   -21.2000 
  199.5000    64.5970    43.7620    42.0770    32.2710    26.9130     2.2580   -21.1000 
  199.6250    66.5720    41.1540    39.2040    34.3230    26.8770     2.3070   -20.9850 
  199.7500    68.4050    39.2940    37.3270    35.7430    26.8240     2.3780   -20.8480 
  199.8750    70.3350    37.7720    35.8230    36.8560    26.7720     2.4570   -20.6890 
  200.0000    70.5190    36.4590    34.3890    37.5930    26.7450     2.5070   -20.4920 
  200.1250    69.7650    35.4220    33.1090    37.3250    26.7600     2.5080   -20.2630 
  200.2500    69.6800    34.7400    32.1790    35.1060    26.8070     2.4630   -20.0440 
  200.3750    70.8300    34.3000    31.5980    32.4660    26.8140     2.4000   -19.8320 
  200.5000    71.5550    33.6810    30.9900    30.8990    26.7480     2.3600   -19.5830 
  200.6250    71.6960    32.4620    29.8650    31.3520    26.6490     2.3570   -19.3350 
  200.7500    72.1970    30.5070    27.9780    31.1740    26.5750     2.3790   -19.0860 
  200.8750    72.7980    28.0560    25.4930    27.1270    26.5400     2.4000   -18.8380 
  201.0000    72.6550    25.6760    22.9710    22.3810    26.5570     2.3930   -18.5850 
  201.1250    70.8380    23.8350    20.9330    19.3870    26.6440     2.3640   -18.3360 
  201.2500    68.3900    22.6910    19.5770    17.5610    26.7620     2.3420   -18.0630 
  201.3750    67.0660    22.1420    18.8350    16.4730    26.7310     2.3580   -17.7850 
  201.5000    67.6830    21.9270    18.5110    19.3440    26.4640     2.4270   -17.5060 
  201.6250    69.0810    21.7330    18.3030    22.9720    26.1300     2.5190   -17.2060 
  201.7500    69.8170    21.4590    18.0810    22.9420    25.9150     2.5990   -16.8960 
  201.8750    69.4280    21.2100    17.9030    22.3660    25.7960     2.6440   -16.5770 
  202.0000    67.9940    21.2240    17.9350    20.9640    25.7330     2.6540   -16.2770 
  202.1250    66.5650    21.5630    18.2170    19.9800    25.6850     2.6500   -16.0030 
  202.2500    66.0530    22.0660    18.6750    20.2420    25.6380     2.6460   -15.7390 
  202.3750    66.8640    22.3460    19.0870    22.2980    25.5820     2.6430   -15.4780 
  202.5000    68.8410    21.7680    18.9390    22.3520    25.5290     2.6420   -15.2240 
  202.6250    71.0920    20.1580    17.9080    19.8010    25.4760     2.6430   -14.9940 
  202.7500    72.5780    17.7630    16.0390    17.6930    25.4380     2.6450   -14.7970 
  202.8750    73.0460    15.1000    13.7300    15.3260    25.4170     2.6460   -14.6320 
  203.0000    75.6250    12.7780    11.5500    12.0820    25.3920     2.6360   -14.4720 
  203.1250    82.0620    11.0820     9.8570     8.9780    25.3440     2.6150   -14.3210 
  203.2500    91.5750    10.0900     8.7770     7.6150    25.2810     2.5860   -14.1920 
  203.3750   100.5700     9.7820     8.3200     8.1050    25.1940     2.5570   -14.0940 
  203.5000   104.0450    10.1650     8.5240     9.1030    25.0970     2.5370   -14.0000 
  203.6250   100.9370    11.0260     9.2350     9.6500    25.0400     2.5280   -13.9100 
  203.7500    94.9240    12.0360    10.2110    10.4940    25.0080     2.5350   -13.7960 
  203.8750    90.9580    12.7340    11.0500    11.3580    24.9650     2.5580   -13.6610 
  204.0000    90.7610    12.5710    11.1760    12.7460    24.8990     2.5930   -13.4980 
  204.1250    91.6970    11.5800    10.4920    13.0510    24.8430     2.6270   -13.3060 
  204.2500    91.1020    10.1290     9.2730    11.2800    24.8510     2.6400   -13.0740 
  204.3750    86.5900     8.6710     7.9330     8.0920    24.9610     2.6170   -12.7970 
  204.5000    77.0630     7.5810     6.8500     6.2470    25.1580     2.5430   -12.5140 
  204.6250    66.3180     6.9120     6.1360     5.5890    25.4140     2.4350   -12.2400 
  204.7500    59.1350     6.5980     5.7620     5.1870    25.7110     2.3240   -11.9940 
  204.8750    56.6200     6.5360     5.6550     4.8430    25.8500     2.2430   -11.7810 
  205.0000    56.3790     6.6240     5.7300     4.8380    25.8870     2.2190   -11.6500 
  205.1250    57.2070     6.7630     5.8860     5.0660    25.9500     2.2430   -11.5810 
  205.2500    60.5070     6.9120     6.0860     5.3360    26.0870     2.2940   -11.5900 
  205.3750    66.5950     7.0600     6.3230     5.5680    25.8860     2.3500   -11.6680 
  205.5000    73.3320     7.1760     6.5630     5.7480    25.0150     2.3930   -11.7850 
  205.6250    79.1030     7.2140     6.7270     5.9880    24.3920     2.4190   -11.9040 
  205.7500    84.2560     7.1320     6.7410     6.2290    24.1690     2.4330   -12.0220 
  205.8750    87.8230     6.9320     6.5800     6.4390    24.0970     2.4370   -12.1390 
  206.0000    87.9530     6.6690     6.2830     6.4140    24.0160     2.4330   -12.2050 
  206.1250    86.2340     6.4410     5.9630     6.1880    23.9600     2.4260   -12.2330 
  206.2500    86.2540     6.3180     5.7140     5.9960    23.9550     2.4190   -12.2370 
  206.3750    89.6540     6.3280     5.5820     6.0830    24.0030     2.4120   -12.2370 
  206.5000    92.8770     6.4740     5.5740     6.2610    24.0690     2.4100   -12.2310 
  206.6250    91.3200     6.7070     5.6480     6.4140    24.0990     2.4140   -12.2080 
  206.7500    86.9380     7.0010     5.7840     6.5890    24.0910     2.4220   -12.2010 
  206.8750    84.6430     7.3540     5.9840     6.7480    24.0700     2.4260   -12.1870 
  207.0000    84.4280     7.8010     6.2720     7.1480    24.0590     2.4190   -12.1970 
  207.1250    81.9870     8.3760     6.6750     8.2100    24.0550     2.3990   -12.2160 
  207.2500    77.9200     9.1260     7.2310    10.2470    24.0540     2.3730   -12.2180 
  207.3750    76.7810    10.1300     8.0050    10.8620    24.0460     2.3510   -12.1800 
  207.5000    79.2510    11.5980     9.1750    10.5260    24.0240     2.3450   -12.1490 
  207.6250    79.5940    13.7480    10.9310    11.4740    24.0020     2.3560   -12.1460 
  207.7500    76.4010    16.8900    13.5360    14.5980    23.9880     2.3770   -12.1190 
  207.8750    72.6930    21.3640    17.2580    18.1870    23.9760     2.3930   -12.0880 
  208.0000    71.2070    27.4670    22.3190    22.5970    23.9670     2.3900   -12.0680 
  208.1250    69.9660    34.4480    28.0850    28.1020    24.0190     2.3640   -12.0760 
  208.2500    67.7800    41.0550    33.4510    33.9440    24.1590     2.3240   -12.0870 
  208.3750    66.6120    46.1250    37.3780    36.9340    24.3560     2.2830   -12.1110 
