~V
VERS. 2.00: Ver 2.00
~W
STRT.M 52.0000:
STOP.M 269.0000:
STEP.M 0.1250:
NULL. -999.2500:
UWI. F11071:
~C
DEPT.M :
GR.API :
RML.OHMM :
RI. :
RXO.OHMM :
CALI.CM :
DEN.GM/CC :
SP.MV :
~A
# ...
  198.2500    76.3720    38.0050    35.3840    32.9350    25.1040     2.3210   -18.8280 
  198.3750    72.3130    39.8580    37.1720    34.3240    25.0960     2.3120   -18.8540 
  198.5000    68.7310    41.9100    39.2650    36.3970    25.0840     2.2960   -18.8890 
  198.6250    68.7010    43.8980    41.3730    39.1590    25.1150     2.2790   -19.0360 
  198.7500    70.6490    45.6100    43.2450    41.2910    25.1780     2.2680   -19.3190 
  198.8750    71.2560    46.8930    44.7110    42.7610    25.2260     2.2660   -19.7360 
  199.0000    71.6330    47.6480    45.6550    43.3360    25.2480     2.2710   -20.2620 
  199.1250    74.9800    47.7800    45.9270    43.4930    25.2500     2.2800   -20.8070 
  199.2500    78.2150    47.4860    45.6610    44.1120    25.2360     2.2880   -21.3850 
  199.3750    78.1860    46.9590    44.9930    44.5030    25.1980     2.2950   -22.0690 
  199.5000    76.0840    46.4600    44.1680    44.9220    25.1490     2.2990   -22.9170 
  199.6250    76.4670    46.3750    43.5800    43.2380    25.1180     2.2930   -23.8770 
  199.7500    78.2840    46.9460    43.5360    40.9980    25.1910     2.2770   -24.8190 
  199.8750    78.0600    48.3670    44.2720    40.0770    25.2990     2.2540   -25.7010 
  200.0000    75.5720    50.7570    45.9470    44.1840    25.3450     2.2320   -26.4760 
  200.1250    73.2880    54.3320    48.8120    48.5720    25.2860     2.2230   -27.1530 
  200.2500    72.4500    58.8560    52.7100    50.8870    25.1820     2.2270   -27.7730 
  200.3750    71.1080    64.0540    57.5350    52.4270    25.1170     2.2360   -28.2960 
  200.5000    69.0810    69.3060    62.8590    57.5020    25.1350     2.2440   -28.6610 
  200.6250    67.6760    73.3210    67.4750    65.3910    25.2060     2.2450   -28.8820 
  200.7500    66.9610    75.2190    70.1180    79.5660    25.2610     2.2450   -29.0610 
  200.8750    66.0230    74.7520    70.1490    89.7610    25.2450     2.2480   -29.1840 
  201.0000    67.0140    72.5940    67.9650    79.0680    25.1390     2.2500   -29.2650 
  201.1250    72.1200    70.3600    65.0530    59.5730    24.9550     2.2450   -29.3870 
  201.2500    75.6040    69.7230    63.3720    53.6760    24.8970     2.2340   -29.5640 
  201.3750    73.9960    71.5470    64.0170    61.4680    24.9630     2.2210   -29.8190 
  201.5000    71.3030    75.9630    67.3330    76.4420    25.0250     2.2130   -30.1260 
  201.6250    72.8090    82.6190    73.2460    87.4900    24.9480     2.2150   -30.4490 
  201.7500    75.2050    90.0220    80.2900    96.6730    24.8450     2.2210   -30.8030 
  201.8750    75.4410    97.1310    87.2390   101.3720    24.9090     2.2260   -31.2210 
  202.0000    73.2470   103.3430    93.2080    98.8500    25.0930     2.2270   -31.6880 
  202.1250    69.9670   108.6430    98.0810    98.0800    25.2160     2.2260   -32.1280 
  202.2500    67.0160   113.7500   102.8050   100.5490    25.2420     2.2240   -32.4940 
  202.3750    65.8670   119.0100   107.9350   105.4840    25.1620     2.2210   -32.7460 
  202.5000    67.3240   124.2400   113.4330   114.4550    24.9830     2.2160   -32.8720 
  202.6250    68.1530   128.4380   118.3920   116.7050    24.8320     2.2130   -32.9230 
  202.7500    67.4310   130.7140   121.6290   119.1700    24.7420     2.2160   -32.9360 
  202.8750    66.5160   130.5080   122.3640   123.9010    24.7180     2.2230   -32.8580 
  203.0000    67.5920   127.7940   120.5690   126.5660    24.7280     2.2290   -32.7320 
  203.1250    70.8430   122.6890   116.4390   121.6200    24.7610     2.2280   -32.6780 
  203.2500    71.0260   116.2430   110.7930   116.0050    24.7910     2.2210   -32.7010 
  203.3750    67.4780   109.3090   104.1890   112.0130    24.7870     2.2150   -32.7610 
  203.5000    64.0210   103.0190    97.6300   109.7110    24.7670     2.2140   -32.8480 
  203.6250    64.1460    99.2080    92.9020   105.8260    24.8100     2.2190   -32.9120 
  203.7500    65.7730    98.8150    91.2000    90.0650    24.7820     2.2230   -32.9390 
  203.8750    65.4720   102.6060    93.5240    78.6190    24.7370     2.2230   -33.0170 
  204.0000    63.9850   111.3820   100.4530    89.8510    24.7050     2.2180   -33.1160 
  204.1250    63.2990   125.7800   112.4920   118.2170    24.6590     2.2110   -33.1900 
  204.2500    63.4030   142.5340   127.4410   146.4170    24.6040     2.2060   -33.2450 
  204.3750    65.3620   158.1120   142.8350   156.2700    24.6350     2.2060   -33.2770 
  204.5000    68.1160   169.5050   155.6320   156.4750    24.6950     2.2110   -33.3180 
  204.6250    68.8050   174.1530   162.3720   156.8430    24.7340     2.2150   -33.4050 
  204.7500    66.4670   172.8400   163.3040   159.4910    24.7560     2.2150   -33.4980 
  204.8750    63.2900   166.3990   159.1470   159.0960    24.7600     2.2100   -33.6000 
  205.0000    62.0510   156.2240   150.9440   152.4080    24.7320     2.2020   -33.7390 
  205.1250    62.6800   143.7150   139.7620   144.4080    24.7180     2.1960   -33.8610 
  205.2500    63.0430   130.8600   127.7520   134.9120    24.7540     2.1950   -33.9430 
  205.3750    62.6500   118.8160   116.1770   121.8740    24.7980     2.2000   -34.0210 
  205.5000    63.1610   108.4030   105.8350   107.8430    24.8310     2.2100   -34.0930 
  205.6250    65.6500   100.6980    97.7020    97.8660    24.8270     2.2220   -34.1810 
  205.7500    68.9440    95.9730    92.1830    95.6320    24.8060     2.2330   -34.3370 
  205.8750    71.4740    94.7820    89.9430    93.3090    24.7810     2.2390   -34.5160 
  206.0000    72.6640    97.5440    91.5680    90.4030    24.7480     2.2350   -34.6790 
  206.1250    72.3500   104.9450    98.1320    90.9710    24.7310     2.2220   -34.8710 
  206.2500    70.1390   115.4620   108.5360   111.3620    24.7220     2.2060   -35.1120 
  206.3750    66.1060   127.1850   121.1860   140.0300    24.7200     2.1930   -35.3720 
  206.5000    61.1720   137.2290   133.1930   157.2540    24.7400     2.1870   -35.6250 
  206.6250    58.0270   141.4460   139.9100   157.8630    24.7650     2.1890   -35.8510 
  206.7500    58.1780   139.2060   139.7460   152.7940    24.7510     2.1970   -36.0120 
  206.8750    59.6360   131.7080   133.5230   144.3560    24.7150     2.2070   -36.1470 
  207.0000    60.8400   121.6360   124.0770   137.5990    24.6840     2.2170   -36.2840 
  207.1250    64.2230   112.0310   114.6930   130.5680    24.6910     2.2260   -36.3890 
  207.2500    69.2290   104.4670   107.1880   120.0640    24.7010     2.2310   -36.4400 
  207.3750    72.0640    99.1910   102.0010   108.7020    24.6860     2.2320   -36.4490 
  207.5000    70.1710    95.7760    98.9260    99.6060    24.6690     2.2280   -36.4790 
  207.6250    67.6080    93.3870    97.2590   104.9900    24.6600     2.2240   -36.5240 
  207.7500    68.1190    90.7440    95.4670   107.6460    24.6580     2.2240   -36.5740 
  207.8750    69.7820    87.1280    92.4560   107.4940    24.6510     2.2300   -36.6520 
  208.0000    68.7160    82.4420    87.7530    99.4630    24.6380     2.2430   -36.7480 
  208.1250    65.4490    77.5020    81.8950    92.7050    24.6100     2.2590   -36.8170 
  208.2500    65.0330    73.8790    76.7240    87.2220    24.5940     2.2700   -36.8940 
  208.3750    67.1700    73.0800    73.9420    78.2200    24.5880     2.2740   -36.9630 
  208.5000    67.5890    76.4900    75.0830    70.5790    24.5910     2.2700   -36.9010 
  208.6250    64.4330    86.4240    82.6560    77.9010    24.5940     2.2590   -36.5340 
  208.7500    60.3600   103.1390    97.2290    98.1330    24.5950     2.2460   -35.7290 
  208.8750    55.4380   127.2290   119.6200   138.0720    24.5940     2.2320   -34.2500 
  209.0000    49.8960   158.2340   149.3810   185.1250    24.5960     2.2190   -32.0790 
  209.1250    46.9630   194.0500   184.1030   205.8280    24.6450     2.2070   -29.5690 
  209.2500    48.2890   229.0710   217.7940   218.4380    24.8220     2.1960   -27.0040 
  209.3750    51.4340   258.3900   245.8800   236.6400    25.1450     2.1820   -24.4110 
