~V
VERS. 2.00: Ver 2.00
~W
STRT.M 58.0000:
STOP.M 277.0000:
STEP.M 0.1250:
NULL. -999.2500:
UWI. F11038:
~C
DEPT.M :
GR.API :
RML.OHMM :
RI. :
RXO.OHMM :
CALI.CM :
DEN.GM/CC :
SP.MV :
~A
# ...
   69.2500    77.2130    10.2520     8.6750    12.0510    24.6050     2.1430   -32.9290 
   69.3750    75.7670    10.2400     8.6850    12.1680    24.6270     2.1340   -32.8570 
   69.5000    74.4990    10.2460     8.7000    12.3180    24.6030     2.1310   -32.7340 
   69.6250    74.9600    10.3520     8.7740    12.5730    24.5330     2.1380   -32.5530 
   69.7500    75.8040    10.5710     8.9140    12.8090    24.4620     2.1520   -32.3290 
   69.8750    75.6410    10.8580     9.0950    12.7910    24.3880     2.1680   -32.0670 
   70.0000    74.5670    11.1070     9.2490    12.4490    24.3100     2.1820   -31.7170 
   70.1250    73.0910    11.1390     9.2460    12.1810    24.2380     2.1900   -31.2660 
   70.2500    75.0920    10.9060     9.0430    12.0180    24.1880     2.1950   -30.7050 
   70.3750    79.8160    10.4530     8.6670    11.6910    24.1770     2.2000   -30.0860 
   70.5000    83.4210     9.9120     8.2190    11.1460    24.1960     2.2060   -29.5060 
   70.6250    84.3630     9.4630     7.8430    10.1320    24.1800     2.2120   -29.1210 
   70.7500    84.7500     9.1910     7.6140     9.4450    24.1180     2.2140   -28.9260 
   70.8750    85.7950     9.1080     7.5470     9.4240    24.0690     2.2100   -28.8730 
   71.0000    84.8140     9.2030     7.6220    11.0210    24.0520     2.1990   -28.9290 
   71.1250    80.1320     9.5260     7.8500    12.6910    24.0520     2.1820   -29.0480 
   71.2500    74.4830    10.0970     8.2370    13.3510    24.0490     2.1690   -29.2340 
   71.3750    71.2320    10.9270     8.8000    12.9020    24.0240     2.1710   -29.4400 
   71.5000    71.9680    11.9110     9.5050    12.0310    23.9630     2.1950   -29.5580 
   71.6250    73.8480    12.7110    10.1590    12.1430    23.8820     2.2440   -29.4140 
   71.7500    74.6280    12.9650    10.4520    15.4760    23.8400     2.2970   -29.0100 
   71.8750    75.5540    12.4880    10.1640    21.5720    23.8390     2.3330   -28.4220 
   72.0000    78.8960    11.3860     9.3380    18.2350    23.8740     2.3430   -27.7500 
   72.1250    85.9770    10.0650     8.2950    12.3690    23.7770     2.3270   -27.1530 
   72.2500    91.5570     9.0470     7.4400     8.9210    23.5990     2.3050   -26.8100 
   72.3750    93.0990     8.6030     6.9660     7.7650    23.4210     2.2860   -26.8550 
   72.5000    91.2030     8.8040     6.9470     7.7520    23.4340     2.2700   -27.3740 
   72.6250    86.7740     9.6000     7.4180     9.0260    23.7310     2.2480   -28.4080 
   72.7500    80.3680    10.6150     8.1590    11.9020    24.1680     2.2150   -29.7560 
   72.8750    73.2420    11.5270     8.9370    16.1320    24.5820     2.1720   -31.2940 
   73.0000    68.5730    12.0460     9.4810    20.3710    24.9910     2.1250   -32.8510 
   73.1250    67.8670    11.9410     9.5250    16.8800    25.3220     2.0850   -34.1600 
   73.2500    67.4220    11.4050     9.1780    14.6630    25.4110     2.0610   -35.0520 
   73.3750    67.2890    10.6760     8.6270    13.6900    25.3560     2.0620   -35.3790 
   73.5000    71.2350    10.0000     8.0720    13.0060    25.2690     2.0900   -35.1260 
   73.6250    80.7010     9.5810     7.6760    11.3990    25.1760     2.1400   -34.4180 
   73.7500    87.8420     9.4120     7.4560    10.0190    25.0770     2.1870   -33.5640 
   73.8750    87.4350     9.4440     7.3900    10.0450    25.0070     2.2130   -32.7150 
   74.0000    81.3720     9.6090     7.4370    11.5150    25.0200     2.2080   -31.9310 
   74.1250    77.0400     9.8560     7.5700    12.1640    25.1290     2.1770   -31.3390 
   74.2500    76.9170    10.1290     7.7430    12.3400    25.2170     2.1440   -30.9680 
   74.3750    78.9300    10.4070     7.9320    12.2530    25.1870     2.1260   -30.8790 
   74.5000    80.1670    10.6720     8.1170    12.7390    25.1710     2.1250   -31.0560 
   74.6250    79.6190    10.8980     8.2860    13.2690    25.2320     2.1380   -31.3910 
   74.7500    78.8860    11.0660     8.4280    13.5340    25.1570     2.1520   -31.7040 
   74.8750    78.8320    11.1570     8.5310    13.4870    24.9620     2.1630   -31.9190 
   75.0000    78.0450    11.1700     8.5840    13.3770    24.8450     2.1710   -32.0860 
   75.1250    74.8770    11.1190     8.5800    13.4840    24.7930     2.1770   -32.2470 
   75.2500    70.3050    11.0560     8.5500    13.5720    24.7430     2.1830   -32.3810 
   75.3750    68.1510    11.0090     8.5180    13.5550    24.7010     2.1870   -32.4380 
   75.5000    70.9410    10.9790     8.4940    13.1470    24.6590     2.1900   -32.4040 
   75.6250    75.6270    10.9260     8.4620    12.6190    24.6140     2.1890   -32.1980 
   75.7500    77.0910    10.8150     8.4010    12.3070    24.6080     2.1790   -31.8980 
   75.8750    75.1570    10.6370     8.3000    12.3100    24.6210     2.1620   -31.5160 
   76.0000    72.3480    10.4210     8.1750    12.0230    24.5730     2.1430   -31.0620 
   76.1250    73.8930    10.2560     8.0710    11.3770    24.5460     2.1360   -30.5550 
   76.2500    78.1570    10.2220     8.0400    10.8520    24.5340     2.1440   -30.0280 
   76.3750    82.4030    10.3520     8.1100    10.9520    24.5100     2.1630   -29.4820 
   76.5000    84.0390    10.6110     8.2730    11.7310    24.4500     2.1820   -28.8520 
   76.6250    82.5130    10.8590     8.4670    12.4530    24.1800     2.1930   -28.0670 
   76.7500    81.2970    10.9110     8.5620    12.4870    23.9430     2.1980   -27.0790 
   76.8750    82.3770    10.6480     8.4490    11.3720    23.7610     2.2040   -25.8860 
   77.0000    85.9140    10.0650     8.0930    10.3610    23.6680     2.2140   -24.5220 
   77.1250    89.0190     9.2870     7.5640     9.6170    23.7500     2.2270   -23.0650 
   77.2500    91.7890     8.5800     7.0570     8.3420    23.7480     2.2380   -21.6990 
   77.3750    96.9140     8.1330     6.7050     7.1780    23.5910     2.2430   -20.5370 
   77.5000   103.1500     8.0600     6.5930     6.7550    23.4060     2.2400   -19.6540 
   77.6250   104.8860     8.4310     6.7980     6.9510    23.2490     2.2290   -19.1240 
   77.7500   100.7990     9.0670     7.2430     7.4040    23.0930     2.2150   -18.8270 
   77.8750    95.2020     9.7600     7.8070     7.9970    22.9860     2.2060   -18.6380 
   78.0000    92.3200    10.2560     8.2890     8.7290    23.0560     2.2080   -18.4610 
   78.1250    94.4070    10.2410     8.3810     9.4320    23.2540     2.2230   -18.1600 
   78.2500   100.1440     9.7210     8.0270     9.1860    23.4010     2.2430   -17.6440 
   78.3750   107.0190     8.8310     7.3250     7.7820    23.4220     2.2590   -16.8810 
   78.5000   112.4660     7.8110     6.4890     6.4730    23.3770     2.2680   -15.8940 
   78.6250   114.3000     6.9650     5.7590     5.9560    23.3210     2.2730   -14.8380 
   78.7500   115.6990     6.4620     5.2630     5.7420    23.2190     2.2850   -13.8980 
   78.8750   118.2380     6.3920     5.0630     5.6220    23.2420     2.3060   -13.3420 
   79.0000   118.8750     6.7760     5.1840     5.6520    23.4470     2.3310   -13.3080 
   79.1250   114.0820     7.6280     5.6620     5.8840    23.7250     2.3470   -13.9850 
   79.2500   104.6900     8.7290     6.3790     6.7680    24.0330     2.3450   -15.1910 
   79.3750    93.2870     9.8620     7.2170     8.5240    24.3690     2.3220   -16.7860 
   79.5000    82.7300    10.7900     8.0000     9.7200    24.7280     2.2870   -18.6100 
   79.6250    76.0560    11.2720     8.5110     9.9690    25.0060     2.2510   -20.5160 
   79.7500    72.3190    11.3770     8.7380     9.9200    25.2230     2.2240   -22.3990 
   79.8750    70.3960    11.2540     8.7550    10.0890    25.4330     2.2070   -24.1210 
   80.0000    70.0710    11.0830     8.6830    10.3390    25.5760     2.1920   -25.5980 
   80.1250    71.6530    11.0110     8.6310    10.3330    25.5860     2.1720   -26.6880 
   80.2500    72.6110    11.0410     8.6230    10.2310    25.4010     2.1520   -27.4940 
   80.3750    71.8680    11.1310     8.6350    10.1940    25.1810     2.1440   -28.1090 
