~V
VERS. 2.00: Ver 2.00
~W
STRT.M 62.0000:
STOP.M 272.0000:
STEP.M 0.1250:
NULL. -999.2500:
UWI. F11076:
~C
DEPT.M :
GR.API :
RML.OHMM :
RI. :
RXO.OHMM :
CALI.CM :
DEN.GM/CC :
SP.MV :
~A
# ...
  185.7500    84.1500    29.5460    27.5090    23.1570    25.7210     2.2970   -23.8920 
  185.8750    85.9880    28.3930    26.4220    23.8470    25.7170     2.3040   -23.9420 
  186.0000    86.7540    27.3090    25.3950    27.8950    25.7520     2.3070   -24.0150 
  186.1250    87.8340    26.3250    24.3710    29.4950    25.7920     2.3120   -24.1090 
  186.2500    89.2890    25.7430    23.6180    26.4790    25.7510     2.3200   -24.1910 
  186.3750    89.5800    25.9790    23.5310    19.7470    25.6730     2.3300   -24.2400 
  186.5000    88.8800    27.3940    24.5180    17.3890    25.7080     2.3350   -24.3110 
  186.6250    87.8580    30.3130    27.1150    21.9050    25.8030     2.3270   -24.4560 
  186.7500    84.9910    34.1370    30.9980    31.1510    25.8360     2.3090   -24.6470 
  186.8750    80.6010    38.0440    35.4960    38.0490    25.8250     2.2870   -24.8380 
  187.0000    78.4990    41.0140    39.3970    40.2910    25.8360     2.2690   -25.0010 
  187.1250    79.4170    42.0060    41.0920    39.0080    25.8540     2.2610   -25.1210 
  187.2500    80.7190    41.4420    40.7560    35.7630    25.8340     2.2640   -25.2080 
  187.3750    81.3270    40.0890    39.2990    32.4970    25.7890     2.2720   -25.3170 
  187.5000    81.6760    38.7640    37.7250    31.4210    25.7740     2.2810   -25.3830 
  187.6250    80.9540    38.0990    36.7300    31.8490    25.7640     2.2880   -25.4140 
  187.7500    79.1810    38.1330    36.3940    31.9620    25.7590     2.2930   -25.4270 
  187.8750    78.6440    38.8220    36.7000    31.9530    25.7730     2.2960   -25.4440 
  188.0000    80.4130    40.1110    37.5970    31.9300    25.7820     2.2990   -25.4570 
  188.1250    82.2350    42.0940    39.1750    32.6640    25.7690     2.3000   -25.4850 
  188.2500    82.4940    44.7310    41.4210    34.8450    25.7440     2.2980   -25.5040 
  188.3750    81.1200    48.0800    44.4500    37.1790    25.7330     2.2900   -25.5130 
  188.5000    78.2250    52.1080    48.3170    40.2130    25.7480     2.2800   -25.5680 
  188.6250    74.9500    56.5370    52.9340    45.1900    25.8080     2.2680   -25.6210 
  188.7500    72.1960    60.5460    57.5410    51.8700    25.8870     2.2550   -25.6450 
  188.8750    70.0330    63.1810    61.1320    57.2750    25.9350     2.2390   -25.6100 
  189.0000    67.3760    63.5960    62.5930    58.6100    25.9230     2.2200   -25.5560 
  189.1250    66.3980    61.2000    60.8480    57.3190    25.8920     2.2010   -25.5080 
  189.2500    69.3160    57.2310    56.9810    49.8890    25.8050     2.1890   -25.5130 
  189.3750    74.7260    52.9870    52.3770    41.4340    25.6050     2.1880   -25.5220 
  189.5000    79.5660    49.7030    48.4480    33.5630    25.3030     2.1990   -25.5130 
  189.6250    81.7600    48.5500    46.5100    30.9300    25.1730     2.2220   -25.5480 
  189.7500    81.7790    49.4890    46.6760    32.5310    25.1480     2.2480   -25.6360 
  189.8750    79.7760    52.3380    48.8960    36.7640    25.1700     2.2730   -25.8070 
  190.0000    76.5810    56.6290    52.8270    42.0180    25.2020     2.2890   -25.9880 
  190.1250    74.5810    61.6610    57.8650    46.0920    25.3210     2.2890   -26.0970 
  190.2500    73.3720    66.4270    62.8540    50.5800    25.5270     2.2720   -26.1540 
  190.3750    70.1210    70.3000    67.0160    57.1370    25.7850     2.2470   -26.1600 
  190.5000    64.6850    72.9750    69.9350    61.7920    25.9190     2.2240   -26.1230 
  190.6250    62.7470    74.3420    71.4490    61.6810    25.9080     2.2170   -25.9910 
  190.7500    65.5410    74.9240    72.0970    61.3890    25.8620     2.2230   -25.8210 
  190.8750    69.2930    75.0620    72.2200    61.3860    25.8330     2.2340   -25.6380 
  191.0000    71.6410    75.0440    72.1160    59.9920    25.8340     2.2420   -25.4940 
  191.1250    72.6380    75.0950    72.0330    59.7610    25.8500     2.2410   -25.4070 
  191.2500    72.5850    75.2890    72.1220    59.6610    25.8570     2.2360   -25.3430 
  191.3750    71.1930    75.5510    72.4070    59.4090    25.8430     2.2300   -25.3310 
  191.5000    70.5110    75.6290    72.7390    59.8770    25.8080     2.2250   -25.3650 
  191.6250    71.1030    74.9440    72.5820    59.1790    25.7710     2.2240   -25.4440 
  191.7500    70.1590    73.1560    71.3960    58.9210    25.7550     2.2230   -25.5280 
  191.8750    67.5430    70.1750    68.8830    59.1890    25.7440     2.2220   -25.5480 
  192.0000    66.0000    66.3330    65.2320    59.1750    25.7400     2.2220   -25.5070 
  192.1250    67.9350    62.4310    61.1630    55.2240    25.7500     2.2260   -25.4570 
  192.2500    69.8910    59.3620    57.7040    48.0420    25.7740     2.2340   -25.4230 
  192.3750    69.9490    57.6620    55.5030    44.2520    25.8440     2.2470   -25.3850 
  192.5000    69.8960    57.5270    54.8550    44.6320    25.9120     2.2580   -25.3530 
  192.6250    70.4280    58.9950    55.8940    46.5250    25.9570     2.2630   -25.3190 
  192.7500    70.9620    61.3720    57.9470    47.9210    25.9750     2.2580   -25.2880 
  192.8750    71.1090    64.1710    60.4990    50.0710    25.9800     2.2470   -25.3030 
  193.0000    71.7520    66.9850    63.0720    53.0440    25.9740     2.2360   -25.3770 
  193.1250    70.5150    69.5540    65.3260    53.9230    25.9590     2.2290   -25.4740 
  193.2500    68.4640    71.9320    67.3090    54.8020    25.8530     2.2250   -25.6210 
  193.3750    68.3580    74.2270    69.1620    56.6690    25.5460     2.2200   -25.7720 
  193.5000    69.4160    76.4850    71.0010    60.4370    25.0660     2.2160   -25.8890 
  193.6250    69.4160    78.5530    72.7730    61.8690    24.8220     2.2140   -25.9890 
  193.7500    69.8450    80.2050    74.2640    56.4150    24.7640     2.2180   -26.0770 
  193.8750    72.0390    81.2650    75.2680    52.3050    24.7420     2.2280   -26.1650 
  194.0000    74.0970    81.7100    75.7340    56.5460    24.6920     2.2410   -26.2030 
  194.1250    72.8690    81.6380    75.8010    60.3920    24.6490     2.2490   -26.2340 
  194.2500    70.5010    81.3190    75.7840    62.1980    24.6170     2.2530   -26.1880 
  194.3750    70.2300    80.7770    75.7290    61.5460    24.5790     2.2510   -26.1280 
  194.5000    72.7370    79.8690    75.4430    61.9930    24.5360     2.2460   -26.0430 
  194.6250    73.2980    78.2550    74.4830    64.5860    24.5300     2.2400   -25.9510 
  194.7500    70.6360    75.9110    72.7330    64.7770    24.5250     2.2340   -25.8240 
  194.8750    68.2430    72.8950    70.2390    60.0790    24.5180     2.2330   -25.6470 
  195.0000    67.7180    69.3550    67.1790    54.6090    24.5100     2.2350   -25.4510 
  195.1250    67.9120    65.3790    63.6440    51.4270    24.5120     2.2420   -25.2370 
  195.2500    67.7290    61.1440    59.7540    50.7890    24.5160     2.2510   -25.0320 
  195.3750    68.5930    56.8190    55.5960    50.0900    24.5510     2.2640   -24.8040 
  195.5000    71.5680    52.7350    51.4400    48.3200    24.6150     2.2820   -24.5880 
  195.6250    75.3160    49.6140    47.9590    42.8010    24.6810     2.2980   -24.3450 
  195.7500    78.4770    47.9500    45.7340    37.0960    24.7250     2.3080   -24.1140 
  195.8750    79.1440    48.1640    45.2620    34.0970    24.7020     2.3050   -23.9010 
  196.0000    78.3380    50.4200    46.8560    34.8740    24.6950     2.2940   -23.7010 
  196.1250    78.0390    54.7130    50.8560    38.4850    24.7590     2.2800   -23.5430 
  196.2500    77.6170    59.8560    56.3160    43.6900    24.8530     2.2670   -23.4320 
  196.3750    75.8680    64.5660    61.9980    48.7970    24.9500     2.2540   -23.3810 
  196.5000    71.4940    67.4290    66.1990    53.0670    25.0740     2.2380   -23.3610 
  196.6250    67.7940    66.9620    66.7810    54.6550    25.3400     2.2180   -23.3450 
  196.7500    68.2690    63.8820    64.0510    54.5380    25.7050     2.2010   -23.3030 
  196.8750    71.2190    59.4590    59.2820    49.2900    25.9350     2.1960   -23.2520 
