~V
VERS. 2.00: Ver 2.00
~W
STRT.M 63.0000:
STOP.M 273.0000:
STEP.M 0.1250:
NULL. -999.2500:
UWI. F11030:
~C
DEPT.M :
DEN.GM/CC :
GR.API :
RML.OHMM :
RI. :
RXO.OHMM :
CALI.CM :
SP.MV :
~A
# ...
  153.0000     2.3110   104.7720     7.8120     6.1000     6.2710    23.5480    -4.3040 
  153.1250     2.3200   100.4180     8.1960     6.5720     6.6190    23.4030    -4.2940 
  153.2500     2.3410    97.3930     8.3020     6.8430     6.8940    23.2340    -4.2010 
  153.3750     2.3680    97.1930     8.0490     6.7810     7.0570    23.0790    -4.0680 
  153.5000     2.3920    97.1450     7.4690     6.3680     6.8350    22.9800    -3.8190 
  153.6250     2.4030    98.2320     6.7080     5.7130     5.5560    22.9660    -3.4740 
  153.7500     2.4010   100.4880     5.9920     5.0510     4.7170    22.9850    -3.2630 
  153.8750     2.3920   100.4350     5.4380     4.5000     4.4760    23.0030    -3.0820 
  154.0000     2.3830    96.9710     5.0820     4.1020     4.5190    23.1360    -2.7740 
  154.1250     2.3800    95.3270     4.9340     3.8870     4.4690    23.5040    -2.4530 
  154.2500     2.3810    94.7050     4.9460     3.8230     4.3510    23.9980    -2.1750 
  154.3750     2.3800    92.1040     5.1210     3.9080     4.3390    24.4340    -1.9230 
  154.5000     2.3760    91.0020     5.4810     4.1500     4.4980    24.7130    -1.8300 
  154.6250     2.3670    92.6670     6.0750     4.5960     5.0540    24.7480    -1.9360 
  154.7500     2.3570    89.8630     6.8450     5.2270     6.1600    24.5460    -2.0620 
  154.8750     2.3460    83.0730     7.7240     6.0150     7.2560    24.1530    -2.2140 
  155.0000     2.3350    80.0210     8.6070     6.8920     7.7730    23.7280    -2.4810 
  155.1250     2.3230    85.2360     9.3500     7.7410     8.1770    23.3910    -2.8060 
  155.2500     2.3110    90.0670     9.8680     8.4360     8.6940    23.1120    -3.0900 
  155.3750     2.2990    90.4870    10.1020     8.8790     9.0040    22.9110    -3.3750 
  155.5000     2.2880    88.1010    10.0330     9.0140     9.1510    22.7480    -3.6720 
  155.6250     2.2800    88.0390     9.6360     8.7850     8.7270    22.6290    -3.9020 
  155.7500     2.2750    89.1920     9.0370     8.2920     7.8940    22.5060    -3.9850 
  155.8750     2.2740    89.4080     8.3410     7.6370     6.8730    22.3930    -4.0430 
  156.0000     2.2780    88.1670     7.6590     6.9450     6.2320    22.2540    -4.1250 
  156.1250     2.2870    88.3010     7.1140     6.3430     5.9270    22.1640    -4.2180 
  156.2500     2.2990    90.0040     6.7550     5.8810     5.6020    22.4120    -4.4470 
  156.3750     2.3120    92.7730     6.6320     5.6020     5.2940    23.2090    -4.7820 
  156.5000     2.3240    95.5550     6.8030     5.5560     5.2180    24.2340    -5.0160 
  156.6250     2.3280    94.0270     7.3890     5.8670     5.3960    24.6780    -5.1410 
  156.7500     2.3240    89.3620     8.3500     6.5390     5.8960    24.8420    -5.2960 
  156.8750     2.3120    85.1150     9.6060     7.5670     7.6280    24.9090    -5.3610 
  157.0000     2.2970    82.6330    10.9780     8.8540    12.1390    24.9630    -5.3290 
  157.1250     2.2870    81.6250    12.1680    10.1350    15.5480    25.0000    -5.2920 
  157.2500     2.2840    81.3150    13.0330    11.1250    14.3010    24.9900    -5.1030 
  157.3750     2.2850    80.4720    13.6540    11.7720    12.1960    24.9450    -4.7830 
  157.5000     2.2870    77.6750    14.3190    12.2780    12.0040    24.9580    -4.5240 
  157.6250     2.2850    74.8790    15.5430    13.0900    12.8420    25.0430    -4.2980 
  157.7500     2.2780    73.6650    17.5960    14.5670    14.6750    25.0940    -4.0450 
  157.8750     2.2730    72.4860    20.5800    16.9560    18.2950    25.0760    -3.8970 
  158.0000     2.2750    70.4010    24.3660    20.3020    21.9950    25.0050    -3.8790 
  158.1250     2.2860    68.5670    28.5390    24.3870    25.3430    24.9920    -3.9170 
  158.2500     2.2960    66.4060    32.2820    28.4190    29.8220    24.9640    -4.0420 
  158.3750     2.2950    64.8380    34.7940    31.5830    32.4320    25.0180    -4.2060 
  158.5000     2.2780    66.2320    35.4080    33.0380    31.0050    25.0790    -4.3310 
  158.6250     2.2480    70.6250    33.6290    31.9090    28.2620    25.0790    -4.4840 
  158.7500     2.2190    73.2600    30.4570    29.0140    27.6720    25.0500    -4.7070 
  158.8750     2.2060    74.0330    26.9560    25.4390    27.5850    25.0630    -4.9700 
  159.0000     2.2170    73.4900    24.1920    22.2960    23.9020    25.0850    -5.1890 
  159.1250     2.2520    71.1400    23.2880    20.6280    19.3570    25.0720    -5.3610 
  159.2500     2.2910    69.2490    24.4730    20.6670    19.3850    25.1320    -5.5580 
  159.3750     2.3160    67.9350    28.0640    22.7440    24.1580    25.2480    -5.7710 
  159.5000     2.3190    65.7740    34.4110    27.3490    30.3620    25.3300    -6.0340 
  159.6250     2.3020    63.4810    44.4540    35.7320    36.6420    25.3300    -6.3770 
  159.7500     2.2820    64.1090    57.8070    47.8390    46.3480    25.3010    -6.6430 
  159.8750     2.2650    64.8770    74.0730    63.3610    61.2170    25.2390    -6.8040 
  160.0000     2.2510    61.9090    92.2300    81.1440    81.2110    25.1850    -6.9460 
  160.1250     2.2390    58.3570   109.9790    99.2430    97.1310    25.3070    -6.9900 
  160.2500     2.2270    57.2170   123.7140   114.6730   108.1230    25.3530    -6.9460 
  160.3750     2.2160    57.9450   129.6020   123.6420   118.1850    25.3650    -6.9010 
  160.5000     2.2090    59.0370   125.2880   122.7750   123.1640    25.3830    -6.7530 
  160.6250     2.2070    59.6500   110.9570   110.6300   117.6960    25.4080    -6.4070 
  160.7500     2.2100    61.7280    93.1570    93.4260   102.9850    25.3930    -6.1740 
  160.8750     2.2170    65.5070    76.4680    76.1370    79.7920    25.3690    -6.0160 
  161.0000     2.2280    67.3450    63.5070    62.1020    55.6900    25.3210    -5.7550 
  161.1250     2.2350    66.0520    55.4810    53.1240    44.6820    25.3000    -5.5320 
  161.2500     2.2330    67.2260    50.9030    47.8010    41.1410    25.3120    -5.3790 
  161.3750     2.2230    70.7390    48.8110    45.1370    40.1030    25.3870    -5.2160 
  161.5000     2.2090    70.4620    48.3300    44.2870    41.1980    25.4950    -5.1430 
  161.6250     2.2020    66.5040    48.8460    44.6640    43.2620    25.5100    -5.2190 
  161.7500     2.2080    65.9620    49.7790    45.5980    42.8550    25.4680    -5.1860 
  161.8750     2.2260    69.6000    51.0320    46.9730    40.0090    25.4140    -5.1380 
  162.0000     2.2490    73.1900    52.6290    48.8600    40.4010    25.3620    -5.2560 
  162.1250     2.2660    72.4370    54.5350    51.3860    45.1090    25.3030    -5.3610 
  162.2500     2.2730    70.8320    56.3270    54.2040    50.3110    25.2520    -5.3990 
  162.3750     2.2720    69.4600    57.4530    56.7090    53.7460    25.1490    -5.5020 
  162.5000     2.2640    67.9150    57.3890    58.1240    58.4530    25.0040    -5.5820 
  162.6250     2.2570    64.9690    55.5700    57.6610    60.9650    24.9700    -5.6020 
  162.7500     2.2530    63.0310    52.1110    55.5320    58.5400    25.1160    -5.7950 
  162.8750     2.2550    65.5010    46.8660    51.4500    50.2310    25.2320    -6.0270 
  163.0000     2.2630    68.2210    39.8010    44.7990    40.4250    25.2220    -6.1140 
  163.1250     2.2770    65.9420    31.3370    35.4520    36.3140    25.1740    -6.1870 
  163.2500     2.2940    63.4830    23.0070    25.7680    34.8710    25.1280    -6.2200 
  163.3750     2.3100    67.4390    16.0180    17.6860    24.2200    25.1600    -6.0440 
  163.5000     2.3200    77.8190    11.0250    12.0270    11.3220    25.3770    -5.8010 
  163.6250     2.3230    83.7580     8.2700     8.8530     6.2270    25.8060    -5.5780 
  163.7500     2.3190    82.6620     6.9170     7.1330     4.9920    25.8790    -5.2760 
  163.8750     2.3100    79.7190     6.4890     6.3850     5.5660    25.6030    -4.9980 
  164.0000     2.3000    79.9300     6.6100     6.2970     6.4020    25.4220    -4.8230 
  164.1250     2.2910    82.4960     7.0360     6.6680     6.7700    25.3820    -4.6450 
