~V
VERS. 2.00: Ver 2.00
~W
STRT.M 57.0000:
STOP.M 226.0000:
STEP.M 0.1250:
NULL. -999.2500:
UWI. F11011:
~C
DEPT.M :
GR.API :
RML.OHMM :
RI. :
RXO.OHMM :
CALI.CM :
SP.MV :
DEN.GM/CC :
~A
# ...
  135.7500    67.9590    14.8840    13.1160    12.9880    24.2560   -10.4510     2.4890 
  135.8750    65.9840    14.2550    12.4980    11.6680    24.3280   -10.2560     2.4860 
  136.0000    64.8460    13.8760    12.0670    11.1950    24.4430   -10.0980     2.4780 
  136.1250    65.1890    13.8830    11.9400    11.1290    24.4900    -9.9710     2.4730 
  136.2500    66.3660    14.1930    12.0810    11.3010    24.5010    -9.8010     2.4730 
  136.3750    67.7390    14.7080    12.4450    11.5560    24.5010    -9.6360     2.4740 
  136.5000    68.5380    15.3040    12.9490    11.9430    24.4430    -9.5970     2.4700 
  136.6250    69.0130    15.8640    13.4840    12.8280    24.3560    -9.6330     2.4580 
  136.7500    69.6120    16.3390    13.9630    13.4350    24.4150    -9.6760     2.4420 
  136.8750    69.5900    16.7310    14.3640    13.6230    24.4680    -9.6890     2.4310 
  137.0000    68.6410    17.0630    14.7020    14.0110    24.5050    -9.6560     2.4290 
  137.1250    67.9750    17.3650    15.0060    14.2520    24.5350    -9.5750     2.4350 
  137.2500    69.2570    17.6700    15.3080    14.6020    24.5270    -9.5710     2.4420 
  137.3750    69.2150    17.9790    15.6110    15.3030    24.4880    -9.5950     2.4460 
  137.5000    65.8020    18.2630    15.8890    15.7860    24.4780    -9.5640     2.4470 
  137.6250    61.7340    18.4580    16.0800    15.7090    24.4560    -9.6280     2.4490 
  137.7500    58.9570    18.5350    16.1700    15.4650    24.4470    -9.8010     2.4540 
  137.8750    58.0270    18.4980    16.1650    14.6980    24.4750    -9.9990     2.4620 
  138.0000    58.5250    18.3840    16.1020    14.1580    24.4930   -10.1840     2.4700 
  138.1250    60.5080    18.2630    16.0420    13.6860    24.5080   -10.3350     2.4770 
  138.2500    61.9110    18.1960    16.0340    13.8140    24.4930   -10.3810     2.4850 
  138.3750    61.4140    18.2020    16.0890    14.0330    24.4670   -10.3090     2.4910 
  138.5000    60.3210    18.2690    16.1940    14.3580    24.4160   -10.1510     2.4960 
  138.6250    60.5980    18.3740    16.3300    14.8310    24.4090    -9.7120     2.5010 
  138.7500    62.6110    18.4860    16.4740    14.6330    24.3690    -9.1390     2.5070 
  138.8750    64.3260    18.5890    16.6160    14.4230    24.3700    -8.6050     2.5160 
  139.0000    64.1580    18.6590    16.7340    14.8560    24.4090    -8.2130     2.5260 
  139.1250    61.9940    18.6460    16.7730    15.3380    24.4230    -7.9280     2.5360 
  139.2500    58.3370    18.5350    16.7160    15.8110    24.3850    -7.7280     2.5400 
  139.3750    54.4950    18.3400    16.5800    15.5720    24.3440    -7.7410     2.5370 
  139.5000    52.1730    18.1250    16.4250    14.9530    24.3230    -7.9230     2.5280 
  139.6250    53.1780    18.0100    16.3670    13.6970    24.3110    -8.3250     2.5150 
  139.7500    54.8250    18.0520    16.4620    13.6820    24.3180    -8.8220     2.5040 
  139.8750    56.2370    18.2360    16.7010    14.4470    24.3290    -9.2760     2.5000 
  140.0000    56.4510    18.4660    17.0190    15.6380    24.3710    -9.5510     2.5000 
  140.1250    56.0110    18.5640    17.2900    15.6740    24.3880    -9.6970     2.5020 
  140.2500    57.5940    18.4110    17.3910    15.5420    24.3320    -9.7450     2.5020 
  140.3750    59.3620    17.9720    17.2480    14.6590    24.2660    -9.6890     2.5000 
  140.5000    58.7150    17.2990    16.8610    14.1120    24.2140    -9.6830     2.5000 
  140.6250    55.6900    16.5310    16.3080    13.8950    24.1750    -9.7010     2.5050 
  140.7500    55.3280    15.8590    15.7680    13.2250    24.1950    -9.7250     2.5160 
  140.8750    57.7940    15.4210    15.3800    12.5800    24.2410    -9.7500     2.5310 
  141.0000    60.5210    15.3000    15.2450    12.0720    24.3150    -9.8410     2.5460 
  141.1250    60.4640    15.5310    15.4330    12.0260    24.2890    -9.9840     2.5540 
  141.2500    58.5020    15.9100    15.7940    12.5470    24.2010   -10.2360     2.5540 
  141.3750    57.3500    16.2030    16.1060    13.0860    24.1380   -10.5720     2.5470 
  141.5000    58.2400    16.1800    16.0900    13.3430    24.1730   -10.8160     2.5380 
  141.6250    59.9790    15.6840    15.4980    13.3520    24.2180   -11.0500     2.5300 
  141.7500    60.5650    14.9980    14.6120    12.7760    24.3420   -11.2450     2.5250 
  141.8750    59.3680    14.5650    13.8720    11.4030    24.3450   -11.4240     2.5170 
  142.0000    57.0800    14.9890    13.7650    10.3020    24.1990   -11.6210     2.4970 
  142.1250    54.2310    17.3770    15.0680     9.9250    24.1230   -11.8660     2.4540 
  142.2500    52.9240    22.3390    18.4200    10.9710    24.2050   -12.0560     2.3930 
  142.3750    55.3400    31.3400    24.9520    15.5130    24.4030   -12.1610     2.3240 
  142.5000    60.6710    45.8610    35.9370    31.3620    24.5400   -12.3460     2.2620 
  142.6250    64.1230    66.0710    52.6670    72.7950    24.5930   -12.6010     2.2210 
  142.7500    64.3460    87.3460    72.0170   108.7700    24.6750   -12.8570     2.1990 
  142.8750    65.0980   105.3600    89.4200   130.2760    24.7930   -13.1070     2.1880 
  143.0000    65.9650   117.2340   100.8660   152.0180    24.8810   -13.3080     2.1800 
  143.1250    62.3720   121.5070   104.8120   167.0120    24.8700   -13.4450     2.1700 
  143.2500    58.4720   121.0830   104.6820   166.4070    24.7320   -13.6150     2.1600 
  143.3750    60.3930   118.0050   102.3620   148.6430    24.5580   -13.8040     2.1530 
  143.5000    67.6570   113.3430    98.8320   141.3200    24.4360   -13.9540     2.1550 
  143.6250    71.3810   106.9270    94.1570   121.8610    24.3990   -14.0050     2.1660 
  143.7500    68.0780    98.7580    88.1380    96.0310    24.4210   -14.0830     2.1860 
  143.8750    63.5360    89.0080    80.5570    76.7210    24.3350   -14.1700     2.2100 
  144.0000    64.1170    78.4760    71.8610    73.2080    24.1300   -14.2970     2.2350 
  144.1250    71.7590    68.5980    63.3320    61.8380    24.1160   -14.4700     2.2570 
  144.2500    78.5650    60.3770    56.1240    51.8600    24.2070   -14.6360     2.2740 
  144.3750    80.2370    54.2010    50.6940    40.8360    24.2610   -14.8420     2.2860 
  144.5000    77.4740    50.0210    47.0430    34.5310    24.2630   -14.9490     2.2910 
  144.6250    75.3790    47.7970    45.1430    34.3850    24.2310   -14.9530     2.2910 
  144.7500    76.8300    46.8960    44.4330    36.3190    24.1960   -14.8310     2.2880 
  144.8750    80.2950    47.0930    44.6940    35.0810    24.2300   -14.6940     2.2820 
  145.0000    82.8340    48.2790    45.8210    32.8510    24.3610   -14.5800     2.2740 
  145.1250    82.6090    50.6420    47.9920    36.7720    24.4030   -14.4800     2.2670 
  145.2500    80.5170    54.0910    51.1430    40.4260    24.4060   -14.4220     2.2620 
  145.3750    77.5450    58.6430    55.2940    42.8370    24.4130   -14.3250     2.2590 
  145.5000    73.7410    64.1920    60.3480    46.0830    24.4570   -14.2840     2.2590 
  145.6250    69.9420    70.5090    66.1090    51.0530    24.4900   -14.3890     2.2600 
  145.7500    68.8420    76.9530    71.9580    59.0070    24.5330   -14.6100     2.2600 
  145.8750    71.0410    83.0080    77.3720    64.7500    24.5060   -14.8410     2.2560 
  146.0000    74.2580    88.2220    81.9740    66.6150    24.4690   -15.0090     2.2470 
  146.1250    76.1570    91.9990    85.2900    73.2690    24.5840   -15.1160     2.2330 
  146.2500    76.5480    94.2670    87.2310    78.8860    24.8100   -15.2330     2.2180 
  146.3750    75.6650    94.9320    87.6720    74.6370    24.9670   -15.3650     2.2070 
  146.5000    73.5380    94.0850    86.7270    75.5320    25.0260   -15.4900     2.2040 
  146.6250    71.4360    91.8510    84.6040    84.1610    25.0110   -15.5380     2.2080 
  146.7500    69.7930    88.8800    81.9450    81.3670    24.9370   -15.5430     2.2160 
  146.8750    68.7780    85.5920    79.1600    67.2260    24.8050   -15.5130     2.2230 
