~V
VERS. 2.00: Ver 2.00
~W
STRT.M 62.0000:
STOP.M 236.0000:
STEP.M 0.1250:
NULL. -999.2500:
UWI. F11006:
~C
DEPT.M :
GR.API :
RML.OHMM :
RI. :
RXO.OHMM :
CALI.CM :
SP.MV :
DEN.GM/CC :
~A
# ...
  140.7500    57.7060    18.6440    16.8270    15.9270    24.4540   -11.1230     2.5160 
  140.8750    58.4620    18.1310    16.2720    15.3750    24.6310   -11.0280     2.5030 
  141.0000    60.1650    17.8440    15.8960    14.4170    24.6430   -10.9050     2.5010 
  141.1250    60.4290    17.8010    15.7340    13.1460    24.5390   -10.8030     2.5110 
  141.2500    59.5590    17.8890    15.7130    13.1650    24.4960   -10.7580     2.5280 
  141.3750    59.0310    17.9990    15.7570    13.9820    24.5350   -10.7750     2.5460 
  141.5000    60.9560    18.0230    15.7760    14.7450    24.5720   -10.8730     2.5610 
  141.6250    63.9540    17.8700    15.6750    15.2270    24.5540   -11.0160     2.5710 
  141.7500    64.6420    17.5930    15.4610    15.4450    24.4870   -11.1650     2.5730 
  141.8750    64.1500    17.2920    15.1900    14.4400    24.3490   -11.3860     2.5700 
  142.0000    64.6680    17.1100    14.9660    13.1060    24.1310   -11.7060     2.5670 
  142.1250    65.3770    17.2540    14.9540    13.0450    23.7710   -12.0810     2.5670 
  142.2500    65.2320    17.7800    15.2370    13.3250    23.3950   -12.4340     2.5720 
  142.3750    65.0420    18.6720    15.8540    13.5390    23.1120   -12.7330     2.5780 
  142.5000    65.2280    19.7770    16.7400    14.3790    22.9860   -12.9690     2.5810 
  142.6250    63.2060    20.7370    17.6710    15.9900    22.9590   -13.1430     2.5760 
  142.7500    61.6270    21.1770    18.3030    18.1570    22.9850   -13.3080     2.5660 
  142.8750    62.1100    20.8600    18.3740    20.1870    23.0350   -13.4350     2.5540 
  143.0000    62.7900    19.7770    17.7830    18.9510    23.1320   -13.4750     2.5460 
  143.1250    62.9830    18.1170    16.5900    15.8230    23.1900   -13.4170     2.5440 
  143.2500    63.4050    16.3620    15.1840    13.4200    23.1540   -13.3180     2.5440 
  143.3750    65.3730    14.8040    13.8250    12.2040    23.1360   -13.2330     2.5410 
  143.5000    66.2380    13.5980    12.6830    11.0860    23.2490   -13.2060     2.5320 
  143.6250    63.7920    12.8250    11.8740    10.2030    23.2810   -13.2390     2.5190 
  143.7500    60.9350    12.3490    11.3330     9.8360    23.1160   -13.2570     2.5090 
  143.8750    61.1080    12.0860    11.0050     9.9280    22.9350   -13.2120     2.5040 
  144.0000    64.0970    11.9650    10.8350     9.8450    22.8670   -13.1480     2.4980 
  144.1250    64.2660    11.9570    10.7960     9.5360    22.9730   -13.1290     2.4840 
  144.2500    61.8150    12.0370    10.8470     9.1760    23.2260   -13.1830     2.4630 
  144.3750    60.0390    12.2150    10.9910     9.0560    23.5530   -13.2760     2.4430 
  144.5000    59.9890    12.4990    11.2330     9.2280    23.7590   -13.3400     2.4380 
  144.6250    60.2270    12.8720    11.5710    10.0200    23.6410   -13.3640     2.4550 
  144.7500    61.5360    13.2460    11.9360    10.4380    23.4170   -13.4040     2.4810 
  144.8750    64.7210    13.5450    12.2530    10.9990    23.1650   -13.4880     2.5050 
  145.0000    66.9990    13.7300    12.4640    11.8330    22.9410   -13.5970     2.5160 
  145.1250    67.1720    13.8090    12.5440    12.0760    22.7430   -13.6830     2.5160 
  145.2500    67.5640    13.8770    12.5750    11.4990    22.5170   -13.7150     2.5130 
  145.3750    67.4490    13.9980    12.6290    11.2760    22.2880   -13.7090     2.5160 
  145.5000    66.5130    14.1900    12.7520    11.3630    22.1480   -13.6930     2.5270 
  145.6250    65.9390    14.4280    12.9530    11.5950    22.1710   -13.6450     2.5440 
  145.7500    65.8920    14.6610    13.1940    11.9620    22.2510   -13.5580     2.5550 
  145.8750    64.6450    14.8730    13.4600    12.3840    22.4220   -13.4860     2.5530 
  146.0000    62.3990    15.0610    13.7470    12.2050    22.8500   -13.4560     2.5390 
  146.1250    60.9090    15.1870    14.0390    12.8370    23.4960   -13.4400     2.5210 
  146.2500    61.0370    15.1790    14.2670    13.9820    24.0590   -13.4080     2.5100 
  146.3750    63.2750    14.9500    14.3330    15.6950    24.3280   -13.3230     2.5110 
  146.5000    66.5860    14.4470    14.1500    17.0070    24.2980   -13.1870     2.5190 
  146.6250    67.1360    13.6880    13.6590    15.3300    24.1070   -13.0810     2.5300 
  146.7500    65.4710    12.8620    12.9980    12.2610    23.9200   -13.0520     2.5400 
  146.8750    63.7580    12.1210    12.3010    10.4220    23.7680   -13.0380     2.5480 
  147.0000    63.6990    11.5690    11.6890     9.7240    23.6560   -12.9820     2.5550 
  147.1250    66.0520    11.2470    11.2440     9.5100    23.5250   -12.9410     2.5600 
  147.2500    68.7220    11.0400    10.9190     9.3380    23.4300   -12.9560     2.5620 
  147.3750    69.8910    10.8500    10.6430     9.2600    23.4150   -13.0330     2.5610 
  147.5000    68.3670    10.6150    10.3510     9.3680    23.4850   -13.1670     2.5580 
  147.6250    66.7560    10.3890    10.0460     9.3430    23.6150   -13.3740     2.5520 
  147.7500    67.1710    10.3730     9.8520     9.2320    23.7450   -13.6160     2.5430 
  147.8750    67.9830    10.8690     9.9730     8.8620    23.7200   -13.9010     2.5300 
  148.0000    67.3750    12.2770    10.7000     8.6840    23.5810   -14.2440     2.5070 
  148.1250    67.1560    15.3330    12.6830     9.2740    23.6510   -14.6220     2.4680 
  148.2500    68.9880    20.1200    16.2910    12.9300    23.9940   -15.0130     2.4150 
  148.3750    70.3240    26.3640    21.7350    27.8840    24.4850   -15.4230     2.3580 
  148.5000    69.5610    32.9130    28.3910    49.2100    24.8330   -15.8460     2.3090 
  148.6250    71.5410    37.2970    34.0660    70.8090    25.0080   -16.2530     2.2810 
  148.7500    78.3090    38.2220    36.6970    65.9430    25.1510   -16.6060     2.2730 
  148.8750    85.5270    36.0550    35.8760    49.8300    25.2600   -16.9150     2.2790 
  149.0000    90.0200    32.6560    32.9790    32.1300    25.3270   -17.1790     2.2900 
  149.1250    89.2750    30.5660    30.4130    22.8350    25.3370   -17.3860     2.3030 
  149.2500    85.8680    30.8070    29.7250    21.3740    25.4520   -17.5480     2.3140 
  149.3750    84.5660    33.3980    31.3440    25.7600    25.5240   -17.7240     2.3240 
  149.5000    86.9750    38.4650    35.1130    30.1220    25.5080   -17.9350     2.3310 
  149.6250    87.0110    45.7550    40.4530    37.2370    25.3770   -18.1370     2.3300 
  149.7500    83.5420    52.7720    45.8490    41.3890    25.2220   -18.3460     2.3180 
  149.8750    80.5130    57.4940    50.2330    50.6300    25.2310   -18.5490     2.2960 
  150.0000    78.9120    59.6350    53.1470    57.9120    25.3310   -18.7360     2.2720 
  150.1250    76.8460    60.4870    54.7830    52.2910    25.1740   -18.8600     2.2600 
  150.2500    76.3560    61.2930    56.0240    48.1370    24.8280   -18.9510     2.2640 
  150.3750    78.7890    62.1920    57.2080    44.7820    24.5360   -18.9850     2.2770 
  150.5000    81.9710    63.0540    58.3030    42.0560    24.3660   -18.9670     2.2880 
  150.6250    84.6380    63.6090    59.0700    33.6350    24.2310   -18.9140     2.2850 
  150.7500    86.8430    63.9890    59.5790    25.4170    24.0160   -18.8330     2.2710 
  150.8750    87.3310    64.5410    60.1280    22.0490    23.7070   -18.6980     2.2580 
  151.0000    85.2070    65.5940    61.0730    22.3390    23.3590   -18.5190     2.2530 
  151.1250    81.2220    67.2570    62.6430    24.0970    23.1090   -18.3970     2.2590 
  151.2500    78.7650    69.0320    64.4670    25.2850    23.1430   -18.3140     2.2600 
  151.3750    78.5020    70.3660    66.0280    25.5060    23.4340   -18.2690     2.2440 
  151.5000    78.5900    70.8180    66.8260    24.3370    23.8520   -18.2430     2.2100 
  151.6250    78.4450    70.2130    66.5330    22.6240    24.3640   -18.2620     2.1650 
  151.7500    78.3970    69.2260    65.6910    22.0110    24.8120   -18.3520     2.1320 
  151.8750    77.6760    68.5920    64.9790    21.8100    25.0560   -18.5330     2.1210 
