~V
VERS. 2.00: Ver 2.00
~W
STRT.M 53.0000:
STOP.M 279.0000:
STEP.M 0.1250:
NULL. -999.2500:
UWI. F11057:
~C
DEPT.M :
GR.API :
RML.OHMM :
RI. :
RXO.OHMM :
CALI.CM :
DEN.GM/CC :
SP.MV :
~A
# ...
  210.5000    79.0210     6.5160     5.0100     5.6040    24.5570     2.3650    -1.0360 
  210.6250    83.6800     6.8090     5.3020     5.6770    24.5600     2.3620    -0.9400 
  210.7500    88.2700     7.1420     5.6460     6.3920    24.5600     2.3550    -0.8840 
  210.8750    94.9940     7.5180     6.0390     7.2650    24.5570     2.3500    -0.8440 
  211.0000   101.4100     7.8820     6.4400     7.8910    24.5550     2.3460    -0.7870 
  211.1250   103.0150     8.1080     6.7510     7.9860    24.5560     2.3440    -0.7450 
  211.2500   100.4620     8.1550     6.9080     7.8210    24.5540     2.3460    -0.7020 
  211.3750    96.3330     8.0540     6.9060     7.6120    24.5410     2.3490    -0.6550 
  211.5000    93.5650     7.8980     6.7970     7.4920    24.5150     2.3500    -0.6590 
  211.6250    93.8980     7.7980     6.6650     7.5080    24.5000     2.3440    -0.6790 
  211.7500    94.5700     7.7880     6.5680     7.6500    24.4920     2.3340    -0.7290 
  211.8750    95.8370     7.8490     6.5140     7.6850    24.4910     2.3260    -0.7980 
  212.0000    98.6610     7.9420     6.4880     7.6270    24.4910     2.3240    -0.9030 
  212.1250    97.4460     8.0430     6.4860     7.4650    24.4910     2.3260    -1.0410 
  212.2500    91.7780     8.1690     6.5160     7.3730    24.4910     2.3260    -1.1960 
  212.3750    87.9900     8.3760     6.6060     7.3710    24.4910     2.3230    -1.3790 
  212.5000    90.3440     8.7600     6.8070     7.5130    24.4900     2.3180    -1.5500 
  212.6250    91.9030     9.5150     7.2340     8.0140    24.4720     2.3110    -1.7590 
  212.7500    88.6220    10.7040     7.9440     8.9900    24.4180     2.3030    -1.9840 
  212.8750    85.8750    12.3540     8.9910    10.0780    24.3390     2.2950    -2.2310 
  213.0000    87.4480    14.4020    10.3810    11.1410    24.2910     2.2900    -2.4720 
  213.1250    90.4880    16.7690    12.1190    12.4350    24.3180     2.2860    -2.6960 
  213.2500    90.1400    19.3350    14.1050    14.4650    24.4420     2.2820    -2.9140 
  213.3750    87.8280    22.1090    16.3300    17.2340    24.6300     2.2760    -3.0960 
  213.5000    86.6320    25.1210    18.8090    19.8920    24.7810     2.2660    -3.2840 
  213.6250    86.0830    28.3830    21.5750    22.4580    24.8260     2.2490    -3.4230 
  213.7500    85.2230    31.7290    24.5090    25.2010    24.8350     2.2320    -3.5400 
  213.8750    82.8430    34.9810    27.4880    28.5600    24.8370     2.2210    -3.6440 
  214.0000    79.3300    37.9370    30.3590    32.6940    24.8370     2.2170    -3.7290 
  214.1250    77.2940    40.2530    32.8440    37.2370    24.8370     2.2200    -3.7980 
  214.2500    75.9520    41.7830    34.7230    40.1160    24.8340     2.2270    -3.8450 
  214.3750    74.4510    42.4740    35.8500    42.1490    24.8340     2.2340    -3.9150 
  214.5000    72.7790    42.4920    36.3000    44.7250    24.8350     2.2370    -3.9670 
  214.6250    75.3840    42.0370    36.2330    41.3400    24.8360     2.2350    -4.0280 
  214.7500    79.8550    41.3550    35.9130    39.0710    24.8340     2.2330    -4.0800 
  214.8750    81.4920    40.5900    35.4660    37.7410    24.8330     2.2340    -4.1320 
  215.0000    80.3490    39.9650    35.0720    39.7530    24.8340     2.2350    -4.1930 
  215.1250    78.8650    39.7370    34.9750    46.2350    24.8360     2.2350    -4.2660 
  215.2500    77.6100    39.8260    35.1720    49.4840    24.8390     2.2360    -4.3460 
  215.3750    75.8310    40.1050    35.5770    45.4170    24.8370     2.2380    -4.4020 
  215.5000    73.4180    40.4830    36.1050    45.5620    24.8370     2.2400    -4.4740 
  215.6250    71.5890    40.9430    36.7130    61.6080    24.8390     2.2400    -4.5300 
  215.7500    72.2900    41.4350    37.3560    69.4520    24.8370     2.2370    -4.6110 
  215.8750    74.9190    41.8110    37.9210    74.3910    24.8340     2.2290    -4.6920 
  216.0000    76.8820    41.9260    38.2600    55.9130    24.8330     2.2230    -4.7610 
  216.1250    76.3940    41.8910    38.3860    40.2680    24.8330     2.2250    -4.8520 
  216.2500    76.2160    42.2220    38.7190    34.5210    24.8330     2.2280    -4.9560 
  216.3750    76.6640    43.3740    39.7120    34.9040    24.8330     2.2240    -5.0920 
  216.5000    76.3590    45.4650    41.5920    40.5330    24.8330     2.2140    -5.2180 
  216.6250    75.2420    48.0930    44.1960    52.7970    24.8330     2.2040    -5.3590 
  216.7500    74.6940    50.1860    46.6090    68.9610    24.8330     2.2000    -5.4990 
  216.8750    75.8930    50.8190    47.9060    69.8620    24.8330     2.2020    -5.6350 
  217.0000    77.8420    49.7860    47.6560    55.1340    24.8330     2.2130    -5.7980 
  217.1250    77.0940    48.1260    46.4690    46.3800    24.8330     2.2280    -5.9340 
  217.2500    73.9440    47.7270    46.0570    42.9890    24.8330     2.2400    -6.0580 
  217.3750    72.0220    49.6900    47.6550    45.2890    24.8330     2.2440    -6.1540 
  217.5000    73.8090    54.0760    51.6720    57.4250    24.8330     2.2430    -6.2500 
  217.6250    74.3890    59.4720    57.2160    79.4250    24.8330     2.2410    -6.3290 
  217.7500    71.6290    62.9810    61.5390   103.6450    24.8330     2.2400    -6.4060 
  217.8750    69.4590    62.7930    62.5900   126.8010    24.8330     2.2360    -6.5000 
  218.0000    70.3590    59.2880    60.1790   143.9380    24.8330     2.2300    -6.5920 
  218.1250    72.6410    54.8820    56.1500   126.2320    24.8330     2.2210    -6.7290 
  218.2500    74.3640    52.1240    53.1880    99.0110    24.8330     2.2120    -6.8760 
  218.3750    75.5330    52.0250    52.5810   103.0560    24.8330     2.2030    -7.0540 
  218.5000    75.2640    54.8520    54.8300   117.4310    24.8340     2.1950    -7.2330 
  218.6250    72.5720    60.9790    60.5080   125.6870    24.8520     2.1870    -7.4420 
  218.7500    68.6970    69.5660    68.9270   152.0320    24.9200     2.1800    -7.6420 
  218.8750    64.0610    79.7530    79.3810   203.7650    25.0510     2.1720    -7.8000 
  219.0000    61.1620    90.2810    89.8530   207.8650    25.2080     2.1630    -7.9350 
  219.1250    63.3860    98.6310    96.8180   147.7930    25.2910     2.1550    -7.9850 
  219.2500    66.6300   102.9120    99.5920   103.8860    25.3160     2.1480    -8.0110 
  219.3750    67.2170   103.6440    99.2830    84.5890    25.3210     2.1440    -7.9860 
  219.5000    65.6170   103.2970    98.6420    87.4720    25.3210     2.1460    -7.9530 
  219.6250    64.2130   105.1330   100.5870   105.6560    25.3210     2.1520    -7.8840 
  219.7500    63.4250   109.6110   104.9300   124.5440    25.3200     2.1570    -7.8000 
  219.8750    63.5540   115.2830   110.0760   129.4620    25.3200     2.1600    -7.7440 
  220.0000    64.7530   120.4250   114.5370   121.0620    25.3200     2.1630    -7.6900 
  220.1250    66.3720   125.0030   118.6000   117.8390    25.3200     2.1620    -7.6920 
  220.2500    67.3150   130.8100   123.8230   142.2290    25.3200     2.1580    -7.7120 
  220.3750    67.1270   138.2380   130.0530   204.9180    25.3200     2.1530    -7.7770 
  220.5000    65.7930   144.9610   134.6030   238.5310    25.3200     2.1490    -7.8430 
  220.6250    65.8700   145.5980   132.4880   202.7840    25.3200     2.1510    -7.9420 
  220.7500    68.3810   139.1760   124.1990   159.8760    25.3200     2.1580    -8.0690 
  220.8750    70.1310   128.5840   113.4720   136.7290    25.3200     2.1660    -8.2090 
  221.0000    69.3890   118.6820   104.7620   118.7460    25.3200     2.1720    -8.3740 
  221.1250    67.4050   114.3110   101.6400   111.6150    25.3200     2.1740    -8.5390 
  221.2500    66.4250   115.8350   103.6370   119.9910    25.3160     2.1750    -8.7070 
  221.3750    65.5340   122.4650   109.8830   128.2950    25.3010     2.1790    -8.8330 
  221.5000    64.9760   132.5010   118.8950   136.1610    25.2610     2.1860    -8.9780 
  221.6250    67.3530   142.9960   128.1150   149.1570    25.2230     2.1930    -9.1000 
