~V
VERS. 2.00: Ver 2.00
~W
STRT.M 50.0000:
STOP.M 283.0000:
STEP.M 0.1250:
NULL. -999.2500:
UWI. F11058:
~C
DEPT.M :
DEN.GM/CC :
GR.API :
RML.OHMM :
RI. :
RXO.OHMM :
CALI.CM :
SP.MV :
~A
# ...
  140.0000     2.2180    73.5390     9.4340     8.4120    10.3440    24.5700   -19.9480 
  140.1250     2.2480    71.8170    10.4850     9.3180    11.6660    24.6030   -19.8760 
  140.2500     2.2950    70.9400    11.4200    10.3280    14.7000    24.6910   -19.8040 
  140.3750     2.3510    72.0800    11.8290    10.9480    19.6160    24.7400   -19.6180 
  140.5000     2.3960    73.6610    11.4920    10.7360    23.2180    24.6970   -19.3500 
  140.6250     2.4130    74.2660    10.5890     9.7460    20.6110    24.6180   -19.0980 
  140.7500     2.4160    75.4740     9.8720     8.7750    14.0310    24.6370   -18.7880 
  140.8750     2.4250    76.2640     9.9740     8.3590     9.6030    24.7180   -18.4240 
  141.0000     2.4620    73.0160    11.3270     8.8590    10.4900    24.7420   -18.1290 
  141.1250     2.5310    64.1130    14.2370    10.7890    19.7580    24.6790   -17.9090 
  141.2500     2.6030    57.7770    17.9340    14.0400    34.3970    24.6050   -17.7570 
  141.3750     2.6520    56.6330    21.2490    17.9870    38.3980    24.5740   -17.8010 
  141.5000     2.6620    57.3320    22.8110    20.9750    32.6070    24.5850   -17.9460 
  141.6250     2.6260    58.1840    21.5760    20.8570    29.4250    24.5540   -18.1210 
  141.7500     2.5660    60.5020    18.7370    18.6040    23.6250    24.4970   -18.3790 
  141.8750     2.5010    63.3590    15.5540    15.7360    17.2500    24.4000   -18.6460 
  142.0000     2.4470    64.0420    12.9030    13.1920    15.5110    24.3310   -18.8980 
  142.1250     2.4140    63.8430    11.1770    11.3480    13.8980    24.3430   -19.1760 
  142.2500     2.3980    65.5750    10.1730    10.1090    11.6900    24.3740   -19.4170 
  142.3750     2.3950    70.3200     9.8190     9.4770     9.9810    24.3860   -19.6170 
  142.5000     2.4010    74.9540    10.0620     9.4490    10.3040    24.3800   -19.8010 
  142.6250     2.4130    71.5400    10.8580    10.0800    10.5790    24.3690   -20.0030 
  142.7500     2.4210    64.4900    11.8710    11.1360    13.5630    24.3150   -20.2650 
  142.8750     2.4160    60.8660    12.7620    12.3200    16.0070    24.2070   -20.5780 
  143.0000     2.3870    62.3340    13.1950    13.1820    16.3240    24.0540   -20.9120 
  143.1250     2.3330    65.2910    12.8910    13.1870    14.7740    23.9960   -21.3500 
  143.2500     2.2740    70.0690    12.1030    12.4900    12.1100    24.0540   -21.8370 
  143.3750     2.2270    77.2830    11.1430    11.4570    10.8690    24.2340   -22.2500 
  143.5000     2.2000    81.4300    10.2990    10.4470    10.3890    24.4350   -22.6940 
  143.6250     2.1930    79.1110     9.7760     9.6920    10.4170    24.5780   -23.2120 
  143.7500     2.1890    77.3610     9.5610     9.1940    10.5090    24.7150   -23.6440 
  143.8750     2.1810    77.1510     9.6750     8.9770    10.8160    24.8670   -24.0850 
  144.0000     2.1780    75.1880    10.1890     9.1140    11.2070    24.9850   -24.4890 
  144.1250     2.2050    69.6480    11.3130     9.8080    11.7510    25.0260   -24.5470 
  144.2500     2.2730    65.5450    13.0560    11.1070    12.4970    24.9900   -24.3210 
  144.3750     2.3730    64.7140    15.3860    13.0900    15.6830    24.9040   -23.9300 
  144.5000     2.4820    64.9520    18.0870    15.6960    25.1340    24.8240   -23.2740 
  144.6250     2.5690    64.6650    20.6460    18.5440    34.8330    24.8000   -22.3040 
  144.7500     2.6260    64.0640    22.5380    20.8980    33.3970    24.8080   -21.2210 
  144.8750     2.6580    62.0390    23.5100    22.2960    28.4470    24.8320   -19.9910 
  145.0000     2.6730    56.6540    23.6520    22.7280    28.3100    24.8490   -18.7520 
  145.1250     2.6740    52.4760    23.2940    22.5190    30.8450    24.8570   -17.7810 
  145.2500     2.6670    54.1670    22.9300    22.2340    30.4010    24.8590   -17.0060 
  145.3750     2.6550    59.0890    22.7750    22.1030    26.8780    24.8590   -16.4050 
  145.5000     2.6460    61.8310    22.8900    22.1880    26.3990    24.8590   -15.9990 
  145.6250     2.6460    61.2230    23.2480    22.5020    26.2610    24.8690   -15.7300 
  145.7500     2.6510    59.4940    23.6460    22.9280    26.6660    24.8850   -15.5630 
  145.8750     2.6560    56.6050    23.8570    23.2750    26.6960    24.8810   -15.5000 
  146.0000     2.6550    53.7240    23.6500    23.2600    26.2220    24.8400   -15.4370 
  146.1250     2.6420    53.7980    22.8380    22.5950    25.6410    24.8170   -15.3670 
  146.2500     2.6190    55.2690    21.6580    21.4670    23.1650    24.8250   -15.3610 
  146.3750     2.5910    55.7810    20.4080    20.1710    20.0700    24.8460   -15.3410 
  146.5000     2.5660    55.4100    19.4070    19.0440    18.3190    24.8230   -15.3280 
  146.6250     2.5470    55.4790    18.9740    18.4300    18.1490    24.7890   -15.3200 
  146.7500     2.5370    55.9100    19.0880    18.3580    18.7990    24.8040   -15.2120 
  146.8750     2.5380    55.7790    19.6650    18.7990    19.7510    24.8400   -15.0530 
  147.0000     2.5530    54.3650    20.5400    19.6400    21.9660    24.8620   -14.9370 
  147.1250     2.5840    52.3960    21.4910    20.6930    24.2660    24.8660   -14.7540 
  147.2500     2.6190    52.3490    22.2810    21.6770    24.7120    24.8500   -14.5680 
  147.3750     2.6440    54.2120    22.7670    22.4080    23.8140    24.8190   -14.4410 
  147.5000     2.6470    56.0520    22.8900    22.7800    24.0400    24.8150   -14.3020 
  147.6250     2.6240    56.3040    22.6670    22.7540    25.4010    24.8560   -14.1420 
  147.7500     2.5940    55.9710    22.3100    22.5150    26.0620    24.8940   -14.0430 
  147.8750     2.5740    55.8130    21.9730    22.2000    24.9710    24.9010   -13.9710 
  148.0000     2.5720    54.7520    21.7560    21.9180    23.3020    24.8900   -13.8810 
  148.1250     2.5910    53.1560    21.6920    21.7310    23.6600    24.8800   -13.8750 
  148.2500     2.6170    51.8860    21.6930    21.6170    24.7120    24.8920   -13.8540 
  148.3750     2.6380    51.0560    21.6890    21.5320    24.1860    24.8930   -13.8230 
  148.5000     2.6450    50.7680    21.6480    21.4420    22.6690    24.8450   -13.8630 
  148.6250     2.6340    49.8870    21.5920    21.3440    22.6380    24.7680   -13.8920 
  148.7500     2.6160    48.6660    21.5600    21.2720    23.7730    24.7280   -13.9330 
  148.8750     2.6000    48.1310    21.5210    21.2260    25.8470    24.7600   -14.0290 
  149.0000     2.5900    48.7620    21.3600    21.1080    26.4790    24.7780   -14.1740 
  149.1250     2.5860    50.2270    20.8700    20.6760    25.3160    24.7550   -14.3910 
  149.2500     2.5830    51.9940    20.0520    19.8690    24.1690    24.6960   -14.6470 
  149.3750     2.5770    53.6250    19.0390    18.7920    22.2910    24.6240   -14.8620 
  149.5000     2.5720    55.5340    18.0770    17.6880    20.1370    24.5630   -15.0100 
  149.6250     2.5640    58.2170    17.4990    16.8850    17.2200    24.5470   -15.1400 
  149.7500     2.5480    61.4960    17.3980    16.5250    17.5770    24.5660   -15.2270 
  149.8750     2.5200    64.4400    17.7560    16.6500    20.1120    24.6330   -15.3000 
  150.0000     2.4850    65.9420    18.4260    17.1890    21.9280    24.7670   -15.3090 
  150.1250     2.4600    64.9710    19.1200    17.9380    22.5570    24.8520   -15.1690 
  150.2500     2.4550    62.8800    19.5150    18.5120    23.4000    24.7930   -15.0500 
  150.3750     2.4720    62.2990    19.4190    18.6350    24.3720    24.6660   -14.9810 
  150.5000     2.5000    62.2710    18.8040    18.2000    25.3850    24.5920   -14.9000 
  150.6250     2.5270    61.1070    17.7910    17.2720    22.0450    24.6110   -14.9580 
  150.7500     2.5470    61.5390    16.7070    16.1730    19.1680    24.6470   -15.1230 
  150.8750     2.5570    63.7080    15.7390    15.1030    16.3580    24.6610   -15.2380 
  151.0000     2.5590    63.8850    14.9590    14.1750    14.8480    24.6220   -15.3210 
  151.1250     2.5510    61.3620    14.3410    13.4230    15.0180    24.5000   -15.4250 
