~V
VERS. 2.00: Ver 2.00
~W
STRT.M 54.0000:
STOP.M 226.0000:
STEP.M 0.1250:
NULL. -999.2500:
UWI. F11002:
~C
DEPT.M :
GR.API :
RML.OHMM :
RI. :
RXO.OHMM :
CALI.CM :
DEN.GM/CC :
SP.MV :
~A
# ...
  211.5000    78.2320    13.6690    11.2380    14.2320    23.9740     2.5070    -8.3030 
  211.6250    78.7210    13.5830    11.1980    13.4010    23.9370     2.4910    -8.1640 
  211.7500    80.5060    13.4390    11.1480    12.2190    23.9030     2.4760    -8.0310 
  211.8750    80.4630    13.2750    11.1220    10.4650    23.8900     2.4690    -7.8970 
  212.0000    77.9120    13.1280    11.1490     9.1060    23.8580     2.4740    -7.7630 
  212.1250    75.4440    13.0270    11.2370     8.5220    23.9050     2.4910    -7.7060 
  212.2500    76.2540    12.9950    11.3660     8.5970    24.1860     2.5150    -7.7010 
  212.3750    79.0220    13.0350    11.4920     8.9190    24.3590     2.5370    -7.6620 
  212.5000    79.3940    13.0810    11.5650     9.2720    24.4010     2.5520    -7.6070 
  212.6250    79.0360    13.0670    11.5580     9.6450    24.4320     2.5540    -7.6110 
  212.7500    80.3350    12.9570    11.4600    10.1570    24.4370     2.5430    -7.6950 
  212.8750    81.9240    12.7660    11.2780    10.9220    24.3120     2.5170    -7.8210 
  213.0000    80.0100    12.5680    11.0610    11.3480    24.1490     2.4810    -7.9050 
  213.1250    75.6860    12.3940    10.8390    11.1110    24.0520     2.4440    -7.9020 
  213.2500    72.6260    12.2340    10.6280    10.4120    24.1240     2.4150    -7.8430 
  213.3750    72.6850    12.0620    10.4400     9.8830    24.2310     2.4050    -7.8470 
  213.5000    73.3890    11.9000    10.2850    10.0870    24.2870     2.4080    -7.9440 
  213.6250    74.0380    11.8150    10.1910    11.1530    24.3030     2.4140    -8.0550 
  213.7500    74.4670    11.8900    10.2080    12.0650    24.2820     2.4090    -8.1540 
  213.8750    74.9260    12.2180    10.4250    10.7320    24.1370     2.3950    -8.2410 
  214.0000    75.4580    12.7420    10.8340     9.8230    23.8920     2.3880    -8.3060 
  214.1250    74.0740    13.3670    11.3820    10.0520    23.6730     2.4010    -8.3030 
  214.2500    71.4580    13.9510    11.9520    11.3200    23.5320     2.4380    -8.2450 
  214.3750    70.7060    14.2950    12.3490    12.9110    23.5500     2.4880    -8.1540 
  214.5000    72.8070    14.3350    12.4660    14.1680    23.6730     2.5300    -8.0120 
  214.6250    75.5880    14.0940    12.2990    14.5490    23.6870     2.5530    -7.8350 
  214.7500    76.9530    13.6830    11.9400    14.5190    23.5530     2.5520    -7.5850 
  214.8750    76.3880    13.2800    11.5480    13.9390    23.4420     2.5320    -7.3000 
  215.0000    75.3990    13.0350    11.2670    12.5670    23.5070     2.5080    -7.0610 
  215.1250    76.1600    13.0060    11.1670    11.0690    23.7640     2.4920    -6.9180 
  215.2500    78.5590    13.1610    11.2530    10.4130    24.1520     2.4870    -6.8670 
  215.3750    78.1900    13.4010    11.4660    12.3110    24.4380     2.4890    -6.8790 
  215.5000    74.8950    13.6110    11.6810    16.4860    24.6490     2.4870    -6.9570 
  215.6250    73.1720    13.7850    11.8590    16.8140    24.7590     2.4770    -7.0780 
  215.7500    74.2880    13.9910    12.0300    14.6670    24.8290     2.4660    -7.2870 
  215.8750    74.5310    14.3570    12.2930    12.5490    24.8260     2.4610    -7.5350 
  216.0000    73.9530    14.9030    12.7120    12.4290    24.6710     2.4630    -7.7920 
  216.1250    73.9530    15.5630    13.2780    16.2810    24.5760     2.4660    -8.0780 
  216.2500    73.9530    16.1840    13.8870    24.1440    24.7370     2.4700    -8.3550 
  216.3750    73.9530    16.5440    14.3270    23.7240    24.9770     2.4800    -8.5680 
  216.5000    73.9530    16.5930    14.4870    14.7170    24.7770     2.5020    -8.7300 
  216.6250    73.9530    16.3820    14.3790    11.6580    24.6110     2.5370    -8.8620 
  216.7500    73.9530    16.0430    14.1100    10.7790    24.5140     2.5720    -8.9300 
  216.8750    73.9530    15.7130    13.8100     9.5350    24.3600     2.5870    -8.9840 
  217.0000    73.9530    15.4230    13.5350     8.9210    24.2490     2.5780    -9.0080 
  217.1250    73.9530    15.1130    13.2440     9.4570    24.2210     2.5570    -9.0320 
  217.2500    73.9530    14.7120    12.8780    10.8780    24.2710     2.5380    -9.0730 
  217.3750    73.9530    14.1980    12.4270    11.5820    24.3570     2.5360    -9.1160 
  217.5000    73.9530    13.6880    11.9770    10.1800    24.3830     2.5430    -9.1700 
  217.6250    73.9530    13.3070    11.6150     7.8050    24.3340     2.5510    -9.2330 
  217.7500    73.9530    13.1520    11.4130     6.4150    24.2530     2.5530    -9.3060 
  217.8750    73.9530    13.2910    11.4450     6.3640    24.1490     2.5540    -9.4220 
  218.0000    73.9530    13.6290    11.6610     7.2130    24.0680     2.5590    -9.6260 
  218.1250    73.9530    14.0850    12.0040     8.4320    23.9990     2.5650    -9.7960 
  218.2500    73.9530    14.5730    12.3990     9.4810    23.9190     2.5650    -9.9140 
  218.3750    73.9530    14.9860    12.7370    10.5320    23.8760     2.5540   -10.0710 
  218.5000    73.9530    15.2470    12.9380    12.3050    23.8550     2.5390   -10.2280 
  218.6250    73.9530    15.3230    12.9830    14.8350    23.8390     2.5270   -10.3460 
  218.7500    73.9530    15.2530    12.9230    16.8120    23.7910     2.5220   -10.4310 
  218.8750    73.9530    15.1600    12.8600    15.8770    23.7280     2.5250   -10.4410 
  219.0000    73.9530    15.1840    12.8830    14.9180    23.6790     2.5280   -10.3730 
  219.1250    73.9530    15.3760    13.0180    13.6770    23.6210     2.5280   -10.2760 
  219.2500    73.9530    15.6930    13.2370    11.9490    23.5850     2.5230   -10.1790 
  219.3750    73.9530    15.9950    13.4700    11.7960    23.5930     2.5150   -10.0330 
  219.5000    73.9530    16.1440    13.6450    14.2380    23.6340     2.5100    -9.8460 
  219.6250    73.9530    16.0840    13.7170    19.1100    23.6640     2.5100    -9.6530 
  219.7500    73.9530    15.8510    13.6470    20.0120    23.6680     2.5200    -9.5060 
  219.8750    73.9530    15.5300    13.4080    14.3970    23.6480     2.5390    -9.3930 
  220.0000    73.9530    15.1970    13.0840    11.6600    23.6470     2.5600    -9.2730 
  220.1250    73.9530    14.8420    12.7440    10.8830    23.6640     2.5770    -9.1390 
  220.2500    73.9530    14.4240    12.4360    10.9180    23.6770     2.5810    -9.0140 
  220.3750    73.9530    13.9450    12.1810    10.5580    23.6710     2.5680    -8.9090 
  220.5000    73.9530    13.5130    11.9650    10.0120    23.6810     2.5430    -8.8500 
  220.6250    73.9530    13.2400    11.7890     9.4740    23.7230     2.5170    -8.7900 
  220.7500    73.9530    13.1780    11.6690     9.8200    23.7690     2.5000    -8.6970 
  220.8750    73.9530    13.2930    11.6280    10.8740    23.7960     2.4990    -8.5580 
  221.0000    73.9530    13.4440    11.6370    10.6330    23.7770     2.5100    -8.3900 
  221.1250    73.9530    13.5540    11.6610    10.2870    23.7600     2.5260    -8.2610 
  221.2500    73.9530    13.6030    11.6800    10.1550    23.7180     2.5380    -8.1600 
  221.3750    73.9530    13.6090    11.6880     9.6710    23.6660     2.5370    -8.0830 
  221.5000    73.9530    13.6060    11.6950     9.1250    23.5850     2.5250    -8.0380 
  221.6250    73.9530    13.6020    11.7020     8.4910    23.5260     2.5080    -8.0310 
  221.7500    73.9530    13.5970    11.7090     7.9130    23.5200     2.4950    -8.0700 
  221.8750    73.9530    13.5920    11.7110     7.8490    23.5160     2.4940    -8.1800 
  222.0000    73.9530    13.5890    11.7110     8.0300    23.5110     2.5040    -8.3090 
  222.1250    73.9530    13.5890    11.7110     8.2680    23.4990     2.5200    -8.4390 
  222.2500    73.9530    13.5890    11.7110     8.1310    23.4390     2.5300    -8.5550 
  222.3750    73.9530    13.5890    11.7110     7.8690    23.3980     2.5270    -8.5780 
  222.5000    73.9530    13.5890    11.7110     7.9180    23.4100     2.5150    -8.5030 
  222.6250    73.9530    13.5890    11.7110     8.2980    23.4740     2.5030    -8.4390 
