~V
VERS. 2.00: Ver 2.00
~W
STRT.M 57.0000:
STOP.M 278.0000:
STEP.M 0.1250:
NULL. -999.2500:
UWI. F11043:
~C
DEPT.M :
SP.MV :
GR.API :
RML.OHMM :
RI. :
RXO.OHMM :
CALI.CM :
DEN.GM/CC :
~A
# ...
  225.7500   -17.5380    79.2880     9.6630     8.1070     8.9560    24.1710     2.4520 
  225.8750   -17.3320    81.0910     9.5960     7.6900     9.0240    24.1720     2.4230 
  226.0000   -17.2240    84.1470    10.0420     7.8590     9.1760    24.1710     2.4130 
  226.1250   -17.2000    86.6240    10.4580     8.2560     9.4350    24.1680     2.4030 
  226.2500   -17.2030    87.7960    10.6150     8.5830     9.6880    24.1710     2.3930 
  226.3750   -17.2190    89.0150    10.5670     8.7700     9.7030    24.1720     2.3900 
  226.5000   -17.2610    91.3940    10.4430     8.8480     9.5850    24.1670     2.3930 
  226.6250   -17.3430    95.0670    10.3440     8.8720     9.5360    24.1680     2.3970 
  226.7500   -17.4680    98.8440    10.3010     8.8950     9.8680    24.1710     2.3960 
  226.8750   -17.6390   102.6300    10.3120     8.9280    10.1210    24.1680     2.3930 
  227.0000   -17.8280   106.7220    10.3610     8.9620    10.1330    24.1640     2.3890 
  227.1250   -17.9950   110.3460    10.4270     8.9770     9.9760    24.1570     2.3860 
  227.2500   -18.1090   110.8410    10.4920     8.9680     9.9730    24.1550     2.3820 
  227.3750   -18.1820   107.7280    10.5450     8.9450     9.8460    24.1480     2.3810 
  227.5000   -18.2130   104.6430    10.5790     8.9190     9.7190    24.1480     2.3850 
  227.6250   -18.2020   106.1090    10.5820     8.8930     9.7090    24.1570     2.3920 
  227.7500   -18.1610   108.1340    10.5510     8.8560     9.5540    24.1600     2.3930 
  227.8750   -18.0650   107.5310    10.4820     8.7940     9.4240    24.1520     2.3870 
  228.0000   -17.9440   107.2890    10.3790     8.7050     9.1930    24.1490     2.3770 
  228.1250   -17.8410   108.7990    10.2700     8.6030     8.9610    24.1520     2.3730 
  228.2500   -17.7550   107.8680    10.2120     8.5330     8.7760    24.1500     2.3750 
  228.3750   -17.6830   104.1950    10.2620     8.5290     8.7440    24.1490     2.3800 
  228.5000   -17.6210   103.3350    10.4460     8.5970     8.8550    24.1580     2.3830 
  228.6250   -17.5670   107.5600    10.7410     8.7020     9.0290    24.1550     2.3780 
  228.7500   -17.5200   111.3210    11.0220     8.7630     9.2890    24.1470     2.3650 
  228.8750   -17.4960   112.5850    11.1680     8.7150     9.4260    24.1500     2.3490 
  229.0000   -17.4990   111.4000    11.0990     8.5280     9.2390    24.1530     2.3350 
  229.1250   -17.5350   109.4520    10.8000     8.2180     8.9510    24.1530     2.3220 
  229.2500   -17.5960   109.4760    10.4690     7.9090     8.9340    24.1570     2.3110 
  229.3750   -17.6480   110.9920    10.4070     7.7590     9.1210    24.1570     2.3050 
  229.5000   -17.6820   110.2550    11.0600     7.9880     9.6370    24.1600     2.3080 
  229.6250   -17.7000   105.6230    13.3740     9.0530    10.4460    24.1640     2.3150 
  229.7500   -17.7340    98.4870    18.1230    11.4080    12.3470    24.1690     2.3200 
  229.8750   -17.7760    87.7410    26.4990    15.9570    17.3410    24.1860     2.3240 
  230.0000   -17.8530    74.5140    39.7520    23.9720    34.8730    24.2190     2.3290 
  230.1250   -17.9730    66.7590    59.4460    37.4010    66.3890    24.2780     2.3290 
  230.2500   -18.1270    67.2840    82.7900    54.6230    92.2560    24.2970     2.3140 
  230.3750   -18.2860    69.0120   105.3710    72.0110   102.9500    24.3080     2.2860 
  230.5000   -18.4330    67.8310   120.4300    85.0610   119.0090    24.3080     2.2510 
  230.6250   -18.5520    66.4320   124.7360    90.6490   120.7160    24.3010     2.2200 
  230.7500   -18.6190    66.3710   123.2830    91.3730   118.9190    24.3040     2.2000 
  230.8750   -18.6810    65.5790   119.4500    89.4180   117.2180    24.3070     2.1960 
  231.0000   -18.7260    62.9000   115.0690    86.3460   124.5520    24.3010     2.2050 
  231.1250   -18.7270    62.0200   111.4100    83.4230   113.7460    24.2980     2.2210 
  231.2500   -18.6950    63.2020   109.1050    81.4760    97.1450    24.2950     2.2340 
  231.3750   -18.6630    64.0190   107.9760    80.5190    95.2770    24.2900     2.2410 
  231.5000   -18.6400    63.3340   106.8380    79.7360   101.5750    24.2960     2.2420 
  231.6250   -18.6310    61.0000   103.3090    77.4500   105.9380    24.3100     2.2390 
  231.7500   -18.6490    60.2850    96.4950    72.9250   101.4850    24.3110     2.2360 
  231.8750   -18.6770    63.2690    87.2540    66.5700    88.8360    24.3100     2.2370 
  232.0000   -18.7380    68.9930    78.0710    59.9080    67.0950    24.3070     2.2410 
  232.1250   -18.8340    71.8210    72.4650    55.3180    54.3480    24.2980     2.2490 
  232.2500   -18.9540    70.4300    71.6570    53.9480    51.0010    24.3050     2.2570 
  232.3750   -19.0840    67.7930    76.0340    56.3900    53.9580    24.3120     2.2610 
  232.5000   -19.2260    65.2090    85.4200    62.8190    65.3140    24.3020     2.2600 
  232.6250   -19.3740    62.9320    99.3840    73.1980    91.1820    24.2970     2.2570 
  232.7500   -19.5010    62.4340   114.5230    84.9220   112.5660    24.2880     2.2540 
  232.8750   -19.6180    63.5880   126.9770    95.0470   111.2280    24.2410     2.2490 
  233.0000   -19.7140    65.1260   133.2780   100.8530    97.6180    24.1880     2.2380 
  233.1250   -19.7570    65.8110   131.6300   100.6060    95.0870    24.1620     2.2200 
  233.2500   -19.7510    66.2320   125.8660    96.8140    87.0360    24.1510     2.2050 
  233.3750   -19.7270    65.0480   119.0320    91.7670    77.7010    24.1480     2.2000 
  233.5000   -19.6840    63.6300   113.1160    87.2010    78.2460    24.1580     2.2060 
  233.6250   -19.6590    66.6990   109.1470    84.1540    74.6170    24.1500     2.2210 
  233.7500   -19.6690    71.7970   106.7340    82.3900    70.0920    24.1270     2.2450 
  233.8750   -19.6870    74.6020   105.3880    81.4920    72.5490    24.1120     2.2800 
  234.0000   -19.6780    74.9570   104.4190    80.9090    81.1290    24.1130     2.3150 
  234.1250   -19.6440    75.5420   103.3080    80.2630    92.7680    24.1220     2.3300 
  234.2500   -19.5890    76.9450   102.2510    79.6790   100.3110    24.1190     2.3250 
  234.3750   -19.5300    79.4420   101.8740    79.5880    87.1620    24.1160     2.3110 
  234.5000   -19.4880    83.7030   102.8680    80.4830    73.2720    24.1220     2.2980 
  234.6250   -19.4350    87.2000   105.9230    82.8890    81.2480    24.0980     2.2970 
  234.7500   -19.3820    87.1360   110.4700    86.4300   102.2340    24.0520     2.3060 
  234.8750   -19.3190    85.4560   115.7040    90.5660   106.3450    24.0280     2.3210 
  235.0000   -19.2500    84.1350   120.5800    94.5880   101.5290    24.0120     2.3360 
  235.1250   -19.1890    81.6500   123.9780    97.6580   103.8830    23.9880     2.3500 
  235.2500   -19.1250    80.1790   126.0450    99.7390   100.3970    24.0000     2.3580 
  235.3750   -19.0430    80.1750   127.5400   101.2850    99.2220    24.0130     2.3550 
  235.5000   -18.9450    80.6390   129.3390   102.9000    97.0390    23.9790     2.3420 
  235.6250   -18.8720    80.0200   131.8910   104.9510    93.3770    23.9710     2.3230 
  235.7500   -18.8050    78.9950   134.5310   107.1140    91.1980    23.9960     2.2980 
  235.8750   -18.7190    77.7300   136.2600   108.7590    96.3640    24.0110     2.2690 
  236.0000   -18.5970    74.9990   136.2330   109.2160   100.4150    23.9850     2.2490 
  236.1250   -18.4230    72.4830   134.1500   108.1020    95.9700    23.9690     2.2460 
  236.2500   -18.2620    71.5250   131.3210   106.3430    91.5400    23.9680     2.2500 
  236.3750   -18.1140    70.2860   128.8860   104.8750    92.8230    23.9700     2.2500 
  236.5000   -17.9870    68.4680   127.6170   104.4480    89.2900    23.9950     2.2440 
  236.6250   -17.8530    68.5040   127.7560   105.4460    96.4480    24.0090     2.2300 
  236.7500   -17.7030    70.5720   128.1580   106.9200   115.3780    24.0090     2.2140 
  236.8750   -17.5400    70.8380   127.5510   107.7000   116.0960    24.0070     2.2030 
