~V
VERS. 2.00: Ver 2.00
~W
STRT.M 55.0000:
STOP.M 276.0000:
STEP.M 0.1250:
NULL. -999.2500:
UWI. F11046:
~C
DEPT.M :
GR.API :
RML.OHMM :
RI. :
RXO.OHMM :
CALI.CM :
DEN.GM/CC :
SP.MV :
~A
# ...
   66.2500    65.1130     7.3270     8.1450    10.3740    28.5660     2.0010   -22.2780 
   66.3750    67.4530     7.2830     8.0440     9.9850    28.2050     1.9670   -21.8920 
   66.5000    72.1070     7.2700     7.9600     9.5150    27.1750     1.9590   -21.6380 
   66.6250    73.5340     7.3160     7.9230     9.7370    26.0900     1.9930   -21.5220 
   66.7500    71.2060     7.4200     7.9330    10.0690    25.4740     2.0460   -21.5190 
   66.8750    68.1350     7.5700     7.9800    10.4540    25.2850     2.0970   -21.5380 
   67.0000    66.6070     7.7410     8.0420    10.6560    25.2660     2.1320   -21.6680 
   67.1250    66.1530     7.8820     8.0860    10.7010    25.2780     2.1490   -21.7380 
   67.2500    66.6900     7.9630     8.0940    10.5720    25.3110     2.1600   -21.7440 
   67.3750    68.7040     7.9760     8.0620    10.2250    25.3520     2.1690   -21.6770 
   67.5000    72.8650     7.9430     8.0000     9.8860    25.3620     2.1780   -21.5580 
   67.6250    77.2590     7.8980     7.9340     9.6890    25.3250     2.1820   -21.3950 
   67.7500    77.7790     7.8720     7.8840     9.7620    25.2820     2.1820   -21.2290 
   67.8750    74.1330     7.8740     7.8600     9.9600    25.2620     2.1770   -21.1540 
   68.0000    70.8610     7.9010     7.8580     9.9200    25.2630     2.1700   -21.1250 
   68.1250    72.1710     7.9470     7.8690     9.8510    25.2550     2.1660   -21.2260 
   68.2500    73.0230     7.9980     7.8760     9.7510    25.2320     2.1670   -21.3170 
   68.3750    71.2970     8.0500     7.8660     9.6640    25.2080     2.1730   -21.4270 
   68.5000    70.2390     8.0990     7.8350     9.7180    25.1980     2.1790   -21.5520 
   68.6250    72.3560     8.1510     7.7880     9.9000    25.1980     2.1820   -21.6330 
   68.7500    72.3460     8.2000     7.7350     9.8080    25.1980     2.1810   -21.7440 
   68.8750    69.9220     8.2170     7.6740     9.6350    25.1990     2.1780   -21.9110 
   69.0000    69.9080     8.1550     7.5800     9.7520    25.2140     2.1730   -22.1140 
   69.1250    73.6920     7.9650     7.4010    10.2080    25.2690     2.1670   -22.2540 
   69.2500    76.2320     7.7260     7.1470    10.8150    25.3710     2.1570   -22.2540 
   69.3750    76.2440     7.6200     6.9080    11.1590    25.4930     2.1500   -22.0530 
   69.5000    76.2420     7.9150     6.8720    10.9200    25.5890     2.1590   -21.6320 
   69.6250    77.6870     9.0490     7.4070    11.8320    25.5680     2.2090   -21.1190 
   69.7500    79.1890    11.0780     8.6980    18.1500    25.4770     2.3060   -20.5880 
   69.8750    78.5400    13.8090    10.8520    32.8380    25.3870     2.4370   -20.0980 
   70.0000    75.1560    16.5120    13.6280    59.3450    25.2570     2.5680   -19.7940 
   70.1250    71.4230    17.6760    15.7560    73.9530    25.1380     2.6410   -19.7500 
   70.2500    68.8840    16.7480    15.8160    60.8340    25.1070     2.6340   -20.1000 
   70.3750    66.6240    14.2110    13.8390    32.8640    25.1570     2.5510   -20.7880 
   70.5000    64.0290    11.2620    11.1490    15.7550    25.2100     2.4240   -21.7600 
   70.6250    64.4840     9.1420     9.0190    11.3450    25.1840     2.3040   -22.9510 
   70.7500    66.4940     8.0510     7.6880    10.3960    25.1200     2.2230   -24.1830 
   70.8750    67.1690     7.7860     7.0630    10.4280    25.0940     2.1840   -25.2910 
   71.0000    65.8230     8.0260     6.9700    10.7910    25.1120     2.1740   -26.1240 
   71.1250    65.6920     8.4550     7.2180    11.0320    25.1380     2.1740   -26.7660 
   71.2500    66.2790     8.8030     7.5290    11.0900    25.1770     2.1720   -27.1920 
   71.3750    66.6460     8.9830     7.7700    10.8380    25.1690     2.1670   -27.4660 
   71.5000    66.9820     9.0020     7.9000    10.5330    24.9980     2.1640   -27.5890 
   71.6250    66.9310     8.9210     7.9260    10.3440    24.6310     2.1660   -27.5930 
   71.7500    65.4100     8.8320     7.9070    10.3000    24.4290     2.1740   -27.6310 
   71.8750    63.6940     8.7760     7.8840    10.4620    24.4070     2.1830   -27.7290 
   72.0000    65.0430     8.7630     7.8760    10.7830    24.5170     2.1870   -27.8750 
   72.1250    69.2840     8.7820     7.8860    10.9260    24.8180     2.1760   -27.9940 
   72.2500    71.2260     8.7960     7.8920    10.9860    25.2150     2.1490   -27.9790 
   72.3750    69.8910     8.7680     7.8650    10.9760    25.5440     2.1120   -27.7720 
   72.5000    66.4570     8.6590     7.7700    10.9830    25.6110     2.0790   -27.2960 
   72.6250    65.5230     8.4250     7.5460    10.7070    25.3040     2.0720   -26.4110 
   72.7500    69.3510     8.1090     7.2120    10.2650    24.8450     2.1000   -25.0950 
   72.8750    76.0280     7.7960     6.8380     9.5030    24.5220     2.1580   -23.4180 
   73.0000    82.7980     7.6090     6.5390     8.2920    24.3880     2.2330   -21.6500 
   73.1250    87.0010     7.7130     6.4640     7.0000    24.3050     2.2980   -20.0670 
   73.2500    88.5930     8.1060     6.6370     6.6790    24.1990     2.3330   -18.9980 
   73.3750    87.4660     8.7160     7.0380     8.0960    24.1590     2.3300   -18.5600 
   73.5000    84.6610     9.3830     7.5760    11.2770    24.2010     2.2920   -18.7750 
   73.6250    80.4240     9.8650     8.0700    12.3910    24.2730     2.2360   -19.6310 
   73.7500    74.1150    10.0530     8.3660    11.0710    24.2430     2.1860   -20.8960 
   73.8750    68.0480     9.9600     8.4190    10.6620    24.3580     2.1530   -22.5460 
   74.0000    63.8720     9.7010     8.2910    11.0420    24.6030     2.1410   -24.2680 
   74.1250    63.0500     9.4290     8.0960    11.1290    24.8370     2.1450   -25.8350 
   74.2500    64.1350     9.2400     7.9340    11.1850    25.0030     2.1570   -27.0450 
   74.3750    65.8700     9.1530     7.8280    11.2600    25.0720     2.1710   -27.8300 
   74.5000    65.9430     9.1640     7.7770    11.2460    25.0960     2.1860   -28.2230 
   74.6250    64.3020     9.2890     7.8040    11.2280    25.1210     2.1980   -28.3530 
   74.7500    63.2940     9.5080     7.9180    11.1870    25.1620     2.2060   -28.3850 
   74.8750    63.5930     9.7910     8.1080    11.3380    25.2060     2.2080   -28.2290 
   75.0000    64.8360    10.0710     8.3310    11.9560    25.1910     2.2020   -27.9850 
   75.1250    65.7220    10.2380     8.5020    12.8140    25.0840     2.1910   -27.6180 
   75.2500    64.6880    10.2330     8.5570    12.5560    24.9360     2.1810   -27.1980 
   75.3750    62.2370    10.0560     8.4770    11.1880    24.9220     2.1750   -26.8330 
   75.5000    60.2210     9.7670     8.2960    10.5170    25.2120     2.1720   -26.5510 
   75.6250    61.2550     9.4710     8.0870    10.6870    25.7100     2.1660   -26.3830 
   75.7500    63.6820     9.2610     7.9200    11.0440    26.1340     2.1560   -26.2430 
   75.8750    64.9480     9.1760     7.8250    11.3310    26.3070     2.1430   -26.0750 
   76.0000    63.5850     9.2220     7.8220    11.4900    26.2380     2.1300   -25.7940 
   76.1250    61.4430     9.3830     7.9310    11.3900    25.9680     2.1210   -25.1500 
   76.2500    61.2290     9.5560     8.0950    11.4320    25.7230     2.1290   -24.0730 
   76.3750    62.0810     9.6200     8.2190    11.3090    25.6320     2.1640   -22.4420 
   76.5000    64.4670     9.4570     8.1850    12.1710    25.5410     2.2300   -20.3990 
   76.6250    71.6240     8.9610     7.8560    12.5730    25.3070     2.3100   -18.0910 
   76.7500    82.9440     8.2740     7.3100    10.9010    25.0690     2.3680   -15.7110 
   76.8750    93.9860     7.5790     6.7040     7.3180    24.9550     2.3830   -13.4640 
   77.0000   100.0180     7.0660     6.2130     5.7670    24.9410     2.3570   -11.3900 
   77.1250    97.6730     6.9010     5.9920     5.9160    24.9800     2.3160    -9.8140 
   77.2500    93.6790     7.0110     6.0250     6.2060    25.0360     2.2900    -8.7560 
   77.3750    92.2730     7.2810     6.2650     6.7780    25.0820     2.2890    -8.2300 
