~V
VERS. 2.00: Ver 2.00
~W
STRT.M 53.0000:
STOP.M 220.0000:
STEP.M 0.1250:
NULL. -999.2500:
UWI. F11005:
~C
DEPT.M :
DEN.GM/CC :
GR.API :
RML.OHMM :
RI. :
RXO.OHMM :
CALI.CM :
SP.MV :
~A
# ...
  109.2500     2.2340    67.9910     8.3110     7.6350     8.9250    23.5100   -21.0140 
  109.3750     2.2670    62.3980     8.6060     7.7580     9.1230    23.5340   -20.5560 
  109.5000     2.3250    62.7600     9.3730     8.1920     9.3590    23.5720   -19.8650 
  109.6250     2.3960    69.0150    10.6330     9.0850     9.7510    23.6910   -18.8560 
  109.7500     2.4470    71.8200    11.8680    10.1710    11.4030    23.9150   -17.5500 
  109.8750     2.4600    70.7010    12.4380    10.9240    16.9640    24.2030   -16.0670 
  110.0000     2.4320    70.9680    11.8590    10.6960    25.3580    24.4310   -14.5360 
  110.1250     2.3820    76.2050    10.1380     9.2110    18.7830    24.7200   -13.0990 
  110.2500     2.3340    83.3100     8.1520     7.3720     9.1800    25.0700   -11.9690 
  110.3750     2.2950    90.0590     6.4920     5.8190     5.3580    25.2690   -11.3100 
  110.5000     2.2600    94.8810     5.4610     4.8230     4.3980    25.0750   -11.1730 
  110.6250     2.2250    95.2460     5.2550     4.5100     4.4870    24.5240   -11.6790 
  110.7500     2.1930    91.2090     5.6830     4.7230     5.1680    24.0180   -12.6910 
  110.8750     2.1680    84.7000     6.5360     5.3690     6.6170    23.6320   -14.0660 
  111.0000     2.1520    80.2900     7.5670     6.2870     7.9290    23.3950   -15.6400 
  111.1250     2.1410    80.4170     8.5110     7.2480     8.1070    23.3360   -17.3130 
  111.2500     2.1330    82.4280     9.2170     8.0370     7.8770    23.3930   -18.9510 
  111.3750     2.1290    86.3330     9.6420     8.5650     7.9640    23.5130   -20.4360 
  111.5000     2.1300    89.2280     9.8110     8.8190     8.7280    23.6820   -21.7000 
  111.6250     2.1370    86.0490     9.7570     8.8110     9.4210    23.8650   -22.7090 
  111.7500     2.1460    78.3460     9.5930     8.6500     9.5280    23.9750   -23.4930 
  111.8750     2.1550    71.8970     9.3900     8.4050     9.0280    23.9590   -24.0360 
  112.0000     2.1650    69.2950     9.2200     8.1510     8.3130    23.8050   -24.3840 
  112.1250     2.1750    68.9070     9.1510     7.9620     8.0690    23.6690   -24.5980 
  112.2500     2.1870    69.6810     9.1790     7.8570     8.2510    23.6290   -24.7070 
  112.3750     2.1980    70.3140     9.2760     7.8310     8.6140    23.6530   -24.6700 
  112.5000     2.2080    71.3490     9.4120     7.8580     8.6030    23.6890   -24.5150 
  112.6250     2.2130    71.9030     9.5680     7.9200     8.1080    23.6860   -24.3210 
  112.7500     2.2170    71.7830     9.7380     7.9970     7.9660    23.6780   -24.1360 
  112.8750     2.2160    70.5430     9.9140     8.0840     8.4020    23.6580   -23.9810 
  113.0000     2.2120    68.5620    10.0760     8.1770     8.7610    23.6270   -23.9270 
  113.1250     2.2010    69.0290    10.1780     8.2600     8.9370    23.6110   -24.0120 
  113.2500     2.1880    71.8790    10.1970     8.3070     9.1390    23.6060   -24.1560 
  113.3750     2.1790    74.8770    10.1270     8.2910     9.4020    23.6110   -24.3430 
  113.5000     2.1790    74.3410     9.9960     8.2100     9.5400    23.6420   -24.5740 
  113.6250     2.1890    70.7860     9.8870     8.1070     9.2270    23.7220   -24.7830 
  113.7500     2.2000    69.9920     9.8910     8.0630     8.6720    23.8090   -24.9230 
  113.8750     2.2020    70.7670    10.0620     8.1350     8.2570    23.8820   -24.9950 
  114.0000     2.1920    71.2560    10.3850     8.3350     8.3240    23.9830   -24.9790 
  114.1250     2.1770    70.8160    10.7510     8.6110     8.4050    24.1160   -24.8100 
  114.2500     2.1660    70.2310    10.9860     8.8260     8.1540    24.2150   -24.5340 
  114.3750     2.1600    68.5190    10.9820     8.8740     8.0310    24.2970   -24.2000 
  114.5000     2.1570    65.7210    10.7290     8.7200     8.2150    24.3660   -23.7900 
  114.6250     2.1530    66.6500    10.3250     8.4220     8.5370    24.3220   -23.3120 
  114.7500     2.1500    71.2550     9.9600     8.1330     8.7000    24.1800   -22.8720 
  114.8750     2.1490    75.2640     9.7390     7.9430     8.7940    24.0470   -22.5160 
  115.0000     2.1550    76.3660     9.6880     7.8870     8.8880    23.9310   -22.2030 
  115.1250     2.1640    75.0430     9.7790     7.9560     9.0070    23.8190   -21.8650 
  115.2500     2.1730    72.5230     9.9100     8.0660     9.1120    23.7750   -21.5170 
  115.3750     2.1780    70.3730    10.0260     8.1570     9.1080    23.8030   -21.2040 
  115.5000     2.1800    70.0090    10.1000     8.1970     9.0180    23.8460   -20.9430 
  115.6250     2.1790    72.2920    10.1210     8.1760     8.9390    23.8620   -20.6620 
  115.7500     2.1790    73.4890    10.1030     8.1250     8.9310    23.8380   -20.3290 
  115.8750     2.1800    70.8490    10.0560     8.0650     8.9190    23.7760   -19.9910 
  116.0000     2.1830    66.8980     9.9970     8.0070     8.8690    23.7180   -19.6560 
  116.1250     2.1950    67.2780     9.9860     7.9760     8.7730    23.6910   -19.3420 
  116.2500     2.2170    71.0300    10.0930     8.0130     8.7420    23.7040   -19.0620 
  116.3750     2.2500    73.7040    10.3790     8.1690     8.6670    23.7190   -18.8250 
  116.5000     2.2880    72.3390    10.8510     8.4730     8.5300    23.7060   -18.6570 
  116.6250     2.3160    68.8870    11.4200     8.9060     8.8660    23.6690   -18.6080 
  116.7500     2.3230    65.6550    11.8710     9.3200     9.5330    23.6690   -18.7120 
  116.8750     2.3100    63.7700    12.0180     9.5560    10.3110    23.7350   -18.9590 
  117.0000     2.2810    63.5820    11.7690     9.5010    10.5470    23.8520   -19.3030 
  117.1250     2.2480    64.5380    11.1620     9.1450    10.0350    24.0140   -19.7150 
  117.2500     2.2230    65.5840    10.4850     8.7010     9.4540    24.1660   -20.1260 
  117.3750     2.2100    66.7880     9.9520     8.3360     9.1840    24.3080   -20.4590 
  117.5000     2.2110    68.1390     9.6680     8.1440     9.0600    24.4210   -20.6490 
  117.6250     2.2230    69.8700     9.6100     8.1320     9.0040    24.4650   -20.6420 
  117.7500     2.2330    71.1310     9.5710     8.1500     9.0440    24.4670   -20.3580 
  117.8750     2.2360    71.5590     9.3950     8.0660     9.2130    24.4890   -19.7070 
  118.0000     2.2300    70.4900     9.0110     7.7980     8.8550    24.6370   -18.7680 
  118.1250     2.2210    70.6610     8.4430     7.3470     7.6200    24.8760   -17.7230 
  118.2500     2.2190    73.6410     7.8510     6.8480     6.3550    25.1270   -16.6780 
  118.3750     2.2250    78.1990     7.3490     6.4000     6.0160    25.3560   -15.6280 
  118.5000     2.2380    82.2400     7.0000     6.0560     6.0210    25.4900   -14.5950 
  118.6250     2.2510    84.0200     6.8240     5.8350     5.7880    25.5280   -13.6920 
  118.7500     2.2630    83.9870     6.7360     5.6800     5.4820    25.5590   -12.9650 
  118.8750     2.2730    85.7260     6.6640     5.5440     5.3350    25.5770   -12.4490 
  119.0000     2.2830    91.0020     6.5530     5.3940     5.2490    25.5130   -12.1520 
  119.1250     2.2930    96.0240     6.3790     5.2190     5.2010    25.4910   -12.0390 
  119.2500     2.3010    97.4770     6.1930     5.0500     5.1150    25.4910   -12.0410 
  119.3750     2.3050    96.0600     6.0830     4.9340     5.1150    25.4700   -12.2140 
  119.5000     2.3060    92.6330     6.1710     4.9440     5.2810    25.4350   -12.6160 
  119.6250     2.3080    86.2610     6.6580     5.2260     5.4820    25.3110   -13.2250 
  119.7500     2.3160    80.2560     7.5500     5.8230     6.1110    25.1490   -13.9420 
  119.8750     2.3310    76.5820     8.7440     6.7240     7.3290    25.0490   -14.6930 
  120.0000     2.3450    73.7490     9.9650     7.7760     9.1850    25.0970   -15.4040 
  120.1250     2.3410    73.3460    10.7260     8.5920    11.1710    25.1910   -16.0490 
  120.2500     2.3130    76.2740    10.8150     8.8660    12.4480    25.2490   -16.7110 
  120.3750     2.2690    78.8740    10.3010     8.5800    10.8770    25.2430   -17.3910 
