~V
VERS. 2.00: Ver 2.00
~W
STRT.M 52.0000:
STOP.M 271.0000:
STEP.M 0.1250:
NULL. -999.2500:
UWI. F11069:
~C
DEPT.M :
GR.API :
RML.OHMM :
RI. :
RXO.OHMM :
CALI.CM :
DEN.GM/CC :
SP.MV :
~A
# ...
  232.0000    63.2730   125.0480   126.5980   143.2960    24.8560     2.2250   -11.4110 
  232.1250    62.2660   122.5310   123.3580   143.6230    24.8250     2.2280   -11.4320 
  232.2500    64.2140   120.1020   120.0590   142.9260    24.7900     2.2340   -11.4380 
  232.3750    66.6190   117.5650   116.3500   142.5130    24.7860     2.2400   -11.4170 
  232.5000    66.5610   115.3460   112.5160   138.4710    24.7830     2.2460   -11.3890 
  232.6250    64.2370   114.8970   109.9750   127.1120    24.7870     2.2480   -11.3430 
  232.7500    61.8660   117.3020   110.0730   115.7300    24.7630     2.2480   -11.2720 
  232.8750    60.3440   123.2820   113.7740   113.1490    24.7430     2.2480   -11.2220 
  233.0000    59.9140   132.7920   121.3390   124.4580    24.7520     2.2470   -11.2040 
  233.1250    59.9100   144.9200   132.2260   148.1120    24.7780     2.2460   -11.1440 
  233.2500    59.3200   156.8930   143.4850   169.7420    24.7550     2.2430   -11.0950 
  233.3750    59.6250   166.3630   152.3480   178.4890    24.7090     2.2390   -11.0300 
  233.5000    61.7370   171.8520   156.9220   173.9320    24.6780     2.2370   -10.9150 
  233.6250    62.6570   173.0470   156.8490   166.8330    24.6640     2.2380   -10.7910 
  233.7500    61.0910   172.3700   155.0120   165.0310    24.6990     2.2420   -10.6860 
  233.8750    58.2880   171.4240   153.3260   167.3850    24.7430     2.2480   -10.5400 
  234.0000    57.2760   170.8040   152.4930   171.9290    24.7320     2.2550   -10.3260 
  234.1250    58.8980   169.6110   151.5630   179.0750    24.6240     2.2600   -10.0960 
  234.2500    60.0980   166.3520   148.8510   184.6850    24.5470     2.2640    -9.8470 
  234.3750    59.4010   160.0190   143.2970   181.5170    24.4590     2.2660    -9.6420 
  234.5000    56.6370   150.6920   134.9290   165.8740    24.3890     2.2690    -9.5140 
  234.6250    54.0290   139.6850   124.9730   143.0870    24.3280     2.2750    -9.3660 
  234.7500    53.8480   129.4260   115.7120   124.7880    24.3030     2.2830    -9.1520 
  234.8750    55.9170   121.4170   108.4930   114.5550    24.2760     2.2910    -8.9180 
  235.0000    59.8150   116.2800   103.7920   111.2270    24.2070     2.2970    -8.7240 
  235.1250    63.6860   114.0950   101.6580   113.2170    24.1260     2.2940    -8.6100 
  235.2500    64.2290   113.4760   100.9840   114.3040    24.0710     2.2790    -8.5820 
  235.3750    62.2600   113.4630   101.0120   109.3400    24.0290     2.2530    -8.5800 
  235.5000    61.0460   113.2820   101.1580   100.8200    23.9880     2.2250    -8.5010 
  235.6250    62.6930   112.2180   100.9810   100.8150    24.0000     2.2070    -8.4160 
  235.7500    63.4130   109.9380   100.0930   109.3090    24.0180     2.2060    -8.3180 
  235.8750    62.5030   106.0840    97.9000   116.6780    24.1200     2.2230    -8.2160 
  236.0000    62.1310   100.5310    93.9510   116.2240    24.2510     2.2470    -8.0860 
  236.1250    61.8340    93.5600    88.2580   108.9260    24.3470     2.2630    -7.9060 
  236.2500    60.1260    86.4080    82.1270    99.2940    24.4190     2.2580    -7.6800 
  236.3750    57.3730    79.9440    76.6710    88.9570    24.5230     2.2360    -7.4460 
  236.5000    54.9830    74.3890    72.4830    80.2400    24.6530     2.2200    -7.2250 
  236.6250    54.2570    68.8740    68.9030    75.8650    24.7120     2.2430    -7.0020 
  236.7500    54.7700    62.0240    63.8580    74.9730    24.7550     2.3070    -6.8250 
  236.8750    57.5260    53.2800    55.9990    76.3920    24.8330     2.3960    -6.6390 
  237.0000    61.3210    43.2730    45.8840    76.7290    24.8670     2.4800    -6.4190 
  237.1250    64.4290    33.8050    36.0140    68.0170    24.7600     2.5270    -6.2150 
  237.2500    67.1810    26.3280    28.3560    50.5740    24.5510     2.5380    -5.9990 
  237.3750    70.4140    21.3070    23.3070    31.6920    24.3140     2.5240    -5.7370 
  237.5000    73.7070    18.4630    20.4450    19.0210    24.0060     2.4970    -5.4540 
  237.6250    75.0370    17.2760    19.2150    14.3910    23.7030     2.4710    -5.1740 
  237.7500    75.0770    16.7440    18.6740    12.7170    23.5760     2.4540    -4.9550 
  237.8750    75.2520    16.3830    18.3530    12.3170    23.6360     2.4430    -4.8500 
  238.0000    76.3850    15.9520    17.9540    12.7200    23.8230     2.4320    -4.8220 
  238.1250    78.1120    15.4550    17.4010    13.4410    24.0540     2.4160    -4.7720 
  238.2500    78.8400    15.0680    16.8970    13.8480    24.3560     2.3980    -4.7290 
  238.3750    77.4150    14.9020    16.5930    13.7540    24.5150     2.3840    -4.7060 
  238.5000    75.6220    14.9550    16.4760    13.8330    24.5190     2.3780    -4.7290 
  238.6250    74.5730    15.1890    16.4000    15.9450    24.5040     2.3750    -4.8090 
  238.7500    73.6550    15.6260    16.3110    19.7280    24.5680     2.3620    -4.8680 
  238.8750    74.1970    16.5390    16.3980    22.4210    24.6540     2.3300    -4.8810 
  239.0000    75.8980    18.4590    17.0760    21.9710    24.7020     2.2820    -4.8810 
  239.1250    75.0250    22.5790    19.4050    23.3640    24.7170     2.2380    -4.9160 
  239.2500    69.9730    29.5720    24.3670    37.0260    24.7260     2.2150    -4.9850 
  239.3750    64.6220    40.0860    33.0880    65.4640    24.7170     2.2140    -5.0790 
  239.5000    62.8250    53.9380    46.0250    97.6290    24.7100     2.2250    -5.1760 
  239.6250    61.6460    68.9270    61.5370   114.7690    24.7170     2.2300    -5.2440 
  239.7500    59.8350    80.7590    74.1150   114.5480    24.7050     2.2260    -5.2850 
  239.8750    59.7830    86.6760    79.7590   103.6390    24.7050     2.2220    -5.3580 
  240.0000    61.4580    86.8160    78.8900    90.6340    24.7290     2.2290    -5.4650 
  240.1250    61.9720    83.8520    75.2240    83.3890    24.7110     2.2470    -5.5260 
  240.2500    61.9640    81.2830    72.1930    82.3700    24.6060     2.2590    -5.5520 
  240.3750    63.2640    80.1020    70.4790    82.3800    24.4700     2.2520    -5.5410 
  240.5000    63.6610    80.1090    69.9330    79.0550    24.3650     2.2210    -5.5140 
  240.6250    60.7500    80.7190    70.1510    74.3970    24.3440     2.1800    -5.5360 
  240.7500    60.4160    81.3880    70.4950    72.1500    24.4560     2.1610    -5.5870 
  240.8750    64.3110    82.0610    70.8030    70.9570    24.5940     2.1830    -5.6190 
  241.0000    67.3600    82.8730    71.1290    68.0640    24.6230     2.2400    -5.6610 
  241.1250    64.9640    84.0630    71.5050    65.1420    24.5440     2.3060    -5.7640 
  241.2500    62.5280    85.8100    72.0420    68.3270    24.4930     2.3570    -5.9140 
  241.3750    62.8690    88.5020    73.2260    77.6110    24.4140     2.3970    -6.1170 
  241.5000    63.4870    92.7840    75.8490    85.6160    24.3100     2.4410    -6.3530 
  241.6250    62.2080   100.1540    81.5190    91.7590    24.3000     2.4970    -6.5720 
  241.7500    61.9240   111.4490    91.3670   112.9230    24.4420     2.5530    -6.7480 
  241.8750    63.7680   127.6250   106.7480   154.9560    24.4890     2.5970    -6.8670 
  242.0000    64.9700   148.7140   127.9570   200.2470    24.3780     2.6330    -6.9360 
  242.1250    64.6610   172.5630   152.9990   223.6980    24.2370     2.6780    -6.9470 
  242.2500    66.4700   193.2070   175.5390   231.2620    24.1020     2.7340    -6.9060 
  242.3750    71.5190   204.1540   189.6590   229.7950    24.0140     2.7810    -6.8160 
  242.5000    76.3030   199.0570   191.2330   214.7950    24.1410     2.7900    -6.6690 
  242.6250    76.2630   171.3710   173.9270   177.2800    24.2670     2.7390    -6.4830 
  242.7500    73.5620   129.5120   138.4390   131.8060    24.2060     2.6520    -6.2710 
  242.8750    71.2240    84.9230    92.9770    91.8440    23.9400     2.5580    -6.0110 
  243.0000    71.5880    48.4540    53.0250    61.1270    23.6430     2.4820    -5.7260 
  243.1250    75.9140    26.4700    29.1210    36.2710    23.3400     2.4400    -5.4070 
