~V
VERS. 2.00: Ver 2.00
~W
STRT.M 57.0000:
STOP.M 226.0000:
STEP.M 0.1250:
NULL. -999.2500:
UWI. F11011:
~C
DEPT.M :
GR.API :
RML.OHMM :
RI. :
RXO.OHMM :
CALI.CM :
SP.MV :
DEN.GM/CC :
~A
# ...
  180.7500    60.6590     7.3230     5.9550     5.8890    24.1990   -15.4010     2.1930 
  180.8750    57.5570     7.1010     5.7810     5.6080    24.4970   -15.4570     2.1500 
  181.0000    55.0200     7.0040     5.7040     5.3350    24.9260   -15.4700     2.1560 
  181.1250    54.2830     7.0450     5.7530     5.3760    25.2300   -15.4600     2.2050 
  181.2500    58.2220     7.1780     5.8810     5.7910    25.3090   -15.4930     2.2620 
  181.3750    66.3310     7.3630     6.0350     6.3190    25.2350   -15.5110     2.3110 
  181.5000    74.0480     7.5510     6.1590     6.4860    25.2460   -15.4770     2.3490 
  181.6250    78.2500     7.6680     6.1940     6.0030    25.2700   -15.4490     2.3810 
  181.7500    80.4810     7.6750     6.1350     5.4910    25.2010   -15.3750     2.4040 
  181.8750    82.5180     7.5580     5.9990     5.2690    25.1620   -15.3450     2.4020 
  182.0000    84.8020     7.3410     5.8310     5.4320    25.1290   -15.3120     2.3670 
  182.1250    87.8890     7.0940     5.6920     5.3750    25.1780   -15.2180     2.3110 
  182.2500    89.2850     6.9080     5.6220     4.9440    25.2220   -15.0850     2.2700 
  182.3750    87.4310     6.8260     5.6290     4.6550    25.3290   -14.8970     2.2700 
  182.5000    85.3730     6.8410     5.6940     5.1060    25.3290   -14.7250     2.3070 
  182.6250    87.7270     6.9050     5.7710     5.6360    25.1130   -14.5800     2.3590 
  182.7500    93.5810     6.9730     5.8250     5.9490    24.9350   -14.4390     2.3960 
  182.8750    99.6850     7.0570     5.8580     5.7860    24.8540   -14.2420     2.4120 
  183.0000   101.7990     7.2070     5.9010     5.4940    24.9050   -14.0460     2.4100 
  183.1250    99.2870     7.4860     6.0120     5.5340    25.0830   -13.8980     2.3970 
  183.2500    95.1600     7.8790     6.2220     5.9940    25.2030   -13.7230     2.3820 
  183.3750    92.8720     8.3510     6.5470     6.5040    25.0300   -13.6080     2.3700 
  183.5000    93.9390     8.8630     6.9800     6.5080    24.8190   -13.5190     2.3630 
  183.6250    95.9090     9.3750     7.5020     6.7270    24.7460   -13.3840     2.3650 
  183.7500    95.3260     9.8500     8.0480     7.1430    24.7830   -13.2820     2.3710 
  183.8750    93.2600    10.2670     8.5600     8.0930    24.8100   -13.2140     2.3770 
  184.0000    94.0020    10.6320     8.9970     9.4330    24.7880   -13.1890     2.3820 
  184.1250    97.1180    10.9670     9.3220     9.7930    24.7270   -13.2090     2.3850 
  184.2500    97.9000    11.2710     9.5480     9.6990    24.6570   -13.3010     2.3850 
  184.3750    96.1960    11.4840     9.6630    10.2790    24.5970   -13.4230     2.3840 
  184.5000    93.7830    11.5290     9.6590    11.5600    24.5640   -13.5060     2.3800 
  184.6250    90.1970    11.4030     9.5640    12.2460    24.5940   -13.5930     2.3740 
  184.7500    88.3770    11.3380     9.5220    11.1650    24.6370   -13.6510     2.3760 
  184.8750    89.2600    11.6210     9.7170     9.4190    24.6190   -13.6990     2.3910 
  185.0000    88.9690    12.4760    10.3210     8.9100    24.5400   -13.7430     2.4210 
  185.1250    85.4160    13.9880    11.4920    10.7890    24.4030   -13.7130     2.4570 
  185.2500    82.5590    15.7810    13.0450    14.7960    24.2240   -13.6670     2.4800 
  185.3750    82.6840    17.5020    14.7260    19.9390    24.1440   -13.6510     2.4790 
  185.5000    82.9810    18.8750    16.2570    20.9080    24.1790   -13.7040     2.4490 
  185.6250    82.6750    19.7150    17.4000    18.2920    24.3410   -13.8020     2.3980 
  185.7500    83.7190    20.1240    18.1820    14.7080    24.4470   -13.9740     2.3430 
  185.8750    84.2120    20.1260    18.5890    19.5840    24.5090   -14.2090     2.2990 
  186.0000    83.7360    19.7420    18.5560    33.3110    24.5110   -14.3890     2.2770 
  186.1250    84.7090    19.0750    18.0490    32.7320    24.4060   -14.5670     2.2840 
  186.2500    85.4880    18.4870    17.4250    20.0670    24.2630   -14.7350     2.3130 
  186.3750    83.4730    18.3220    17.0370    13.4180    24.1790   -14.8340     2.3490 
  186.5000    79.1130    18.8390    17.1680    14.2800    24.1360   -14.9430     2.3740 
  186.6250    76.2070    20.2580    18.1330    23.0190    24.1870   -15.0200     2.3730 
  186.7500    75.8820    22.3950    19.8780    30.4630    24.3860   -15.0350     2.3480 
  186.8750    75.1380    25.3820    22.3660    29.4070    24.5610   -15.0300     2.3100 
  187.0000    72.3730    29.6120    25.6720    22.4320    24.5790   -15.0550     2.2700 
  187.1250    68.9530    35.9100    30.5370    29.5260    24.5320   -15.1930     2.2420 
  187.2500    67.3600    44.3180    37.4680    46.6880    24.4930   -15.3580     2.2260 
  187.3750    67.5470    54.5790    46.6720    66.1830    24.4880   -15.5280     2.2210 
  187.5000    67.9460    65.3090    57.2120    78.5010    24.6280   -15.6810     2.2250 
  187.6250    68.0950    72.9860    65.7910    82.5700    24.7610   -15.8130     2.2320 
  187.7500    68.9230    75.3100    69.3460    78.6150    24.7780   -15.9450     2.2380 
  187.8750    70.4880    72.1590    67.3570    71.2940    24.5990   -16.0720     2.2450 
  188.0000    73.8650    65.5170    61.8370    62.1260    24.2730   -16.1620     2.2540 
  188.1250    78.4110    58.2650    55.5010    54.4040    24.0450   -16.1970     2.2680 
  188.2500    80.9510    52.4670    50.2480    45.1740    23.9640   -16.2550     2.2860 
  188.3750    78.8580    48.7750    46.7970    37.7470    23.9190   -16.3470     2.3020 
  188.5000    73.4240    47.2840    45.3600    35.4430    23.8380   -16.4660     2.3090 
  188.6250    69.1050    48.1140    46.0850    38.8430    23.8090   -16.6830     2.3010 
  188.7500    67.5250    50.4710    48.3160    42.7730    23.8820   -16.9270     2.2830 
  188.8750    68.9940    53.4990    51.5020    45.2070    24.0140   -17.1120     2.2620 
  189.0000    73.6840    55.7170    54.4110    47.5050    23.9720   -17.2890     2.2450 
  189.1250    77.1420    54.7690    54.3580    50.8190    23.8130   -17.3820     2.2380 
  189.2500    75.3870    50.3760    50.4300    55.1120    23.7720   -17.3820     2.2420 
  189.3750    72.2750    43.7070    43.8560    55.4170    23.7830   -17.3970     2.2550 
  189.5000    73.2720    37.0120    37.1640    46.5590    23.7380   -17.3880     2.2700 
  189.6250    77.0270    33.0900    33.0170    30.6920    23.7000   -17.3570     2.2820 
  189.7500    77.6850    32.8900    32.2220    23.7040    23.7580   -17.3980     2.2860 
  189.8750    75.9080    36.6970    35.1690    34.3550    23.8600   -17.5380     2.2830 
  190.0000    74.3420    44.1750    41.8970    55.7160    24.0050   -17.7900     2.2750 
  190.1250    73.4330    54.3720    52.1580    73.9860    24.4010   -18.1780     2.2620 
  190.2500    72.5870    64.6320    63.2310    70.7030    24.9340   -18.5850     2.2490 
  190.3750    70.9140    72.9880    72.3470    68.4680    25.4570   -18.9520     2.2380 
  190.5000    68.0720    78.6470    78.0000    74.0740    25.8960   -19.2800     2.2340 
  190.6250    64.9540    82.2980    81.0480    85.5900    26.1160   -19.5210     2.2380 
  190.7500    62.2940    85.9470    84.0630    92.1560    26.1890   -19.6760     2.2450 
  190.8750    61.3240    90.6340    88.0010    96.7650    26.1550   -19.7320     2.2470 
  191.0000    62.2430    96.7990    93.1600    95.5510    26.0840   -19.6560     2.2360 
  191.1250    63.3920   104.7160    99.9550   104.0280    26.0890   -19.5440     2.2110 
  191.2500    62.6250   113.4700   107.8760   125.7230    26.1980   -19.4810     2.1810 
  191.3750    60.7120   121.4380   115.6120   141.7460    26.1890   -19.4140     2.1590 
  191.5000    60.6020   126.2800   120.8420   131.1640    25.8910   -19.4050     2.1520 
  191.6250    63.3650   125.1860   120.3900   137.1720    25.4830   -19.5040     2.1620 
  191.7500    66.0140   119.3770   115.0230   138.4000    25.2390   -19.5900     2.1790 
  191.8750    66.3590   111.2350   107.0390   118.4330    25.1650   -19.6610     2.1950 
