~V
VERS. 2.00: Ver 2.00
~W
STRT.M 59.0000:
STOP.M 230.0000:
STEP.M 0.1250:
NULL. -999.2500:
UWI. F11001:
~C
DEPT.M :
GR.API :
RML.OHMM :
RI. :
RXO.OHMM :
CALI.CM :
SP.MV :
DEN.GM/CC :
~A
# ...
  104.0000    72.3810    19.8260    18.0120    15.4300    24.5480   -18.7090     2.0760 
  104.1250    70.3600    18.4900    16.8040    15.0810    24.5240   -18.6990     2.0850 
  104.2500    68.3940    17.2450    15.6990    14.3310    24.5120   -18.3980     2.0770 
  104.3750    70.4400    16.4750    15.0380    13.1580    24.4490   -17.8200     2.0780 
  104.5000    76.2990    16.5200    15.0860    12.4160    24.2890   -16.9460     2.1140 
  104.6250    80.1850    17.6190    16.0260    12.9250    24.1180   -15.8210     2.2020 
  104.7500    77.1530    19.9410    18.1370    17.7130    24.3160   -14.4650     2.3330 
  104.8750    72.2550    22.7720    21.0740    29.9110    24.6130   -12.9640     2.4640 
  105.0000    71.1170    25.0420    23.9880    42.0550    24.6840   -11.3840     2.5640 
  105.1250    74.4000    25.4760    25.2430    39.0530    24.6500    -9.7720     2.6140 
  105.2500    76.7570    22.9610    22.9130    33.4900    24.4510    -8.2720     2.6090 
  105.3750    77.6070    18.6320    18.3580    27.4510    24.0550    -7.0140     2.5670 
  105.5000    82.7740    13.8890    13.5080    19.7710    23.5780    -6.0720     2.5050 
  105.6250    93.9820     9.9230     9.6430     9.8800    23.2370    -5.4170     2.4390 
  105.7500   104.8780     7.4400     7.2500     6.0560    23.0880    -5.0280     2.3890 
  105.8750   110.7610     6.0640     5.8470     4.8110    23.0820    -4.7550     2.3600 
  106.0000   113.2280     5.4580     5.1410     4.6050    23.1750    -4.5220     2.3500 
  106.1250   113.6340     5.3110     4.9020     4.6320    23.3720    -4.3240     2.3510 
  106.2500   110.2590     5.3840     4.9550     4.9150    23.7750    -4.1010     2.3560 
  106.3750   104.9750     5.4780     5.0810     5.0270    24.2490    -3.7620     2.3550 
  106.5000   100.7710     5.5490     5.2000     4.8670    24.5620    -3.2940     2.3450 
  106.6250    99.3100     5.6240     5.3060     4.6600    24.6610    -2.7910     2.3260 
  106.7500   100.0900     5.7720     5.4530     4.5400    24.7010    -2.4120     2.3020 
  106.8750    98.6210     6.0070     5.6690     4.8090    24.7050    -2.2510     2.2800 
  107.0000    92.8130     6.2970     5.9390     5.4710    24.6510    -2.3180     2.2660 
  107.1250    85.5290     6.5710     6.2000     5.8810    24.5460    -2.5620     2.2610 
  107.2500    81.4120     6.7400     6.3440     6.2940    24.4840    -2.9600     2.2660 
  107.3750    80.4430     6.8120     6.3480     6.6690    24.4750    -3.4890     2.2770 
  107.5000    82.5090     6.8610     6.2650     6.6750    24.4990    -4.2070     2.2920 
  107.6250    85.3160     7.0200     6.2150     6.3770    24.5140    -5.1280     2.3070 
  107.7500    85.0060     7.4810     6.3770     6.3150    24.5480    -6.1410     2.3140 
  107.8750    81.0460     8.2540     6.8150     7.1730    24.5780    -7.0740     2.3020 
  108.0000    77.1020     9.2470     7.5230     8.1180    24.5060    -7.8340     2.2610 
  108.1250    74.7190    10.2550     8.3880     8.6850    24.1920    -8.4130     2.1910 
  108.2500    72.3220    11.0330     9.1950     9.4620    23.8880    -8.8540     2.1090 
  108.3750    70.7030    11.6490     9.8600    10.7320    23.8270    -9.1460     2.0520 
  108.5000    70.5260    12.4610    10.5570    11.6720    23.9350    -9.1760     2.0540 
  108.6250    70.2540    14.0290    11.6580    12.0160    24.0600    -8.8370     2.1330 
  108.7500    67.4570    17.0950    13.8430    14.3130    24.1650    -8.1230     2.2870 
  108.8750    62.4750    21.2430    17.2570    22.4170    24.2870    -7.2690     2.4600 
  109.0000    58.2370    25.1410    21.3170    37.7890    24.4540    -6.3920     2.6050 
  109.1250    58.3810    26.7340    23.9220    51.7630    24.7420    -5.5240     2.6830 
  109.2500    65.0550    24.0300    21.7660    41.9190    24.9930    -4.6760     2.6750 
  109.3750    73.8010    18.6760    16.6230    24.0500    25.0510    -3.9100     2.6150 
  109.5000    82.0330    12.9490    11.4580    11.4450    24.9740    -3.3120     2.5330 
  109.6250    90.0760     8.6280     7.7870     5.6980    24.9040    -2.9810     2.4510 
  109.7500    95.8010     6.4720     5.8690     4.3360    24.8500    -3.0000     2.3780 
  109.8750    96.7160     5.6830     4.9870     4.3790    24.7300    -3.2720     2.3150 
  110.0000    93.8130     5.7170     4.8020     5.1730    24.5110    -3.7380     2.2640 
  110.1250    89.4430     6.1520     5.0600     6.4810    24.2220    -4.3220     2.2320 
  110.2500    85.4150     6.6780     5.5290     7.0100    24.0230    -5.0010     2.2260 
  110.3750    84.9450     7.1390     5.9840     6.5240    23.9400    -5.8490     2.2330 
  110.5000    87.1970     7.5660     6.3860     5.8760    23.8790    -6.9430     2.2410 
  110.6250    88.1060     8.0550     6.7990     6.1540    23.8020    -8.2000     2.2400 
  110.7500    84.6740     8.6800     7.3090     7.9220    23.7410    -9.4510     2.2280 
  110.8750    80.6190     9.3360     7.8700     9.1100    23.7330   -10.5900     2.2120 
  111.0000    79.3660     9.8530     8.3430     9.4460    23.7890   -11.6110     2.1990 
  111.1250    78.6470    10.0850     8.5610     9.6160    23.8930   -12.5660     2.1900 
  111.2500    75.6000     9.9630     8.4020     9.6210    24.1670   -13.4810     2.1870 
  111.3750    71.8680     9.6890     8.0480     9.2560    24.5510   -14.2640     2.1880 
  111.5000    70.4510     9.4470     7.6830     8.5520    24.8530   -14.8300     2.1930 
  111.6250    71.8160     9.3710     7.4410     8.1230    24.9210   -15.2440     2.2010 
  111.7500    72.9890     9.5260     7.3980     8.3520    24.9330   -15.5820     2.2060 
  111.8750    73.8040     9.8110     7.4940     8.8640    24.9320   -15.8940     2.2050 
  112.0000    74.7770    10.1320     7.6560     9.2020    24.9420   -16.2010     2.2000 
  112.1250    74.6830    10.3980     7.8040     9.4370    25.0440   -16.4660     2.1920 
  112.2500    73.1760    10.5400     7.8660     9.4820    25.2050   -16.5880     2.1850 
  112.3750    72.5440    10.5900     7.8520     9.3200    25.2850   -16.5750     2.1790 
  112.5000    73.8920    10.6000     7.8010     8.9810    25.2150   -16.4540     2.1760 
  112.6250    76.3050    10.6360     7.7620     8.9410    25.0120   -16.2170     2.1750 
  112.7500    76.9300    10.7560     7.7800     9.0760    24.8380   -15.9080     2.1770 
  112.8750    75.8230    10.9490     7.8540     9.1910    24.7020   -15.5820     2.1810 
  113.0000    74.0440    11.1780     7.9670     9.3830    24.5740   -15.2810     2.1840 
  113.1250    72.2290    11.3930     8.0870     9.7000    24.4730   -15.0790     2.1850 
  113.2500    69.8840    11.5380     8.1750     9.8380    24.4290   -15.0630     2.1830 
  113.3750    67.1870    11.6140     8.2210     9.7520    24.4260   -15.1790     2.1800 
  113.5000    65.9840    11.6430     8.2410     9.5880    24.4360   -15.3540     2.1780 
  113.6250    67.8370    11.6620     8.2580     9.4510    24.4220   -15.5560     2.1820 
  113.7500    71.2200    11.7000     8.2960     9.3920    24.3490   -15.7390     2.1910 
  113.8750    71.4290    11.7550     8.3560     9.5670    24.2550   -15.8900     2.2010 
  114.0000    68.1330    11.8030     8.4210     9.8340    24.2450   -15.9860     2.2070 
  114.1250    66.0270    11.8110     8.4700     9.8650    24.3360   -16.0190     2.2090 
  114.2500    67.5130    11.7290     8.4730     9.7160    24.4000   -16.0280     2.2010 
  114.3750    69.7330    11.5440     8.4120     9.5030    24.3840   -16.0470     2.1880 
  114.5000    71.2770    11.2590     8.2750     9.4270    24.3060   -16.0410     2.1770 
  114.6250    72.7720    10.9060     8.0730     9.2720    24.2010   -15.9490     2.1760 
  114.7500    75.6520    10.5530     7.8470     8.8820    24.1130   -15.7680     2.1870 
  114.8750    77.5720    10.2640     7.6520     8.1910    24.0590   -15.5680     2.1970 
  115.0000    78.1660    10.0650     7.5080     7.6540    24.0770   -15.3720     2.1940 
  115.1250    78.1490     9.9370     7.4030     7.7070    24.1970   -15.0870     2.1750 
