~V
VERS. 2.00: Ver 2.00
~W
STRT.M 60.0000:
STOP.M 276.0000:
STEP.M 0.1250:
NULL. -999.2500:
UWI. F11026:
~C
DEPT.M :
DEN.GM/CC :
GR.API :
RML.OHMM :
RI. :
RXO.OHMM :
CALI.CM :
SP.MV :
~A
# ...
  195.0000     2.6510    65.4050    28.6740    32.4830    40.6440    23.4640   -15.5530 
  195.1250     2.5870    73.6070    18.2610    20.1310    20.0190    23.9100   -15.8250 
  195.2500     2.5300    79.2260    13.6310    14.2830    11.1280    24.4100   -16.0610 
  195.3750     2.5100    83.5620    11.5880    11.6500     9.0700    24.7020   -16.1630 
  195.5000     2.5270    85.9720    10.9280    10.5990     9.3460    24.7600   -16.1270 
  195.6250     2.5510    81.2320    10.9600    10.4400    10.5020    24.6290   -15.8830 
  195.7500     2.5440    71.7700    11.0480    10.5210    11.6510    24.3550   -15.4410 
  195.8750     2.4920    64.3490    10.9330    10.4760    11.1180    24.1320   -14.9550 
  196.0000     2.4020    60.4210    10.5480    10.1390     8.0830    24.1530   -14.6370 
  196.1250     2.3070    56.6500     9.9910     9.5900     6.9180    24.1150   -14.3600 
  196.2500     2.2510    50.8550     9.4700     9.0890     6.9140    23.8810   -14.0240 
  196.3750     2.2570    46.3040     9.0890     8.7730     6.8230    23.7080   -13.8360 
  196.5000     2.3240    46.1790     8.8580     8.6650     6.7570    23.7430   -13.8660 
  196.6250     2.4230    48.0950     8.7010     8.6800     8.3600    24.0340   -14.0290 
  196.7500     2.4990    50.5530     8.4830     8.6200    10.4490    24.2060   -14.1330 
  196.8750     2.5220    53.2610     8.1260     8.3550    10.5980    24.1160   -14.0140 
  197.0000     2.4910    55.2350     7.6190     7.8450     8.7200    23.9550   -13.6150 
  197.1250     2.4300    57.0990     7.0210     7.1460     7.4750    24.1630   -13.0860 
  197.2500     2.3750    59.1810     6.4470     6.4290     6.4650    24.3830   -12.5340 
  197.3750     2.3390    59.4690     5.9630     5.7990     5.7960    24.5860   -11.9430 
  197.5000     2.3230    58.0820     5.5870     5.3020     5.3180    24.7290   -11.3410 
  197.6250     2.3210    57.7780     5.3010     4.9290     5.0450    24.8510   -10.7350 
  197.7500     2.3200    57.8250     5.0390     4.5960     4.9680    24.8520   -10.1750 
  197.8750     2.3050    55.8350     4.7710     4.2650     4.9240    25.0340    -9.7680 
  198.0000     2.2640    53.0400     4.4940     3.9370     4.9090    25.2750    -9.5940 
  198.1250     2.2010    52.4210     4.2490     3.6530     4.7120    25.6030    -9.6360 
  198.2500     2.1480    52.3160     4.0790     3.4520     4.2520    26.1880    -9.7200 
  198.3750     2.1350    52.7130     4.0200     3.3590     3.7730    26.4490    -9.6800 
  198.5000     2.1610    54.4450     4.0820     3.3830     3.6970    26.1480    -9.4490 
  198.6250     2.1940    54.9500     4.2680     3.5300     4.1860    25.6800    -9.1330 
  198.7500     2.2010    53.5790     4.5290     3.7520     4.7390    25.4270    -8.8630 
  198.8750     2.1790    52.9310     4.8290     4.0210     5.0430    25.5100    -8.6770 
  199.0000     2.1500    54.1820     5.1340     4.3050     5.1290    25.8070    -8.5200 
  199.1250     2.1410    55.8000     5.4250     4.5880     5.3800    25.5950    -8.3730 
  199.2500     2.1560    56.9550     5.7130     4.8780     5.5700    25.2350    -8.3780 
  199.3750     2.1880    61.6880     6.0210     5.1910     5.6420    25.4550    -8.6160 
  199.5000     2.2290    71.8150     6.3650     5.5280     5.7090    25.6390    -9.0670 
  199.6250     2.2770    81.1830     6.7420     5.8650     6.4820    25.0730    -9.7490 
  199.7500     2.3230    85.2500     7.1100     6.1640     7.0350    24.3280   -10.6160 
  199.8750     2.3550    86.5600     7.4330     6.3890     7.3030    23.8900   -11.6410 
  200.0000     2.3740    87.9040     7.6980     6.5270     7.4410    23.7020   -12.7650 
  200.1250     2.3870    87.4370     7.9070     6.5880     7.5660    23.7030   -13.8960 
  200.2500     2.4070    87.3550     8.0930     6.6250     7.6610    23.8390   -14.9700 
  200.3750     2.4370    90.9400     8.2640     6.6580     7.7910    24.0340   -15.9650 
  200.5000     2.4720    95.7040     8.4080     6.6860     7.8370    24.2420   -16.9050 
  200.6250     2.5050    96.7870     8.4870     6.6820     7.5850    24.4020   -17.7320 
  200.7500     2.5270    95.3430     8.4870     6.6270     7.4960    24.5350   -18.4310 
  200.8750     2.5260    93.1830     8.4060     6.5230     7.7390    24.6590   -19.0010 
  201.0000     2.4910    92.5680     8.2710     6.4000     7.9980    24.7610   -19.4620 
  201.1250     2.4240    94.3800     8.1400     6.3080     7.9100    25.0620   -20.0000 
  201.2500     2.3540    97.5090     8.0730     6.2770     7.3380    25.5420   -20.7770 
  201.3750     2.3050    98.7300     8.0990     6.3130     7.0400    25.8910   -21.8220 
  201.5000     2.2860    97.2060     8.2210     6.4070     7.5850    25.9550   -22.9490 
  201.6250     2.2900    91.8070     8.4160     6.5440     8.1480    25.8710   -24.0370 
  201.7500     2.2950    83.9470     8.6330     6.6940     8.4560    25.8380   -25.0520 
  201.8750     2.2940    77.4760     8.8560     6.8400     8.5080    25.6610   -25.9590 
  202.0000     2.2860    74.6870     9.0970     6.9790     8.8560    25.4950   -26.7730 
  202.1250     2.2710    74.9130     9.4030     7.1410     9.2450    25.4090   -27.3910 
  202.2500     2.2520    76.1760     9.8040     7.3610     9.7690    25.3840   -27.8570 
  202.3750     2.2390    78.5080    10.3180     7.6700    10.3660    25.7010   -28.1350 
  202.5000     2.2420    81.5280    10.9320     8.0920    11.0730    26.1400   -28.2620 
  202.6250     2.2710    82.3440    11.5740     8.6340    11.5730    25.9050   -28.2790 
  202.7500     2.3140    81.9470    12.0940     9.1730    11.8710    25.3950   -28.1310 
  202.8750     2.3580    83.0650    12.3470     9.5380    11.7980    25.1180   -27.8090 
  203.0000     2.3940    86.1570    12.2410     9.5790    12.2300    24.9650   -27.3730 
  203.1250     2.4200    89.0740    11.7750     9.2140    13.3140    24.7060   -26.8470 
  203.2500     2.4410    90.2960    11.1960     8.6580    12.8340    24.5430   -26.1700 
  203.3750     2.4580    90.4050    10.7100     8.1200    10.0500    24.4530   -25.4030 
  203.5000     2.4660    89.9200    10.4600     7.7640     8.4740    24.4340   -24.7420 
  203.6250     2.4650    86.8520    10.5110     7.6950     8.5740    24.4910   -24.2330 
  203.7500     2.4620    82.8990    10.7290     7.8260     9.3890    24.6220   -23.9280 
  203.8750     2.4640    81.4000    10.9850     8.0670     9.9920    24.7030   -23.8950 
  204.0000     2.4690    83.7150    11.1720     8.3070    10.2460    24.7260   -24.0830 
  204.1250     2.4760    86.0820    11.2310     8.4480    10.1830    24.7100   -24.4570 
  204.2500     2.4790    87.4660    11.2430     8.5310     9.9970    24.6710   -24.8780 
  204.3750     2.4790    89.7660    11.3050     8.6460     9.5530    24.5450   -25.2330 
  204.5000     2.4800    91.4410    11.4740     8.8640     9.2740    24.4380   -25.4480 
  204.6250     2.4880    92.3720    11.6890     9.1820     9.4090    24.3800   -25.6320 
  204.7500     2.5020    93.8720    11.7500     9.4450    10.0380    24.3340   -25.5470 
  204.8750     2.5210    94.9650    11.4590     9.4590    10.9120    24.1900   -24.8480 
  205.0000     2.5370    94.5900    10.7030     9.0650    10.6210    23.9990   -23.6090 
  205.1250     2.5260    92.2620     9.4950     8.2080     9.0470    24.0600   -22.0580 
  205.2500     2.4620    87.3620     8.1550     7.1600     7.4650    24.5010   -20.4350 
  205.3750     2.3290    78.6380     6.9400     6.1460     5.7920    24.9890   -18.7420 
  205.5000     2.1340    69.5500     6.0350     5.3280     4.9930    25.6530   -17.1030 
  205.6250     1.9130    63.9910     5.5710     4.8290     4.7940    27.0430   -15.5060 
  205.7500     1.7300    61.8640     5.4300     4.6000     5.0270    28.9810   -14.2680 
  205.8750     1.6270    65.1080     5.5060     4.5890     5.2130    30.5600   -13.6730 
  206.0000     1.6220    71.7020     5.6810     4.7220     5.1360    30.8650   -13.4570 
  206.1250     1.7140    75.4900     5.8500     4.9120     4.6150    29.2260   -13.5350 
