~V
VERS. 2.00: Ver 2.00
~W
STRT.M 58.0000:
STOP.M 271.0000:
STEP.M 0.1250:
NULL. -999.2500:
UWI. F11072:
~C
DEPT.M :
DEN.GM/CC :
GR.API :
RML.OHMM :
RI. :
RXO.OHMM :
CALI.CM :
SP.MV :
~A
# ...
  249.2500     2.4100    94.6630     7.0010     6.5840     7.9220    24.7390    -4.3150 
  249.3750     2.4050    94.9770     6.8970     6.4880     8.0340    24.7450    -4.2340 
  249.5000     2.3970    97.2280     6.7740     6.3780     8.0450    24.7190    -4.1520 
  249.6250     2.3940    99.3580     6.6950     6.2990     7.7310    24.7040    -4.0740 
  249.7500     2.3980    97.9340     6.6860     6.2760     7.2000    24.6940    -3.9980 
  249.8750     2.4070    94.6540     6.7300     6.3020     7.1250    24.6330    -3.9160 
  250.0000     2.4160    92.7570     6.7730     6.3360     7.2320    24.5820    -3.8370 
  250.1250     2.4160    93.8960     6.7240     6.3070     7.5820    24.5680    -3.7620 
  250.2500     2.4120    94.6850     6.5540     6.1770     7.8510    24.5450    -3.6890 
  250.3750     2.4050    93.3080     6.2790     5.9490     7.4310    24.5650    -3.6190 
  250.5000     2.4000    90.0110     5.9590     5.6660     6.6400    24.5540    -3.5450 
  250.6250     2.3970    88.5800     5.6800     5.4010     6.1000    24.5340    -3.4680 
  250.7500     2.3910    90.6140     5.4890     5.2020     5.9080    24.5580    -3.4200 
  250.8750     2.3840    92.0150     5.3940     5.0830     5.8360    24.5670    -3.3920 
  251.0000     2.3780    90.6430     5.3740     5.0360     5.7710    24.5520    -3.3610 
  251.1250     2.3750    89.1090     5.4010     5.0400     5.7140    24.5590    -3.3410 
  251.2500     2.3760    87.7190     5.4360     5.0620     5.7250    24.5460    -3.3330 
  251.3750     2.3790    83.2110     5.4640     5.0870     5.7950    24.5360    -3.3250 
  251.5000     2.3830    76.4560     5.4760     5.1050     5.8520    24.5350    -3.3170 
  251.6250     2.3860    73.7950     5.4670     5.1090     5.8550    24.5000    -3.3200 
  251.7500     2.3870    76.3850     5.4420     5.1000     5.8270    24.4940    -3.3200 
  251.8750     2.3860    80.2250     5.4070     5.0800     5.7990    24.4940    -3.3120 
  252.0000     2.3810    81.0850     5.3730     5.0540     5.7770    24.4860    -3.3250 
  252.1250     2.3720    80.0270     5.3550     5.0290     5.7610    24.5100    -3.3540 
  252.2500     2.3640    82.1580     5.3600     5.0090     5.7440    24.5200    -3.3690 
  252.3750     2.3590    87.4310     5.3880     5.0000     5.7020    24.5160    -3.4020 
  252.5000     2.3590    91.0240     5.4310     5.0000     5.6420    24.5370    -3.4670 
  252.6250     2.3650    90.2950     5.4740     5.0080     5.6400    24.5340    -3.5280 
  252.7500     2.3710    88.4850     5.4980     5.0100     5.7090    24.5120    -3.5730 
  252.8750     2.3760    86.2460     5.4860     4.9910     5.8030    24.5130    -3.6150 
  253.0000     2.3800    82.3230     5.4280     4.9390     5.7900    24.4730    -3.6480 
  253.1250     2.3820    78.1490     5.3210     4.8450     5.7120    24.4810    -3.6640 
  253.2500     2.3840    76.6200     5.2010     4.7320     5.6290    24.4950    -3.6880 
  253.3750     2.3850    77.3220     5.1190     4.6410     5.5500    24.4850    -3.7110 
  253.5000     2.3870    80.2660     5.1440     4.6200     5.4790    24.4980    -3.7310 
  253.6250     2.3850    83.3980     5.3680     4.7430     5.4710    24.5030    -3.7740 
  253.7500     2.3810    84.2170     5.7770     5.0090     5.5970    24.4940    -3.8490 
  253.8750     2.3720    82.3960     6.3140     5.3910     5.9800    24.5010    -3.9480 
  254.0000     2.3600    78.4790     6.8680     5.8160     6.7040    24.4610    -4.0560 
  254.1250     2.3480    75.3370     7.2730     6.1660     7.6910    24.4500    -4.1630 
  254.2500     2.3370    74.1950     7.4680     6.3700     8.2700    24.4560    -4.2550 
  254.3750     2.3290    75.8540     7.4860     6.4280     8.1940    24.4330    -4.3310 
  254.5000     2.3250    78.0240     7.4380     6.4090     7.5480    24.4780    -4.4030 
  254.6250     2.3270    76.8630     7.4890     6.4390     7.1310    24.6040    -4.4800 
  254.7500     2.3330    74.2350     7.7070     6.5990     7.3240    24.6930    -4.5450 
  254.8750     2.3380    71.8690     8.0940     6.9160     8.1640    24.7420    -4.5880 
  255.0000     2.3410    70.8050     8.6180     7.3860     9.4500    24.7560    -4.6230 
  255.1250     2.3390    70.7900     9.2270     7.9760    10.7610    24.7330    -4.6800 
  255.2500     2.3360    69.0980     9.8130     8.5790    11.2690    24.7200    -4.7560 
  255.3750     2.3350    65.0850    10.2560     9.0790    11.5620    24.6860    -4.8510 
  255.5000     2.3400    61.0820    10.4170     9.3450    12.8130    24.6450    -4.9510 
  255.6250     2.3470    62.1400    10.1170     9.2030    15.2690    24.6510    -5.0350 
  255.7500     2.3500    66.5990     9.4430     8.6980    14.5250    24.6200    -5.1260 
  255.8750     2.3480    71.0130     8.5560     7.9470    11.2970    24.6000    -5.2370 
  256.0000     2.3410    74.1460     7.6780     7.1320     8.4140    24.5600    -5.3650 
  256.1250     2.3320    76.2980     7.0250     6.4540     7.2910    24.4670    -5.4830 
  256.2500     2.3240    77.9050     6.6090     5.9760     6.5290    24.3940    -5.5870 
  256.3750     2.3180    78.3540     6.3810     5.6880     6.2800    24.3760    -5.6580 
  256.5000     2.3170    77.0600     6.2850     5.5560     6.2730    24.4520    -5.6880 
  256.6250     2.3260    75.2130     6.3780     5.6050     6.2290    24.5840    -5.6860 
  256.7500     2.3450    74.9210     6.7700     5.8860     6.1980    24.6340    -5.6590 
  256.8750     2.3740    77.0980     7.6200     6.5120     6.3750    24.5840    -5.6060 
  257.0000     2.4090    79.3200     9.0090     7.5670     7.0840    24.5380    -5.5200 
  257.1250     2.4420    77.5670    10.8420     9.0450     9.0610    24.4760    -5.3850 
  257.2500     2.4690    72.3800    12.5940    10.5720    12.4030    24.3970    -5.2050 
  257.3750     2.4830    66.3020    13.7100    11.7060    17.3260    24.3220    -4.9870 
  257.5000     2.4820    62.3250    13.7330    12.0150    24.6110    24.2500    -4.7520 
  257.6250     2.4690    60.3320    12.4440    11.1910    26.8410    24.2070    -4.5090 
  257.7500     2.4510    58.8560    10.6060     9.7840    16.0890    24.1500    -4.2700 
  257.8750     2.4340    57.9360     8.9000     8.3490     8.6620    24.0690    -4.0430 
  258.0000     2.4180    58.3040     7.7310     7.2570     6.5560    24.0590    -3.8270 
  258.1250     2.4070    59.7390     7.2240     6.6730     6.4560    24.0880    -3.6380 
  258.2500     2.4000    59.4900     7.0970     6.4330     6.5710    24.1000    -3.5010 
  258.3750     2.3960    57.9300     7.1590     6.4080     6.5580    24.1150    -3.4210 
  258.5000     2.3940    56.1490     7.2640     6.4770     6.5790    24.0910    -3.3870 
  258.6250     2.3880    54.8610     7.3220     6.5440     6.5870    24.0240    -3.4040 
  258.7500     2.3790    54.8180     7.3240     6.5660     6.6110    24.0060    -3.4440 
  258.8750     2.3700    55.8920     7.2790     6.5380     6.5950    23.9760    -3.4900 
  259.0000     2.3660    56.7430     7.2020     6.4690     6.4950    23.9660    -3.5460 
  259.1250     2.3790    56.4770     7.1040     6.3710     6.3630    23.9810    -3.6210 
  259.2500     2.4060    57.1670     7.0050     6.2620     6.2430    23.9480    -3.7080 
  259.3750     2.4380    59.2570     6.9180     6.1510     6.1900    23.9080    -3.7970 
  259.5000     2.4600    60.6460     6.8500     6.0460     6.1840    23.8920    -3.8710 
  259.6250     2.4540    60.9690     6.7990     5.9560     6.1010    23.8630    -3.9120 
  259.7500     2.4290    61.4980     6.7600     5.8850     5.9170    23.8690    -3.9230 
  259.8750     2.3990    61.2710     6.7310     5.8380     5.8020    23.8560    -3.9120 
  260.0000     2.3770    59.2900     6.7210     5.8200     5.8180    23.7970    -3.8830 
  260.1250     2.3670    57.5120     6.7460     5.8350     5.9550    23.7650    -3.8290 
  260.2500     2.3660    57.4140     6.7970     5.8710     6.1270    23.7240    -3.7480 
  260.3750     2.3660    58.1610     6.8570     5.9090     6.2420    23.6420    -3.6630 
