~V
VERS. 2.00: Ver 2.00
~W
STRT.M 60.0000:
STOP.M 279.0000:
STEP.M 0.1250:
NULL. -999.2500:
UWI. F11060:
~C
DEPT.M :
GR.API :
RML.OHMM :
RI. :
RXO.OHMM :
CALI.CM :
DEN.GM/CC :
SP.MV :
~A
# ...
  105.0000    61.1630     8.7770     6.6140     8.1890    23.5300     2.1790    -7.9860 
  105.1250    63.2800     8.6420     6.4910     7.8950    23.5100     2.1740    -7.7520 
  105.2500    66.2120     8.5810     6.4050     7.8560    23.4830     2.1730    -7.5450 
  105.3750    65.6020     8.5790     6.3640     8.0060    23.4870     2.1750    -7.3470 
  105.5000    62.8730     8.5950     6.3560     8.1330    23.5150     2.1740    -7.1710 
  105.6250    62.8760     8.6020     6.3700     8.2580    23.5070     2.1670    -7.0830 
  105.7500    64.2350     8.6070     6.3940     8.3040    23.4840     2.1600    -7.1020 
  105.8750    64.7630     8.6350     6.4310     8.2650    23.4730     2.1560    -7.0800 
  106.0000    65.8790     8.7050     6.4850     8.1810    23.4700     2.1540    -6.9960 
  106.1250    68.1490     8.8220     6.5600     8.6070    23.3950     2.1520    -6.9790 
  106.2500    67.7210     8.9480     6.6420     9.0930    23.3320     2.1500    -6.9550 
  106.3750    64.9030     9.0550     6.7220     9.1850    23.3070     2.1490    -6.8810 
  106.5000    63.5830     9.1240     6.7920     8.8780    23.3480     2.1470    -6.7490 
  106.6250    65.0030     9.1430     6.8410     8.7560    23.3660     2.1450    -6.5780 
  106.7500    66.6000     9.1280     6.8640     8.7610    23.3550     2.1400    -6.4510 
  106.8750    67.0050     9.0980     6.8600     8.7560    23.3690     2.1360    -6.4100 
  107.0000    67.0940     9.0720     6.8380     8.7630    23.4370     2.1360    -6.3420 
  107.1250    68.7130     9.0690     6.8230     8.8850    23.5140     2.1460    -6.2820 
  107.2500    69.1360     9.0950     6.8350     8.9920    23.5530     2.1590    -6.3380 
  107.3750    67.2130     9.1560     6.8810     9.0910    23.5820     2.1720    -6.4800 
  107.5000    64.3900     9.2510     6.9590     9.2040    23.6170     2.1830    -6.6680 
  107.6250    63.9060     9.3680     7.0520     9.4650    23.6680     2.1990    -6.8370 
  107.7500    65.8160     9.4650     7.1250     9.6480    23.6700     2.2130    -6.9660 
  107.8750    66.6560     9.5010     7.1500     9.6810    23.6360     2.2110    -7.1400 
  108.0000    65.2590     9.4520     7.1140     9.5540    23.6420     2.1880    -7.3610 
  108.1250    62.5310     9.3300     7.0270     9.2500    23.7720     2.1610    -7.5030 
  108.2500    60.8630     9.2040     6.9370     8.8930    23.9820     2.1470    -7.5850 
  108.3750    60.6560     9.1260     6.8820     8.7300    24.1250     2.1440    -7.6850 
  108.5000    59.9390     9.1250     6.8880     8.7830    24.1420     2.1430    -7.8450 
  108.6250    58.5880     9.2150     6.9690     9.1470    24.0640     2.1420    -8.0230 
  108.7500    57.7250     9.3530     7.0990     9.5230    23.9580     2.1400    -8.1210 
  108.8750    58.5040     9.5010     7.2500     9.7360    23.8740     2.1380    -8.1420 
  109.0000    60.0750     9.6100     7.3840     9.7570    23.8330     2.1400    -8.1840 
  109.1250    61.9200     9.5890     7.4270     9.7460    23.8330     2.1480    -8.1890 
  109.2500    62.7180     9.4070     7.3400     9.7960    23.8460     2.1610    -8.0570 
  109.3750    63.0270     9.0790     7.1170     9.8030    23.8590     2.1760    -7.7780 
  109.5000    64.2210     8.6680     6.7950     9.4710    23.8410     2.1930    -7.3870 
  109.6250    66.1570     8.2660     6.4410     8.6150    23.7790     2.2140    -6.9860 
  109.7500    67.2390     7.9610     6.1450     7.8950    23.7220     2.2310    -6.6100 
  109.8750    67.0120     7.8120     5.9650     7.8680    23.7160     2.2340    -6.1970 
  110.0000    68.4920     7.8440     5.9340     8.1220    23.7540     2.2230    -5.7900 
  110.1250    71.9160     8.0800     6.0790     8.1770    23.8420     2.2060    -5.5340 
  110.2500    73.4890     8.4600     6.3510     8.3490    23.9420     2.1930    -5.3980 
  110.3750    73.1750     8.9280     6.7040     8.9460    24.0750     2.1790    -5.3340 
  110.5000    71.8520     9.4040     7.0830     9.4450    24.1570     2.1640    -5.3350 
  110.6250    70.0250     9.7680     7.3980     9.6240    24.1700     2.1530    -5.4090 
  110.7500    66.9840     9.9110     7.5640     9.6650    24.1500     2.1500    -5.5280 
  110.8750    65.2240     9.7300     7.4950     9.6240    24.1450     2.1570    -5.6300 
  111.0000    65.6980     9.2060     7.1590     9.4040    24.1700     2.1700    -5.6430 
  111.1250    66.7370     8.4340     6.6000     8.6970    24.2340     2.1870    -5.5980 
  111.2500    70.2500     7.6900     6.0110     7.4610    24.2730     2.2060    -5.5980 
  111.3750    77.8850     7.1850     5.5500     6.2400    24.2240     2.2210    -5.6630 
  111.5000    85.4900     7.0570     5.3340     5.8200    24.1760     2.2250    -5.7670 
  111.6250    85.8870     7.3970     5.4560     6.3560    24.1960     2.2140    -5.9140 
  111.7500    79.7590     8.0400     5.8360     7.3680    24.2450     2.1990    -6.1840 
  111.8750    72.0400     8.8130     6.3780     8.6680    24.3000     2.1870    -6.6450 
  112.0000    66.9340     9.4930     6.9360     9.7910    24.4040     2.1810    -7.1920 
  112.1250    65.2250     9.8190     7.3110     9.9090    24.5190     2.1740    -7.6850 
  112.2500    63.2360     9.8020     7.4410     9.3510    24.4960     2.1580    -8.1550 
  112.3750    59.9800     9.5570     7.3630     8.9480    24.3420     2.1380    -8.6140 
  112.5000    57.5720     9.2500     7.1770     8.7410    24.2240     2.1200    -9.0130 
  112.6250    58.4940     9.0420     7.0080     8.7110    24.1290     2.1130    -9.2370 
  112.7500    60.7590     8.9690     6.9260     8.5780    23.9700     2.1190    -9.2830 
  112.8750    64.5530     9.0030     6.9380     8.2910    23.7570     2.1420    -9.2430 
  113.0000    68.9360     9.0910     7.0180     8.1420    23.5580     2.1740    -9.2110 
  113.1250    70.0720     9.1950     7.1330     7.9960    23.4190     2.2010    -9.1680 
  113.2500    67.6510     9.2960     7.2440     7.8550    23.3590     2.2090    -9.0690 
  113.3750    64.3940     9.3960     7.3430     7.9590    23.3470     2.2020    -8.9570 
  113.5000    63.0240     9.4870     7.4310     8.3430    23.3160     2.1990    -8.9030 
  113.6250    63.6160     9.4920     7.4820     8.8440    23.2410     2.2030    -8.9230 
  113.7500    64.7650     9.3390     7.4460     9.1820    23.2390     2.2070    -8.9160 
  113.8750    66.0760     8.9890     7.2630     9.4180    23.3590     2.2050    -8.8080 
  114.0000    66.9210     8.4740     6.9160     9.5220    23.5090     2.1990    -8.6730 
  114.1250    66.3970     7.9220     6.4600     9.1150    23.6170     2.1930    -8.6010 
  114.2500    65.3430     7.4990     6.0420     8.2220    23.6530     2.1910    -8.5130 
  114.3750    65.0550     7.3060     5.7680     7.3740    23.6880     2.1900    -8.3840 
  114.5000    65.6180     7.3750     5.6980     6.9720    23.7090     2.1850    -8.2420 
  114.6250    64.5320     7.6950     5.8700     8.2250    23.7150     2.1760    -8.1940 
  114.7500    61.4060     8.1360     6.1990     9.3350    23.7420     2.1700    -8.2740 
  114.8750    58.3810     8.5960     6.6010    10.0600    23.8050     2.1630    -8.3680 
  115.0000    57.1170     8.9860     6.9770     9.9250    23.8680     2.1510    -8.3430 
  115.1250    57.8120     9.2130     7.2140     9.5100    23.9300     2.1400    -8.2320 
  115.2500    58.6210     9.2370     7.2760     9.3220    23.9740     2.1390    -8.1030 
  115.3750    59.6890     8.9940     7.1330     9.2480    24.0000     2.1470    -7.8590 
  115.5000    62.4230     8.4440     6.7660     9.1080    24.0110     2.1580    -7.4170 
  115.6250    68.1260     7.6230     6.1790     8.2760    24.1190     2.1780    -6.7420 
  115.7500    75.2290     6.7810     5.5230     6.7610    24.2030     2.2050    -5.9870 
  115.8750    82.3930     6.1260     4.9430     5.2860    24.1460     2.2340    -5.3150 
  116.0000    88.1380     5.8070     4.5640     4.7450    23.9210     2.2520    -4.7830 
  116.1250    88.6120     5.9500     4.5150     5.0280    23.6010     2.2540    -4.4440 
