~V
VERS. 2.00: Ver 2.00
~W
STRT.M 50.0000:
STOP.M 276.0000:
STEP.M 0.1250:
NULL. -999.2500:
UWI. F11044:
~C
DEPT.M :
SP.MV :
GR.API :
RML.OHMM :
RI. :
RXO.OHMM :
CALI.CM :
DEN.GM/CC :
~A
# ...
  162.5000   -11.7900    99.4510    22.2010    21.7400    20.7890    24.8480     2.3190 
  162.6250   -11.9490    98.5360    22.9180    21.4550    18.2370    24.8600     2.3160 
  162.7500   -12.0500    95.0190    25.6310    22.9400    22.6370    24.8950     2.3030 
  162.8750   -12.2420    91.5390    30.0500    26.2170    34.6980    24.9610     2.2850 
  163.0000   -12.4950    87.4720    35.7180    31.0670    47.1180    25.0290     2.2700 
  163.1250   -12.7600    83.7430    42.6750    37.0190    49.1920    25.0380     2.2590 
  163.2500   -13.1590    81.9230    50.6850    43.3120    46.4400    25.0530     2.2520 
  163.3750   -13.6010    81.4110    59.6730    50.0650    47.1450    25.1010     2.2470 
  163.5000   -14.0730    79.4630    69.9900    58.1990    59.9520    25.1540     2.2430 
  163.6250   -14.6610    75.3430    83.2920    69.6350    86.9780    25.2170     2.2420 
  163.7500   -15.3100    71.0940   100.4090    84.8390   124.8230    25.2890     2.2420 
  163.8750   -16.0220    67.9280   121.6650   103.8430   132.6270    25.3200     2.2410 
  164.0000   -16.8750    67.5800   146.9580   126.2690   103.8070    25.3080     2.2360 
  164.1250   -17.7650    68.7580   176.5350   152.2760   103.7740    25.3260     2.2260 
  164.2500   -18.4940    68.5040   208.9180   181.0170   128.7400    25.3810     2.2150 
  164.3750   -19.1850    67.2890   242.2870   211.3930   173.9070    25.4280     2.2060 
  164.5000   -19.8310    66.8400   273.3710   240.8650   232.6910    25.4410     2.2020 
  164.6250   -20.3310    67.0510   295.8000   264.3390   245.3140    25.4950     2.2000 
  164.7500   -20.7190    66.0130   305.8020   278.6070   227.0390    25.5290     2.1970 
  164.8750   -21.0210    63.7760   300.6000   280.9510   233.8790    25.5560     2.1920 
  165.0000   -21.1900    63.1030   280.0600   269.4530   299.5930    25.5890     2.1870 
  165.1250   -21.2100    64.9080   246.5420   242.8700   327.2160    25.6060     2.1850 
  165.2500   -21.2320    66.4210   209.5050   209.2670   291.2680    25.5920     2.1900 
  165.3750   -21.2980    65.0910   175.7100   176.0710   192.4850    25.5330     2.2020 
  165.5000   -21.2670    61.8230   149.4240   149.0230   116.2200    25.4440     2.2170 
  165.6250   -21.1890    62.1000   133.0520   131.8720   105.9690    25.3930     2.2310 
  165.7500   -21.2190    65.3420   123.6660   122.1550   119.9400    25.4040     2.2390 
  165.8750   -21.1630    68.5360   119.2330   117.7630   116.3770    25.3900     2.2400 
  166.0000   -20.9980    70.3700   117.8970   116.7480   100.8230    25.3630     2.2380 
  166.1250   -20.9840    70.0870   118.4090   117.7430    99.8030    25.3510     2.2360 
  166.2500   -20.9820    68.5610   119.6490   119.3810   103.4050    25.3500     2.2350 
  166.3750   -20.9560    67.2330   121.3170   121.2980   105.8390    25.3490     2.2350 
  166.5000   -20.9470    68.9600   123.2750   123.4500   110.4710    25.3480     2.2360 
  166.6250   -20.8300    71.3410   125.2470   125.6330   129.2550    25.3460     2.2370 
  166.7500   -20.6840    70.8020   126.7570   127.3020   147.5300    25.3350     2.2390 
  166.8750   -20.6150    70.1100   127.4140   127.9940   143.6290    25.3100     2.2420 
  167.0000   -20.5360    72.5030   127.1390   127.4720   130.6350    25.2930     2.2460 
  167.1250   -20.3630    74.1170   126.4600   125.9660   128.0260    25.2810     2.2500 
  167.2500   -20.2930    71.7500   126.5740   124.8730   126.2830    25.2700     2.2540 
  167.3750   -20.1640    68.5260   128.4830   125.5490   119.1080    25.2580     2.2550 
  167.5000   -19.9530    68.1680   132.6250   128.7580   111.0160    25.2800     2.2540 
  167.6250   -19.9210    68.4050   138.5940   134.4560   108.9000    25.3180     2.2480 
  167.7500   -19.9880    66.4120   144.3420   140.6840   127.8300    25.3610     2.2390 
  167.8750   -20.0410    64.1460   147.8210   145.3300   166.1490    25.3940     2.2290 
  168.0000   -20.1260    64.0040   147.3880   146.3340   169.5310    25.3740     2.2200 
  168.1250   -20.2720    65.9160   142.0130   141.9590   141.6810    25.3570     2.2150 
  168.2500   -20.3250    67.2120   133.8490   134.0690   127.1470    25.3480     2.2140 
  168.3750   -20.3540    66.2260   124.9980   124.8480   126.3770    25.3480     2.2180 
  168.5000   -20.5040    65.0140   117.4070   116.5160   126.3870    25.3480     2.2270 
  168.6250   -20.6650    66.2060   112.9200   111.1710   117.8940    25.3430     2.2400 
  168.7500   -20.5840    67.1040   111.6210   109.0900   105.1470    25.3260     2.2500 
  168.8750   -20.4030    64.9010   113.2970   110.2860   100.1090    25.3000     2.2550 
  169.0000   -20.2670    61.9730   117.0700   114.2200   108.1010    25.2910     2.2510 
  169.1250   -20.0110    63.6300   121.0780   119.3770   118.3600    25.3120     2.2400 
  169.2500   -19.7700    67.0330   123.0700   123.0120   131.2580    25.3680     2.2280 
  169.3750   -19.6020    69.0600   121.9040   123.2570   137.4830    25.4500     2.2240 
  169.5000   -19.3310    68.5160   117.9400   119.8960   125.2040    25.5240     2.2300 
  169.6250   -19.0470    66.3050   113.0720   114.6570    96.9280    25.5610     2.2480 
  169.7500   -18.8180    64.6340   109.7130   110.5050    76.5680    25.5510     2.2680 
  169.8750   -18.6270    63.9430   108.9490   108.9920    74.8320    25.5290     2.2840 
  170.0000   -18.5810    64.2780   110.6620   110.3770    90.4790    25.5110     2.2880 
  170.1250   -18.6670    65.2670   113.7040   113.7230   111.5150    25.3400     2.2770 
  170.2500   -18.6900    65.7110   116.1700   116.6950   123.9120    25.1040     2.2560 
  170.3750   -18.7310    65.3830   117.1120   117.7940   127.4630    25.0170     2.2330 
  170.5000   -18.8820    65.5660   116.6070   116.7950   120.5860    25.0930     2.2150 
  170.6250   -18.9490    66.1090   115.7610   114.9150   116.3620    25.1860     2.2100 
  170.7500   -19.0490    65.0050   115.9610   113.9670   114.9620    25.2350     2.2150 
  170.8750   -19.2540    63.6140   117.8530   114.7580   107.5460    25.2430     2.2230 
  171.0000   -19.3630    63.8220   121.5260   117.3740   101.9160    25.2530     2.2310 
  171.1250   -19.3260    63.5080   127.1620   121.7680   115.0170    25.2680     2.2340 
  171.2500   -19.3660    62.2940   134.8380   127.8080   125.8640    25.2670     2.2360 
  171.3750   -19.4690    62.6570   145.5440   136.5370   126.0440    25.2330     2.2380 
  171.5000   -19.5360    64.0340   160.5900   149.6570   125.7740    25.1970     2.2350 
  171.6250   -19.5780    63.1150   181.3790   169.7860   139.6370    25.1930     2.2220 
  171.7500   -19.6930    60.6090   204.6380   194.9600   170.3390    25.2200     2.2000 
  171.8750   -19.6930    58.2910   224.3060   219.7690   219.2060    25.2590     2.1770 
  172.0000   -19.5420    58.1210   232.4500   234.8940   300.1630    25.2960     2.1620 
  172.1250   -19.5420    61.2660   220.9120   228.4750   309.6060    25.2840     2.1680 
  172.2500   -19.5070    66.0940   195.2700   204.7450   250.3900    25.2160     2.1870 
  172.3750   -19.3080    69.7360   163.3140   172.3260   161.5620    25.1100     2.2120 
  172.5000   -19.1450    70.3520   132.7940   140.0450   114.0260    25.0490     2.2350 
  172.6250   -19.0520    70.3250   109.7200   114.5860   126.2790    25.0970     2.2540 
  172.7500   -18.8340    71.4960    94.3550    96.6600   109.3370    25.1080     2.2710 
  172.8750   -18.7270    73.2520    86.3110    86.0960    78.2270    25.0590     2.2830 
  173.0000   -18.7280    75.8720    84.8170    82.3350    65.8470    25.0640     2.2880 
  173.1250   -18.6990    77.6600    89.7460    85.6820    70.7280    25.1400     2.2810 
  173.2500   -18.7760    76.5710    98.7510    94.1530   101.4950    25.2230     2.2670 
  173.3750   -18.8480    72.0470   109.8920   106.0110   129.4320    25.2670     2.2510 
  173.5000   -18.8560    68.5620   120.6200   118.3020   124.5670    25.2800     2.2350 
  173.6250   -18.9620    69.2050   127.8460   126.6540   108.5180    25.2780     2.2210 
