~V
VERS. 2.00: Ver 2.00
~W
STRT.M 60.0000:
STOP.M 274.0000:
STEP.M 0.1250:
NULL. -999.2500:
UWI. F11079:
~C
DEPT.M :
GR.API :
RML.OHMM :
RI. :
RXO.OHMM :
CALI.CM :
DEN.GM/CC :
SP.MV :
~A
# ...
  262.5000    92.9400     5.2430     4.7320     4.7060    23.8730     2.3570     2.8950 
  262.6250    93.6530     5.0890     4.5530     4.7030    23.8750     2.3630     3.0540 
  262.7500    96.1350     4.9940     4.4070     4.6580    23.8900     2.3710     3.2440 
  262.8750    97.7290     4.9360     4.2880     4.5810    23.9180     2.3780     3.4120 
  263.0000    96.9230     4.8970     4.1910     4.5070    23.9430     2.3810     3.5510 
  263.1250    96.1270     4.8720     4.1200     4.4470    23.9670     2.3780     3.5710 
  263.2500    96.8530     4.8640     4.0720     4.3650    24.0030     2.3690     3.5560 
  263.3750    96.5940     4.8880     4.0510     4.3030    24.0400     2.3550     3.5380 
  263.5000    95.6880     4.9500     4.0580     4.2900    24.0590     2.3410     3.5550 
  263.6250    96.0540     5.0420     4.0960     4.3200    24.0700     2.3350     3.6110 
  263.7500    96.4430     5.1220     4.1460     4.4100    24.0880     2.3370     3.6460 
  263.8750    96.9980     5.1500     4.1860     4.5580    24.1040     2.3420     3.6340 
  264.0000    97.1890     5.1090     4.1930     4.6750    24.1120     2.3490     3.6080 
  264.1250    97.1890     5.0280     4.1510     4.7150    24.1170     2.3540     3.6170 
  264.2500    97.1890     4.9730     4.0870     4.6920    24.1220     2.3560     3.5980 
  264.3750    97.1890     4.9720     4.0290     4.6190    24.1240     2.3580     3.5510 
  264.5000    97.1890     5.0240     3.9980     4.5330    24.1240     2.3620     3.5020 
  264.6250    97.1890     5.1150     3.9990     4.4400    24.1230     2.3680     3.4250 
  264.7500    97.1890     5.2190     4.0170     4.3840    24.1220     2.3720     3.3300 
  264.8750    97.1890     5.3070     4.0400     4.3750    24.1170     2.3710     3.2210 
  265.0000    97.1890     5.3570     4.0600     4.3810    24.1040     2.3660     3.0720 
  265.1250    97.1890     5.3550     4.0680     4.3810    24.0780     2.3610     2.9740 
  265.2500    97.1890     5.3280     4.0650     4.3430    24.0670     2.3570     2.9250 
  265.3750    97.1890     5.3100     4.0540     4.3380    24.0650     2.3540     2.8520 
  265.5000    97.1890     5.3250     4.0410     4.3450    24.0720     2.3500     2.7590 
  265.6250    97.1890     5.3760     4.0330     4.3560    24.0910     2.3440     2.6930 
  265.7500    97.1890     5.4300     4.0330     4.3840    24.1030     2.3400     2.5900 
  265.8750    97.1890     5.4630     4.0400     4.4380    24.0800     2.3380     2.5420 
  266.0000    97.1890     5.4700     4.0520     4.5480    24.0050     2.3380     2.5800 
  266.1250    97.1890     5.4580     4.0680     4.7130    23.9640     2.3440     2.5940 
  266.2500    97.1890     5.4450     4.0830     4.7770    23.9660     2.3550     2.5850 
  266.3750    97.1890     5.4410     4.0900     4.6670    24.0010     2.3630     2.5790 
  266.5000    97.1890     5.4430     4.0910     4.5910    24.0090     2.3610     2.6020 
  266.6250    97.1890     5.4410     4.0900     4.7710    23.9750     2.3540     2.5930 
  266.7500    97.1890     5.4330     4.0880     5.1000    23.9650     2.3510     2.5970 
  266.8750    97.1890     5.4220     4.0820     5.3740    23.9970     2.3520     2.5970 
  267.0000    97.1890     5.4160     4.0730     5.5070    24.0710     2.3540     2.5750 
  267.1250    97.1890     5.4120     4.0660     5.3280    24.1080     2.3500     2.5440 
  267.2500    97.1890     5.4150     4.0670     5.1980    24.1210     2.3460     2.5590 
  267.3750    97.1890     5.4320     4.0770     5.1420    24.1200     2.3480     2.5730 
  267.5000    97.1890     5.4660     4.0910     5.1440    24.1200     2.3570     2.5730 
  267.6250    97.1890     5.5080     4.1000     5.2960    24.1210     2.3670     2.5970 
  267.7500    97.1890     5.5430     4.1020     5.5800    24.1300     2.3700     2.6510 
  267.8750    97.1890     5.5620     4.1000     5.8360    24.1590     2.3610     2.6590 
  268.0000    97.1890     5.5600     4.0970     6.0530    24.2090     2.3380     2.6680 
  268.1250    97.1890     5.5410     4.0960     6.4790    24.1900     2.3050     2.6600 
  268.2500    97.1890     5.5180     4.0970     6.6340    24.1450     2.2740     2.6670 
  268.3750    97.1890     5.4960     4.1000     5.8360    24.1220     2.2560     2.6370 
  268.5000    97.1890     5.4710     4.1030     4.5220    24.1180     2.2510     2.5990 
  268.6250    97.1890     5.4460     4.1050     3.8280    24.1200     2.2570     2.5940 
  268.7500    97.1890     5.4220     4.1060     3.5610    24.1210     2.2630     2.5610 
  268.8750    97.1890     5.4010     4.1040     3.5010    24.0870     2.2630     2.5470 
  269.0000    97.1890     5.3890     4.1010     3.4910    23.9150     2.2630     2.5410 
  269.1250    97.1890     5.3860     4.0990     3.5000    23.8250     2.2710     2.5710 
  269.2500    97.1890     5.3860     4.0990     3.5130    23.8430     2.2850     2.5250 
  269.3750    97.1890     5.3830     4.1000     3.5410    23.9910     2.2950     2.4560 
  269.5000    97.1890     5.3370     4.0990     3.6090    24.1260     2.2970     2.3930 
  269.6250    97.1890     5.1210     4.0820     3.6990    24.2250     2.2930     2.3110 
  269.7500    97.1890     4.7470     4.0530     3.7380    24.2740     2.2870     2.2330 
  269.8750    97.1890     4.5740     4.0400     3.7800    24.3670     2.2810     2.1000 
  270.0000    97.1890     4.5740     4.0400     3.8820    24.4780     2.2770     1.9390 
  270.1250    97.1890     4.5740     4.0400     3.9640    24.2430     2.2740     1.7520 
  270.2500    97.1890     4.5740     4.0400     4.0980    23.7000     2.2700     1.5780 
  270.3750    97.1890     4.5740     4.0400     4.2180    23.3320     2.2630     1.4120 
  270.5000    97.1890     4.5740     4.0400     4.1380    23.0580     2.2480     1.1920 
  270.6250    97.1890     4.5740     4.0400     4.0150    22.3030     2.2210     0.9870 
  270.7500    97.1890     4.5740     4.0400     3.8860    21.0580     2.1840     0.8120 
  270.8750    97.1890     4.5740     4.0400     3.8090    20.2260     2.1410     0.6330 
  271.0000    97.1890     4.5740     4.0400     3.7890    19.9540     2.1020     0.4630 
  271.1250    97.1890     4.5740     4.0400     3.8030    19.9400     2.0820     0.3790 
  271.2500    97.1890     4.5740     4.0400     3.8070    19.9370     2.0770     0.3680 
  271.3750    97.1890     4.5740     4.0400     3.7980    19.9330     2.0770     0.3560 
  271.5000    97.1890     4.5740     4.0400     3.7990    19.9220     2.0760  -999.2500 
  271.6250    97.1890     4.5740     4.0400     3.7890    19.9250     2.0770  -999.2500 
  271.7500    97.1890     4.5740     4.0400     3.7780    19.9400     2.0790  -999.2500 
  271.8750    97.1890     4.5740     4.0400     3.7720    19.9490     2.0790  -999.2500 
  272.0000    97.1890     4.5740     4.0400     3.7770    19.9370     2.0780  -999.2500 
  272.1250    97.1890     4.5740     4.0400     3.7760    19.9390     2.0780  -999.2500 
  272.2500    97.1890     4.5740     4.0400     3.7730    19.9480     2.0780  -999.2500 
  272.3750    97.1890     4.5740     4.0400     3.7760    19.9430     2.0800  -999.2500 
  272.5000    97.1890     4.5740     4.0400     3.7710    19.9540     2.0820  -999.2500 
  272.6250    97.1890     4.5740     4.0400     3.7700    19.9520     2.0840  -999.2500 
  272.7500    97.1890     4.5740     4.0400     3.7790    19.9270     2.0830  -999.2500 
  272.8750    97.1890     4.5740     4.0400     3.8010    19.8910     2.0670  -999.2500 
  273.0000    97.1890     4.5740     4.0400     3.8350    19.8620     2.0380  -999.2500 
  273.1250    97.1890     4.5740     4.0400     3.8800    19.8690     1.9170  -999.2500 
  273.2500    97.1890     4.5740     4.0400     3.9220    19.8650     1.7510  -999.2500 
  273.3750    97.1890     4.5740     4.0400     3.9320    19.8710     1.5090  -999.2500 
  273.5000    97.1890     4.5740     4.0400     3.9250    19.8750     1.1590  -999.2500 
  273.6250    97.1890     4.5740     4.0400     3.9170    19.8600     0.7350  -999.2500 
