~V
VERS. 2.00: Ver 2.00
~W
STRT.M 62.0000:
STOP.M 272.0000:
STEP.M 0.1250:
NULL. -999.2500:
UWI. F11076:
~C
DEPT.M :
GR.API :
RML.OHMM :
RI. :
RXO.OHMM :
CALI.CM :
DEN.GM/CC :
SP.MV :
~A
# ...
  107.0000    64.6000     9.1930     7.4940     9.3550    25.6450     2.1170   -19.8480 
  107.1250    71.8990     8.7990     7.2810     8.9200    25.4920     2.1650   -18.6210 
  107.2500    81.1130     8.2920     6.9360     8.0840    25.2710     2.2330   -16.9630 
  107.3750    86.2250     7.7610     6.5270     7.3910    25.1490     2.3010   -14.9810 
  107.5000    85.2500     7.2950     6.1240     6.8110    25.1590     2.3480   -12.8200 
  107.6250    84.7380     7.0130     5.8200     6.2580    25.2720     2.3520   -10.6350 
  107.7500    86.7490     6.9600     5.6750     5.8480    25.3740     2.3260    -8.6250 
  107.8750    87.1520     7.1590     5.7370     5.8760    25.4260     2.3010    -6.9160 
  108.0000    84.4920     7.5690     6.0120     5.8260    25.4770     2.3050    -5.6320 
  108.1250    82.9990     8.0500     6.4470     5.7560    25.5500     2.3490    -4.8540 
  108.2500    85.0070     8.3670     6.8480     6.0870    25.5030     2.4030    -4.4520 
  108.3750    86.9470     8.3530     7.0250     6.6770    25.2810     2.4390    -4.2710 
  108.5000    86.5680     7.9520     6.8570     6.8460    25.0990     2.4460    -4.1840 
  108.6250    85.9970     7.2380     6.3490     5.8730    25.1130     2.4330    -4.1140 
  108.7500    86.7600     6.4730     5.7320     5.2690    25.1970     2.4220    -4.0450 
  108.8750    87.9980     5.8310     5.1590     4.8880    25.2330     2.4180    -3.9480 
  109.0000    87.9100     5.4190     4.7290     4.7530    25.2400     2.4140    -3.8690 
  109.1250    88.3130     5.3400     4.5360     4.6460    25.2560     2.4010    -3.8000 
  109.2500    89.8050     5.5670     4.5790     4.6980    25.2750     2.3730    -3.8410 
  109.3750    89.4080     6.0910     4.8810     4.8840    25.2670     2.3280    -4.0910 
  109.5000    87.2660     6.8550     5.4370     5.4540    25.2330     2.2690    -4.6090 
  109.6250    85.8730     7.6980     6.1970     6.5160    25.2210     2.2160    -5.2130 
  109.7500    85.6720     8.3380     6.9240     7.8300    25.2240     2.1890    -5.7220 
  109.8750    84.1560     8.5380     7.3550     8.8770    25.1650     2.1970    -6.0410 
  110.0000    80.5650     8.1800     7.2820     8.6300    25.0180     2.2320    -6.1560 
  110.1250    77.7320     7.3080     6.6410     6.6520    24.9310     2.2770    -6.0980 
  110.2500    77.6660     6.2990     5.7780     5.6790    24.9700     2.3180    -5.8730 
  110.3750    81.7580     5.4390     4.9590     5.2660    25.0530     2.3520    -5.4900 
  110.5000    89.0200     4.9260     4.3670     4.8440    25.0570     2.3780    -5.0100 
  110.6250    93.4420     4.9120     4.1430     4.1710    24.9980     2.3880    -4.6910 
  110.7500    91.9060     5.3000     4.2490     3.9390    24.9790     2.3770    -4.6710 
  110.8750    86.6420     5.9900     4.6490     4.5630    25.0010     2.3480    -5.0250 
  111.0000    81.4240     6.8260     5.2640     6.2640    25.0670     2.3100    -5.6010 
  111.1250    78.2920     7.5870     5.9520     7.6000    25.1900     2.2720    -6.3330 
  111.2500    75.9520     8.1230     6.5300     7.9420    25.3500     2.2370    -7.1150 
  111.3750    76.1090     8.4120     6.9190     7.5310    25.5400     2.2080    -7.9330 
  111.5000    78.4970     8.5360     7.1460     7.2410    25.6920     2.1880    -8.7210 
  111.6250    79.5820     8.6210     7.3010     7.3580    25.6490     2.1870    -9.4300 
  111.7500    77.7600     8.7310     7.4550     8.0110    25.4120     2.2050   -10.0210 
  111.8750    75.3700     8.8330     7.5880     8.7550    25.1220     2.2350   -10.5350 
  112.0000    74.4850     8.8690     7.6470     8.9030    24.9650     2.2670   -11.0570 
  112.1250    74.8960     8.7970     7.5870     8.4380    25.0100     2.2850   -11.7000 
  112.2500    74.9010     8.6750     7.4600     8.3260    25.1870     2.2830   -12.4260 
  112.3750    74.7250     8.5630     7.3200     8.4420    25.3920     2.2590   -13.2530 
  112.5000    73.3370     8.5060     7.2150     8.6500    25.5910     2.2210   -14.1760 
  112.6250    70.7880     8.5170     7.1730     8.8050    25.8570     2.1830   -15.2040 
  112.7500    69.1950     8.5560     7.1720     8.9480    26.1520     2.1550   -16.2410 
  112.8750    68.9330     8.5940     7.1850     9.0660    26.2880     2.1450   -17.2830 
  113.0000    69.2170     8.6180     7.1900     9.1620    26.3250     2.1480   -18.2820 
  113.1250    68.3750     8.6220     7.1770     9.3650    26.4010     2.1570   -19.1880 
  113.2500    66.3200     8.6100     7.1470     9.5750    26.5380     2.1650   -20.0020 
  113.3750    64.3840     8.5840     7.1030     9.6870    26.6720     2.1700   -20.6540 
  113.5000    64.1640     8.5570     7.0540     9.6050    26.7690     2.1750   -21.1050 
  113.6250    65.8990     8.5820     7.0290     9.5610    26.8340     2.1840   -21.3800 
  113.7500    66.3800     8.7280     7.0770     9.6010    26.8860     2.1980   -21.5830 
  113.8750    65.7560     9.0730     7.2590     9.6750    26.8870     2.2130   -21.6710 
  114.0000    66.0400     9.6780     7.6400     9.6660    26.8400     2.2180   -21.6660 
  114.1250    64.5840    10.6040     8.3090     9.5780    26.7970     2.2060   -21.5110 
  114.2500    60.0490    11.7310     9.2200     9.7850    26.7830     2.1820   -21.2590 
  114.3750    57.2050    12.9010    10.2950    11.2880    26.8260     2.1640   -20.9390 
  114.5000    60.2440    13.8890    11.3610    14.3460    26.8840     2.1660   -20.6610 
  114.6250    64.5520    14.3550    12.0870    15.7740    26.5350     2.1910   -20.3160 
  114.7500    66.0300    14.2270    12.2840    12.8070    25.7350     2.2180   -19.9370 
  114.8750    68.0940    13.5540    11.9170    10.0330    24.9410     2.2280   -19.5720 
  115.0000    72.7100    12.5280    11.1330     8.9400    24.4620     2.2150   -19.2680 
  115.1250    74.9510    11.4240    10.1830     8.8470    24.3260     2.1900   -19.0540 
  115.2500    72.5790    10.4760     9.3150     9.0260    24.3880     2.1700   -18.9600 
  115.3750    69.7510     9.7850     8.6350     9.2480    24.6200     2.1640   -18.9450 
  115.5000    70.1530     9.3670     8.1770     9.2660    24.9950     2.1680   -18.9410 
  115.6250    72.5560     9.2130     7.9590     9.2380    25.3280     2.1760   -18.9650 
  115.7500    73.4460     9.1980     7.8940     9.2630    25.5340     2.1800   -19.0090 
  115.8750    72.1230     9.2290     7.9160     9.4620    25.5940     2.1810   -19.0260 
  116.0000    68.9390     9.2240     7.9480     9.6340    25.5750     2.1820   -18.9480 
  116.1250    66.9910     9.1150     7.9110     9.6430    25.5600     2.1850   -18.6730 
  116.2500    67.5430     8.9180     7.7880     9.3670    25.5550     2.1900   -18.2390 
  116.3750    69.6120     8.6720     7.6000     8.8280    25.5500     2.1950   -17.6890 
  116.5000    72.1030     8.4260     7.3880     8.4000    25.5290     2.1950   -17.1170 
  116.6250    74.7160     8.2280     7.1960     8.2820    25.4800     2.1920   -16.5640 
  116.7500    76.1580     8.0830     7.0380     8.3290    25.4370     2.1890   -16.0230 
  116.8750    74.5720     7.9910     6.9160     8.3660    25.4160     2.1920   -15.5090 
  117.0000    71.5160     7.9570     6.8340     8.3750    25.3980     2.2020   -15.0820 
  117.1250    71.9440     8.0160     6.8250     8.2370    25.3560     2.2120   -14.8560 
  117.2500    75.1580     8.1800     6.9060     8.0140    25.3320     2.2170   -14.7770 
  117.3750    76.9260     8.4570     7.0880     7.7920    25.3680     2.2140   -14.8740 
  117.5000    75.4560     8.8190     7.3650     7.7540    25.4860     2.2070   -15.0460 
  117.6250    71.1490     9.2010     7.6990     8.5700    25.5750     2.2030   -15.2940 
  117.7500    67.7140     9.5130     8.0110     9.2070    25.5950     2.2040   -15.5690 
  117.8750    66.4150     9.7010     8.2430     9.6280    25.5460     2.2110   -15.8550 
  118.0000    68.0890     9.7520     8.3650     9.9340    25.4860     2.2170   -16.1120 
  118.1250    71.0730     9.6860     8.3650    10.0740    25.5000     2.2150   -16.3140 
