~V
VERS. 2.00: Ver 2.00
~W
STRT.M 58.0000:
STOP.M 277.0000:
STEP.M 0.1250:
NULL. -999.2500:
UWI. F11038:
~C
DEPT.M :
GR.API :
RML.OHMM :
RI. :
RXO.OHMM :
CALI.CM :
DEN.GM/CC :
SP.MV :
~A
# ...
  136.7500    58.6320    22.6250    22.3270    20.1760    24.5530     2.4840   -13.9720 
  136.8750    55.4250    22.3730    21.9300    19.5720    24.6560     2.4850   -13.7910 
  137.0000    54.6030    22.5520    21.9400    19.0280    25.1120     2.4800   -13.6580 
  137.1250    56.7120    23.0960    22.3490    20.8270    25.8560     2.4690   -13.7260 
  137.2500    57.9400    23.6680    22.8590    23.5770    26.3700     2.4510   -13.9300 
  137.3750    55.6500    23.9680    23.1590    24.8910    26.1450     2.4310   -14.1780 
  137.5000    51.6650    23.7840    22.9890    25.0340    25.8250     2.4130   -14.4360 
  137.6250    53.1640    23.0430    22.2360    21.5910    25.6210     2.4030   -14.6110 
  137.7500    58.9970    22.0830    21.2330    18.6160    25.0330     2.4010   -14.7240 
  137.8750    63.4310    21.2340    20.3060    16.3950    24.6010     2.4040   -14.7890 
  138.0000    63.4770    20.7610    19.7210    15.7720    24.3600     2.4090   -14.8120 
  138.1250    59.5650    20.8310    19.6590    16.6440    24.2480     2.4140   -14.7540 
  138.2500    55.2110    21.2300    19.9400    18.4440    24.2800     2.4180   -14.6080 
  138.3750    53.2490    21.7210    20.3580    20.0290    24.3600     2.4240   -14.4080 
  138.5000    55.0690    22.0770    20.6900    19.7330    24.4250     2.4330   -14.1830 
  138.6250    59.5700    22.1110    20.7230    19.7160    24.4890     2.4470   -14.0910 
  138.7500    62.7680    21.8810    20.4780    19.4420    24.5930     2.4630   -14.0500 
  138.8750    63.6700    21.4890    20.0490    19.9580    24.7050     2.4780   -14.0440 
  139.0000    61.1000    21.0410    19.5500    20.8100    24.7830     2.4880   -14.0340 
  139.1250    54.8570    20.6160    19.0640    22.2050    24.9070     2.4860   -13.9710 
  139.2500    49.6390    20.2490    18.6370    21.0740    25.1950     2.4760   -13.8780 
  139.3750    47.9300    19.9530    18.2930    18.7350    25.5530     2.4620   -13.7230 
  139.5000    48.4350    19.7210    18.0270    17.0870    25.8650     2.4470   -13.5350 
  139.6250    47.3400    19.5280    17.8060    16.7740    26.0530     2.4380   -13.2400 
  139.7500    45.3590    19.3180    17.5860    17.2840    26.2090     2.4350   -12.9350 
  139.8750    47.4890    19.0450    17.3350    17.7220    26.2460     2.4340   -12.6210 
  140.0000    53.7250    18.6630    17.0070    17.0740    26.1720     2.4330   -12.3030 
  140.1250    58.3070    18.1150    16.5350    16.2020    26.0720     2.4330   -12.0680 
  140.2500    58.8340    17.4190    15.9300    16.0530    25.9940     2.4380   -11.9140 
  140.3750    58.1540    16.5880    15.2090    16.1010    25.9150     2.4500   -11.8870 
  140.5000    60.3910    15.6500    14.3940    15.4680    25.8620     2.4660   -11.9470 
  140.6250    65.5640    14.6490    13.5220    13.6590    25.9910     2.4780   -12.0960 
  140.7500    69.3090    13.6780    12.6690    12.6210    25.8840     2.4790   -12.2190 
  140.8750    69.8690    12.8300    11.9080    12.1790    25.7260     2.4670   -12.3420 
  141.0000    68.3150    12.1970    11.3140    11.2410    25.6220     2.4470   -12.4520 
  141.1250    67.0210    11.8730    10.9840    10.3670    25.5740     2.4240   -12.5060 
  141.2500    66.1270    11.7420    10.8520    10.2900    25.5890     2.4060   -12.5200 
  141.3750    65.7240    11.6290    10.7700    10.7980    25.5560     2.3950   -12.4860 
  141.5000    68.0950    11.3160    10.5290    11.1090    25.5400     2.3890   -12.4260 
  141.6250    76.2760    10.5850     9.8880    11.5390    25.5670     2.3860   -12.3230 
  141.7500    87.0000     9.5370     8.9100    10.4250    25.5840     2.3820   -12.2550 
  141.8750    97.3140     8.3660     7.7800     8.2290    26.0310     2.3740   -12.1770 
  142.0000   104.6920     7.2180     6.7290     6.1400    26.7510     2.3640   -12.1350 
  142.1250   106.0850     6.2390     5.9620     5.4840    27.5270     2.3550   -12.0910 
  142.2500   104.0450     5.5680     5.4820     5.2230    26.1480     2.3500   -12.0310 
  142.3750   101.2090     5.2970     5.2570     5.0590    25.1740     2.3500   -11.9710 
  142.5000    97.4950     5.3390     5.2240     4.9930    24.8760     2.3550   -11.9400 
  142.6250    92.6080     5.4810     5.3020     5.0680    24.7860     2.3630   -11.9420 
  142.7500    90.7640     5.5880     5.3820     5.2350    24.7310     2.3710   -11.9630 
  142.8750    92.8200     5.6380     5.4180     5.4610    24.6530     2.3770   -12.0080 
  143.0000    95.3670     5.6280     5.4000     5.6610    24.6020     2.3780   -12.0760 
  143.1250    96.3320     5.5890     5.3440     5.6930    24.5430     2.3750   -12.2320 
  143.2500    96.3760     5.5710     5.2930     5.5960    24.4640     2.3680   -12.4070 
  143.3750    95.7560     5.6060     5.2760     5.4970    24.3810     2.3600   -12.5920 
  143.5000    96.1780     5.7050     5.3070     5.5810    24.3730     2.3530   -12.6990 
  143.6250    98.9110     5.8580     5.3840     5.7520    24.4520     2.3530   -12.7300 
  143.7500   101.7110     6.0150     5.4700     5.6820    24.5520     2.3570   -12.7120 
  143.8750   103.6760     6.1300     5.5330     5.7130    24.6450     2.3650   -12.6740 
  144.0000   105.6460     6.1690     5.5400     5.8150    24.7100     2.3710   -12.5820 
  144.1250   107.3280     6.1070     5.4670     5.7730    24.7870     2.3720   -12.4040 
  144.2500   106.3370     5.9850     5.3390     5.5680    24.8600     2.3650   -12.2060 
  144.3750   102.4050     5.8470     5.1900     5.2290    24.8890     2.3530   -11.9650 
  144.5000    99.5680     5.7400     5.0580     4.9880    24.8790     2.3370   -11.7720 
  144.6250   102.5040     5.7160     4.9800     4.8880    24.8500     2.3240   -11.6210 
  144.7500   107.4590     5.7710     4.9640     4.9780    24.8340     2.3190   -11.5420 
  144.8750   108.8720     5.8840     5.0010     5.1910    24.8250     2.3200   -11.5110 
  145.0000   105.3560     6.0160     5.0660     5.3060    24.8790     2.3250   -11.5580 
  145.1250   100.7230     6.1210     5.1270     5.3410    24.8700     2.3310   -11.6650 
  145.2500    98.5570     6.1810     5.1640     5.4580    24.8160     2.3380   -11.7980 
  145.3750   100.5680     6.2090     5.1770     5.4840    24.7710     2.3490   -11.9650 
  145.5000   103.0270     6.2350     5.1820     5.4260    24.7480     2.3630   -12.1280 
  145.6250   102.9030     6.2980     5.2090     5.3870    24.6880     2.3770   -12.2950 
  145.7500   105.1580     6.4060     5.2680     5.4830    24.6070     2.3850   -12.4300 
  145.8750   108.9270     6.5440     5.3520     5.6270    24.5060     2.3840   -12.5300 
  146.0000   109.2970     6.6750     5.4400     5.7410    24.4130     2.3760   -12.5950 
  146.1250   103.6080     6.7430     5.4880     5.7700    24.3340     2.3650   -12.6450 
  146.2500    99.6770     6.7240     5.4720     5.6070    24.3120     2.3570   -12.6890 
  146.3750   100.3820     6.6220     5.3870     5.5340    24.3520     2.3530   -12.7280 
  146.5000   101.3350     6.4640     5.2520     5.5340    24.4170     2.3520   -12.7830 
  146.6250    99.2580     6.2950     5.1010     5.4500    24.4720     2.3530   -12.8460 
  146.7500    97.9560     6.1560     4.9690     5.3090    24.5470     2.3510   -12.9420 
  146.8750   101.4320     6.0650     4.8720     5.1680    24.6400     2.3480   -13.0180 
  147.0000   108.3610     6.0260     4.8150     5.0570    24.7190     2.3450   -13.0490 
  147.1250   110.7560     6.0310     4.7990     5.1270    24.7650     2.3460   -12.9810 
  147.2500   109.0600     6.0500     4.8010     5.1520    24.8280     2.3500   -12.8870 
  147.3750   105.0560     6.0610     4.8030     5.1540    24.9090     2.3540   -12.8120 
  147.5000   100.2020     6.0500     4.7910     5.1700    24.9630     2.3540   -12.7380 
  147.6250    97.2580     6.0170     4.7610     5.1570    24.9630     2.3510   -12.6970 
  147.7500   100.3840     5.9790     4.7240     5.0460    24.8980     2.3490   -12.6370 
  147.8750   110.9610     5.9490     4.6900     4.8820    24.8250     2.3500   -12.6260 
