~V
VERS. 2.00: Ver 2.00
~W
STRT.M 65.0000:
STOP.M 225.0000:
STEP.M 0.1250:
NULL. -999.2500:
UWI. F11012:
~C
DEPT.M :
SP.MV :
GR.API :
RML.OHMM :
RI. :
RXO.OHMM :
CALI.CM :
DEN.GM/CC :
~A
   65.0000    79.1320    67.3570     0.1860     0.2170     0.2650    23.6480     2.4900 
   65.1250    75.2440    68.7830     0.1340     0.1710     0.3180    23.5520     2.5200 
   65.2500    70.2290    69.8440     0.0970     0.1290     0.4100    23.3780     2.5500 
   65.3750    64.0910    69.6170     0.0810     0.1000     0.5140    23.2570     2.5820 
   65.5000    56.7590    70.3840     0.0890     0.0960     0.7180    23.1990     2.5980 
   65.6250    48.3310    74.6430     0.1400     0.1410     1.1780    23.0950     2.5500 
   65.7500    39.1660    79.7370     0.3070     0.3050     2.4910    22.9500     2.4020 
   65.8750    30.0130    79.7390     0.7010     0.6800     3.7460    23.1170     2.2630 
   66.0000    21.2490    75.0830     1.5070     1.4500     4.3250    23.5440     2.2110 
   66.1250    13.1110    68.9000     2.9050     2.8840     6.0860    23.6730     2.2580 
   66.2500     5.9600    62.1010     4.8830     5.1810    12.9070    23.6020     2.3700 
   66.3750    -0.1130    58.2030     6.7480     7.5400    22.8490    23.5500     2.4400 
   66.5000    -4.9370    59.3150     7.8740     9.0570    21.0030    23.7860     2.4010 
   66.6250    -8.4920    61.8460     8.1110     9.4570    12.6240    24.5360     2.2950 
   66.7500   -10.9050    62.1250     7.7650     9.0890     9.3770    25.5380     2.2150 
   66.8750   -12.8110    59.3870     7.3990     8.6120     8.3080    26.4630     2.1800 
   67.0000   -14.4380    55.5650     7.2460     8.3120     8.0510    26.9170     2.1710 
   67.1250   -15.8310    53.6340     7.3430     8.2680     7.7220    26.6280     2.1660 
   67.2500   -16.9740    54.7780     7.5920     8.3940     7.4030    25.5660     2.1700 
   67.3750   -17.9100    56.4620     7.8160     8.4990     7.3590    24.0940     2.1860 
   67.5000   -18.6360    56.3040     7.9380     8.5040     7.1960    23.1570     2.1980 
   67.6250   -19.1780    55.6630     7.9670     8.4220     7.0100    23.0900     2.1870 
   67.7500   -19.5740    57.3050     7.9870     8.3440     6.9920    23.4210     2.1620 
   67.8750   -19.8540    59.8380     8.0960     8.3610     6.9730    23.4820     2.1490 
   68.0000   -20.0240    61.2140     8.3420     8.5140     6.7960    23.3950     2.1490 
   68.1250   -20.1080    62.0390     8.7380     8.8010     6.6990    23.1450     2.1560 
   68.2500   -20.1090    64.9450     9.2730     9.1730     7.1020    22.6900     2.1630 
   68.3750   -20.0540    67.7670     9.8560     9.5360     7.6890    22.2970     2.1690 
   68.5000   -19.9960    65.9250    10.3830     9.8310     8.0800    22.1020     2.1740 
   68.6250   -19.9280    60.2340    10.7030    10.0170     8.3130    22.0980     2.1740 
   68.7500   -19.8580    56.0570    10.6090    10.0280     8.4000    22.1440     2.1670 
   68.8750   -19.7910    55.4160    10.2020     9.8710     8.3650    22.2060     2.1570 
   69.0000   -19.7250    56.8490     9.6560     9.5630     8.0540    22.2640     2.1520 
   69.1250   -19.6610    57.7860     9.1080     9.1450     7.5880    22.2310     2.1580 
   69.2500   -19.5680    57.2760     8.6040     8.6540     7.1880    22.1330     2.1750 
   69.3750   -19.4280    57.6980     8.1280     8.1390     6.9290    22.1720     2.1920 
   69.5000   -19.2280    60.2270     7.6730     7.6240     6.7890    22.3150     2.2070 
   69.6250   -19.0050    66.6320     7.2550     7.1360     6.7790    22.5050     2.2210 
   69.7500   -18.8010    77.8570     6.9150     6.7140     6.6650    22.6140     2.2400 
   69.8750   -18.6490    87.4070     6.6710     6.3830     6.2760    22.6950     2.2630 
   70.0000   -18.5750    89.1070     6.5360     6.1660     5.9640    22.6780     2.2800 
   70.1250   -18.5980    84.4900     6.5050     6.0670     6.0000    22.5980     2.2820 
   70.2500   -18.7560    82.3600     6.5920     6.1030     6.3620    22.5780     2.2670 
   70.3750   -19.0360    81.7010     6.8140     6.2720     6.7730    22.6070     2.2540 
   70.5000   -19.4580    77.5250     7.2530     6.6310     7.0270    22.5980     2.2570 
   70.6250   -19.9500    71.4280     8.0100     7.2600     7.1880    22.6040     2.2770 
   70.7500   -20.4370    69.1390     9.2020     8.2870     7.9590    22.7150     2.3130 
   70.8750   -20.8940    69.1130    10.6610     9.6040    10.9270    22.8270     2.3610 
   71.0000   -21.3100    68.2880    12.0700    10.9620    18.7120    22.8160     2.4160 
   71.1250   -21.6730    67.1050    12.9570    11.9180    24.4290    22.7420     2.4590 
   71.2500   -22.0040    66.8560    12.7550    11.8830    16.9230    22.7040     2.4500 
   71.3750   -22.3160    68.4690    11.7120    11.0340     9.9300    22.4800     2.3850 
   71.5000   -22.5950    71.1220    10.3190     9.8030     7.5940    22.1000     2.2960 
   71.6250   -22.8600    71.6460     9.0810     8.6350     7.1230    21.8590     2.2250 
   71.7500   -23.1220    67.5410     8.3480     7.8390     6.9760    21.8820     2.1930 
   71.8750   -23.3650    61.7870     8.0350     7.3880     6.8320    21.9880     2.1800 
   72.0000   -23.5530    58.3520     8.0120     7.2030     6.7540    22.0100     2.1750 
   72.1250   -23.6560    58.4140     8.1420     7.1890     6.6680    21.9920     2.1720 
   72.2500   -23.6490    61.4330     8.3130     7.2630     6.6170    21.9630     2.1740 
   72.3750   -23.5750    63.1150     8.4500     7.3500     6.7160    21.9580     2.1800 
   72.5000   -23.4270    63.2040     8.5390     7.4210     6.9900    22.0140     2.1880 
   72.6250   -23.2310    65.9320     8.5970     7.4740     7.2620    22.0760     2.1960 
   72.7500   -22.9710    72.5250     8.6590     7.5260     7.4300    22.1260     2.2020 
   72.8750   -22.6340    75.5480     8.7480     7.5910     7.5430    22.1540     2.2090 
   73.0000   -22.2250    73.0750     8.8610     7.6680     7.6900    22.1850     2.2190 
   73.1250   -21.7810    70.0040     8.9710     7.7420     7.7790    22.2190     2.2300 
   73.2500   -21.3100    71.8190     9.0440     7.7830     7.8090    22.2690     2.2390 
   73.3750   -20.7780    77.4750     9.0760     7.7810     7.9370    22.3390     2.2430 
   73.5000   -20.1820    81.7160     9.0740     7.7420     8.0170    22.3650     2.2390 
   73.6250   -19.5250    80.7080     9.0570     7.6850     7.8770    22.2850     2.2290 
   73.7500   -18.7980    73.9330     9.0380     7.6330     7.7070    22.1270     2.2170 
   73.8750   -18.0370    67.1980     9.0050     7.5810     7.6420    22.0090     2.2080 
   74.0000   -17.2580    63.0820     8.9080     7.4950     7.5540    21.9660     2.2040 
   74.1250   -16.4460    62.7630     8.6900     7.3240     7.2570    21.9570     2.2040 
   74.2500   -15.5730    67.8830     8.2990     7.0190     6.9840    21.9240     2.2110 
   74.3750   -14.7410    73.8370     7.8020     6.6190     7.0050    21.9150     2.2250 
   74.5000   -14.0550    77.1010     7.2830     6.1820     6.7490    22.0490     2.2450 
   74.6250   -13.6160    81.9570     6.8280     5.7680     5.8450    22.3240     2.2660 
   74.7500   -13.4670    94.3180     6.5130     5.4370     5.3600    22.6010     2.2790 
   74.8750   -13.4980   105.1840     6.3150     5.1950     5.3190    22.7610     2.2870 
   75.0000   -13.6900   106.4630     6.2040     5.0390     5.4380    22.8240     2.2930 
   75.1250   -14.0280   102.8130     6.1510     4.9630     5.5220    22.8770     2.3000 
   75.2500   -14.5530   102.6300     6.1440     4.9660     5.5220    22.9610     2.3010 
   75.3750   -15.1640   102.3470     6.1660     5.0250     5.5580    23.0880     2.2900 
   75.5000   -15.7570    96.4660     6.2170     5.1230     5.6480    23.2090     2.2650 
   75.6250   -16.2150    87.1560     6.3060     5.2530     5.7780    23.1940     2.2340 
   75.7500   -16.5250    78.9840     6.5010     5.4450     5.8490    23.0180     2.2120 
   75.8750   -16.7600    72.3960     6.8750     5.7510     6.1100    22.8730     2.2100 
   76.0000   -16.9250    67.6050     7.4530     6.2080     6.4390    22.7940     2.2340 
   76.1250   -16.9990    65.9730     8.1410     6.7740     6.9420    22.8010     2.2850 
