~V
VERS. 2.00: Ver 2.00
~W
STRT.M 59.0000:
STOP.M 230.0000:
STEP.M 0.1250:
NULL. -999.2500:
UWI. F11001:
~C
DEPT.M :
GR.API :
RML.OHMM :
RI. :
RXO.OHMM :
CALI.CM :
SP.MV :
DEN.GM/CC :
~A
# ...
  216.5000    94.0190    14.7830    13.0000    27.6980    24.8060     2.8850     2.4320 
  216.6250    95.2990    14.9290    13.1450    31.3740    24.9200     2.7670     2.4350 
  216.7500    99.7930    14.9430    13.1720    31.3900    24.9760     2.6200     2.4380 
  216.8750   103.7960    14.8810    13.1190    31.9430    24.9160     2.4000     2.4310 
  217.0000   101.3590    14.8010    13.0280    28.4260    24.8140     2.1860     2.4120 
  217.1250    95.4090    14.7520    12.9430    28.8240    24.7990     1.9670     2.3930 
  217.2500    93.4210    14.7430    12.8850    28.8390    24.8470     1.8290     2.3960 
  217.3750    95.4340    14.7090    12.8120    26.3740    24.9920     1.7260     2.4240 
  217.5000    95.4740    14.5730    12.6610    16.9220    25.1200     1.6680     2.4580 
  217.6250    91.3920    14.2910    12.3830    11.3940    25.1310     1.6620     2.4750 
  217.7500    88.9710    13.8610    11.9690     8.8070    24.8770     1.7000     2.4570 
  217.8750    89.5650    13.3910    11.5110     7.8710    24.6210     1.8090     2.4260 
  218.0000    90.1590    12.9690    11.0930     8.2420    24.4240     1.9640     2.4040 
  218.1250    89.6170    12.6490    10.7780     9.8330    24.4290     2.1350     2.4050 
  218.2500    89.5440    12.4560    10.6050    11.6170    24.5420     2.3010     2.4240 
  218.3750    89.7940    12.3450    10.5320    10.6190    24.6070     2.4240     2.4410 
  218.5000    88.0360    12.2890    10.5280     9.2860    24.5900     2.5020     2.4440 
  218.6250    85.8820    12.2760    10.5680     9.1840    24.5870     2.5610     2.4340 
  218.7500    86.5800    12.3070    10.6400    10.2870    24.5870     2.6210     2.4220 
  218.8750    89.2440    12.3580    10.7280    11.5490    24.5300     2.6420     2.4150 
  219.0000    91.0370    12.4040    10.8140    12.8410    24.5220     2.6430     2.4150 
  219.1250    91.2450    12.4170    10.8700    14.2490    24.5800     2.6580     2.4230 
  219.2500    91.2450    12.3760    10.8620    13.9270    24.5800     2.7460     2.4400 
  219.3750    91.2450    12.3010    10.8010    12.4450    24.5970     2.9270     2.4630 
  219.5000    91.2450    12.2200    10.7150    12.1730    24.7360     3.1220     2.4870 
  219.6250    91.2450    12.1550    10.6330    13.4600    24.8120     3.3480     2.5060 
  219.7500    91.2450    12.1180    10.5840    13.4710    24.7250     3.5300     2.5100 
  219.8750    91.2450    12.1010    10.5630    12.4960    24.6140     3.7160     2.5000 
  220.0000    91.2450    12.0960    10.5610    11.4620    24.5390     3.8670     2.4800 
  220.1250    91.2450    12.0980    10.5630    10.7030    24.4780     3.9850     2.4560 
  220.2500    91.2450    12.0880    10.5400    10.8000    24.4900     3.9750     2.4320 
  220.3750    91.2450    12.0330    10.4600    11.1410    24.4750     3.8390     2.4140 
  220.5000    91.2450    11.8840    10.2880    11.6950    24.4110     3.6690     2.4040 
  220.6250    91.2450    11.6010     9.9920    13.4520    24.3120     3.4750     2.4010 
  220.7500    91.2450    11.1690     9.5700    13.0190    24.1900     3.2940     2.4000 
  220.8750    91.2450    10.6860     9.1150    10.9830    24.0690     3.1480     2.3950 
  221.0000    91.2450    10.2650     8.7290     8.0670    23.9930     3.0520     2.3870 
  221.1250    91.2450    10.0240     8.5080     6.8490    24.0060     2.9790     2.3810 
  221.2500    91.2450    10.1050     8.5650     7.9610    24.0320     2.9220     2.3880 
  221.3750    91.2450    10.4940     8.8920     9.6410    24.1060     2.9650     2.4070 
  221.5000    91.2450    11.1610     9.4750    10.8480    24.1200     3.1160     2.4360 
  221.6250    91.2450    12.0200    10.2590    11.0490    24.1050     3.3460     2.4690 
  221.7500    91.2450    12.9250    11.1380    11.0560    24.0910     3.6070     2.4970 
  221.8750    91.2450    13.6940    11.9330    11.2970    24.0850     3.8890     2.5150 
  222.0000    91.2450    14.1950    12.5000    11.3430    24.0710     4.1600     2.5180 
  222.1250    91.2450    14.3590    12.7430    10.6950    24.1430     4.4450     2.5070 
  222.2500    91.2450    14.1580    12.6010    10.1710    24.4210     4.7650     2.4900 
  222.3750    91.2450    13.7660    12.2340     9.8470    24.6250     5.0240     2.4800 
  222.5000    91.2450    13.3300    11.7860     9.7050    24.6610     5.2080     2.4810 
  222.6250    91.2450    12.9890    11.3940     9.7040    24.5910     5.2990     2.4920 
  222.7500    91.2450    12.8860    11.1990     9.8890    24.5340     5.3940     2.5040 
  222.8750    91.2450    13.0320    11.2280    10.6670    24.5740     5.4530     2.5080 
  223.0000    91.2450    13.4060    11.4840    11.1400    24.5200     5.4770     2.5040 
  223.1250    91.2450    13.9460    11.9250    11.0630    24.4420     5.4620     2.4960 
  223.2500    91.2450    14.5550    12.4890    11.2530    24.4980     5.4290     2.4950 
  223.3750    91.2450    15.1320    13.0670    11.5410    24.5790     5.3920     2.5040 
  223.5000    91.2450    15.6470    13.6100    11.4930    24.5960     5.3600     2.5230 
  223.6250    91.2450    16.1330    14.1190    11.2040    24.5500     5.3540     2.5440 
  223.7500    91.2450    16.6850    14.6580    10.8960    24.5440     5.3130     2.5610 
  223.8750    91.2450    17.3620    15.2980    10.8940    24.5300     5.2480     2.5680 
  224.0000    91.2450    18.1500    16.0450    11.3990    24.4990     5.2180     2.5650 
  224.1250    91.2450    18.9610    16.8310    11.9820    24.4520     5.2010     2.5540 
  224.2500    91.2450    19.6460    17.5060    13.0220    24.4950     5.2080     2.5370 
  224.3750    91.2450    20.1340    17.9730    14.1970    24.5070     5.3080     2.5190 
  224.5000    91.2450    20.4170    18.2200    13.9870    24.4600     5.4780     2.5050 
  224.6250    91.2450    20.5440    18.3040    13.2360    24.3910     5.6800     2.5000 
  224.7500    91.2450    20.5770    18.3110    13.4040    24.3800     5.9000     2.5030 
  224.8750    91.2450    20.5830    18.3110    13.3500    24.3780     6.1430     2.5120 
  225.0000    91.2450    20.5830    18.3120    12.9230    24.3270     6.4210     2.5190 
  225.1250    91.2450    20.5820    18.3120    12.6310    24.3350     6.7260     2.5220 
  225.2500    91.2450    20.5820    18.3120    12.6570    24.2970     7.0100     2.5220 
  225.3750    91.2450    20.5820    18.3120    14.5800    24.2320     7.2290     2.5270 
  225.5000    91.2450    20.5820    18.3120    18.7320    24.2340     7.3540     2.5420 
  225.6250    91.2450    20.5820    18.3120    21.4490    24.3440     7.4420     2.5640 
  225.7500    91.2450    20.5820    18.3120    22.1000    24.4290     7.5520     2.5810 
  225.8750    91.2450    20.5820    18.3120    22.1400    24.4730     7.6820     2.5870 
  226.0000    91.2450    20.5820    18.3120    24.6380    24.4870     7.7170     2.5850 
  226.1250    91.2450    20.5820    18.3120    30.3590    24.5140     7.6710     2.5830 
  226.2500    91.2450    20.5820    18.3120    36.4500    24.4870     7.5930     2.5790 
  226.3750    91.2450    20.5820    18.3120    39.3660    24.4450     7.4090     2.5640 
  226.5000    91.2450    20.5820    18.3120    31.0270    24.4110     6.7220     2.5280 
  226.6250    91.2450    20.5820    18.3120    31.5610    24.5160     5.4800     2.4750 
  226.7500    91.2450    20.5820    18.3120    35.1970    24.6440     4.1380     2.4320 
  226.8750    91.2450    20.5820    18.3120    42.9310    24.6510     2.7700     2.4190 
  227.0000    91.2450    20.5820    18.3120    49.0990    24.4330     1.4210     2.4410 
  227.1250    91.2450    20.5820    18.3120    50.4450    24.1600     0.0990     2.4860 
  227.2500    91.2450    20.5820    18.3120    49.3810    24.0030    -1.2180     2.5340 
  227.3750    91.2450    20.5820    18.3120    43.1280    23.9770    -2.4330     2.5690 
  227.5000    91.2450    20.5820    18.3120    38.0210    23.9920    -2.8620     2.5890 
  227.6250    91.2450    20.5820    18.3120    34.3400    24.0230    -2.8690     2.5950 
