~V
VERS. 2.00: Ver 2.00
~W
STRT.M 40.0000:
STOP.M 275.0000:
STEP.M 0.1250:
NULL. -999.2500:
UWI. F11027:
~C
DEPT.M :
DEN.GM/CC :
GR.API :
RML.OHMM :
RI. :
RXO.OHMM :
CALI.CM :
SP.MV :
~A
# ...
  231.2500     2.4050    73.5450    29.3580    24.8370    30.4890    23.7920   -11.6060 
  231.3750     2.4210    69.8250    29.5660    25.4090    32.5030    23.8610   -11.5390 
  231.5000     2.4250    68.3120    29.1890    25.4220    32.2970    23.9030   -11.4500 
  231.6250     2.4120    69.6070    28.3730    24.9030    29.1250    23.9540   -11.2750 
  231.7500     2.3920    71.1760    27.5260    24.2210    26.6800    24.0350   -11.0530 
  231.8750     2.3700    73.7450    26.9220    23.6430    26.8270    24.1030   -10.8830 
  232.0000     2.3500    76.0640    26.7190    23.3550    28.4340    24.1320   -10.7360 
  232.1250     2.3350    75.7510    26.9990    23.5070    28.3780    24.1250   -10.5730 
  232.2500     2.3240    75.9060    27.5680    24.0010    27.3030    24.1000   -10.4060 
  232.3750     2.3180    77.2250    28.2390    24.6930    27.8250    24.0890   -10.2810 
  232.5000     2.3150    75.1700    28.8190    25.3790    30.4600    24.1040   -10.2230 
  232.6250     2.3150    69.1060    29.1360    25.8210    32.5690    24.0970   -10.3160 
  232.7500     2.3180    66.6120    29.2650    25.9880    31.5490    24.0760   -10.5410 
  232.8750     2.3220    69.3300    29.4140    26.0060    29.1740    24.0810   -10.8570 
  233.0000     2.3290    71.5570    29.8860    26.1530    28.6920    24.0920   -11.2490 
  233.1250     2.3400    71.6360    31.1060    26.8730    31.1580    24.0500   -11.6640 
  233.2500     2.3550    71.5600    33.0960    28.3280    35.7150    23.9450   -12.0120 
  233.3750     2.3690    70.7460    35.7260    30.5290    42.1050    23.8330   -12.3370 
  233.5000     2.3780    66.3540    38.6700    33.2550    48.3270    23.7510   -12.6460 
  233.6250     2.3720    61.2890    41.4700    36.0290    49.0730    23.7200   -12.8940 
  233.7500     2.3540    62.2080    43.8940    38.4340    46.5570    23.6820   -13.1010 
  233.8750     2.3290    67.3300    46.0010    40.4320    45.6830    23.6440   -13.2260 
  234.0000     2.3070    68.8720    48.0310    42.2480    48.0340    23.6930   -13.2810 
  234.1250     2.3000    64.8420    50.2610    44.2230    52.2310    23.8210   -13.3540 
  234.2500     2.3090    61.5620    52.6810    46.4670    55.8210    23.8210   -13.4770 
  234.3750     2.3270    61.3020    55.0920    48.8260    57.1210    23.6670   -13.5570 
  234.5000     2.3440    61.8670    57.2470    50.9860    56.6450    23.4920   -13.5860 
  234.6250     2.3470    62.9370    58.9960    52.6570    57.0420    23.5300   -13.6630 
  234.7500     2.3380    65.9740    60.5810    54.0610    58.8400    23.6090   -13.8120 
  234.8750     2.3230    69.8220    62.2990    55.5480    61.2350    23.6540   -13.9530 
  235.0000     2.3110    70.3110    64.3800    57.4250    64.0180    23.6460   -14.0140 
  235.1250     2.3080    64.6770    66.7710    59.8550    68.7030    23.6070   -14.0290 
  235.2500     2.3110    58.0320    69.3290    62.5180    74.5490    23.5880   -14.0900 
  235.3750     2.3160    54.4140    71.9650    64.9660    76.3030    23.5850   -14.1970 
  235.5000     2.3180    55.3950    74.1080    66.6930    70.5870    23.5770   -14.3620 
  235.6250     2.3170    57.8700    74.6560    67.1950    64.6500    23.5560   -14.4850 
  235.7500     2.3150    57.7870    73.8810    66.8190    64.3610    23.5330   -14.4530 
  235.8750     2.3130    55.4580    72.7470    66.1300    67.5080    23.4400   -14.3480 
  236.0000     2.3130    55.7930    72.0890    65.7800    70.3870    23.1670   -14.2210 
  236.1250     2.3140    60.7300    71.9840    66.1830    70.9930    22.6550   -14.0750 
  236.2500     2.3150    63.4220    71.7650    66.7580    71.8040    22.3700   -13.8850 
  236.3750     2.3150    63.0340    70.7320    66.6030    75.0820    22.5210   -13.7010 
  236.5000     2.3150    62.2790    68.5390    65.0520    76.5000    22.9590   -13.5070 
  236.6250     2.3200    65.2070    65.5180    62.1400    66.9880    23.3240   -13.2230 
  236.7500     2.3320    69.4250    62.8990    59.1580    55.4920    23.4440   -12.8940 
  236.8750     2.3470    70.0810    61.7440    57.2710    51.1000    23.4490   -12.5460 
  237.0000     2.3610    67.8310    62.8050    57.3980    57.3480    23.4410   -12.2680 
  237.1250     2.3730    67.6200    66.7150    60.4140    73.2140    23.4150   -12.1050 
  237.2500     2.3860    70.1930    72.6360    65.6830    84.4650    23.3860   -12.0030 
  237.3750     2.4000    71.5820    79.7090    72.4310    87.4100    23.4640   -11.8730 
  237.5000     2.4110    69.2060    86.8380    79.5240    91.7300    23.6820   -11.6390 
  237.6250     2.4030    65.6970    92.6650    85.4970   101.9190    23.8100   -11.3980 
  237.7500     2.3740    62.4910    96.6020    89.6920   109.9760    23.8600   -11.2030 
  237.8750     2.3330    59.9170    98.3850    91.8800   112.5750    23.9690   -11.0310 
  238.0000     2.2940    60.0970    98.0420    92.0210   112.3110    24.1630   -10.7970 
  238.1250     2.2750    63.1450    95.6780    90.0030   107.4160    24.2430   -10.3670 
  238.2500     2.2760    65.0330    92.3140    86.8190   100.1840    24.2480    -9.8850 
  238.3750     2.2930    63.1550    88.6880    83.3320    93.9960    24.1920    -9.3750 
  238.5000     2.3180    60.2660    85.3200    80.1980    86.3910    24.0990    -8.8320 
  238.6250     2.3440    60.3720    82.3500    77.6740    79.9540    23.9540    -8.2570 
  238.7500     2.3610    60.3180    79.3480    75.3600    76.7050    23.8310    -7.6810 
  238.8750     2.3630    57.8400    75.8030    72.7400    75.3150    23.7960    -7.1330 
  239.0000     2.3500    55.2990    71.2900    69.2670    72.4030    23.9190    -6.6160 
  239.1250     2.3280    56.7960    65.5500    64.4420    64.6820    24.1910    -6.1830 
  239.2500     2.3110    60.5940    59.1540    58.6980    56.4580    24.3870    -5.7130 
  239.3750     2.3140    62.2230    52.7090    52.6090    51.1120    24.4310    -5.2700 
  239.5000     2.3390    59.8250    46.8000    46.7890    47.5700    24.3880    -4.9560 
  239.6250     2.3740    56.4580    42.0200    41.8830    43.4940    24.2900    -4.7450 
  239.7500     2.3980    56.5180    38.3550    38.0120    39.7650    24.1820    -4.4980 
  239.8750     2.3980    60.5100    35.7400    35.1750    37.4160    24.1780    -4.2050 
  240.0000     2.3720    65.3480    33.9880    33.2520    35.5810    24.2910    -3.8940 
  240.1250     2.3380    67.4420    32.8450    32.1200    33.6220    24.3640    -3.5900 
  240.2500     2.3190    67.4920    31.7900    31.2790    32.8890    24.3960    -3.3480 
  240.3750     2.3260    66.5990    30.4580    30.2530    33.3330    24.3860    -3.1420 
  240.5000     2.3550    66.2110    28.6520    28.6560    33.6610    24.3200    -2.8870 
  240.6250     2.3870    67.4020    26.4580    26.4150    31.9640    24.2220    -2.5480 
  240.7500     2.4030    70.6440    24.3740    24.1030    27.4440    24.2210    -2.2490 
  240.8750     2.3970    74.3720    22.8480    22.2440    22.0880    24.3250    -2.0100 
  241.0000     2.3740    73.6060    22.1670    21.1990    19.4060    24.4140    -1.8920 
  241.1250     2.3460    67.8540    22.4530    21.2220    21.4080    24.4380    -1.9120 
  241.2500     2.3240    63.8670    23.2240    21.9400    25.3910    24.4600    -1.8800 
  241.3750     2.3130    64.1190    24.0180    22.9320    27.6030    24.4620    -1.7430 
  241.5000     2.3120    65.6550    24.4170    23.6870    26.8620    24.4560    -1.5320 
  241.6250     2.3190    65.5480    24.1280    23.6800    25.0400    24.4530    -1.3280 
  241.7500     2.3270    66.1960    23.4090    23.0410    23.4180    24.4540    -1.1600 
  241.8750     2.3320    66.2420    22.5940    22.1350    22.3820    24.4610    -0.9920 
  242.0000     2.3310    64.5500    21.9880    21.3560    22.2110    24.4800    -0.7690 
  242.1250     2.3250    64.6890    21.8120    20.9660    22.6770    24.5100    -0.4550 
  242.2500     2.3210    66.4280    21.9880    20.9060    23.1640    24.5380    -0.2110 
  242.3750     2.3230    66.8670    22.4240    21.1280    23.4400    24.5610    -0.0810 
