~V
VERS. 2.00: Ver 2.00
~W
STRT.M 59.0000:
STOP.M 291.0000:
STEP.M 0.1250:
NULL. -999.2500:
UWI. F11077:
~C
DEPT.M :
DEN.GM/CC :
GR.API :
RML.OHMM :
RI. :
RXO.OHMM :
CALI.CM :
SP.MV :
~A
   59.0000     0.0000  -999.2500  -999.2500  -999.2500  -999.2500  -999.2500  -999.2500 
   59.1250     0.0000  -999.2500  -999.2500  -999.2500  -999.2500  -999.2500  -999.2500 
   59.2500     0.4220  -999.2500  -999.2500  -999.2500  -999.2500  -999.2500  -999.2500 
   59.3750     1.4790  -999.2500  -999.2500  -999.2500  -999.2500  -999.2500  -999.2500 
   59.5000     2.1140  -999.2500  -999.2500  -999.2500  -999.2500  -999.2500  -999.2500 
   59.6250     2.1080  -999.2500  -999.2500  -999.2500  -999.2500  -999.2500  -999.2500 
   59.7500     2.0960  -999.2500  -999.2500  -999.2500  -999.2500  -999.2500  -999.2500 
   59.8750     2.0880  -999.2500  -999.2500  -999.2500  -999.2500  -999.2500  -999.2500 
   60.0000     2.0870  -999.2500  -999.2500  -999.2500  -999.2500  -999.2500  -999.2500 
   60.1250     2.0900  -999.2500  -999.2500  -999.2500  -999.2500  -999.2500  -999.2500 
   60.2500     2.0910  -999.2500  -999.2500  -999.2500  -999.2500  -999.2500  -999.2500 
   60.3750     2.0850  -999.2500  -999.2500  -999.2500  -999.2500  -999.2500  -999.2500 
   60.5000     2.0720  -999.2500  -999.2500  -999.2500  -999.2500  -999.2500  -999.2500 
   60.6250     2.0580  -999.2500  -999.2500  -999.2500  -999.2500  -999.2500  -999.2500 
   60.7500     2.0450  -999.2500  -999.2500  -999.2500  -999.2500  -999.2500  -999.2500 
   60.8750     2.0350  -999.2500  -999.2500  -999.2500  -999.2500  -999.2500  -999.2500 
   61.0000     2.0290  -999.2500  -999.2500  -999.2500  -999.2500  -999.2500  -999.2500 
   61.1250     2.0250  -999.2500  -999.2500  -999.2500  -999.2500  -999.2500  -999.2500 
   61.2500     2.0220  -999.2500  -999.2500  -999.2500  -999.2500  -999.2500  -999.2500 
   61.3750     2.0200  -999.2500  -999.2500  -999.2500  -999.2500  -999.2500  -999.2500 
   61.5000     2.0220  -999.2500  -999.2500  -999.2500  -999.2500  -999.2500  -999.2500 
   61.6250     2.0280  -999.2500  -999.2500  -999.2500  -999.2500  -999.2500  -999.2500 
   61.7500     2.0400  -999.2500  -999.2500  -999.2500  -999.2500  -999.2500  -999.2500 
   61.8750     2.0530  -999.2500  -999.2500  -999.2500  -999.2500  -999.2500  -999.2500 
   62.0000     2.0630  -999.2500  -999.2500  -999.2500  -999.2500  -999.2500  -999.2500 
   62.1250     2.0660  -999.2500  -999.2500  -999.2500  -999.2500  -999.2500  -999.2500 
   62.2500     2.0600  -999.2500  -999.2500  -999.2500  -999.2500  -999.2500  -999.2500 
   62.3750     2.0530  -999.2500  -999.2500  -999.2500  -999.2500  -999.2500  -999.2500 
   62.5000     2.0510  -999.2500  -999.2500  -999.2500  -999.2500  -999.2500  -999.2500 
   62.6250     2.0600  -999.2500  -999.2500  -999.2500  -999.2500  -999.2500  -999.2500 
   62.7500     2.0810  -999.2500  -999.2500  -999.2500  -999.2500  -999.2500  -999.2500 
   62.8750     2.1060  -999.2500  -999.2500  -999.2500  -999.2500  -999.2500  -999.2500 
   63.0000     2.1250  -999.2500  -999.2500  -999.2500  -999.2500  -999.2500  -999.2500 
   63.1250     2.1300  -999.2500  -999.2500  -999.2500  -999.2500  -999.2500  -999.2500 
   63.2500     2.1180  -999.2500  -999.2500  -999.2500  -999.2500  -999.2500  -999.2500 
   63.3750     2.0930  -999.2500  -999.2500  -999.2500  -999.2500  -999.2500  -999.2500 
   63.5000     2.0650  -999.2500  -999.2500  -999.2500  -999.2500  -999.2500  -999.2500 
   63.6250     2.0450  -999.2500  -999.2500  -999.2500  -999.2500  -999.2500  -999.2500 
   63.7500     2.0420  -999.2500  -999.2500  -999.2500  -999.2500  -999.2500  -999.2500 
   63.8750     2.0580  -999.2500  -999.2500  -999.2500  -999.2500  -999.2500  -999.2500 
   64.0000     2.0920  -999.2500  -999.2500  -999.2500  -999.2500  -999.2500  -999.2500 
   64.1250     2.1350  -999.2500  -999.2500  -999.2500  -999.2500  -999.2500  -999.2500 
   64.2500     2.1770    53.7330     3.6690     0.7260     1.4390    25.8630   100.6520 
   64.3750     2.2070    52.6990     3.7160     0.7250     1.4390    25.8670   100.6440 
   64.5000     2.2190    50.3200     3.8460     0.7220     1.4410    25.8540   100.6270 
   64.6250     2.2140    48.9790     4.0080     0.7190     1.4650    25.7580   100.5900 
   64.7500     2.2000    50.8970     3.9220     0.7210     1.4730    25.7360   100.4930 
   64.8750     2.1870    53.2600     3.6160     0.7220     1.4390    25.8500   100.3420 
   65.0000     2.1810    51.0200     3.5940     0.7160     1.4390    25.8410   100.1590 
   65.1250     2.1810    48.8840     3.6270     0.7130     1.4380    25.8390    99.9530 
   65.2500     2.1850    47.9000     3.6880     0.7160     1.4300    25.8410    99.7030 
   65.3750     2.1950    46.9460     3.7250     0.7190     1.4260    25.8470    99.3440 
   65.5000     2.2120    46.6380     3.7060     0.7210     1.4320    25.8660    98.8380 
   65.6250     2.2390    47.9000     3.6270     0.7200     1.4350    25.8970    98.1640 
   65.7500     2.2750    48.9590     3.5070     0.7200     1.4150    25.9180    97.2510 
   65.8750     2.3160    48.9030     3.3700     0.7230     1.3880    25.9070    96.0330 
   66.0000     2.3600    49.4590     3.2380     0.7260     1.3800    25.8750    94.6540 
   66.1250     2.4060    50.9820     3.1270     0.7290     1.3980    25.8660    93.4890 
   66.2500     2.4480    52.1290     3.0470     0.7330     1.4460    25.8870    93.0540 
   66.3750     2.4810    52.3140     2.9940     0.7450     1.5180    25.9040    93.6890 
   66.5000     2.5000    51.9460     2.9570     0.7650     1.5800    25.8850    95.3100 
   66.6250     2.5060    50.5810     2.9250     0.7910     1.6050    25.8460    97.5790 
   66.7500     2.5020    49.1940     2.9000     0.8190     1.5940    25.7660    99.8670 
   66.8750     2.4930    49.9270     2.8930     0.8460     1.5370    25.5920   101.4890 
   67.0000     2.4850    52.6850     2.9070     0.8670     1.4140    25.3410   101.9570 
   67.1250     2.4810    54.6380     2.9470     0.8770     1.2650    25.1080   100.9730 
   67.2500     2.4800    52.9010     3.0410     0.8700     1.1740    25.0630    98.5240 
   67.3750     2.4790    48.6960     3.2270     0.8430     1.1510    25.3990    95.0120 
   67.5000     2.4760    45.3090     3.4880     0.7910     1.1830    26.0840    91.0140 
   67.6250     2.4730    43.8750     3.6640     0.7030     1.3480    26.7990    86.8300 
   67.7500     2.4810    44.2810     3.3980     0.5620     1.7990    27.1770    82.5840 
   67.8750     2.5080    45.3000     2.5670     0.3840     2.4530    27.1960    78.0670 
   68.0000     2.5550    44.8880     1.6170     0.2210     2.8810    26.9950    72.7910 
   68.1250     2.6140    43.0740     0.9310     0.1100     2.7220    26.7000    66.2610 
   68.2500     2.6670    42.7470     0.5960     0.0580     2.0640    26.4140    58.2050 
   68.3750     2.6920    46.0980     0.5460     0.0660     1.6820    26.1840    48.8250 
   68.5000     2.6690    51.5900     0.7250     0.1450     2.1960    25.9740    38.6600 
   68.6250     2.5880    56.1830     1.1890     0.3490     3.6120    25.8210    28.1400 
   68.7500     2.4590    58.0370     2.1020     0.7930     5.4430    25.8620    17.9420 
   68.8750     2.3160    58.0990     3.5880     1.6010     6.4690    26.0630     8.9780 
   69.0000     2.1940    59.0080     5.3580     2.7460     6.5620    26.2190     2.0240 
   69.1250     2.1190    62.2650     6.7730     4.0260     6.6870    26.2220    -2.4940 
   69.2500     2.0930    65.6790     7.3910     5.1450     7.2050    26.1590    -4.7680 
   69.3750     2.0930    66.2040     7.4840     5.9570     7.4860    26.1480    -5.6560 
   69.5000     2.1010    64.2800     7.5310     6.5310     7.5270    26.1340    -6.1280 
   69.6250     2.1100    62.5580     7.6210     6.9230     7.6160    26.0510    -6.5280 
   69.7500     2.1230    62.9980     7.7050     7.1580     7.8020    25.9280    -6.9530 
   69.8750     2.1440    64.9640     7.7420     7.2700     7.8380    25.8540    -7.3860 
   70.0000     2.1660    66.8030     7.7520     7.3200     7.6590    25.8710    -7.8140 
   70.1250     2.1800    67.7250     7.7700     7.3510     7.3950    25.9350    -8.2570 
