~V
VERS. 2.00: Ver 2.00
~W
STRT.M 47.0000:
STOP.M 270.0000:
STEP.M 0.1250:
NULL. -999.2500:
UWI. F11075:
~C
DEPT.M :
GR.API :
RML.OHMM :
RI. :
RXO.OHMM :
CALI.CM :
DEN.GM/CC :
SP.MV :
~A
# ...
  260.7500   104.7970    10.8930    10.0930    12.3250    25.2710     2.3420   -11.3740 
  260.8750   104.7970    10.2180     9.4650     9.7770    25.2740     2.3430   -11.3760 
  261.0000   104.7970     9.9370     9.1520     9.2490    25.2750     2.3340   -11.3670 
  261.1250   104.7970    10.0810     9.1980    10.4040    25.2720     2.3200   -11.3630 
  261.2500   104.7970    10.5320     9.5220    11.8530    25.2730     2.3080   -11.3600 
  261.3750   104.7970    11.0090     9.9200    12.5490    25.2740     2.3030   -11.3750 
  261.5000   104.7970    11.2070    10.1180    12.5550    25.2730     2.3050   -11.3890 
  261.6250   104.7970    11.0050     9.9710    11.9000    25.2690     2.3130   -11.4100 
  261.7500   104.7970    10.4810     9.5090    10.7540    25.2640     2.3250   -11.4340 
  261.8750   104.7970     9.8560     8.9020     9.4090    25.2680     2.3350   -11.4670 
  262.0000   104.7970     9.3540     8.3580     9.0250    25.2680     2.3380   -11.5030 
  262.1250   104.7970     9.0530     7.9690     8.7920    25.2670     2.3330   -11.5570 
  262.2500   104.7970     8.9480     7.7570     8.6200    25.2720     2.3210   -11.6100 
  262.3750   104.7970     8.9930     7.7010     9.1910    25.2920     2.3110   -11.6520 
  262.5000   104.7970     9.0850     7.7100     9.9500    25.3160     2.3130   -11.6940 
  262.6250   104.7970     9.1660     7.7580    10.9710    25.3250     2.3310   -11.7370 
  262.7500   104.7970     9.2060     7.8480    13.9140    25.3260     2.3590   -11.7860 
  262.8750   104.7970     9.2000     7.9660    19.6280    25.3180     2.3880   -11.8380 
  263.0000   104.7970     9.1740     8.0680    21.0540    25.3180     2.4100   -11.8850 
  263.1250   104.7970     9.1470     8.1400    23.3800    25.3290     2.4250   -11.9280 
  263.2500   104.7970     9.1320     8.1860    27.0560    25.3580     2.4360   -11.9850 
  263.3750   104.7970     9.1280     8.2090    33.8250    25.3670     2.4450   -12.0450 
  263.5000   104.7970     9.1200     8.2190    39.3950    25.3450     2.4510   -12.1020 
  263.6250   104.7970     9.0940     8.2190    40.9080    25.2770     2.4470   -12.1480 
  263.7500   104.7970     9.0550     8.2050    37.3660    25.1720     2.4310   -12.1900 
  263.8750   104.7970     9.0270     8.1800    26.8500    25.0650     2.4020   -12.2310 
  264.0000   104.7970     9.0330     8.1620    15.7080    24.9210     2.3720   -12.2600 
  264.1250   104.7970     9.0740     8.1540    10.4390    24.8050     2.3500   -12.2780 
  264.2500   104.7970     9.1330     8.1490     9.3410    24.7330     2.3430   -12.2930 
  264.3750   104.7970     9.1790     8.1470    10.3010    24.6950     2.3530   -12.3040 
  264.5000   104.7970     9.1960     8.1540    13.5330    24.6900     2.3720   -12.3010 
  264.6250   104.7970     9.1870     8.1790    17.4870    24.7570     2.3900   -12.3030 
  264.7500   104.7970     9.1700     8.2200    20.5630    24.8920     2.4060   -12.3010 
  264.8750   104.7970     9.1630     8.2660    19.6150    24.9490     2.4260   -12.2900 
  265.0000   104.7970     9.1640     8.2860    15.8870    24.9670     2.4610   -12.2900 
  265.1250   104.7970     9.1640     8.2530    14.4830    24.9660     2.5090   -12.2960 
  265.2500   104.7970     9.1540     8.1730    19.5090    24.9500     2.5570   -12.3020 
  265.3750   104.7970     9.1400     8.1050    38.1880    24.9070     2.5710   -12.3000 
  265.5000   104.7970     9.1320     8.1050    43.3290    24.8470     2.5420   -12.3090 
  265.6250   104.7970     9.1310     8.1050    28.2480    24.8200     2.4820   -12.3240 
  265.7500   104.7970     9.1320     8.1050    13.4610    24.8360     2.4690   -12.3460 
  265.8750   104.7970     9.1320     8.1050    11.3910    24.8630     2.3870   -12.3700 
  266.0000   104.7970     9.1320     8.1050    12.5540    24.8750     2.3790   -12.3940 
  266.1250   104.7970     9.1320     8.1050    12.3260    24.8480     2.3930   -12.4130 
  266.2500   104.7970     9.1320     8.1050    11.8760    24.8010     2.4120   -12.4270 
  266.3750   104.7970     9.1320     8.1050    12.3360    24.7390     2.4270   -12.4380 
  266.5000   104.7970     9.1320     8.1050    13.0760    24.8120     2.4280   -12.4390 
  266.6250   104.7970     9.1320     8.1050    13.0630    24.8560     2.4210   -12.4500 
  266.7500   104.7970     9.1320     8.1050    12.6520    24.7820     2.4100   -12.4640 
  266.8750   104.7970     9.1320     8.1050    12.5990    24.6150     2.3940   -12.4790 
  267.0000   104.7970     9.1320     8.1050    12.5810    24.4560     2.3510   -12.4980 
  267.1250   104.7970     9.1320     8.1050    12.1240    24.4370     2.2590   -12.5380 
  267.2500   104.7970     9.1320     8.1050    10.8230    24.3330     2.1110   -12.5970 
  267.3750   104.7970     9.1320     8.1050     9.1370    24.0500     1.9250   -12.6700 
  267.5000   104.7970     9.1320     8.1050     7.9090    23.5470     1.7500   -12.7510 
  267.6250   104.7970     9.1320     8.1050     7.4790    23.1150     1.6230   -12.8210 
  267.7500   104.7970     9.1320     8.1050     7.4170    22.9430     1.5520   -12.8830 
  267.8750   104.7970     9.1320     8.1050     7.4160    22.9450     1.5230   -12.9450 
  268.0000   104.7970     9.1320     8.1050     7.4150    22.9440     1.5160   -13.0080 
  268.1250   104.7970     9.1320     8.1050     7.4160    22.9440     1.5140   -13.0320 
  268.2500   104.7970     9.1320     8.1050     7.4160    22.9410     1.5120   -13.0370 
  268.3750   104.7970     9.1320     8.1050     7.4170    22.9410     1.5110   -13.0420 
  268.5000   104.7970     9.1320     8.1050     7.4170    22.9420     1.5100  -999.2500 
  268.6250   104.7970     9.1320     8.1050     7.4170    22.9440     1.5080  -999.2500 
  268.7500   104.7970     9.1320     8.1050     7.4180    22.9440     1.5050  -999.2500 
  268.8750   104.7970     9.1320     8.1050     7.4190    22.9420     1.5040  -999.2500 
  269.0000   104.7970     9.1320     8.1050     7.4170    22.9380     1.5030  -999.2500 
  269.1250   104.7970     9.1320     8.1050     7.4160    22.9370     1.5030  -999.2500 
  269.2500   104.7970     9.1320     8.1050     7.4170    22.9380     1.5040  -999.2500 
  269.3750   104.7970     9.1320     8.1050     7.4180    22.9410     1.5040  -999.2500 
  269.5000   104.7970     9.1320     8.1050     7.4190    22.9390     1.5050  -999.2500 
  269.6250   104.7970     9.1320     8.1050     7.4190    22.9390     1.5040  -999.2500 
  269.7500   104.7970     9.1320     8.1050     7.4170    22.9370     1.5040  -999.2500 
  269.8750   104.7970     9.1320     8.1050     7.4170    22.9340     1.5050  -999.2500 
  270.0000   104.7970     9.1320     8.1050     7.4180    22.9360  -999.2500  -999.2500 
