~V
VERS. 2.00: Ver 2.00
~W
STRT.M 52.0000:
STOP.M 287.0000:
STEP.M 0.1250:
NULL. -999.2500:
UWI. F11078:
~C
DEPT.M :
GR.API :
RML.OHMM :
RI. :
RXO.OHMM :
CALI.CM :
DEN.GM/CC :
SP.MV :
~A
# ...
  130.7500   113.8390     5.0800     4.2320     5.0210    23.8930     2.3230    -4.4330 
  130.8750   117.0830     5.0390     4.0670     4.9360    23.9260     2.3060    -4.3560 
  131.0000   113.2420     5.2320     4.0940     4.9090    23.9620     2.2970    -4.3360 
  131.1250   105.7920     5.6550     4.3400     5.0950    23.9920     2.2970    -4.3870 
  131.2500   100.2780     6.2660     4.7970     5.5470    23.9950     2.3040    -4.5320 
  131.3750    96.9450     6.9530     5.4010     6.6870    23.9510     2.3200    -4.7980 
  131.5000    93.0430     7.4950     6.0030     8.6970    23.8730     2.3440    -5.2500 
  131.6250    89.1210     7.7250     6.4120     9.5930    23.7860     2.3610    -5.8780 
  131.7500    87.8380     7.5980     6.5300     8.3360    23.7030     2.3590    -6.6470 
  131.8750    89.7190     7.2090     6.3910     6.7610    23.6550     2.3260    -7.5000 
  132.0000    91.3450     6.7790     6.1150     6.4660    23.6320     2.2640    -8.3780 
  132.1250    92.1110     6.5160     5.8640     6.3880    23.6220     2.2010    -9.2340 
  132.2500    92.5290     6.4830     5.7130     6.3050    23.6430     2.1570   -10.0010 
  132.3750    93.6510     6.6260     5.6800     6.2510    23.7290     2.1460   -10.5760 
  132.5000    96.1520     6.8030     5.7450     6.2290    23.8470     2.1690   -10.9290 
  132.6250    96.2520     6.8810     5.8330     6.5190    23.9270     2.2020   -11.1700 
  132.7500    93.2660     6.8370     5.8940     6.9630    23.9590     2.2280   -11.3320 
  132.8750    89.2100     6.7230     5.8930     7.3780    23.9890     2.2380   -11.4660 
  133.0000    87.4050     6.6330     5.8180     7.1320    24.0610     2.2310   -11.6360 
  133.1250    87.3190     6.6260     5.7260     6.5160    24.1260     2.2180   -11.9140 
  133.2500    87.6030     6.7260     5.6740     6.3090    24.1120     2.2020   -12.3700 
  133.3750    86.8600     6.9440     5.7110     6.8480    24.0030     2.1870   -13.0410 
  133.5000    82.6750     7.2920     5.8850     7.8620    23.8520     2.1730   -13.8860 
  133.6250    78.2410     7.7090     6.1620     8.9330    23.8040     2.1630   -14.7280 
  133.7500    77.7690     8.1290     6.5010     8.9400    23.8370     2.1590   -15.4720 
  133.8750    80.1070     8.4890     6.8570     7.9470    23.9160     2.1600   -16.0910 
  134.0000    79.3940     8.7280     7.1870     7.5100    23.9590     2.1680   -16.5570 
  134.1250    76.5510     8.8340     7.4500     7.8150    23.9510     2.1770   -16.8040 
  134.2500    75.4090     8.7660     7.5780     8.5240    23.8650     2.1860   -16.7950 
  134.3750    76.5570     8.4800     7.5030     9.6240    23.7690     2.1900   -16.5520 
  134.5000    78.2090     7.9500     7.1740    10.5410    23.7580     2.1910   -16.0400 
  134.6250    82.2340     7.3150     6.6940     9.9970    23.7960     2.1950   -15.3290 
  134.7500    89.9020     6.7280     6.1700     8.4010    23.8250     2.2040   -14.5240 
  134.8750    97.7150     6.3260     5.7070     7.1630    23.8360     2.2170   -13.7130 
  135.0000    98.1440     6.2130     5.4040     7.2220    23.8870     2.2240   -12.9290 
  135.1250    93.2810     6.2990     5.2550     7.2400    23.9290     2.2270   -12.1350 
  135.2500    89.3440     6.4670     5.2410     6.4890    23.9460     2.2350   -11.3130 
  135.3750    89.9570     6.5910     5.3100     5.9870    23.9420     2.2570   -10.5380 
  135.5000    93.1960     6.5610     5.3860     6.0480    23.9780     2.2930    -9.9200 
  135.6250    95.2160     6.4030     5.4150     6.0890    24.0910     2.3260    -9.4680 
  135.7500    94.7300     6.1930     5.3990     6.1000    24.2390     2.3440    -9.1550 
  135.8750    92.7350     6.0230     5.3750     6.0920    24.3560     2.3450    -8.9320 
  136.0000    91.9750     5.9920     5.4030     6.0120    24.3930     2.3350    -8.8180 
  136.1250    92.6520     6.1120     5.5120     6.0380    24.3790     2.3260    -8.8790 
  136.2500    90.8210     6.3620     5.7060     6.4080    24.3320     2.3190    -9.1170 
  136.3750    84.2770     6.6720     5.9440     6.7580    24.2910     2.3090    -9.4430 
  136.5000    79.0840     6.8890     6.1230     6.8610    24.2730     2.2950    -9.7430 
  136.6250    79.3160     6.8910     6.1410     6.8700    24.2910     2.2820    -9.9100 
  136.7500    82.3060     6.6400     5.9430     6.7000    24.3410     2.2790    -9.8940 
  136.8750    84.1940     6.2300     5.5590     6.5200    24.3680     2.2920    -9.6920 
  137.0000    83.9600     5.9290     5.1580     6.1100    24.3850     2.3210    -9.3090 
  137.1250    82.9660     6.0520     4.9840     5.8180    24.4110     2.3570    -8.8480 
  137.2500    79.4390     6.6620     5.2330     5.8410    24.4340     2.3930    -8.3830 
  137.3750    74.3450     7.6560     6.0650     6.7540    24.4200     2.4340    -7.9800 
  137.5000    70.9600     9.1390     7.7060    11.6270    24.4000     2.4820    -7.7880 
  137.6250    69.8330    11.0660     9.8980    25.6810    24.3870     2.5250    -7.8680 
  137.7500    69.2770    12.9820    12.0310    38.1690    24.3680     2.5420    -8.2600 
  137.8750    68.7910    14.1090    13.1880    27.2100    24.2340     2.5140    -8.9510 
  138.0000    68.7510    13.8700    12.7540    15.7110    24.1410     2.4360    -9.8520 
  138.1250    66.9320    12.8930    11.6080    10.4600    24.1080     2.3420   -10.8180 
  138.2500    64.2700    11.7790    10.4700     9.0900    24.1000     2.2580   -11.7850 
  138.3750    64.3160    10.9370     9.6910     8.8070    24.0270     2.1950   -12.6920 
  138.5000    67.2780    10.5260     9.3570     8.6190    23.9100     2.1540   -13.4470 
  138.6250    69.3290    10.3750     9.2590     8.5760    23.7940     2.1280   -14.0560 
  138.7500    70.2210    10.3610     9.2660     8.7760    23.7450     2.1190   -14.4960 
  138.8750    70.9830    10.3990     9.3060     8.9270    23.7830     2.1290   -14.7650 
  139.0000    69.2250    10.4530     9.3570     9.0180    23.8740     2.1570   -14.8780 
  139.1250    65.7270    10.4970     9.4070     9.0530    23.9520     2.1870   -14.8740 
  139.2500    64.7960    10.5020     9.4250     8.9260    23.9540     2.2080   -14.7970 
  139.3750    68.0850    10.4350     9.3710     8.7480    23.9400     2.2190   -14.6780 
  139.5000    69.8250    10.2570     9.2000     8.6850    23.9840     2.2220   -14.4880 
  139.6250    68.5370     9.9980     8.9470     8.5850    24.0420     2.2240   -14.2520 
  139.7500    68.1020     9.6970     8.6520     8.4610    24.0480     2.2270   -14.0200 
  139.8750    69.5890     9.4010     8.3660     8.3650    24.0230     2.2290   -13.8250 
  140.0000    69.8280     9.1630     8.1390     8.2510    23.8920     2.2310   -13.6930 
  140.1250    70.5550     9.0010     7.9870     8.2510    23.5780     2.2320   -13.6040 
  140.2500    74.5380     8.9160     7.9130     8.2700    23.1770     2.2350   -13.5390 
  140.3750    77.8400     8.8960     7.9030     8.2860    22.9270     2.2410   -13.4640 
  140.5000    75.6790     8.9160     7.9320     8.2510    22.8670     2.2490   -13.3800 
  140.6250    73.8450     8.9360     7.9580     8.2920    22.8690     2.2580   -13.2960 
  140.7500    75.1230     8.9340     7.9570     8.3550    22.8950     2.2680   -13.1890 
  140.8750    77.0190     8.9030     7.9240     8.3620    22.9740     2.2770   -13.0410 
  141.0000    75.3510     8.8510     7.8700     8.2300    23.0890     2.2800   -12.8740 
  141.1250    73.3080     8.8030     7.8200     8.0270    23.2300     2.2730   -12.7270 
  141.2500    72.1890     8.7780     7.7930     7.8630    23.2280     2.2570   -12.5930 
  141.3750    69.8540     8.7900     7.8010     7.7070    23.0180     2.2330   -12.5180 
  141.5000    66.3850     8.8560     7.8620     7.7170    22.7160     2.2070   -12.5570 
  141.6250    65.4230     8.9680     7.9690     7.8290    22.6950     2.1850   -12.6860 
  141.7500    69.0950     9.1180     8.1130     8.0900    22.9810     2.1710   -12.8900 
  141.8750    73.0570     9.2910     8.2780     8.3700    23.4760     2.1670   -13.1410 
