~V
VERS. 2.00: Ver 2.00
~W
STRT.M 54.0000:
STOP.M 281.0000:
STEP.M 0.1250:
NULL. -999.2500:
UWI. F11055:
~C
DEPT.M :
SP.MV :
GR.API :
RML.OHMM :
RI. :
RXO.OHMM :
CALI.CM :
DEN.GM/CC :
~A
# ...
   99.0000    -4.0170    68.3800     9.0330     7.9130    10.5750    23.8060     2.1750 
   99.1250    -3.9940    69.0760     8.9990     7.8980    10.4940    23.8040     2.1770 
   99.2500    -3.9730    68.9980     8.8920     7.8160    10.5570    23.7980     2.1760 
   99.3750    -3.9340    69.4270     8.7180     7.6660    10.7370    23.8070     2.1740 
   99.5000    -3.8860    71.3890     8.5180     7.4770    10.6830    23.8140     2.1760 
   99.6250    -3.8190    72.1930     8.3660     7.3110     9.7700    23.8070     2.1800 
   99.7500    -3.7380    71.0820     8.3220     7.2230     9.0950    23.7980     2.1820 
   99.8750    -3.6650    68.3550     8.4120     7.2440     9.8880    23.8040     2.1800 
  100.0000    -3.5530    65.0920     8.6220     7.3670    10.5570    23.8060     2.1760 
  100.1250    -3.4560    64.3130     8.8830     7.5500    10.6090    23.7980     2.1740 
  100.2500    -3.3280    65.7040     9.0680     7.7020    10.3820    23.8020     2.1760 
  100.3750    -3.1780    66.5770     9.0870     7.7490    10.3630    23.8060     2.1820 
  100.5000    -2.9940    65.4450     8.9260     7.6580    10.2870    23.7980     2.1920 
  100.6250    -2.8070    64.5480     8.6640     7.4520     9.4980    23.8000     2.2050 
  100.7500    -2.6380    65.5810     8.4450     7.2240     8.2670    23.8060     2.2160 
  100.8750    -2.4510    68.2200     8.3380     7.0360     8.1500    23.8000     2.2240 
  101.0000    -2.3010    70.4540     8.3400     6.9210     9.6470    23.7980     2.2290 
  101.1250    -2.1380    71.2990     8.3930     6.8900    11.0810    23.8060     2.2430 
  101.2500    -2.0090    71.0580     8.4520     6.9300    11.6170    23.8000     2.2690 
  101.3750    -1.8710    70.7480     8.5990     7.0860    11.7470    23.7890     2.3110 
  101.5000    -1.7660    71.7740     9.0620     7.4810    12.0560    23.8230     2.3700 
  101.6250    -1.6450    73.9720    10.3880     8.4500    13.3140    23.9730     2.4440 
  101.7500    -1.5600    75.6020    12.9070    10.2700    17.0400    24.2050     2.5120 
  101.8750    -1.5210    74.2050    16.8130    13.2610    24.4300    24.3500     2.5620 
  102.0000    -1.5060    69.0680    21.7400    17.4480    37.2620    24.3770     2.5900 
  102.1250    -1.5680    63.0410    25.8620    21.7190    59.1000    24.3250     2.5890 
  102.2500    -1.6940    60.4920    26.7570    23.6300    77.1840    24.2970     2.5580 
  102.3750    -1.8700    63.7280    23.7080    21.9360    64.1480    24.2710     2.4960 
  102.5000    -2.1010    69.8470    18.5240    17.8920    31.1770    24.2530     2.4120 
  102.6250    -2.3950    71.1160    13.9140    13.8330    15.9100    24.2250     2.3240 
  102.7500    -2.6090    67.4410    10.8570    10.8470    11.7740    24.1820     2.2580 
  102.8750    -2.8510    64.4810     9.2130     8.9560    10.7780    24.1510     2.2210 
  103.0000    -3.0310    64.0140     8.5890     7.9380    10.4410    24.1600     2.2090 
  103.1250    -3.1470    62.8090     8.6610     7.6290    10.2540    24.1270     2.2100 
  103.2500    -3.1640    60.9380     8.9850     7.6820    10.1210    24.1150     2.2140 
  103.3750    -3.1310    61.2450     9.3340     7.9020    10.0540    24.1370     2.2180 
  103.5000    -3.0160    62.7460     9.5570     8.1240    10.0330    24.2020     2.2220 
  103.6250    -2.8470    62.9370     9.5140     8.1830    10.1500    24.2410     2.2260 
  103.7500    -2.7180    64.5170     9.1830     8.0060    10.0770    24.2620     2.2330 
  103.8750    -2.5430    69.1940     8.5730     7.5800     9.5680    24.2680     2.2410 
  104.0000    -2.4200    75.9350     7.7910     6.9750     8.2820    24.2740     2.2440 
  104.1250    -2.3320    81.2580     7.0550     6.3470     6.8910    24.2730     2.2390 
  104.2500    -2.3640    81.7460     6.5650     5.8650     6.1870    24.2340     2.2260 
  104.3750    -2.4770    77.9860     6.4250     5.6250     5.9710    24.1400     2.2110 
  104.5000    -2.7220    74.1060     6.6590     5.6710     6.4590    24.0290     2.1970 
  104.6250    -3.0250    72.8300     7.2300     6.0210     8.1160    23.9730     2.1860 
  104.7500    -3.3850    70.8950     7.9130     6.5290     9.6380    23.9640     2.1790 
  104.8750    -3.7650    69.3950     8.5180     7.0520    10.7560    23.9660     2.1770 
  105.0000    -4.1160    69.5790     8.8870     7.4440    11.3740    23.9610     2.1820 
  105.1250    -4.4430    69.1460     8.9280     7.5860    11.3530    23.9590     2.1930 
  105.2500    -4.6880    67.7220     8.7870     7.5500    10.4750    23.9630     2.2040 
  105.3750    -4.8640    66.5360     8.6070     7.4300     9.8110    23.9670     2.2100 
  105.5000    -4.9730    65.2020     8.4910     7.3060    10.1230    23.9640     2.2080 
  105.6250    -5.0070    63.7760     8.4730     7.2310    10.5200    23.9520     2.2000 
  105.7500    -4.9810    65.6280     8.4890     7.1950    10.5870    23.9520     2.1900 
  105.8750    -4.9360    69.5670     8.4740     7.1650    10.5610    23.9580     2.1850 
  106.0000    -4.9030    70.8390     8.4060     7.1180    10.6500    23.9590     2.1860 
  106.1250    -4.8360    67.4380     8.3790     7.0950    10.8490    23.9530     2.2000 
  106.2500    -4.7060    64.4830     8.5770     7.2170    10.6360    23.9590     2.2310 
  106.3750    -4.5660    63.3390     9.1450     7.6040    10.3790    23.9660     2.2820 
  106.5000    -4.3990    61.3450    10.0900     8.3090    10.3260    23.9650     2.3520 
  106.6250    -4.2010    58.1360    11.2170     9.2610    11.0640    23.9590     2.4290 
  106.7500    -4.0340    58.1970    12.0560    10.0980    13.7520    23.9680     2.4770 
  106.8750    -3.8800    62.1860    12.1930    10.4370    17.9640    23.9860     2.4570 
  107.0000    -3.6750    65.8560    11.5000    10.0810    16.0940    24.0080     2.3720 
  107.1250    -3.5580    65.7090    10.2910     9.1820    10.2750    23.9430     2.2840 
  107.2500    -3.4900    64.7380     9.2150     8.2480     9.2380    23.8690     2.2300 
  107.3750    -3.4400    64.7330     8.5710     7.5420     9.6400    23.8200     2.2050 
  107.5000    -3.3850    65.8760     8.3980     7.1600     9.7260    23.8320     2.1950 
  107.6250    -3.4220    68.8510     8.5610     7.0930     9.2640    23.8990     2.1920 
  107.7500    -3.3740    71.4550     8.7400     7.1460     8.9040    23.9210     2.1920 
  107.8750    -3.3260    72.2030     8.7740     7.1860     8.7290    23.9120     2.1950 
  108.0000    -3.2650    71.9490     8.6480     7.1600     8.4900    23.8890     2.2000 
  108.1250    -3.1800    70.6890     8.4790     7.1120     7.9280    23.9620     2.2090 
  108.2500    -3.1110    68.9230     8.4180     7.1320     7.5800    24.0730     2.2170 
  108.3750    -3.0550    66.8030     8.5440     7.2810     8.0770    24.1910     2.2210 
  108.5000    -3.0050    66.0880     8.8560     7.5710     9.4370    24.2570     2.2230 
  108.6250    -2.9400    66.9560     9.2680     7.9610    10.4340    24.2730     2.2250 
  108.7500    -2.9150    68.4760     9.6040     8.3160    10.7790    24.2710     2.2270 
  108.8750    -2.8900    71.2150     9.7320     8.5180    10.5780    24.2710     2.2290 
  109.0000    -2.9040    74.6820     9.5940     8.4900     9.9330    24.2730     2.2350 
  109.1250    -2.9230    78.3690     9.2100     8.2070     9.2180    24.2740     2.2420 
  109.2500    -2.9360    80.9470     8.7320     7.7880     8.8440    24.2740     2.2480 
  109.3750    -2.9670    80.4910     8.2430     7.3120     8.2160    24.2740     2.2540 
  109.5000    -2.9980    77.3020     7.7880     6.8350     7.0190    24.2740     2.2600 
  109.6250    -3.0330    75.2250     7.4050     6.4060     6.1780    24.2740     2.2640 
  109.7500    -3.1250    74.9450     7.1070     6.0490     6.1140    24.2740     2.2630 
  109.8750    -3.2490    74.6210     6.9260     5.7950     6.1670    24.2740     2.2570 
  110.0000    -3.4470    74.1690     6.8950     5.6790     6.1220    24.2740     2.2500 
  110.1250    -3.6880    74.5180     7.0650     5.7580     6.2210    24.2740     2.2460 
