~V
VERS. 2.00: Ver 2.00
~W
STRT.M 55.0000:
STOP.M 236.0000:
STEP.M 0.1250:
NULL. -999.2500:
UWI. F11015:
~C
DEPT.M :
GR.API :
RML.OHMM :
RI. :
RXO.OHMM :
CALI.CM :
DEN.GM/CC :
SP.MV :
~A
# ...
   66.2500    72.1190     9.4970     8.1340    10.5330    22.9610     2.3060   -21.1210 
   66.3750    75.7220    10.0180     8.7590    12.8740    23.4360     2.3600   -20.7550 
   66.5000    83.9190     9.6440     8.6460    11.1530    23.6840     2.3940   -20.3670 
   66.6250    94.2820     8.4450     7.7230     7.3830    23.7720     2.3790   -19.9900 
   66.7500   102.9320     7.1250     6.5470     5.1870    23.9490     2.3360   -19.6470 
   66.8750   108.4530     6.0660     5.4800     4.3870    24.1280     2.3030   -19.3770 
   67.0000   112.1350     5.3810     4.6890     4.2040    24.2230     2.2980   -19.2130 
   67.1250   116.5490     5.0470     4.2290     4.2950    24.2500     2.3110   -19.2010 
   67.2500   119.6320     4.9280     4.0100     4.5490    24.2420     2.3260   -19.3440 
   67.3750   118.3590     5.0220     4.0190     4.8440    24.2470     2.3430   -19.6520 
   67.5000   113.2790     5.4020     4.2830     4.5970    24.2750     2.3610   -20.1220 
   67.6250   105.7010     6.2270     4.9000     4.8370    24.2150     2.3800   -20.7710 
   67.7500    96.7260     7.4140     5.8220     6.4770    24.0780     2.3990   -21.4710 
   67.8750    86.1960     8.7340     6.9270     9.8330    23.8880     2.4130   -22.1620 
   68.0000    75.4250     9.7670     7.9380    10.3280    23.6320     2.4100   -22.8690 
   68.1250    68.7070     9.9810     8.4080     9.2100    23.3610     2.3700   -23.6150 
   68.2500    67.7350     9.5340     8.3140     8.4850    23.1220     2.3150   -24.3880 
   68.3750    70.7650     8.8240     7.8820     7.8440    22.8970     2.2680   -25.1750 
   68.5000    73.8520     8.2680     7.4210     7.1180    22.7000     2.2430   -25.8890 
   68.6250    73.4160     8.1480     7.1870     6.8980    22.6150     2.2330   -26.4250 
   68.7500    70.8190     8.3340     7.1710     7.5520    22.6130     2.2180   -26.8380 
   68.8750    68.4700     8.6210     7.2660     8.0560    22.6620     2.1900   -27.1830 
   69.0000    67.0770     8.7990     7.3380     8.1600    22.7760     2.1540   -27.4940 
   69.1250    65.9490     8.7080     7.2630     8.1500    23.0570     2.1200   -27.7750 
   69.2500    65.7740     8.4350     7.0580     7.9530    23.3910     2.0960   -28.0500 
   69.3750    68.4330     8.1410     6.8010     7.2110    23.6100     2.0880   -28.3610 
   69.5000    72.6580     8.0020     6.6100     6.4900    23.5490     2.0970   -28.7330 
   69.6250    74.3180     8.1740     6.6230     7.0080    23.2560     2.1160   -29.1620 
   69.7500    72.6960     8.6010     6.8510     7.3580    23.1170     2.1350   -29.6390 
   69.8750    71.0650     9.1880     7.2620     7.5150    23.0930     2.1550   -30.1760 
   70.0000    71.4200     9.7890     7.7560     7.8150    23.1100     2.1760   -30.7710 
   70.1250    72.7170    10.1960     8.1620     8.4960    23.1180     2.1930   -31.4090 
   70.2500    73.3290    10.3500     8.3810     8.9650    23.1140     2.1980   -32.0350 
   70.3750    73.3360    10.3120     8.4260     8.7720    23.0990     2.1900   -32.5460 
   70.5000    72.6650    10.2110     8.3850     8.4710    23.0600     2.1760   -32.9130 
   70.6250    70.0160    10.1870     8.3560     8.6570    22.9770     2.1710   -33.1940 
   70.7500    65.8560    10.2750     8.3850     9.1050    22.9090     2.1720   -33.4620 
   70.8750    62.1700    10.4320     8.4590     9.3180    22.9650     2.1690   -33.7220 
   71.0000    60.6820    10.5440     8.5150     9.3230    23.0410     2.1580   -33.9260 
   71.1250    60.5430    10.4520     8.4470     9.3490    23.0740     2.1410   -34.0210 
   71.2500    59.7730    10.1600     8.2320     9.3430    23.0850     2.1260   -34.0450 
   71.3750    59.0320     9.7630     7.9160     9.0770    23.1160     2.1160   -34.0330 
   71.5000    60.9630     9.4020     7.5910     8.4120    23.1830     2.1130   -34.0110 
   71.6250    65.1230     9.2190     7.3690     7.7520    23.2190     2.1160   -34.0480 
   71.7500    67.4960     9.2250     7.2940     7.7710    23.2410     2.1190   -34.1580 
   71.8750    68.5580     9.3840     7.3680     8.4640    23.2700     2.1220   -34.3130 
   72.0000    69.1280     9.6230     7.5520     9.3260    23.3280     2.1270   -34.4690 
   72.1250    67.3460     9.8380     7.7770     9.5750    23.3600     2.1370   -34.6300 
   72.2500    64.2020     9.9620     7.9620     9.4830    23.3980     2.1520   -34.7830 
   72.3750    61.3220     9.9820     8.0700     9.7230    23.4880     2.1700   -34.9120 
   72.5000    59.7030     9.9320     8.1000     9.9230    23.6360     2.1820   -35.0240 
   72.6250    58.8840     9.8700     8.0710     9.6440    23.7420     2.1770   -35.0680 
   72.7500    57.8550     9.8370     8.0240     9.6010    23.6980     2.1590   -35.0420 
   72.8750    56.1100     9.8140     7.9690     9.8590    23.5580     2.1360   -34.9240 
   73.0000    54.6190     9.7580     7.9010     9.8920    23.4240     2.1190   -34.7180 
   73.1250    56.9730     9.6120     7.7910     9.8070    23.3700     2.1120   -34.4040 
   73.2500    60.4950     9.3750     7.6290     9.8810    23.3190     2.1140   -33.9980 
   73.3750    61.5340     9.0800     7.4210     9.7020    23.2450     2.1260   -33.5640 
   73.5000    61.6530     8.8000     7.2020     9.0090    23.1690     2.1450   -33.1370 
   73.6250    63.7330     8.6580     7.0590     8.0480    23.1300     2.1620   -32.7190 
   73.7500    65.7960     8.7140     7.0480     7.8940    23.1600     2.1660   -32.2370 
   73.8750    66.0100     8.9740     7.1920     8.1470    23.2170     2.1580   -31.6810 
   74.0000    65.5350     9.3880     7.4690     8.5050    23.2650     2.1470   -31.1230 
   74.1250    67.7650     9.8420     7.7990     8.7840    23.2820     2.1420   -30.6480 
   74.2500    70.6790    10.1750     8.0570     9.0310    23.2850     2.1440   -30.2960 
   74.3750    72.2290    10.2730     8.1430     9.2740    23.2750     2.1500   -30.0480 
   74.5000    71.5750    10.0800     8.0120     9.5110    23.2480     2.1570   -29.8470 
   74.6250    68.7540     9.5980     7.6760     9.7480    23.2440     2.1640   -29.6190 
   74.7500    66.0920     9.0140     7.2680     9.7350    23.2710     2.1720   -29.3580 
   74.8750    65.7150     8.5240     6.9130     9.4160    23.3110     2.1810   -29.1060 
   75.0000    68.3060     8.3630     6.7530     8.9850    23.3100     2.1940   -28.8880 
   75.1250    72.5370     8.8470     6.9850     8.6790    23.2610     2.2160   -28.6930 
   75.2500    78.1290     9.9580     7.6300     9.5710    23.2750     2.2480   -28.5070 
   75.3750    85.6690    11.5510     8.6570    11.6900    23.3990     2.2930   -28.3430 
   75.5000    90.0830    13.2260     9.8760    16.5860    23.6020     2.3490   -28.2470 
   75.6250    88.4660    14.1580    10.7600    21.7910    23.7010     2.3960   -28.2800 
   75.7500    86.0750    13.9260    10.8790    19.7180    23.5750     2.4010   -28.4180 
   75.8750    82.9790    12.7050    10.2240    13.7440    23.2940     2.3450   -28.6690 
   76.0000    75.7030    11.1330     9.1740    10.4120    23.1040     2.2490   -29.0280 
   76.1250    66.5610     9.8970     8.1980     9.3510    23.0720     2.1650   -29.4690 
   76.2500    62.5000     9.1920     7.5120     9.2450    23.1380     2.1150   -29.9220 
   76.3750    64.6660     8.9480     7.1340     9.2860    23.2330     2.0930   -30.3340 
   76.5000    68.6170     8.9780     6.9900     9.3120    23.3030     2.0870   -30.6390 
   76.6250    70.1180     9.0880     6.9810     9.3280    23.2480     2.0900   -30.8110 
   76.7500    69.6490     9.1550     7.0030     9.5080    23.1170     2.1000   -30.9710 
   76.8750    68.2130     9.1600     7.0200     9.6420    23.0470     2.1120   -31.1410 
   77.0000    67.5100     9.1130     7.0210     9.4300    23.0630     2.1250   -31.2730 
   77.1250    68.2170     9.0260     7.0040     9.1370    23.1660     2.1360   -31.3250 
   77.2500    69.6610     8.9190     6.9780     9.1270    23.3080     2.1410   -31.3040 
   77.3750    70.2940     8.8070     6.9480     9.1650    23.4540     2.1380   -31.1770 
