~V
VERS. 2.00: Ver 2.00
~W
STRT.M 55.0000:
STOP.M 286.0000:
STEP.M 0.1250:
NULL. -999.2500:
UWI. F11067:
~C
DEPT.M :
GR.API :
RML.OHMM :
RI. :
RXO.OHMM :
CALI.CM :
DEN.GM/CC :
SP.MV :
~A
# ...
  280.0000    51.3480    13.4910    12.3310    23.9080    24.7140     2.5290    -2.8490 
  280.1250    51.3480    13.4940    12.3210    22.9870    24.7380     2.5260    -2.8750 
  280.2500    51.3480    13.5060    12.3370    20.5920    24.7470     2.5230    -2.9010 
  280.3750    51.3480    13.5230    12.3780    17.5760    24.7510     2.5230    -2.9340 
  280.5000    51.3480    13.5480    12.4240    15.9830    24.7570     2.5250    -2.9720 
  280.6250    51.3480    13.5850    12.4610    16.9640    24.7910     2.5270    -3.0090 
  280.7500    51.3480    13.6310    12.4820    18.2740    24.8490     2.5240    -3.0370 
  280.8750    51.3480    13.6760    12.4850    15.8280    24.8920     2.5150    -3.0450 
  281.0000    51.3480    13.7070    12.4750    12.5770    24.9040     2.5020    -3.0390 
  281.1250    51.3480    13.7190    12.4570    10.8480    24.9040     2.4930    -3.0450 
  281.2500    51.3480    13.7270    12.4350    10.4500    24.9030     2.4930    -3.0450 
  281.3750    51.3480    13.7400    12.4110    10.4070    24.9030     2.5020    -3.0460 
  281.5000    51.3480    13.7580    12.3900    10.7250    24.9070     2.5140    -3.0520 
  281.6250    51.3480    13.7700    12.3900    10.9740    24.9090     2.5190    -3.0620 
  281.7500    51.3480    13.7750    12.3900    10.9180    24.9070     2.5140    -3.0990 
  281.8750    51.3480    13.7750    12.3900    10.7480    24.9040     2.5020    -3.1570 
  282.0000    51.3480    13.7740    12.3900    10.6170    24.9050     2.4900    -3.2110 
  282.1250    51.3480    13.7750    12.3900    10.4720    24.9010     2.4870    -3.2780 
  282.2500    51.3480    13.7750    12.3900    10.0990    24.8970     2.4940    -3.3640 
  282.3750    51.3480    13.7750    12.3900     9.5380    24.8990     2.5110    -3.4420 
  282.5000    51.3480    13.7750    12.3900     9.3460    24.9050     2.5300    -3.5070 
  282.6250    51.3480    13.7750    12.3900     9.7730    24.9080     2.5300    -3.5580 
  282.7500    51.3480    13.7750    12.3900    10.5770    24.9100     2.4900    -3.6100 
  282.8750    51.3480    13.7750    12.3900    10.9230    24.9180     2.4030    -3.6680 
  283.0000    51.3480    13.7750    12.3900    11.2820    24.9240     2.3820    -3.7300 
  283.1250    51.3480    13.7750    12.3900    11.0110    24.7480     2.1700    -3.7910 
  283.2500    51.3480    13.7750    12.3900    11.1910    24.3000     2.0590    -3.8370 
  283.3750    51.3480    13.7750    12.3900    11.3380    23.7240     1.9850    -3.8770 
  283.5000    51.3480    13.7750    12.3900    11.3750    23.3970     1.9490    -3.9260 
  283.6250    51.3480    13.7750    12.3900    11.3220    23.3320     1.9370    -4.0670 
  283.7500    51.3480    13.7750    12.3900    11.3240    23.3320     1.9390    -4.2340 
  283.8750    51.3480    13.7750    12.3900    11.3270    23.3340     1.9430    -4.3890 
  284.0000    51.3480    13.7750    12.3900    11.3290    23.3400     1.9450    -4.5610 
  284.1250    51.3480    13.7750    12.3900    11.3270    23.3400     1.9460    -4.7250 
  284.2500    51.3480    13.7750    12.3900    11.3230    23.3370     1.9440    -4.8920 
  284.3750    51.3480    13.7750    12.3900    11.3190    23.3330     1.9410    -5.0880 
  284.5000    51.3480    13.7750    12.3900    11.3200    23.3310     1.9400    -5.2700 
  284.6250    51.3480    13.7750    12.3900    11.3190    23.3310     1.9410    -5.2750 
  284.7500    51.3480    13.7750    12.3900    11.3170    23.3300     1.9440    -5.2800 
  284.8750    51.3480    13.7750    12.3900    11.3160    23.3280     1.9460  -999.2500 
  285.0000    51.3480    13.7750    12.3900    11.3180    23.3270     1.9450  -999.2500 
  285.1250    51.3480    13.7750    12.3900    11.3210    23.3290     1.9420  -999.2500 
  285.2500    51.3480    13.7750    12.3900    11.3220    23.3280     1.9390  -999.2500 
  285.3750    51.3480    13.7750    12.3900    11.3210    23.3270     1.9370  -999.2500 
  285.5000    51.3480    13.7750    12.3900    11.3200    23.3230     1.9390  -999.2500 
  285.6250    51.3480    13.7750    12.3900    11.3210    23.3230     1.9360  -999.2500 
  285.7500    51.3480    13.7750    12.3900    11.3190    23.3220     1.9330  -999.2500 
  285.8750    51.3480    13.7750    12.3900    11.3190    23.3180     1.9360  -999.2500 
  286.0000    51.3480    13.7750    12.3900    11.3210    23.3170  -999.2500  -999.2500 
