~V
VERS. 2.00: Ver 2.00
~W
STRT.M 57.0000:
STOP.M 278.0000:
STEP.M 0.1250:
NULL. -999.2500:
UWI. F11043:
~C
DEPT.M :
SP.MV :
GR.API :
RML.OHMM :
RI. :
RXO.OHMM :
CALI.CM :
DEN.GM/CC :
~A
# ...
   90.7500   -15.1600    74.9520     9.6830     6.8790     9.2890    23.8790     2.2040 
   90.8750   -14.5890    72.2650    11.3340     7.8510    10.2440    23.8760     2.2180 
   91.0000   -13.8960    71.8670    13.5300     9.3070    12.4240    23.8880     2.2570 
   91.1250   -13.1550    70.9410    15.3030    10.7510    18.6930    23.8900     2.3310 
   91.2500   -12.4420    69.0250    15.5510    11.2970    29.2850    23.8820     2.4190 
   91.3750   -11.7430    70.1080    13.9360    10.5040    27.3910    23.8750     2.4860 
   91.5000   -11.0620    75.5910    11.2470     8.7900    14.3190    23.8740     2.5020 
   91.6250   -10.5050    82.4310     8.8250     7.0430     7.4550    23.8600     2.4500 
   91.7500   -10.0700    85.3460     7.2660     5.7500     5.8520    23.8530     2.3730 
   91.8750    -9.7900    84.8600     6.5290     4.9650     6.2400    23.8600     2.3090 
   92.0000    -9.6810    84.5930     6.3630     4.5990     6.7980    23.8560     2.2740 
   92.1250    -9.6580    86.1860     6.4820     4.5410     6.1900    23.8320     2.2700 
   92.2500    -9.6960    87.5900     6.6390     4.6140     5.2840    23.8060     2.2770 
   92.3750    -9.9120    89.3290     6.8080     4.7630     5.1810    23.7970     2.2860 
   92.5000   -10.2960    92.0520     7.0330     4.9760     5.9150    23.7550     2.2910 
   92.6250   -10.6320    92.7370     7.3230     5.2430     6.3570    23.7620     2.3020 
   92.7500   -10.8850    89.1430     7.5830     5.5010     6.3910    23.7990     2.3260 
   92.8750   -11.1420    83.8670     7.7480     5.6960     6.4590    23.8370     2.3480 
   93.0000   -11.4610    80.6560     7.8300     5.8140     6.8130    23.8370     2.3430 
   93.1250   -11.7900    79.5830     7.9320     5.8910     7.0770    23.8140     2.3100 
   93.2500   -12.0610    79.4680     8.1450     5.9960     7.0980    23.8250     2.2820 
   93.3750   -12.2730    80.5270     8.4740     6.1510     7.4950    23.8340     2.2680 
   93.5000   -12.4660    80.4590     8.8390     6.3390     8.3680    23.8150     2.2610 
   93.6250   -12.6860    78.2410     9.0810     6.4850     9.2200    23.8170     2.2570 
   93.7500   -12.8990    78.4950     9.0730     6.5070     9.3570    23.8310     2.2580 
   93.8750   -13.0210    82.2410     8.7630     6.3560     8.7300    23.8120     2.2640 
   94.0000   -13.0630    85.2010     8.2280     6.0500     7.7470    23.7970     2.2790 
   94.1250   -13.1790    85.2890     7.7640     5.7420     6.5990    23.8020     2.3040 
   94.2500   -13.3920    87.3610     7.7120     5.6380     6.1320    23.8080     2.3320 
   94.3750   -13.5960    89.3220     8.2770     5.8770     6.1140    23.7920     2.3570 
   94.5000   -13.8000    86.3290     9.4980     6.5270     6.8460    23.7810     2.3780 
   94.6250   -14.1420    80.4420    11.2040     7.5860     9.0310    23.7610     2.4070 
   94.7500   -14.6140    77.9980    12.7240     8.7020    11.4480    23.7280     2.4410 
   94.8750   -15.1790    77.0840    13.4070     9.4340    11.2770    23.7120     2.4540 
   95.0000   -15.8130    73.6510    12.9450     9.4630    10.1780    23.6970     2.4140 
   95.1250   -16.4570    69.9270    11.6390     8.8280     9.9280    23.6760     2.3220 
   95.2500   -17.1610    69.3740    10.4200     8.0920    10.0460    23.6930     2.2480 
   95.3750   -17.9300    70.8820     9.8290     7.6300    10.0170    23.7070     2.2160 
   95.5000   -18.6310    73.0700    10.0730     7.6430    10.0540    23.6810     2.2130 
   95.6250   -19.2050    77.8080    11.1480     8.2280    11.5960    23.6960     2.2130 
   95.7500   -19.7600    82.5760    12.5440     9.1360    17.8050    23.7400     2.2110 
   95.8750   -20.3790    82.9690    13.7450    10.0590    32.3580    23.7380     2.2090 
   96.0000   -21.0230    78.0400    14.2290    10.6020    38.1840    23.6850     2.2080 
   96.1250   -21.6010    72.2480    13.6390    10.4010    24.1700    23.6810     2.1940 
   96.2500   -22.0750    68.1810    12.4930     9.7190    13.6960    23.6950     2.1690 
   96.3750   -22.5260    66.3160    11.3060     8.8920    10.8080    23.6760     2.1480 
   96.5000   -22.9930    67.3520    10.4240     8.1800    10.4410    23.6700     2.1390 
   96.6250   -23.3660    68.7820    10.0040     7.7450    10.5340    23.6940     2.1390 
   96.7500   -23.5750    69.1490     9.8650     7.5290    10.5290    23.6820     2.1390 
   96.8750   -23.6280    69.8750     9.8590     7.4520    10.2080    23.6700     2.1390 
   97.0000   -23.6140    70.5290     9.8960     7.4390     9.6730    23.7050     2.1450 
   97.1250   -23.6010    68.1390     9.9700     7.4670     9.6260    23.7260     2.1570 
   97.2500   -23.5250    65.9120    10.0860     7.5300     9.9910    23.7230     2.1660 
   97.3750   -23.3790    68.0650    10.2420     7.6300    10.3900    23.7170     2.1690 
   97.5000   -23.2640    71.1340    10.4170     7.7490    10.6430    23.7290     2.1670 
   97.6250   -23.1770    67.3400    10.5630     7.8550    10.7500    23.7380     2.1660 
   97.7500   -23.1200    61.9020    10.6470     7.9180    10.8460    23.7350     2.1650 
   97.8750   -23.1320    61.3660    10.6590     7.9270    10.9140    23.7230     2.1650 
   98.0000   -23.1710    65.5860    10.6060     7.8880    10.8720    23.7170     2.1670 
   98.1250   -23.1600    68.0910    10.5090     7.8060    10.8080    23.7230     2.1700 
   98.2500   -23.1340    68.4710    10.4060     7.7020    10.7080    23.7340     2.1700 
   98.3750   -23.1260    70.4610    10.3230     7.6020    10.7090    23.7320     2.1690 
   98.5000   -23.0910    73.2360    10.2730     7.5270    10.7840    23.7210     2.1710 
   98.6250   -23.0640    72.7800    10.2670     7.5010    10.7880    23.7210     2.1770 
   98.7500   -23.0230    69.8120    10.2930     7.5060    10.7540    23.7310     2.1820 
   98.8750   -22.9080    67.8690    10.3360     7.5210    10.6420    23.7320     2.1870 
   99.0000   -22.7720    69.1980    10.3640     7.5210    10.3770    23.7200     2.1910 
   99.1250   -22.7560    71.1270    10.3260     7.4880    10.1020    23.7180     2.1910 
   99.2500   -22.8140    71.4680    10.2140     7.4270     9.9560    23.7250     2.1880 
   99.3750   -22.8170    70.6160    10.0520     7.3470    10.0010    23.7290     2.1820 
   99.5000   -22.8130    70.5120     9.8950     7.2700    10.0420    23.7190     2.1760 
   99.6250   -22.8950    71.4890     9.8050     7.2260     9.9900    23.7160     2.1700 
   99.7500   -23.0320    70.6630     9.7920     7.2330     9.9050    23.7230     2.1690 
   99.8750   -23.1690    68.3800     9.8370     7.2880     9.8780    23.7330     2.1690 
  100.0000   -23.2390    68.1470     9.9090     7.3710    10.1370    23.7320     2.1680 
  100.1250   -23.2480    70.1500     9.9710     7.4450    10.3160    23.7200     2.1640 
  100.2500   -23.3120    70.5360    10.0010     7.4820    10.3390    23.7240     2.1610 
  100.3750   -23.4210    68.3750     9.9880     7.4680    10.4300    23.7440     2.1610 
  100.5000   -23.4510    66.1930     9.9240     7.4060    10.6170    23.7540     2.1650 
  100.6250   -23.3990    66.3200     9.8010     7.3040    10.5260    23.7440     2.1720 
  100.7500   -23.3960    67.8280     9.6360     7.1810    10.2720    23.7250     2.1790 
  100.8750   -23.4660    69.8230     9.4460     7.0540    10.0250    23.7270     2.1840 
  101.0000   -23.5600    70.8060     9.2610     6.9380     9.8610    23.7470     2.1890 
  101.1250   -23.5810    69.6520     9.1370     6.8630     9.6110    23.7420     2.1960 
  101.2500   -23.5620    67.0240     9.1110     6.8430     9.3920    23.7260     2.1960 
  101.3750   -23.6120    63.3300     9.1910     6.8850     9.3370    23.7260     2.1850 
  101.5000   -23.7230    60.0500     9.3530     6.9790     9.6780    23.7520     2.1660 
  101.6250   -23.7790    59.2090     9.5370     7.0980    10.2240    23.7550     2.1500 
  101.7500   -23.7620    60.5220     9.6670     7.1970    10.5740    23.7360     2.1460 
  101.8750   -23.7450    62.1700     9.7080     7.2480    10.5670    23.7180     2.1540 
