~V
VERS. 2.00: Ver 2.00
~W
STRT.M 55.0000:
STOP.M 275.0000:
STEP.M 0.1250:
NULL. -999.2500:
UWI. F11036:
~C
DEPT.M :
GR.API :
RML.OHMM :
RI. :
RXO.OHMM :
CALI.CM :
DEN.GM/CC :
SP.MV :
~A
# ...
  268.7500    69.8840    16.0820    15.6760    22.2130    24.6060     2.5520     3.1390 
  268.8750    69.8840    16.0820    15.6760    22.8660    24.5980     2.5490     3.1360 
  269.0000    69.8840    16.0820    15.6760    24.4600    24.5990     2.5410     3.0980 
  269.1250    69.8840    16.0820    15.6760    25.9710    24.6040     2.5280     3.0750 
  269.2500    69.8840    16.0820    15.6760    25.6760    24.6140     2.5160     3.1100 
  269.3750    69.8840    16.0820    15.6760    24.4250    24.6170     2.5090     3.1940 
  269.5000    69.8840    16.0820    15.6760    23.1580    24.5860     2.5080     3.2840 
  269.6250    69.8840    16.0820    15.6760    22.3930    24.5480     2.5150     3.4460 
  269.7500    69.8840    16.0820    15.6760    21.7340    24.5450     2.5200     3.6170 
  269.8750    69.8840    16.0820    15.6760    21.6010    24.5660     2.5180     3.7790 
  270.0000    69.8840    16.0820    15.6760    22.3410    24.5640     2.5020     3.8900 
  270.1250    69.8840    16.0820    15.6760    23.3760    24.5270     2.4770     3.9710 
  270.2500    69.8840    16.0820    15.6760    25.4720    24.4970     2.4530     4.0550 
  270.3750    69.8840    16.0820    15.6760    27.0070    24.4970     2.4370     4.1120 
  270.5000    69.8840    16.0820    15.6760    28.6490    24.5400     2.4350     4.1600 
  270.6250    69.8840    16.0820    15.6760    24.4290    24.5770     2.4420     4.0870 
  270.7500    69.8840    16.0820    15.6760    22.3830    24.5790     2.4490     3.9880 
  270.8750    69.8840    16.0820    15.6760    20.7770    24.5510     2.4560     3.8700 
  271.0000    69.8840    16.0820    15.6760    20.0060    24.5200     2.4630     3.7790 
  271.1250    69.8840    16.0820    15.6760    18.7770    24.4870     2.4720     3.7100 
  271.2500    69.8840    16.0820    15.6760    16.1530    24.4680     2.4740     3.6060 
  271.3750    69.8840    16.0820    15.6760    13.1420    24.4610     2.4500     3.5020 
  271.5000    69.8840    16.0820    15.6760    11.5720    24.4610     2.3840     3.3730 
  271.6250    69.8840    16.0820    15.6760    12.6010    24.4580     2.2700     3.2830 
  271.7500    69.8840    16.0820    15.6760    14.2330    24.4260     2.1430     3.2310 
  271.8750    69.8840    16.0820    15.6760    14.0780    24.1950     2.0340     3.2190 
  272.0000    69.8840    16.0820    15.6760    11.5970    23.4770     1.9640     3.2130 
  272.1250    69.8840    16.0820    15.6760     9.0220    21.8480     1.9390  -999.2500 
  272.2500    69.8840    16.0820    15.6760     7.6620    20.1190     1.9350  -999.2500 
  272.3750    69.8840    16.0820    15.6760     7.0870    18.7060     1.9380  -999.2500 
  272.5000    69.8840    16.0820    15.6760     6.6550    17.7540     1.9400  -999.2500 
  272.6250    69.8840    16.0820    15.6760     6.4600    17.4290     1.9400  -999.2500 
  272.7500    69.8840    16.0820    15.6760     6.4040    17.3340     1.9390  -999.2500 
  272.8750    69.8840    16.0820    15.6760     6.3920    17.3180     1.9390  -999.2500 
  273.0000    69.8840    16.0820    15.6760     6.3840    17.3110     1.9400  -999.2500 
  273.1250    69.8840    16.0820    15.6760     6.3800    17.3080     1.9410  -999.2500 
  273.2500    69.8840    16.0820    15.6760     6.3790    17.3060     1.9420  -999.2500 
  273.3750    69.8840    16.0820    15.6760     6.3790    17.3060     1.9430  -999.2500 
  273.5000  -999.2500  -999.2500  -999.2500  -999.2500  -999.2500     1.9450  -999.2500 
  273.6250  -999.2500  -999.2500  -999.2500  -999.2500  -999.2500     1.9460  -999.2500 
  273.7500  -999.2500  -999.2500  -999.2500  -999.2500  -999.2500     1.9470  -999.2500 
  273.8750  -999.2500  -999.2500  -999.2500  -999.2500  -999.2500     1.9470  -999.2500 
  274.0000  -999.2500  -999.2500  -999.2500  -999.2500  -999.2500     1.9480  -999.2500 
  274.1250  -999.2500  -999.2500  -999.2500  -999.2500  -999.2500     1.9500  -999.2500 
  274.2500  -999.2500  -999.2500  -999.2500  -999.2500  -999.2500     1.9530  -999.2500 
  274.3750  -999.2500  -999.2500  -999.2500  -999.2500  -999.2500     1.9550  -999.2500 
  274.5000  -999.2500  -999.2500  -999.2500  -999.2500  -999.2500     1.9550  -999.2500 
  274.6250  -999.2500  -999.2500  -999.2500  -999.2500  -999.2500     1.9580  -999.2500 
  274.7500  -999.2500  -999.2500  -999.2500  -999.2500  -999.2500     1.9470  -999.2500 
  274.8750  -999.2500  -999.2500  -999.2500  -999.2500  -999.2500     1.9350  -999.2500 
  275.0000  -999.2500  -999.2500  -999.2500  -999.2500  -999.2500     1.9270  -999.2500 
