~V
VERS. 2.00: Ver 2.00
~W
STRT.M 52.0000:
STOP.M 282.0000:
STEP.M 0.1250:
NULL. -999.2500:
UWI. F11052:
~C
DEPT.M :
SP.MV :
GR.API :
RML.OHMM :
RI. :
RXO.OHMM :
CALI.CM :
DEN.GM/CC :
~A
# ...
   97.0000    -8.1080    74.7180     8.5480     7.1470    10.5340    23.6710     2.2010 
   97.1250    -7.9870    73.7090     8.5820     7.1560    10.2090    23.6630     2.1950 
   97.2500    -7.8770    72.8020     8.6320     7.1750     9.7880    23.6660     2.1930 
   97.3750    -7.8600    72.8850     8.6960     7.2110     9.0340    23.6910     2.1970 
   97.5000    -7.9240    73.6980     8.7710     7.2710     8.6020    23.7840     2.2030 
   97.6250    -8.0610    73.1980     8.8340     7.3530     8.7520    23.9660     2.2060 
   97.7500    -8.3300    70.8770     8.8550     7.4260     9.0040    24.1620     2.2020 
   97.8750    -8.6370    68.1800     8.8030     7.4510     9.1590    24.3080     2.1910 
   98.0000    -9.0090    67.9810     8.6700     7.3990     9.3410    24.4580     2.1780 
   98.1250    -9.3440    69.4790     8.4820     7.2670     9.3860    24.5350     2.1690 
   98.2500    -9.5660    70.5840     8.3140     7.1150     9.1300    24.5740     2.1690 
   98.3750    -9.6820    72.3120     8.2270     6.9980     8.4650    24.5950     2.1790 
   98.5000    -9.7170    72.7890     8.2520     6.9560     8.1920    24.5920     2.1950 
   98.6250    -9.6530    69.5510     8.3920     7.0120     8.7580    24.5540     2.2090 
   98.7500    -9.5260    66.7880     8.5760     7.1290     9.0860    24.5360     2.2180 
   98.8750    -9.3260    66.9100     8.7520     7.2670     9.0500    24.5520     2.2200 
   99.0000    -9.0640    68.9800     8.8830     7.3910     8.8640    24.5550     2.2190 
   99.1250    -8.8140    70.6280     8.9460     7.4640     8.7320    24.5200     2.2180 
   99.2500    -8.6570    72.0910     8.9620     7.4930     8.7380    24.5020     2.2190 
   99.3750    -8.5690    74.1390     8.9490     7.4930     8.7760    24.4970     2.2210 
   99.5000    -8.5090    74.8570     8.9170     7.4780     8.7050    24.5030     2.2220 
   99.6250    -8.5250    73.5480     8.8800     7.4580     8.5710    24.5220     2.2200 
   99.7500    -8.5120    72.5330     8.8530     7.4440     8.4940    24.5470     2.2150 
   99.8750    -8.5830    72.1480     8.8500     7.4450     8.5310    24.5590     2.2090 
  100.0000    -8.7060    71.7180     8.8770     7.4680     8.6510    24.5690     2.2040 
  100.1250    -8.7930    70.7940     8.9330     7.5120     8.7410    24.6030     2.2020 
  100.2500    -8.8850    70.4140     8.9950     7.5630     8.7750    24.6490     2.2010 
  100.3750    -8.9080    69.7540     9.0450     7.6060     8.7780    24.6810     2.2010 
  100.5000    -8.9280    68.2930     9.0670     7.6270     8.8550    24.6930     2.2000 
  100.6250    -8.8510    67.2660     9.0510     7.6160     9.0200    24.6840     2.2010 
  100.7500    -8.7990    67.6370     9.0090     7.5810     9.0610    24.6680     2.2040 
  100.8750    -8.7420    68.7830     8.9560     7.5320     8.8630    24.6630     2.2060 
  101.0000    -8.6390    70.7090     8.9110     7.4830     8.6460    24.6710     2.2040 
  101.1250    -8.5600    72.1070     8.8880     7.4520     8.5690    24.6190     2.1970 
  101.2500    -8.4380    71.9380     8.8810     7.4450     8.6430    24.4180     2.1910 
  101.3750    -8.3260    71.2280     8.8700     7.4510     8.6950    24.0730     2.1880 
  101.5000    -8.2260    71.0730     8.8380     7.4500     8.6170    23.7610     2.1920 
  101.6250    -8.1190    71.7130     8.7760     7.4180     8.3420    23.6620     2.2010 
  101.7500    -8.0250    73.1090     8.7110     7.3640     8.1770    23.6330     2.2120 
  101.8750    -7.9450    76.2450     8.6680     7.3060     8.1830    23.6160     2.2240 
  102.0000    -7.8800    79.0850     8.6630     7.2640     8.3080    23.6180     2.2380 
  102.1250    -7.8740    76.7380     8.6850     7.2480     8.2910    23.6460     2.2520 
  102.2500    -7.9110    71.7850     8.6930     7.2390     8.4420    23.6630     2.2610 
  102.3750    -7.9710    69.3800     8.6530     7.2130     8.6590    23.6910     2.2590 
  102.5000    -8.0410    71.1170     8.5520     7.1500     8.7250    23.7840     2.2470 
  102.6250    -8.1290    73.6360     8.4210     7.0510     8.3990    23.9910     2.2320 
  102.7500    -8.2010    73.5270     8.3400     6.9740     8.2200    24.2110     2.2220 
  102.8750    -8.2230    71.9670     8.3850     6.9860     8.3730    24.2970     2.2250 
  103.0000    -8.2750    71.4010     8.5920     7.1340     8.6980    24.3510     2.2400 
  103.1250    -8.2970    72.1810     8.9460     7.4390     9.8950    24.3990     2.2570 
  103.2500    -8.3580    71.6480     9.3180     7.8070    13.3150    24.4670     2.2670 
  103.3750    -8.4850    69.1510     9.5840     8.1340    18.0320    24.5810     2.2650 
  103.5000    -8.6260    67.8200     9.6450     8.3100    16.4160    24.7240     2.2530 
  103.6250    -8.8330    70.1540     9.4420     8.2450    11.7120    24.7780     2.2370 
  103.7500    -8.9650    71.4750     9.0790     8.0040     9.7450    24.7410     2.2230 
  103.8750    -9.1160    69.5920     8.6630     7.6690     9.1500    24.6710     2.2120 
  104.0000    -9.2060    66.4450     8.2920     7.3320     8.9360    24.6310     2.2040 
  104.1250    -9.2000    66.8370     8.0530     7.0790     8.5920    24.6330     2.1950 
  104.2500    -9.1660    69.0260     7.9450     6.9260     8.2790    24.6380     2.1870 
  104.3750    -9.0580    70.4170     7.9490     6.8720     8.3510    24.6020     2.1810 
  104.5000    -8.9530    69.6060     8.0280     6.9000     8.6410    24.5100     2.1770 
  104.6250    -8.8570    66.7640     8.1280     6.9810     8.7990    24.4350     2.1770 
  104.7500    -8.7840    65.4540     8.1980     7.0610     8.7390    24.4140     2.1780 
  104.8750    -8.7190    67.2260     8.2200     7.1040     8.6140    24.4140     2.1780 
  105.0000    -8.6940    69.0380     8.2080     7.1070     8.5700    24.3510     2.1760 
  105.1250    -8.7250    67.1410     8.2100     7.1010     8.7160    24.2630     2.1720 
  105.2500    -8.7370    63.5380     8.2580     7.1250     8.7800    24.2140     2.1690 
  105.3750    -8.6850    62.9920     8.3550     7.1960     8.6950    24.2240     2.1690 
  105.5000    -8.5710    66.3280     8.4700     7.2990     8.6080    24.2760     2.1730 
  105.6250    -8.4370    70.2480     8.5590     7.3980     8.3920    24.2470     2.1840 
  105.7500    -8.3430    72.1570     8.6010     7.4590     8.4010    24.1090     2.1970 
  105.8750    -8.2670    72.3930     8.6000     7.4750     8.8410    23.9520     2.2090 
  106.0000    -8.1640    72.7180     8.5730     7.4590     9.5620    23.8560     2.2180 
  106.1250    -8.0790    72.8220     8.5230     7.4190    10.1410    23.8010     2.2220 
  106.2500    -7.9610    72.4250     8.4440     7.3580    10.1460    23.7230     2.2270 
  106.3750    -7.8930    71.8490     8.3200     7.2650     9.7560    23.6380     2.2350 
  106.5000    -7.8500    71.1860     8.1540     7.1350     8.7950    23.5840     2.2490 
  106.6250    -7.7630    72.7630     7.9860     6.9820     7.8330    23.5520     2.2650 
  106.7500    -7.7390    76.2070     7.8800     6.8590     6.7120    23.5530     2.2770 
  106.8750    -7.7790    78.2690     7.8840     6.8120     6.3200    23.5970     2.2790 
  107.0000    -7.9670    75.9990     8.0040     6.8680     6.5950    23.6990     2.2690 
  107.1250    -8.1670    72.4760     8.2080     7.0260     7.0130    23.8040     2.2470 
  107.2500    -8.4510    70.3450     8.4040     7.2220     7.6350    23.8000     2.2250 
  107.3750    -8.8040    68.6680     8.5320     7.3940     8.6570    23.7210     2.2080 
  107.5000    -9.1690    68.7360     8.5610     7.4930     9.8180    23.7190     2.1980 
  107.6250    -9.6200    69.3350     8.4930     7.4910     9.4660    23.8960     2.1920 
  107.7500   -10.0040    66.6190     8.3790     7.4280     9.0290    24.1260     2.1840 
  107.8750   -10.3140    62.3300     8.2500     7.3310     9.0640    24.3420     2.1720 
  108.0000   -10.5310    62.5980     8.1240     7.2180     9.1940    24.5160     2.1560 
  108.1250   -10.6470    67.6480     8.0210     7.1100     9.1080    24.6040     2.1440 
