~V
VERS. 2.00: Ver 2.00
~W
STRT.M 55.0000:
STOP.M 280.0000:
STEP.M 0.1250:
NULL. -999.2500:
UWI. F11032:
~C
DEPT.M :
DEN.GM/CC :
GR.API :
RML.OHMM :
RI. :
RXO.OHMM :
CALI.CM :
SP.MV :
~A
# ...
  111.2500     2.2160    98.9050     5.2840     4.6140     4.8040    23.7830   -13.5960 
  111.3750     2.2170   103.1940     5.3440     4.6240     4.8550    23.7450   -13.5360 
  111.5000     2.2210   108.1410     5.3840     4.6080     4.9220    23.7340   -13.5280 
  111.6250     2.2240   109.4460     5.4000     4.5870     4.9760    23.7050   -13.5720 
  111.7500     2.2280   105.4600     5.4050     4.5870     4.9800    23.6730   -13.6370 
  111.8750     2.2300    99.1480     5.4230     4.6260     5.0000    23.6640   -13.7480 
  112.0000     2.2300    96.9190     5.5010     4.7120     5.0800    23.6620   -13.8310 
  112.1250     2.2270   101.4780     5.7000     4.8560     5.4100    23.6630   -13.8840 
  112.2500     2.2270   101.9970     5.9850     5.0370     5.8250    23.6680   -13.8970 
  112.3750     2.2370    94.9260     6.2760     5.2200     5.9040    23.6720   -13.8870 
  112.5000     2.2620    86.4170     6.4720     5.3620     6.2270    23.6720   -13.8530 
  112.6250     2.2980    85.2300     6.4340     5.3690     7.5150    23.6650   -13.7510 
  112.7500     2.3300    89.6480     6.1690     5.2130     7.9750    23.6680   -13.5990 
  112.8750     2.3460    95.0910     5.7820     4.9460     6.3850    23.6730   -13.4250 
  113.0000     2.3410    96.8400     5.4460     4.6820     5.0460    23.6730   -13.2710 
  113.1250     2.3220    93.5700     5.3350     4.5580     4.7100    23.6700   -13.1590 
  113.2500     2.3020    90.3000     5.4580     4.6030     4.8540    23.6450   -13.0780 
  113.3750     2.2910    87.7760     5.7600     4.8000     5.2920    23.5680   -13.0150 
  113.5000     2.2920    85.0230     6.1150     5.0660     5.9090    23.5270   -12.9580 
  113.6250     2.3070    83.5730     6.3250     5.2560     6.2790    23.5200   -12.9320 
  113.7500     2.3300    85.9710     6.3080     5.2950     6.0560    23.5180   -12.9480 
  113.8750     2.3500    90.9840     6.0980     5.1860     5.6050    23.5080   -13.0010 
  114.0000     2.3610    95.8330     5.7870     4.9750     5.3730    23.4290   -13.0600 
  114.1250     2.3560    97.3890     5.4730     4.7300     5.1540    23.3280   -13.1540 
  114.2500     2.3400    95.4650     5.2150     4.5150     4.8010    23.1580   -13.2260 
  114.3750     2.3220    96.0420     5.0330     4.3540     4.5810    23.1600   -13.3040 
  114.5000     2.3080   102.5700     4.9230     4.2490     4.6030    23.2820   -13.3510 
  114.6250     2.3010   108.2010     4.8690     4.2060     4.6700    23.6710   -13.3470 
  114.7500     2.2990   106.7160     4.8440     4.2040     4.6960    23.7530   -13.3070 
  114.8750     2.3000   101.0540     4.8440     4.2190     4.6590    23.8090   -13.2020 
  115.0000     2.3020    95.0520     4.8670     4.2370     4.5970    23.8200   -13.1100 
  115.1250     2.3040    90.7490     4.9150     4.2580     4.5760    23.7740   -12.9790 
  115.2500     2.3070    90.6970     4.9700     4.2740     4.6220    23.5980   -12.8290 
  115.3750     2.3100    93.5240     5.0020     4.2860     4.6250    23.4770   -12.6830 
  115.5000     2.3120    94.6990     4.9810     4.2970     4.6230    23.5510   -12.5280 
  115.6250     2.3110    93.3500     4.8940     4.3180     4.6120    23.6860   -12.4210 
  115.7500     2.3100    93.8080     4.8010     4.3570     4.6160    23.7380   -12.3690 
  115.8750     2.3080    96.1790     4.7740     4.4210     4.6410    23.7840   -12.3390 
  116.0000     2.3040    97.4360     4.8730     4.5300     4.6890    23.8830   -12.3130 
  116.1250     2.2960    95.9650     5.1160     4.6940     4.7500    23.8990   -12.3400 
  116.2500     2.2810    95.4420     5.3900     4.8770     4.8340    23.9040   -12.3880 
  116.3750     2.2600    96.3930     5.5790     5.0290     5.0160    23.9040   -12.4550 
  116.5000     2.2380    96.2920     5.6030     5.0910     5.3450    23.9070   -12.5550 
  116.6250     2.2200    93.4010     5.4390     4.9980     5.3030    23.9300   -12.6500 
  116.7500     2.2110    92.6180     5.1880     4.7920     4.9350    24.0080   -12.7370 
  116.8750     2.2150    96.6520     4.9260     4.5390     4.5810    24.0620   -12.8460 
  117.0000     2.2290   101.3990     4.7080     4.3060     4.4940    24.0790   -12.9620 
  117.1250     2.2530   100.0720     4.5740     4.1350     4.5310    24.1260   -13.0310 
  117.2500     2.2790    94.9010     4.5110     4.0190     4.5610    24.1330   -13.1620 
  117.3750     2.3070    91.6190     4.4940     3.9340     4.5670    24.1340   -13.3110 
  117.5000     2.3310    93.2210     4.4810     3.8450     4.5670    24.1340   -13.5090 
  117.6250     2.3460    97.1570     4.4440     3.7370     4.5420    24.1340   -13.7920 
  117.7500     2.3440    98.2060     4.4300     3.6590     4.5210    24.1340   -14.1120 
  117.8750     2.3240    94.2620     4.5670     3.7000     4.5750    24.1320   -14.5050 
  118.0000     2.2890    88.0600     5.0550     3.9780     4.8060    24.1120   -14.9470 
  118.1250     2.2600    83.1880     6.2790     4.7400     5.5260    23.9980   -15.4790 
  118.2500     2.2590    77.3800     8.3580     6.1310     7.1520    23.8540   -16.0940 
  118.3750     2.2970    69.5550    11.2730     8.2760    10.3940    23.8300   -16.7770 
  118.5000     2.3700    63.8620    14.5650    11.0320    15.9630    23.8230   -17.5390 
  118.6250     2.4490    63.1440    16.7520    13.4390    21.5930    23.7850   -18.3610 
  118.7500     2.4910    63.6520    16.6280    14.1690    23.2660    23.6530   -19.1710 
  118.8750     2.4750    63.7770    14.3760    12.9470    19.5710    23.3550   -19.9250 
  119.0000     2.4060    63.9820    11.4050    10.7370    13.9560    23.2240   -20.5950 
  119.1250     2.3130    62.4410     9.1760     8.7470    10.2710    23.2050   -21.1040 
  119.2500     2.2300    61.2380     7.9540     7.4130     8.9320    23.2270   -21.4270 
  119.3750     2.1710    61.9510     7.5970     6.7400     8.4410    23.2640   -21.5800 
  119.5000     2.1440    62.6860     7.8760     6.6390     8.1940    23.2770   -21.5570 
  119.6250     2.1520    61.8770     8.5960     7.0440     8.3350    23.2780   -21.3090 
  119.7500     2.1810    62.0210     9.4530     7.7010     9.2660    23.2750   -21.0220 
  119.8750     2.2220    63.1270    10.2660     8.4480    10.6530    23.2580   -20.7120 
  120.0000     2.2660    62.4510    10.9330     9.1660    11.1390    23.1490   -20.4320 
  120.1250     2.3070    59.1420    11.4420     9.7880    10.8620    23.1260   -20.2440 
  120.2500     2.3480    56.7430    11.8770    10.3360    10.4930    23.0930   -20.1070 
  120.3750     2.3880    56.6350    12.2480    10.8120    10.5570    23.0420   -20.0530 
  120.5000     2.4260    58.3260    12.4640    11.1580    10.8890    23.0040   -20.0330 
  120.6250     2.4470    60.5990    12.2870    11.1580    11.3150    22.8630   -20.1260 
  120.7500     2.4410    62.3130    11.6560    10.7320    11.7490    22.6200   -20.2520 
  120.8750     2.4050    62.8900    10.6510     9.9340    11.8090    22.4810   -20.3500 
  121.0000     2.3450    63.1210     9.5050     8.9520    10.8000    22.3490   -20.4220 
  121.1250     2.2760    64.4620     8.5120     8.0410     9.2420    22.3300   -20.4420 
  121.2500     2.2190    66.8450     7.7860     7.3420     8.2530    22.3240   -20.4210 
  121.3750     2.1890    68.8230     7.3480     6.8940     7.9140    22.3190   -20.3670 
  121.5000     2.1900    68.9610     7.1950     6.7040     7.8160    22.2990   -20.2730 
  121.6250     2.2140    67.8050     7.3920     6.8320     7.7430    22.1810   -20.0700 
  121.7500     2.2360    68.3780     7.9080     7.2450     7.6520    22.0910   -19.7530 
  121.8750     2.2430    70.4210     8.6800     7.9090     7.8380    22.0380   -19.3270 
  122.0000     2.2340    70.3170     9.5050     8.6820     8.7590    22.0190   -18.7940 
  122.1250     2.2260    65.9360     9.9340     9.2210    10.1620    22.0240   -18.1450 
  122.2500     2.2320    63.5450     9.6760     9.2050    11.0910    22.0830   -17.4650 
  122.3750     2.2530    66.3410     8.7340     8.5370    10.4640    22.3740   -16.7770 
