~V
VERS. 2.00: Ver 2.00
~W
STRT.M 58.0000:
STOP.M 272.0000:
STEP.M 0.1250:
NULL. -999.2500:
UWI. F11073:
~C
DEPT.M :
GR.API :
RML.OHMM :
RI. :
RXO.OHMM :
CALI.CM :
DEN.GM/CC :
SP.MV :
~A
# ...
  238.0000    61.7380   149.0940   136.7920   145.9850    24.5310     2.2180    -7.6660 
  238.1250    60.3280   159.5500   145.9260   195.0800    24.5410     2.2270    -7.6420 
  238.2500    59.8260   166.5290   152.2870   262.0730    24.5430     2.2390    -7.5900 
  238.3750    61.0710   168.3440   154.5500   266.8670    24.5310     2.2500    -7.5880 
  238.5000    62.7240   165.1890   152.6070   208.9140    24.5280     2.2610    -7.6600 
  238.6250    62.6080   159.1670   147.7150   161.8150    24.5100     2.2700    -7.7410 
  238.7500    61.5340   153.5490   142.7990   146.7570    24.4660     2.2710    -7.6970 
  238.8750    60.7640   149.5450   139.3440   157.4270    24.4390     2.2640    -7.5790 
  239.0000    61.4580   146.9950   137.4900   162.3160    24.4880     2.2600    -7.5740 
  239.1250    62.1590   144.7520   136.1400   139.8030    24.5240     2.2640    -7.6400 
  239.2500    62.7690   141.4920   133.7420   136.7930    24.5220     2.2710    -7.5870 
  239.3750    63.7570   136.7500   129.6560   141.2500    24.5040     2.2740    -7.4370 
  239.5000    65.4380   130.8680   124.1930   131.8910    24.4950     2.2760    -7.3000 
  239.6250    66.8110   124.7990   118.3370   118.8010    24.4820     2.2760    -7.2430 
  239.7500    65.6800   119.5730   113.1050   108.0190    24.4620     2.2790    -7.2270 
  239.8750    63.2960   115.8560   109.0940    97.3590    24.4750     2.2830    -7.1410 
  240.0000    61.4010   113.8980   106.6670    87.8230    24.4970     2.2880    -7.0130 
  240.1250    61.5670   113.4110   105.8420    95.3320    24.5150     2.2870    -6.9370 
  240.2500    63.3250   113.3150   105.6350   103.2220    24.4510     2.2820    -6.8940 
  240.3750    65.9890   113.4710   105.7300   106.8610    24.4230     2.2770    -6.8280 
  240.5000    68.2580   114.8240   106.7790   102.2320    24.4190     2.2840    -6.6590 
  240.6250    67.6840   120.0780   111.1960    99.7420    24.4520     2.3220    -6.3510 
  240.7500    65.2890   131.1550   121.1120    98.4120    24.5120     2.3950    -6.0820 
  240.8750    62.4050   149.9790   138.7890   114.0460    24.5080     2.4980    -5.9510 
  241.0000    59.6870   177.4640   165.2420   175.6850    24.4320     2.6020    -5.7740 
  241.1250    58.4400   211.7290   198.6490   306.6500    24.3970     2.6660    -5.4240 
  241.2500    59.6090   239.2950   227.8320   405.1460    24.3920     2.6890    -5.0720 
  241.3750    63.5160   236.7250   234.8310   382.6000    24.3880     2.6880    -4.8110 
  241.5000    68.0940   189.0300   202.6840   317.6980    24.4310     2.6770    -4.6630 
  241.6250    73.0210   121.1650   138.7050   230.0440    24.5270     2.6580    -4.5670 
  241.7500    76.9600    69.5440    81.1460   134.5510    24.5760     2.6380    -4.3820 
  241.8750    77.1000    38.2780    43.6110    60.6480    24.4830     2.6140    -4.1380 
  242.0000    71.4360    21.3870    23.3400    23.8830    24.2900     2.5780    -3.9550 
  242.1250    61.3830    13.7240    14.5110    13.4790    24.1000     2.5370    -3.8440 
  242.2500    53.0440    10.0560    10.2840    10.2530    24.0090     2.5140    -3.7320 
  242.3750    48.3010     8.5680     8.3530    10.1640    24.0730     2.5080    -3.5660 
  242.5000    46.3960     8.2480     7.6340    11.1340    24.2760     2.5040    -3.3510 
  242.6250    48.2960     8.4830     7.6160    11.7740    24.5700     2.4830    -3.1830 
  242.7500    51.8330     8.7330     7.7700    11.1920    24.9190     2.4570    -3.1370 
  242.8750    53.6370     8.7990     7.8590     9.7000    25.2790     2.4400    -3.0960 
  243.0000    53.7440     8.6630     7.7950     8.5950    24.7970     2.4340    -2.9600 
  243.1250    55.8620     8.3850     7.5780     8.5880    24.4830     2.4330    -2.8610 
  243.2500    58.2140     8.0510     7.2760     8.8000    24.4650     2.4300    -2.8470 
  243.3750    54.7900     7.6960     6.9350     8.5210    24.7590     2.4240    -2.9070 
  243.5000    47.3800     7.3740     6.6110     7.7970    24.4690     2.4200    -3.0150 
  243.6250    44.6490     7.1840     6.3840     7.4200    24.2360     2.4240    -3.0840 
  243.7500    48.3260     7.1740     6.2950     7.4330    24.1230     2.4290    -3.0940 
  243.8750    54.3350     7.3740     6.3700     7.4930    24.1890     2.4340    -3.1780 
  244.0000    56.8440     7.7620     6.6010     7.8460    24.2780     2.4360    -3.3630 
  244.1250    54.6980     8.2650     6.9360     8.4190    24.3930     2.4400    -3.5030 
  244.2500    52.3210     8.7400     7.2650     9.0310    24.4240     2.4470    -3.5830 
  244.3750    50.9370     9.0920     7.5100     9.3280    24.4360     2.4500    -3.6300 
  244.5000    49.1260     9.2640     7.6180     9.5190    24.4250     2.4400    -3.6620 
  244.6250    46.7550     9.2080     7.5480     9.5910    24.3810     2.4200    -3.7290 
  244.7500    46.5090     8.9920     7.3520     9.3200    24.3410     2.4020    -3.7780 
  244.8750    48.7370     8.6890     7.0820     8.6610    24.2920     2.3920    -3.6620 
  245.0000    50.8270     8.3700     6.7910     8.0160    24.2290     2.3920    -3.4550 
  245.1250    51.5730     8.0750     6.5110     7.6890    24.1830     2.3970    -3.3080 
  245.2500    51.2310     7.7920     6.2370     7.4050    24.1420     2.4020    -3.1830 
  245.3750    51.0570     7.4880     5.9510     7.3260    24.1140     2.4020    -3.0300 
  245.5000    51.0790     7.1510     5.6500     7.2440    24.0740     2.3980    -2.8080 
  245.6250    49.9940     6.8300     5.3750     7.0010    24.0590     2.3930    -2.5340 
  245.7500    50.2230     6.6180     5.1850     6.4230    24.0560     2.3930    -2.3560 
  245.8750    53.2440     6.5970     5.1350     6.1940    24.0500     2.3980    -2.3380 
  246.0000    58.0610     6.8020     5.2560     6.4170    24.0400     2.4060    -2.3440 
  246.1250    61.5070     7.2100     5.5540     7.2000    24.0270     2.4110    -2.2660 
  246.2500    62.2220     7.6580     5.9250     7.7410    24.0340     2.4050    -2.1880 
  246.3750    61.6400     8.0020     6.2540     8.0350    24.0890     2.3920    -2.1470 
  246.5000    60.4330     8.1230     6.4250     8.1910    24.2140     2.3780    -2.1850 
  246.6250    59.4150     7.9530     6.3380     8.0380    24.2520     2.3730    -2.2550 
  246.7500    58.3510     7.6030     6.0640     7.6850    24.2820     2.3770    -2.2220 
  246.8750    56.1280     7.1720     5.6830     7.3750    24.2640     2.3890    -2.0690 
  247.0000    55.2020     6.7600     5.2900     7.1540    24.1690     2.4050    -1.9470 
  247.1250    61.0270     6.4960     4.9920     7.1440    24.1330     2.4150    -1.9680 
  247.2500    72.8910     6.4540     4.8430     6.9940    24.0970     2.4100    -2.0050 
  247.3750    84.5820     6.6840     4.8820     6.7550    24.0970     2.3930    -1.9820 
  247.5000    91.4160     7.1930     5.1260     7.0220    24.1580     2.3790    -1.8800 
  247.6250    94.3360     7.9460     5.5750     8.2510    24.3000     2.3820    -1.7870 
  247.7500    93.5000     7.9900     6.1130     9.4720    24.3530     2.3960    -1.7760 
  247.8750    89.2630     7.8390     6.6250     9.8810    24.3710     2.4100    -1.8110 
  248.0000    86.5680     8.1620     7.0070    10.0640    24.3870     2.4240    -1.7820 
  248.1250    90.2370     8.1990     7.1800    10.0620    24.4050     2.4330    -1.6540 
  248.2500    95.5730     8.0850     7.2040     9.9440    24.3910     2.4370    -1.5560 
  248.3750    97.9660     7.9330     7.1450     9.8030    24.3840     2.4350    -1.5370 
  248.5000    98.9090     7.8190     7.0540     9.7280    24.4270     2.4260    -1.5690 
  248.6250   102.6690     7.7720     6.9560     9.5920    24.4710     2.4150    -1.6080 
  248.7500   108.6010     7.7660     6.8700     9.4300    24.4150     2.4060    -1.6050 
  248.8750   114.8280     7.7770     6.8080     9.2260    24.3250     2.4020    -1.5790 
  249.0000   119.8450     7.7800     6.7730     9.0850    24.3430     2.4000    -1.5810 
  249.1250   122.3780     7.7650     6.7590     9.1220    24.3760     2.4000    -1.6020 
