~V
VERS. 2.00: Ver 2.00
~W
STRT.M 40.0000:
STOP.M 275.0000:
STEP.M 0.1250:
NULL. -999.2500:
UWI. F11027:
~C
DEPT.M :
DEN.GM/CC :
GR.API :
RML.OHMM :
RI. :
RXO.OHMM :
CALI.CM :
SP.MV :
~A
# ...
  253.7500     2.5330    59.8010    12.4690    10.2700    12.7110    24.4050     2.0080 
  253.8750     2.5240    61.0670    12.4590    10.2690    13.3060    24.3960     1.8830 
  254.0000     2.5090    61.1880    12.4270    10.2360    14.0000    24.4000     1.7880 
  254.1250     2.4970    59.0220    12.4370    10.2240    14.3790    24.4250     1.7120 
  254.2500     2.4920    58.3250    12.5230    10.2730    14.5290    24.4240     1.6360 
  254.3750     2.4950    61.3990    12.6890    10.4000    14.6770    24.4030     1.5550 
  254.5000     2.5020    64.6820    12.9100    10.5970    14.6830    24.3880     1.4830 
  254.6250     2.5070    62.2580    13.1410    10.8360    14.7450    24.3720     1.4910 
  254.7500     2.5070    57.7300    13.3330    11.0690    15.0720    24.3570     1.5720 
  254.8750     2.5030    55.6990    13.4610    11.2610    15.2120    24.3640     1.6660 
  255.0000     2.4960    56.5700    13.5160    11.3870    14.9650    24.3530     1.7270 
  255.1250     2.4900    57.9740    13.5000    11.4300    15.0530    24.2890     1.7360 
  255.2500     2.4880    57.7000    13.4420    11.4150    15.7330    24.2060     1.7640 
  255.3750     2.4900    57.2410    13.3570    11.3590    16.6070    24.1590     1.8190 
  255.5000     2.4950    56.6570    13.2490    11.2760    17.1440    24.1670     1.8920 
  255.6250     2.4990    56.1470    13.1150    11.1650    17.0930    24.2070     1.9440 
  255.7500     2.5010    56.6880    12.9700    11.0280    16.3500    24.2550     1.8950 
  255.8750     2.5010    57.4970    12.8470    10.8840    15.3330    24.2680     1.7730 
  256.0000     2.5000    56.8530    12.8010    10.7790    14.5870    24.2260     1.6850 
  256.1250     2.5030    56.4510    12.9150    10.7990    14.2000    24.1430     1.7580 
  256.2500     2.5130    58.8710    13.1940    10.9800    14.6120    24.0630     1.9160 
  256.3750     2.5290    61.5680    13.6050    11.3290    17.0390    23.9920     2.0800 
  256.5000     2.5500    61.5630    14.0680    11.7910    21.4580    23.9810     2.2890 
  256.6250     2.5660    61.0430    14.4440    12.2460    24.9380    24.0340     2.5570 
  256.7500     2.5730    60.3320    14.6410    12.5630    24.5860    24.0900     2.8410 
  256.8750     2.5690    59.6290    14.6250    12.6620    21.8880    24.0940     3.1660 
  257.0000     2.5560    60.6460    14.4270    12.5410    19.5790    24.0930     3.4970 
  257.1250     2.5410    62.5350    14.1430    12.2700    18.4510    24.1150     3.6930 
  257.2500     2.5290    61.7430    13.9120    12.0070    17.8380    24.1270     3.8210 
  257.3750     2.5230    60.6310    13.8210    11.8480    17.0110    24.1250     4.0160 
  257.5000     2.5210    62.1360    13.9020    11.8430    15.8790    24.1110     4.2270 
  257.6250     2.5250    62.8780    14.1550    12.0170    15.1990    24.0790     4.2950 
  257.7500     2.5330    60.3170    14.4850    12.2950    15.1950    24.0520     4.2660 
  257.8750     2.5430    58.4960    14.8230    12.6150    15.6560    24.0140     4.2570 
  258.0000     2.5530    61.4280    15.1230    12.9230    16.2330    23.9900     4.2820 
  258.1250     2.5630    64.7080    15.3640    13.1790    16.5460    23.9570     4.3380 
  258.2500     2.5710    63.3120    15.5720    13.3910    16.5030    23.9300     4.4250 
  258.3750     2.5760    59.4740    15.7680    13.5820    16.3060    23.9230     4.4080 
  258.5000     2.5780    56.8410    15.9590    13.7700    16.3740    23.9810     4.3330 
  258.6250     2.5760    56.2520    16.1200    13.9530    17.0290    24.0800     4.2950 
  258.7500     2.5710    55.6470    16.2200    14.1020    17.8180    24.1250     4.2600 
  258.8750     2.5640    55.2160    16.2300    14.1790    18.1100    24.1520     4.2210 
  259.0000     2.5570    55.4610    16.1380    14.1550    17.6580    24.1780     4.1080 
  259.1250     2.5530    57.9910    15.9480    14.0050    16.8480    24.1220     3.9210 
  259.2500     2.5520    62.9950    15.7200    13.7810    16.3580    24.0350     3.6990 
  259.3750     2.5530    65.3460    15.6270    13.6810    16.2500    24.0060     3.4410 
  259.5000     2.5550    68.8360    15.3650    13.3260    15.6590    24.2590     3.1860 
  259.6250     2.5570    64.7610    15.3650    13.2340    14.8900    24.3580     2.9310 
  259.7500     2.5590    58.9460    15.4970    13.2720    14.3240    24.3800     2.7830 
  259.8750     2.5620    55.6470    15.7310    13.4260    14.3900    24.3840     2.7050 
  260.0000     2.5650    57.2360    16.0100    13.6580    15.2310    24.3680     2.6460 
  260.1250     2.5680    60.3000    16.2670    13.9080    16.6320    24.3040     2.5960 
  260.2500     2.5680    61.8840    16.4700    14.1200    17.0890    24.1980     2.5210 
  260.3750     2.5660    64.3360    16.6220    14.2690    15.7340    24.1170     2.5180 
  260.5000     2.5650    68.6020    16.7530    14.3680    14.3900    24.0510     2.5390 
  260.6250     2.5690    70.5040    16.9060    14.4600    16.4470    24.0290     2.6150 
  260.7500     2.5770    68.3380    17.0980    14.5900    22.4780    24.0240     2.6790 
  260.8750     2.5850    65.2410    17.3150    14.7710    27.2780    24.0500     2.6170 
  261.0000     2.5890    63.1250    17.5110    14.9760    23.9420    24.0680     2.4930 
  261.1250     2.5870    61.5640    17.5890    15.1110    19.0230    24.0130     2.3610 
  261.2500     2.5810    60.1720    17.4880    15.0840    16.7620    23.9550     2.3380 
  261.3750     2.5730    57.7120    17.1740    14.8370    15.2260    23.9060     2.4340 
  261.5000     2.5680    54.4210    16.6680    14.3780    13.3430    23.8250     2.5120 
  261.6250     2.5680    54.3240    16.0600    13.7840    11.9770    23.7120     2.5440 
  261.7500     2.5730    57.0360    15.5040    13.2020    11.1360    23.6000     2.5390 
  261.8750     2.5790    59.2770    15.1070    12.7300    10.3490    23.5180     2.5670 
  262.0000     2.5820    59.1020    14.9180    12.4280     9.7500    23.4930     2.6640 
  262.1250     2.5820    58.6940    14.9480    12.3350     9.5890    23.4350     2.7760 
  262.2500     2.5780    60.5070    15.0890    12.3800     9.8100    23.3600     2.7890 
  262.3750     2.5720    63.9130    15.2580    12.5020    10.2520    23.3650     2.6730 
  262.5000     2.5680    67.0730    15.3770    12.6270    10.6690    23.4260     2.5120 
  262.6250     2.5670    66.6290    15.3520    12.6600    11.0680    23.3870     2.2860 
  262.7500     2.5680    63.8030    15.1630    12.5550    11.6530    23.2880     2.1120 
  262.8750     2.5670    61.6420    14.8150    12.3000    12.2270    23.2080     1.9870 
  263.0000     2.5590    61.7590    14.3500    11.9190    12.2550    23.1490     1.8950 
  263.1250     2.5430    62.4170    13.8440    11.4550    11.5140    23.0240     1.8400 
  263.2500     2.5200    61.3730    13.3800    10.9880    10.7970    22.8780     1.8130 
  263.3750     2.4930    60.9110    13.0030    10.5690    10.6420    22.7740     1.7900 
  263.5000     2.4670    62.3390    12.7190    10.2350    10.9060    22.7490     1.7820 
  263.6250     2.4440    64.5080    12.5260    10.0150    11.0670    22.7500     1.9160 
  263.7500     2.4260    63.1450    12.3870     9.8790    10.7840    22.7730     2.0750 
  263.8750     2.4160    59.7570    12.2620     9.8040    10.2690    22.8430     2.1560 
  264.0000     2.4110    58.0350    12.1010     9.7700     9.7840    22.9040     2.1880 
  264.1250     2.4120    57.5630    11.9220     9.7730     9.5890    22.9280     2.2110 
  264.2500     2.4180    56.8810    11.8000     9.8120     9.8530    22.9300     2.2710 
  264.3750     2.4330    57.0400    11.7520     9.8870    10.4830    22.9870     2.4490 
  264.5000     2.4530    59.7790    11.7460     9.9920    11.1480    23.1000     2.6520 
  264.6250     2.4740    62.7930    11.8380    10.1120    11.7250    23.2240     2.7450 
  264.7500     2.4880    62.7930    12.0310    10.2200    12.5870    23.3690     2.7530 
  264.8750     2.4910    62.7930    12.2220    10.2960    14.2730    23.5090     2.8880 
