~V
VERS. 2.00: Ver 2.00
~W
STRT.M 52.0000:
STOP.M 278.0000:
STEP.M 0.1250:
NULL. -999.2500:
UWI. F11035:
~C
DEPT.M :
DEN.GM/CC :
GR.API :
RML.OHMM :
RI. :
RXO.OHMM :
CALI.CM :
SP.MV :
~A
   52.0000  -999.2500  -999.2500  -999.2500  -999.2500  -999.2500  -999.2500   257.8870 
   52.1250  -999.2500  -999.2500  -999.2500  -999.2500  -999.2500  -999.2500   257.8790 
   52.2500  -999.2500  -999.2500  -999.2500  -999.2500  -999.2500  -999.2500   257.8700 
   52.3750  -999.2500  -999.2500  -999.2500  -999.2500  -999.2500  -999.2500   257.8620 
   52.5000  -999.2500  -999.2500  -999.2500  -999.2500  -999.2500  -999.2500   257.8540 
   52.6250  -999.2500  -999.2500  -999.2500  -999.2500  -999.2500  -999.2500   257.8450 
   52.7500  -999.2500  -999.2500  -999.2500  -999.2500  -999.2500  -999.2500   257.8370 
   52.8750  -999.2500  -999.2500  -999.2500  -999.2500  -999.2500  -999.2500   257.8290 
   53.0000  -999.2500  -999.2500  -999.2500  -999.2500  -999.2500  -999.2500   257.8210 
   53.1250  -999.2500  -999.2500  -999.2500  -999.2500  -999.2500  -999.2500   257.8120 
   53.2500  -999.2500  -999.2500  -999.2500  -999.2500  -999.2500  -999.2500   257.8040 
   53.3750  -999.2500  -999.2500  -999.2500  -999.2500  -999.2500  -999.2500   257.7960 
   53.5000  -999.2500  -999.2500  -999.2500  -999.2500  -999.2500  -999.2500   257.7880 
   53.6250  -999.2500  -999.2500  -999.2500  -999.2500  -999.2500  -999.2500   257.7790 
   53.7500  -999.2500  -999.2500  -999.2500  -999.2500  -999.2500  -999.2500   257.7710 
   53.8750  -999.2500  -999.2500  -999.2500  -999.2500  -999.2500  -999.2500   257.5480 
   54.0000  -999.2500  -999.2500  -999.2500  -999.2500  -999.2500  -999.2500   255.8060 
   54.1250  -999.2500  -999.2500  -999.2500  -999.2500  -999.2500  -999.2500   252.1180 
   54.2500  -999.2500    50.8900    26.1950     0.2380    -0.3090    25.7810   250.7280 
   54.3750  -999.2500    50.8900    26.1950     0.2380    -0.3090    25.7810   250.7200 
   54.5000  -999.2500    50.8900    26.1950     0.2380    -0.3090    25.7810   250.0700 
   54.6250  -999.2500    55.6550    21.4250     0.1740    -0.2940    25.7810   247.3490 
   54.7500  -999.2500    51.4870    20.1210     0.1930    -0.3300    25.7810   242.7480 
   54.8750  -999.2500    50.9590  2631.1570     0.2330    -0.3110    25.7810   236.2180 
   55.0000    -0.0030    49.6950  -999.2500     0.2370    -0.2900    25.7810   228.9260 
   55.1250    -0.0030    49.5270  4912.3960     0.2220    -0.2770    25.7810   221.2710 
   55.2500    -0.0030    52.7940 202532.3590     0.2070    -0.2620    25.7810   209.2270 
   55.3750     1.3200    56.0880 565154.5630     0.1980    -0.2050    25.7810   193.7100 
   55.5000     1.7650    55.7060 891150.3130     0.1980     0.1290    25.7810   177.1210 
   55.6250     1.7730    52.6450 988922.8130     0.2070     0.8720    25.7810   160.5090 
   55.7500     1.7880    50.9610 991256.6250     0.2200     0.3300    25.7810   144.0410 
   55.8750     1.8120    49.8560 915089.1250     0.2290    -0.1080    25.7790   128.4170 
   56.0000     1.8440    48.6400 645228.3130     0.2280    -0.1120    25.7710   113.9300 
   56.1250     1.8750    48.2540 264462.8130     0.2110     0.0510    25.7490   100.5660 
   56.2500     1.9020    48.0270 29880.9390     0.1840     0.3510    25.7250    88.7520 
   56.3750     1.9350    47.6690  -999.2500     0.1540     0.8170    25.7000    78.7690 
   56.5000     2.0000    47.8390  3459.9940     0.1230     1.2230    25.6620    70.3420 
   56.6250     2.1360    50.0350     5.0370     0.0940     1.6430    25.6120    63.7520 
   56.7500     2.3240    52.7120     0.0090     0.0740     2.0920    25.5530    58.5160 
   56.8750     2.5100    53.8870    -0.3710     0.0700     2.0800    25.4550    53.9900 
   57.0000     2.6270    56.0300    -0.3930     0.0990     2.4140    25.1770    49.7530 
   57.1250     2.6110    63.4900    -0.2170     0.2180     3.3410    24.4640    45.3260 
   57.2500     2.5040    73.6780     0.2110     0.4950     5.5050    23.6000    40.2260 
   57.3750     2.3640    81.8060     1.2000     1.0260     7.5460    23.0610    34.4740 
   57.5000     2.2470    87.5640     3.1700     1.8830     8.4130    22.9230    28.2970 
   57.6250     2.1830    91.8860     6.1950     2.9820     7.9900    22.9030    21.9470 
   57.7500     2.1560    94.1820     9.2190     3.9650     7.6890    22.8140    15.7180 
   57.8750     2.1490    93.5700    11.4810     4.6450     7.8350    22.7440     9.8900 
   58.0000     2.1520    92.5880    12.9770     5.0460     7.7670    22.8700     4.8370 
   58.1250     2.1640    93.9850    14.2100     5.2350     7.1410    23.3000     1.1980 
   58.2500     2.1820    97.4600    15.4880     5.2880     6.6380    23.7990    -1.1900 
   58.3750     2.2040   102.9620    16.9140     5.2330     6.4190    24.0720    -2.6630 
   58.5000     2.2240   107.9110    18.8470     5.1280     6.3060    24.0470    -3.5380 
   58.6250     2.2430   109.2160    21.3460     5.0400     6.4500    23.7920    -3.9700 
   58.7500     2.2620   108.3150    22.6970     4.9910     6.7740    23.6250    -4.1150 
   58.8750     2.2840   107.6340    21.0380     4.9650     6.7450    23.8450    -4.0730 
   59.0000     2.3060   108.3540    16.3760     4.9260     6.7860    24.2520    -3.9570 
   59.1250     2.3220   111.9050    11.2160     4.8380     6.1000    24.4960    -3.8890 
   59.2500     2.3230   118.1120     7.8960     4.7280     5.7740    24.6110    -3.8870 
   59.3750     2.3140   124.0580     6.4810     4.6550     5.3870    24.5970    -3.9260 
   59.5000     2.3030   126.1030     6.1710     4.6860     5.0690    24.4700    -4.0400 
   59.6250     2.3070   120.2740     6.3970     4.8730     5.4640    24.2450    -4.2690 
   59.7500     2.3240   109.9450     6.8020     5.1760     6.7780    23.9320    -4.6110 
   59.8750     2.3410   101.9580     7.2760     5.5650     8.9710    23.6500    -5.0410 
   60.0000     2.3460   100.1400     7.7650     6.0100     9.2910    23.5210    -5.5360 
   60.1250     2.3470    99.9200     8.2320     6.4640     8.0040    23.5850    -6.0660 
   60.2500     2.3600    95.2710     8.6270     6.8430     8.0740    23.8380    -6.5640 
   60.3750     2.3900    88.9390     8.8520     7.0390    11.6300    24.1460    -6.9970 
   60.5000     2.4220    87.6350     8.8110     6.9570    17.0970    24.3640    -7.3560 
   60.6250     2.4230    94.3520     8.4710     6.5560    13.7240    24.4580    -7.6580 
   60.7500     2.3860   101.7100     8.0220     6.0410     7.7900    24.5000    -8.0110 
   60.8750     2.3290   104.5410     7.6120     5.5930     5.6890    24.4340    -8.4660 
   61.0000     2.2740   102.7460     7.3340     5.3510     5.5940    24.1650    -9.0820 
   61.1250     2.2430   100.3600     7.2690     5.4850     6.1680    23.7070    -9.9300 
   61.2500     2.2320    97.8470     7.4400     6.0050     6.8790    23.4050   -10.9540 
   61.3750     2.2390    93.6630     7.8970     6.8790     7.8330    23.2620   -12.1420 
   61.5000     2.2610    89.1670     8.6350     7.9590     8.5200    23.2360   -13.4360 
   61.6250     2.2870    83.6680     9.4870     8.9220    12.1800    23.2960   -14.7380 
   61.7500     2.3020    78.4920    10.0960     9.4340    17.5040    23.3590   -15.8960 
   61.8750     2.2920    79.8370    10.2210     9.3270    16.1090    23.4430   -16.8580 
   62.0000     2.2580    89.3050     9.8660     8.7030    10.5690    23.5600   -17.6090 
   62.1250     2.2100    98.4820     9.2840     7.8800     8.9520    23.6150   -18.1810 
   62.2500     2.1690    98.6760     8.8130     7.1930    10.2310    23.4630   -18.7120 
   62.3750     2.1440    91.5940     8.5670     6.7720     9.7120    23.1590   -19.2340 
   62.5000     2.1330    83.7160     8.5240     6.6450     8.4240    22.9430   -19.7400 
   62.6250     2.1300    80.0080     8.6140     6.8010     7.6590    22.8150   -20.2420 
   62.7500     2.1260    79.6960     8.7540     7.1170     7.7740    22.6740   -20.8090 
   62.8750     2.1180    79.6900     8.9470     7.5370     8.2670    22.5440   -21.4510 
   63.0000     2.1040    77.9160     9.2150     8.0260     8.9810    22.4270   -22.1330 
   63.1250     2.0860    77.0070     9.5340     8.5280     9.5540    22.3470   -22.7150 
