~V
VERS. 2.00: Ver 2.00
~W
STRT.M 63.0000:
STOP.M 273.0000:
STEP.M 0.1250:
NULL. -999.2500:
UWI. F11030:
~C
DEPT.M :
DEN.GM/CC :
GR.API :
RML.OHMM :
RI. :
RXO.OHMM :
CALI.CM :
SP.MV :
~A
# ...
  108.0000     2.1830    71.1030     8.0280     6.8990     8.9620    24.3350   -21.6620 
  108.1250     2.1850    72.5760     8.1610     7.0070     9.0290    24.2070   -22.1800 
  108.2500     2.1960    69.8460     8.2310     7.0720     8.9490    24.1390   -22.6830 
  108.3750     2.2110    67.6910     8.2370     7.0880     8.9110    24.1430   -23.1350 
  108.5000     2.2240    70.2560     8.1970     7.0670     8.9640    24.1520   -23.3980 
  108.6250     2.2290    72.7850     8.1420     7.0280     9.0980    24.2340   -23.4680 
  108.7500     2.2250    71.9510     8.1060     6.9930     9.3540    24.3430   -23.4580 
  108.8750     2.2130    70.2320     8.1090     6.9760     9.6030    24.4500   -23.3680 
  109.0000     2.2000    69.8040     8.1580     6.9860     9.7590    24.5540   -23.2250 
  109.1250     2.1930    70.2070     8.2490     7.0260     9.6520    24.5690   -23.1120 
  109.2500     2.1940    71.5100     8.3560     7.0830     9.6260    24.5010   -23.0450 
  109.3750     2.1970    74.2570     8.4560     7.1430     9.4980    24.4290   -22.9390 
  109.5000     2.1970    76.5410     8.5280     7.1960     9.3410    24.4520   -22.8130 
  109.6250     2.1880    75.6560     8.5590     7.2340     9.2040    24.5820   -22.7360 
  109.7500     2.1750    73.3830     8.5590     7.2600     9.2020    24.6120   -22.6360 
  109.8750     2.1660    72.7150     8.5430     7.2740     9.1260    24.4720   -22.5360 
  110.0000     2.1690    73.7410     8.5300     7.2750     9.0760    24.2430   -22.5930 
  110.1250     2.1830    75.0100     8.5380     7.2670     9.2850    24.0590   -22.8340 
  110.2500     2.2000    75.7770     8.5670     7.2610     9.4900    23.9460   -23.0750 
  110.3750     2.2120    76.1410     8.6100     7.2640     9.5600    23.9300   -23.3860 
  110.5000     2.2140    76.0190     8.6520     7.2780     9.6060    23.9850   -23.7900 
  110.6250     2.2100    73.5560     8.6710     7.2930     9.6630    23.9910   -24.0720 
  110.7500     2.2050    69.6300     8.6480     7.2950     9.8090    23.9120   -24.1800 
  110.8750     2.2020    66.9460     8.5610     7.2680     9.8410    23.8060   -24.1830 
  111.0000     2.1990    67.3590     8.3890     7.1870     9.7250    23.7310   -23.9100 
  111.1250     2.1970    68.9660     8.1350     7.0140     9.6170    23.7590   -23.1220 
  111.2500     2.1980    71.0410     7.8890     6.7970     9.5090    23.8330   -21.9640 
  111.3750     2.2120    75.6290     7.7500     6.6290     9.3870    23.9260   -20.4220 
  111.5000     2.2510    81.3300     7.7850     6.6040     8.8680    24.0070   -18.4280 
  111.6250     2.3250    83.1460     7.9720     6.7580     7.9260    24.1250   -16.2330 
  111.7500     2.4150    82.4710     8.1230     6.9590     7.9640    24.2530   -14.1940 
  111.8750     2.4980    83.6650     8.0560     7.0340    10.7570    24.3220   -12.2840 
  112.0000     2.5480    89.5090     7.6640     6.8300    13.5460    24.3240   -10.5380 
  112.1250     2.5480    98.6710     6.9640     6.2950    11.0920    24.3190    -9.1560 
  112.2500     2.5130   105.6920     6.2090     5.6490     6.5950    24.3120    -8.0930 
  112.3750     2.4640   108.6750     5.5880     5.0700     5.0200    24.2810    -7.3450 
  112.5000     2.4200   108.6790     5.2030     4.6660     4.9210    24.1960    -7.0050 
  112.6250     2.3930   107.7880     5.0710     4.4910     4.8300    24.1060    -7.0250 
  112.7500     2.3780   105.6030     5.0670     4.4630     4.8770    24.0470    -7.0550 
  112.8750     2.3740   103.4310     5.1220     4.5120     4.9900    24.0240    -6.9900 
  113.0000     2.3760   105.6850     5.2170     4.6020     5.0180    24.0210    -6.9120 
  113.1250     2.3870   110.7630     5.3860     4.7540     4.9960    24.0280    -6.8690 
  113.2500     2.4050   111.9600     5.6370     4.9870     4.9880    24.0710    -6.7760 
  113.3750     2.4290   107.1140     5.9350     5.2920     5.2480    24.2010    -6.5430 
  113.5000     2.4510   100.5250     6.2020     5.6120     6.1360    24.3850    -6.2340 
  113.6250     2.4590    98.4870     6.3210     5.8280     6.8030    24.6100    -5.8630 
  113.7500     2.4470    98.5160     6.2720     5.8760     7.0110    24.8050    -5.4520 
  113.8750     2.4170    99.3530     6.0960     5.7660     6.2930    24.9500    -5.1310 
  114.0000     2.3780    99.9960     5.8760     5.5740     5.9170    25.0380    -4.9030 
  114.1250     2.3440   100.1550     5.7040     5.3940     5.7420    25.0670    -4.6570 
  114.2500     2.3260   100.9090     5.5890     5.2640     5.8530    25.0700    -4.4340 
  114.3750     2.3280   102.6910     5.4900     5.1620     5.7780    25.0840    -4.3610 
  114.5000     2.3450   105.3350     5.3540     5.0390     5.9710    25.1450    -4.3310 
  114.6250     2.3640   107.5880     5.1460     4.8500     6.1280    25.2300    -4.2160 
  114.7500     2.3720   108.4280     4.9060     4.6180     5.4120    25.3080    -4.1480 
  114.8750     2.3670   109.4870     4.6860     4.3890     4.7960    25.3940    -4.1650 
  115.0000     2.3530   112.3200     4.5310     4.2040     4.6020    25.4300    -4.1650 
  115.1250     2.3440   115.3310     4.4730     4.1040     4.5900    25.1620    -4.1280 
  115.2500     2.3490   116.6380     4.4800     4.0710     4.6130    24.7940    -4.1250 
  115.3750     2.3660   116.9240     4.5180     4.0830     4.5730    24.3350    -4.1410 
  115.5000     2.3850   117.8390     4.5620     4.1100     4.5210    23.9060    -4.1580 
  115.6250     2.3970   116.8070     4.6080     4.1400     4.4820    23.6280    -4.2430 
  115.7500     2.4020   114.7250     4.6830     4.1840     4.4670    23.5870    -4.4010 
  115.8750     2.4030   113.6740     4.8130     4.2660     4.4850    23.6050    -4.5140 
  116.0000     2.4030   112.8880     5.0110     4.4040     4.5280    23.5760    -4.5570 
  116.1250     2.4000   109.6120     5.2540     4.5990     4.6560    23.4810    -4.6590 
  116.2500     2.3890   103.4230     5.4830     4.8020     4.8990    23.3870    -4.9000 
  116.3750     2.3700    97.4990     5.6490     4.9660     5.1570    23.3590    -5.1960 
  116.5000     2.3460    94.2980     5.7360     5.0600     5.2510    23.4110    -5.5420 
  116.6250     2.3260    92.7440     5.7630     5.0820     5.0810    23.4730    -6.0320 
  116.7500     2.3150    90.9530     5.7990     5.0860     4.9440    23.5220    -6.5360 
  116.8750     2.3100    89.3510     5.8940     5.1190     4.9160    23.4950    -7.0300 
  117.0000     2.3060    89.1960     6.0740     5.2180     5.0400    23.3620    -7.6910 
  117.1250     2.2980    89.1330     6.3480     5.4050     5.4350    23.2400    -8.5370 
  117.2500     2.2890    88.2900     6.6630     5.6480     5.6740    23.3440    -9.3140 
  117.3750     2.2830    86.9420     6.9700     5.9200     5.8500    23.4420   -10.0560 
  117.5000     2.2860    83.7390     7.2090     6.1740     6.1800    23.4200   -10.7710 
  117.6250     2.2960    79.3420     7.2940     6.3260     6.5270    23.3230   -11.2470 
  117.7500     2.3080    75.7370     7.2140     6.3380     6.3970    23.2920   -11.4730 
  117.8750     2.3170    75.0800     6.9840     6.2060     6.3970    23.3370   -11.5590 
  118.0000     2.3220    77.3920     6.6650     5.9680     6.5620    23.3950   -11.4430 
  118.1250     2.3230    80.1780     6.3540     5.7020     5.9910    23.3020   -11.0090 
  118.2500     2.3240    84.3050     6.1320     5.4960     5.8290    23.1500   -10.4620 
  118.3750     2.3250    91.5040     6.0320     5.3890     6.0280    23.0500    -9.8890 
  118.5000     2.3260    98.4790     6.0440     5.3780     6.2200    23.0110    -9.2870 
  118.6250     2.3230    97.6770     6.1320     5.4440     6.4510    23.0120    -8.7600 
  118.7500     2.3160    92.7990     6.2330     5.5350     6.7770    23.0070    -8.4090 
  118.8750     2.3070    89.8450     6.3120     5.6100     6.9250    23.0220    -8.1880 
  119.0000     2.2940    89.5070     6.3510     5.6430     6.7640    23.0660    -8.0830 
  119.1250     2.2820    90.5820     6.3340     5.6190     6.7610    23.1020    -8.1250 
