~V
VERS. 2.00: Ver 2.00
~W
STRT.M 52.0000:
STOP.M 286.0000:
STEP.M 0.1250:
NULL. -999.2500:
UWI. F11061:
~C
DEPT.M :
GR.API :
RML.OHMM :
RI. :
RXO.OHMM :
CALI.CM :
DEN.GM/CC :
SP.MV :
~A
# ...
   85.7500    58.8770     8.5960     7.6440     7.9680    22.2710     2.1690   -17.9060 
   85.8750    61.6670     8.5840     7.5870     7.9980    22.3050     2.1530   -18.1190 
   86.0000    63.0550     8.6100     7.5920     8.1020    22.3380     2.1460   -18.3300 
   86.1250    62.7050     8.6340     7.6260     8.2430    22.3600     2.1460   -18.5290 
   86.2500    61.6970     8.6460     7.6680     8.3180    22.3820     2.1490   -18.6990 
   86.3750    61.1440     8.6520     7.7060     8.3080    22.4140     2.1530   -18.8290 
   86.5000    61.3390     8.6650     7.7250     8.2750    22.4430     2.1560   -18.9060 
   86.6250    61.3550     8.6870     7.7260     8.2380    22.4650     2.1580   -18.9460 
   86.7500    60.0110     8.7140     7.7090     8.1760    22.4720     2.1590   -18.9670 
   86.8750    57.1580     8.7360     7.6780     8.1250    22.4630     2.1600   -18.9750 
   87.0000    55.3060     8.7420     7.6360     8.0020    22.4350     2.1610   -18.9820 
   87.1250    56.8940     8.7290     7.5870     7.7880    22.3940     2.1620   -18.9940 
   87.2500    60.9580     8.7040     7.5370     7.5410    22.3640     2.1620   -19.0260 
   87.3750    63.2550     8.6760     7.4910     7.3100    22.3530     2.1620   -19.0810 
   87.5000    61.7410     8.6670     7.4620     7.1350    22.3550     2.1630   -19.1710 
   87.6250    59.1020     8.6920     7.4590     7.0360    22.3630     2.1650   -19.2800 
   87.7500    57.5960     8.7600     7.4900     7.0220    22.3790     2.1680   -19.3840 
   87.8750    57.8950     8.8710     7.5520     7.0880    22.4050     2.1720   -19.4750 
   88.0000    58.8080     9.0090     7.6310     7.2260    22.4300     2.1760   -19.5510 
   88.1250    58.4680     9.1440     7.7060     7.4190    22.4170     2.1770   -19.6110 
   88.2500    56.5240     9.2480     7.7620     7.6570    22.3650     2.1750   -19.6480 
   88.3750    54.3350     9.2990     7.7910     7.8830    22.3120     2.1730   -19.6700 
   88.5000    53.0870     9.2890     7.7980     7.9960    22.2920     2.1710   -19.6920 
   88.6250    53.8760     9.2460     7.7970     7.9920    22.3000     2.1720   -19.7060 
   88.7500    57.8500     9.1950     7.7990     7.9560    22.3400     2.1750   -19.7030 
   88.8750    62.7920     9.1520     7.7980     8.0440    22.4190     2.1820   -19.6800 
   89.0000    64.5680     9.1100     7.7760     8.1620    22.5190     2.1940   -19.6410 
   89.1250    63.1410     9.0500     7.7180     8.2130    22.5960     2.2100   -19.5840 
   89.2500    60.6820     8.9560     7.6210     8.1260    22.6250     2.2220   -19.5140 
   89.3750    57.3080     8.8350     7.4990     7.8700    22.5990     2.2260   -19.4190 
   89.5000    54.2580     8.7160     7.3810     7.5920    22.5460     2.2190   -19.2850 
   89.6250    54.4620     8.6250     7.2920     7.4990    22.4950     2.2060   -19.1340 
   89.7500    55.6570     8.5700     7.2400     7.5600    22.4670     2.1930   -18.9910 
   89.8750    53.5920     8.5470     7.2200     7.6430    22.4760     2.1850   -18.8710 
   90.0000    51.6070     8.5450     7.2240     7.7220    22.5310     2.1830   -18.7870 
   90.1250    53.6780     8.5590     7.2420     7.7730    22.6070     2.1850   -18.7420 
   90.2500    57.1970     8.5960     7.2720     7.6720    22.6490     2.1890   -18.7320 
   90.3750    57.9330     8.6630     7.3180     7.4280    22.6220     2.1940   -18.7560 
   90.5000    55.3920     8.7640     7.3850     7.3440    22.5360     2.1990   -18.8160 
   90.6250    52.5650     8.8760     7.4650     7.5060    22.4690     2.2020   -18.8920 
   90.7500    50.7050     8.9730     7.5430     7.6730    22.4350     2.2030   -18.9670 
   90.8750    50.5330     9.0330     7.6050     7.7600    22.4150     2.2010   -19.0400 
   91.0000    51.2570     9.0380     7.6350     7.7470    22.3760     2.1990   -19.1130 
   91.1250    50.8380     9.0050     7.6300     7.7370    22.3270     2.2000   -19.1640 
   91.2500    50.3360     8.9610     7.6000     7.8080    22.2770     2.2030   -19.1870 
   91.3750    51.4700     8.9370     7.5630     7.9400    22.2340     2.2100   -19.1970 
   91.5000    53.4370     8.9650     7.5480     7.9920    22.2270     2.2170   -19.1920 
   91.6250    54.0250     9.0540     7.5820     8.0000    22.2700     2.2250   -19.1790 
   91.7500    52.4580     9.2010     7.6810     8.0680    22.3490     2.2300   -19.1770 
   91.8750    50.2360     9.3930     7.8400     8.3870    22.4830     2.2320   -19.1940 
   92.0000    48.5620     9.5910     8.0280     9.3110    22.7080     2.2260   -19.2240 
   92.1250    47.2740     9.7450     8.1900    10.7670    22.9140     2.2150   -19.2720 
   92.2500    47.3610     9.8090     8.2790    13.0450    22.9770     2.2020   -19.3370 
   92.3750    49.6020     9.7570     8.2720    16.1610    22.9080     2.1890   -19.4040 
   92.5000    52.5500     9.6020     8.1780    15.0870    22.7830     2.1810   -19.4510 
   92.6250    53.0820     9.4270     8.0580    11.2450    22.6780     2.1760   -19.4740 
   92.7500    51.7660     9.3100     7.9700     9.0670    22.6580     2.1750   -19.4590 
   92.8750    51.9360     9.2960     7.9440     8.4780    22.6880     2.1760   -19.3900 
   93.0000    53.9750     9.3690     7.9670     8.5120    22.6810     2.1770   -19.2390 
   93.1250    55.2760     9.4250     7.9740     8.7790    22.5920     2.1780   -19.0090 
   93.2500    55.5560     9.3470     7.8840     9.1850    22.4580     2.1810   -18.7120 
   93.3750    57.7240     9.0510     7.6380     9.5670    22.3730     2.1880   -18.3490 
   93.5000    64.5430     8.5130     7.2080     9.0990    22.4640     2.2010   -17.9380 
   93.6250    72.0770     7.8660     6.6860     8.1750    22.7450     2.2160   -17.5360 
   93.7500    76.4610     7.2820     6.1920     7.2980    23.1430     2.2280   -17.1920 
   93.8750    77.3160     6.9140     5.8380     6.7420    23.5170     2.2340   -16.9410 
   94.0000    76.0050     6.8930     5.7330     6.3100    23.6100     2.2320   -16.8380 
   94.1250    73.0690     7.1810     5.8680     6.1440    23.3330     2.2230   -16.8750 
   94.2500    69.5570     7.6780     6.1900     6.4340    22.8810     2.2100   -17.0330 
   94.3750    67.4730     8.2550     6.6200     6.7260    22.5040     2.1950   -17.3000 
   94.5000    67.0790     8.7510     7.0440     6.6740    22.2860     2.1810   -17.6620 
   94.6250    67.2100     9.0600     7.3660     6.4340    22.1710     2.1690   -18.0540 
   94.7500    68.9950     9.1450     7.5360     6.3150    22.1250     2.1630   -18.4070 
   94.8750    72.0180     9.0350     7.5590     6.3040    22.1370     2.1620   -18.6760 
   95.0000    71.9440     8.7990     7.4750     6.3430    22.1960     2.1620   -18.8280 
   95.1250    67.9160     8.5460     7.3610     6.4300    22.2730     2.1620   -18.8750 
   95.2500    62.3790     8.3560     7.2720     6.5410    22.3410     2.1600   -18.8330 
   95.3750    58.1170     8.2730     7.2330     6.6250    22.3690     2.1590   -18.7160 
   95.5000    55.8160     8.3140     7.2560     6.6390    22.3470     2.1590   -18.5200 
   95.6250    55.5090     8.4250     7.3200     6.7210    22.2930     2.1620   -18.2540 
   95.7500    57.5880     8.5430     7.3930     6.8720    22.2350     2.1660   -17.9400 
   95.8750    61.4290     8.6160     7.4470     7.0290    22.1870     2.1710   -17.5770 
   96.0000    64.9070     8.6000     7.4510     7.1840    22.1440     2.1760   -17.1260 
   96.1250    66.5120     8.5020     7.4020     7.2880    22.1040     2.1810   -16.5930 
   96.2500    65.6490     8.3330     7.3010     7.3200    22.0550     2.1880   -15.9740 
   96.3750    63.8640     8.0880     7.1490     7.2260    22.0030     2.1990   -15.2660 
   96.5000    65.8510     7.7380     6.9260     6.8340    21.9610     2.2140   -14.4820 
   96.6250    71.4740     7.2880     6.6250     6.4670    21.9520     2.2330   -13.6500 
   96.7500    77.4020     6.7760     6.2560     6.1370    21.9840     2.2510   -12.7800 
   96.8750    82.0190     6.2690     5.8490     5.7360    22.0640     2.2640   -11.9080 
