~V
VERS. 2.00: Ver 2.00
~W
STRT.M 52.0000:
STOP.M 282.0000:
STEP.M 0.1250:
NULL. -999.2500:
UWI. F11052:
~C
DEPT.M :
SP.MV :
GR.API :
RML.OHMM :
RI. :
RXO.OHMM :
CALI.CM :
DEN.GM/CC :
~A
# ...
  164.5000   -16.5170    75.1150    63.8110    57.3510    51.5740    24.9370     2.3430 
  164.6250   -16.4710    72.8940    71.1810    64.0900    61.8730    24.9300     2.3300 
  164.7500   -16.4650    71.8170    75.9430    69.6380    71.5360    24.9150     2.3130 
  164.8750   -16.4170    70.3190    77.8250    72.9510    73.5740    24.9250     2.2940 
  165.0000   -16.3440    70.1430    77.1780    73.5950    68.6990    24.9860     2.2780 
  165.1250   -16.3300    72.9500    74.1430    71.5040    60.8320    25.0470     2.2670 
  165.2500   -16.3260    74.6760    69.9680    67.9260    56.3770    24.9960     2.2650 
  165.3750   -16.4090    74.4410    65.4160    63.6900    49.6080    24.8560     2.2710 
  165.5000   -16.4800    74.4490    61.0660    59.4410    45.2590    24.6960     2.2840 
  165.6250   -16.6390    77.0170    57.4330    55.7460    41.0050    24.5600     2.2980 
  165.7500   -16.7790    79.4650    54.6170    52.8270    37.2730    24.4650     2.3080 
  165.8750   -16.8910    80.3980    52.6240    50.7750    34.3170    24.4630     2.3120 
  166.0000   -17.0470    81.0320    51.3220    49.4960    35.6290    24.5590     2.3120 
  166.1250   -17.1550    80.8230    50.5620    48.8090    40.4670    24.7770     2.3110 
  166.2500   -17.3150    78.9470    50.1330    48.3950    44.4560    25.0480     2.3150 
  166.3750   -17.4940    76.4190    50.0960    48.2460    45.1470    25.2850     2.3240 
  166.5000   -17.6450    76.2670    50.6460    48.5490    44.1530    25.3120     2.3360 
  166.6250   -17.8080    79.7300    52.1460    49.7250    41.4070    25.0920     2.3460 
  166.7500   -18.0180    83.0970    54.4940    51.8060    40.6190    24.7880     2.3500 
  166.8750   -18.2510    83.2810    57.4660    54.6560    38.1460    24.6230     2.3470 
  167.0000   -18.5390    79.3490    60.6490    57.8750    33.4210    24.6900     2.3390 
  167.1250   -18.8690    75.1820    63.5080    60.8070    27.8630    24.9710     2.3290 
  167.2500   -19.1770    74.9960    65.8620    63.0560    29.5090    25.3110     2.3200 
  167.3750   -19.4390    76.9880    67.8990    64.6650    34.3350    25.5940     2.3110 
  167.5000   -19.6980    78.0290    70.1300    66.0910    39.4370    25.7430     2.3010 
  167.6250   -19.9310    77.2810    73.5340    68.2600    43.8110    25.7200     2.2900 
  167.7500   -20.1140    76.8880    78.7970    71.9510    47.3080    25.5670     2.2810 
  167.8750   -20.3070    76.3050    86.6060    77.8940    49.7260    25.3720     2.2760 
  168.0000   -20.3760    74.7070    97.5420    86.7640    53.6820    25.3570     2.2750 
  168.1250   -20.3740    72.4420   112.4960    99.7080    64.8910    25.5420     2.2730 
  168.2500   -20.3300    69.1850   130.3280   116.0080    79.3390    25.7300     2.2670 
  168.3750   -20.2660    66.6720   149.0720   134.2160    95.1720    25.8180     2.2550 
  168.5000   -20.2650    66.9200   165.1750   151.1520   115.4470    25.8350     2.2410 
  168.6250   -20.1760    69.5980   172.7970   160.7720   137.5600    25.8340     2.2310 
  168.7500   -20.0990    71.8270   170.8310   160.7530   155.6600    25.8140     2.2290 
  168.8750   -19.9570    73.2710   160.9240   152.0760   156.6990    25.7920     2.2360 
  169.0000   -19.8210    73.9480   147.1430   138.7510   134.4870    25.7820     2.2470 
  169.1250   -19.7410    72.5010   134.2810   125.7940   105.9450    25.7820     2.2580 
  169.2500   -19.6270    70.8400   124.8180   116.0860    94.9770    25.7820     2.2650 
  169.3750   -19.5360    69.3850   119.1500   110.2610    97.3140    25.7770     2.2690 
  169.5000   -19.4270    67.6730   116.6590   107.8880   100.2430    25.7570     2.2690 
  169.6250   -19.3370    67.4600   116.3240   108.1640   103.3560    25.7070     2.2680 
  169.7500   -19.2720    69.8140   116.3030   109.1550   106.4430    25.6440     2.2660 
  169.8750   -19.2400    70.8790   115.4000   109.4930   106.4640    25.5700     2.2620 
  170.0000   -19.1740    68.3750   112.8420   108.2070   105.6450    25.5210     2.2540 
  170.1250   -19.1250    66.2560   108.1450   104.6450    99.6110    25.5020     2.2440 
  170.2500   -19.1490    66.7630   102.0080    99.4520    92.6130    25.4280     2.2370 
  170.3750   -19.2520    69.2120    95.0220    93.2160    84.4160    25.2490     2.2390 
  170.5000   -19.4080    73.6850    87.8150    86.5690    79.0050    25.0570     2.2510 
  170.6250   -19.5640    77.1850    81.1630    80.2010    77.4940    24.9880     2.2710 
  170.7500   -19.7290    76.0090    75.6950    74.7470    72.2090    24.9590     2.2900 
  170.8750   -19.9030    73.4560    72.0020    70.8710    65.0540    24.9350     2.3020 
  171.0000   -20.1350    74.4700    70.5070    69.1380    57.1810    24.9170     2.3030 
  171.1250   -20.3160    76.6120    71.6070    70.1980    56.2310    24.9250     2.2930 
  171.2500   -20.4440    76.6900    74.2600    73.3210    58.5450    24.9340     2.2810 
  171.3750   -20.4840    76.4720    77.1650    77.4310    69.4300    24.9630     2.2680 
  171.5000   -20.4380    75.9010    78.6100    80.5950    84.3050    25.0300     2.2590 
  171.6250   -20.5010    74.0210    76.5740    79.8960    85.6060    25.1010     2.2550 
  171.7500   -20.5180    73.2590    71.4740    75.1440    75.1170    25.1290     2.2590 
  171.8750   -20.5440    75.5470    64.6360    67.7350    62.2140    25.1110     2.2690 
  172.0000   -20.5420    78.5550    57.9480    59.9020    47.8470    25.0320     2.2860 
  172.1250   -20.5420    77.6860    53.5660    54.0450    39.6620    24.8740     2.3050 
  172.2500   -20.5860    75.7760    52.2610    51.0640    38.6210    24.7670     2.3200 
  172.3750   -20.6290    75.3680    54.5440    51.4200    39.3670    24.7160     2.3280 
  172.5000   -20.7950    76.0580    60.7750    55.5910    38.7820    24.7090     2.3240 
  172.6250   -20.9370    73.9330    71.6880    65.0710    57.7190    24.7450     2.3050 
  172.7500   -21.0480    69.4330    85.5610    79.0180   103.3000    24.8140     2.2770 
  172.8750   -21.2050    65.1420    99.7210    95.1140   159.1690    24.8860     2.2470 
  173.0000   -21.3810    62.1030   110.2860   108.5820   180.1820    24.9490     2.2250 
  173.1250   -21.5640    60.3110   112.8730   112.8090   167.4590    25.0380     2.2200 
  173.2500   -21.7750    58.9680   109.2490   108.8590   134.0790    25.1700     2.2290 
  173.3750   -21.9770    59.0320   103.0960   101.2100    89.5220    25.3290     2.2450 
  173.5000   -22.1200    62.8290    98.4210    94.8880    67.2630    25.4120     2.2590 
  173.6250   -22.2190    69.1560    98.1340    93.4060    83.4250    25.3070     2.2640 
  173.7500   -22.3580    72.5940   101.3110    95.8900   111.4450    25.2110     2.2620 
  173.8750   -22.5200    70.8360   106.4570   100.8590   119.9860    25.1930     2.2570 
  174.0000   -22.6630    66.5350   111.9240   106.6260   102.8080    25.2430     2.2500 
  174.1250   -22.8160    63.9900   116.1360   111.5200    80.5220    25.3570     2.2440 
  174.2500   -22.9430    62.1920   118.5110   114.9350    71.6840    25.4710     2.2390 
  174.3750   -23.0440    60.7370   118.6700   116.6060    80.2610    25.5300     2.2340 
  174.5000   -23.1310    62.1530   116.2940   115.9800   105.5650    25.5740     2.2300 
  174.6250   -23.1420    66.2610   111.0260   111.9540   118.6290    25.6150     2.2280 
  174.7500   -23.1500    69.9140   104.2100   105.6160   103.7600    25.6540     2.2300 
  174.8750   -23.0700    70.4250    97.2320    98.6050    82.7660    25.6980     2.2340 
  175.0000   -23.0140    68.1280    91.2850    92.5080    71.9340    25.7540     2.2400 
  175.1250   -22.9590    63.8870    86.9970    88.3210    62.8470    25.8430     2.2410 
  175.2500   -22.8850    61.0780    83.5730    85.2640    68.7000    25.9140     2.2390 
  175.3750   -22.8940    63.3620    80.2660    82.3280    83.7790    25.9650     2.2350 
  175.5000   -22.8290    68.8620    76.7120    78.8030    89.3100    25.9830     2.2340 
  175.6250   -22.8530    72.4170    73.3970    74.9030    74.8770    25.9090     2.2370 
