~V
VERS. 2.00: Ver 2.00
~W
STRT.M 60.0000:
STOP.M 279.0000:
STEP.M 0.1250:
NULL. -999.2500:
UWI. F11060:
~C
DEPT.M :
GR.API :
RML.OHMM :
RI. :
RXO.OHMM :
CALI.CM :
DEN.GM/CC :
SP.MV :
~A
# ...
  127.5000    70.9890    10.7060     8.2580     8.1760    23.6920     2.1690    -0.6920 
  127.6250    66.9010    10.9370     8.5000     8.7720    23.6400     2.1540    -0.8270 
  127.7500    63.7540    11.0940     8.7180     8.9570    23.6610     2.1450    -0.9800 
  127.8750    64.6700    11.1580     8.8860     8.9340    23.6900     2.1460    -1.1330 
  128.0000    67.3680    11.1400     8.9900     8.8920    23.6880     2.1510    -1.2320 
  128.1250    66.8520    11.0960     9.0390     8.9230    23.6680     2.1530    -1.3010 
  128.2500    63.5130    11.1150     9.0960     8.9220    23.6790     2.1530    -1.3980 
  128.3750    62.1460    11.2600     9.2120     8.9790    23.6940     2.1510    -1.4990 
  128.5000    64.9210    11.5390     9.4170     9.1670    23.6920     2.1490    -1.5700 
  128.6250    68.5730    11.9070     9.7040     9.5240    23.6730     2.1490    -1.5870 
  128.7500    67.3910    12.2470    10.0030     9.7690    23.6840     2.1500    -1.6140 
  128.8750    60.8400    12.4680    10.2490     9.9930    23.7030     2.1520    -1.6770 
  129.0000    54.7440    12.5260    10.3870    10.0740    23.7110     2.1540    -1.7190 
  129.1250    54.2600    12.4290    10.3880     9.8450    23.7080     2.1550    -1.6980 
  129.2500    56.4250    12.2800    10.3100     9.5830    23.7050     2.1530    -1.6870 
  129.3750    58.1920    12.1520    10.2110     9.5710    23.6990     2.1480    -1.7390 
  129.5000    59.3990    12.0940    10.1430     9.6940    23.6770     2.1430    -1.8440 
  129.6250    61.9160    12.1340    10.1410     9.9230    23.6290     2.1410    -1.8850 
  129.7500    63.9380    12.2210    10.1790    10.0280    23.6240     2.1450    -1.8690 
  129.8750    64.1940    12.2930    10.2150    10.0860    23.6600     2.1550    -1.8900 
  130.0000    62.8830    12.2920    10.2110    10.1280    23.6860     2.1670    -1.9320 
  130.1250    62.6850    12.1520    10.1280    10.1180    23.6580     2.1770    -1.9200 
  130.2500    64.5730    11.9020     9.9680     9.9920    23.5660     2.1880    -1.8750 
  130.3750    66.0170    11.5930     9.7450     9.7490    23.4570     2.2000    -1.8300 
  130.5000    65.7550    11.2970     9.4950     9.4410    23.3880     2.2080    -1.7880 
  130.6250    64.6110    11.0950     9.2720     9.3690    23.3200     2.2070    -1.7460 
  130.7500    63.3790    11.0070     9.1210     8.9830    23.2470     2.2000    -1.6940 
  130.8750    62.4410    11.0370     9.0720     8.8530    23.2720     2.1950    -1.6480 
  131.0000    62.7820    11.1670     9.1320     9.0760    23.4350     2.1930    -1.6740 
  131.1250    66.3730    11.3830     9.3030     9.1440    23.6250     2.1920    -1.7240 
  131.2500    68.9160    11.6360     9.5340     9.2900    23.7280     2.1950    -1.7270 
  131.3750    67.5990    11.8660     9.7770     9.5000    23.8280     2.2010    -1.7170 
  131.5000    63.8630    11.9900     9.9640     9.7680    23.9540     2.2100    -1.7680 
  131.6250    60.7620    11.9090    10.0020     9.9660    23.9910     2.2160    -1.8940 
  131.7500    60.8100    11.6610     9.8900     9.9790    23.9570     2.2190    -1.9860 
  131.8750    64.1310    11.3300     9.6740     9.6310    23.9190     2.2190    -1.9820 
  132.0000    67.5620    11.0350     9.4440     9.1080    23.9320     2.2160    -1.9720 
  132.1250    66.8690    10.8950     9.3080     8.5900    24.0420     2.2100    -2.0200 
  132.2500    63.3970    10.8750     9.2740     8.8560    24.2400     2.2010    -2.0500 
  132.3750    62.5300    10.8700     9.2750     9.1390    24.5390     2.1960    -2.0380 
  132.5000    64.8050    10.7330     9.1890     9.3720    24.7790     2.2000    -1.9990 
  132.6250    66.4300    10.3070     8.8660     9.3240    24.5700     2.2160    -1.9800 
  132.7500    67.0030     9.6520     8.3350     8.7940    24.2140     2.2380    -1.9550 
  132.8750    66.8640     8.9020     7.7030     7.8690    23.8880     2.2570    -1.9110 
  133.0000    68.2620     8.2240     7.1110     7.1470    23.7330     2.2680    -1.8430 
  133.1250    72.5420     7.7790     6.6960     6.8560    23.7100     2.2690    -1.7750 
  133.2500    75.9820     7.5740     6.4730     6.8980    23.7380     2.2630    -1.7160 
  133.3750    75.7800     7.5840     6.4340     7.0160    23.8070     2.2510    -1.6120 
  133.5000    71.3720     7.7470     6.5470     7.1060    23.9020     2.2380    -1.4550 
  133.6250    66.7500     7.9990     6.7810     7.2150    23.9680     2.2280    -1.3000 
  133.7500    64.8550     8.2720     7.0690     7.4640    23.9380     2.2190    -1.1910 
  133.8750    66.0650     8.5490     7.3770     7.8070    23.8680     2.2130    -1.0730 
  134.0000    68.7350     8.8150     7.6790     8.0740    23.8330     2.2130    -0.9020 
  134.1250    69.9820     9.0090     7.9370     8.1980    23.8440     2.2220    -0.7180 
  134.2500    69.9680     9.0530     8.0950     8.1320    23.8670     2.2340    -0.5010 
  134.3750    69.1820     8.8660     8.0730     8.1390    23.9050     2.2450    -0.2370 
  134.5000    68.4430     8.4130     7.8040     8.2020    23.9970     2.2550     0.0840 
  134.6250    68.6810     7.7130     7.2530     7.9160    24.0950     2.2690     0.4530 
  134.7500    70.8990     6.9530     6.5820     7.0520    24.1400     2.2830     0.7970 
  134.8750    72.9850     6.3060     5.9520     6.3920    24.1800     2.2900     1.1000 
  135.0000    74.4160     5.9140     5.5000     5.9730    24.2040     2.2880     1.4000 
  135.1250    77.0820     5.8930     5.3360     5.6980    24.2070     2.2810     1.6250 
  135.2500    79.0260     6.1240     5.3990     5.7240    24.2030     2.2720     1.7160 
  135.3750    76.9480     6.4440     5.5840     6.0340    24.2000     2.2640     1.6920 
  135.5000    72.1130     6.6350     5.7290     6.6360    24.1800     2.2580     1.6170 
  135.6250    71.9400     6.4680     5.6420     6.7560    24.1540     2.2640     1.5640 
  135.7500    78.0030     6.0250     5.3340     6.3720    24.1640     2.2770     1.4720 
  135.8750    84.9430     5.4900     4.9150     5.5920    24.2250     2.2890     1.3110 
  136.0000    87.6010     5.0760     4.5410     4.8180    24.2250     2.2940     1.1200 
  136.1250    84.0820     5.0130     4.4040     4.7990    24.2060     2.2940     0.9180 
  136.2500    78.3040     5.3750     4.5920     5.4670    24.1950     2.2960     0.6580 
  136.3750    72.8170     6.2340     5.1790     6.4050    24.1950     2.3000     0.3430 
  136.5000    68.0690     7.6130     6.2070     7.1560    24.1870     2.3100    -0.0060 
  136.6250    63.9170     9.4660     7.6990     8.3160    24.1470     2.3350    -0.4170 
  136.7500    61.8130    11.4000     9.3740    10.4610    24.0820     2.3640    -0.8490 
  136.8750    63.4350    12.9630    10.8740    12.7170    24.0400     2.3680    -1.3230 
  137.0000    68.7590    13.7550    11.8180    12.3690    24.0390     2.3270    -1.8090 
  137.1250    72.9490    13.5660    11.9260    11.2740    24.0820     2.2620    -2.2090 
  137.2500    71.4490    12.8780    11.5210    10.7720    24.1420     2.2160    -2.5330 
  137.3750    65.6750    12.0940    10.9190    10.6920    24.1820     2.1950    -2.8620 
  137.5000    59.3710    11.4920    10.3670    10.5560    24.1950     2.1850    -3.2330 
  137.6250    56.5080    11.1990    10.0140    10.4080    24.1950     2.1780    -3.5210 
  137.7500    56.0430    11.0900     9.8180    10.2530    24.1950     2.1750    -3.6990 
  137.8750    57.4410    11.0670     9.7200    10.0930    24.1950     2.1750    -3.8490 
  138.0000    59.8260    11.0710     9.6790    10.0340    24.1950     2.1770    -4.0170 
  138.1250    61.5060    11.0930     9.6800    10.1110    24.1940     2.1770    -4.1030 
  138.2500    61.0930    11.1320     9.7100    10.1580    24.1910     2.1750    -4.1100 
  138.3750    60.2490    11.1890     9.7620    10.2110    24.1860     2.1700    -4.0760 
  138.5000    61.4740    11.2610     9.8230    10.1080    24.1790     2.1640    -3.9890 
  138.6250    64.4230    11.3410     9.8770    10.0570    24.1840     2.1600    -3.8660 
