~V
VERS. 2.00: Ver 2.00
~W
STRT.M 52.0000:
STOP.M 287.0000:
STEP.M 0.1250:
NULL. -999.2500:
UWI. F11078:
~C
DEPT.M :
GR.API :
RML.OHMM :
RI. :
RXO.OHMM :
CALI.CM :
DEN.GM/CC :
SP.MV :
~A
# ...
  108.2500    92.6650     6.6410     5.5960     6.0570    24.1550     2.3580   -12.2880 
  108.3750    90.1570     6.6780     5.4920     6.0790    24.1530     2.3340   -12.0080 
  108.5000    86.3220     6.8760     5.5440     6.0030    24.1160     2.3190   -11.8690 
  108.6250    88.4940     7.0770     5.6550     5.8450    24.0250     2.3080   -11.8210 
  108.7500    95.5650     7.2160     5.7840     5.8460    23.8920     2.2950   -11.8380 
  108.8750    99.2890     7.2700     5.9100     5.8820    23.7300     2.2710   -11.9140 
  109.0000    95.4600     7.2220     5.9860     5.9800    23.5630     2.2320   -12.0360 
  109.1250    91.3650     7.0990     5.9790     6.0450    23.4010     2.1850   -12.1910 
  109.2500    91.0280     6.9400     5.8880     6.0500    23.2640     2.1460   -12.3940 
  109.3750    92.1390     6.8210     5.7600     5.9370    23.1890     2.1270   -12.6360 
  109.5000    92.5480     6.8170     5.6920     5.8510    23.0920     2.1370   -12.9620 
  109.6250    92.6310     6.8750     5.7480     6.0220    22.9270     2.1610   -13.4300 
  109.7500    90.4430     6.9900     5.9540     6.6240    22.7800     2.1820   -14.0570 
  109.8750    84.7770     7.2310     6.3040     7.2090    22.6360     2.1900   -14.8090 
  110.0000    77.1420     7.6600     6.7650     7.3890    22.4230     2.1840   -15.6480 
  110.1250    72.7020     8.1450     7.2400     7.3070    22.1740     2.1770   -16.5120 
  110.2500    74.5240     8.5470     7.6350     7.3090    22.0140     2.1780   -17.3710 
  110.3750    78.9160     8.7950     7.8730     7.5440    21.9970     2.1900   -18.2020 
  110.5000    79.9490     8.8440     7.9020     7.8100    22.1760     2.2100   -18.8770 
  110.6250    78.6280     8.7660     7.8040     7.9380    22.4510     2.2270   -19.2880 
  110.7500    78.5500     8.6410     7.6620     7.8290    22.7260     2.2310   -19.4050 
  110.8750    79.2600     8.5440     7.5570     7.7490    23.0200     2.2190   -19.2850 
  111.0000    78.4560     8.5450     7.5590     8.0240    23.1920     2.1930   -19.0420 
  111.1250    77.6640     8.6310     7.6530     8.2150    23.1970     2.1650   -18.8030 
  111.2500    75.8590     8.7660     7.7950     8.2970    23.1180     2.1440   -18.5960 
  111.3750    72.8960     8.8990     7.9330     8.3870    23.0040     2.1350   -18.4140 
  111.5000    70.7370     8.9800     8.0080     8.2180    22.8620     2.1370   -18.2950 
  111.6250    70.3680     9.0060     8.0240     8.0010    22.7380     2.1430   -18.3230 
  111.7500    71.5980     8.9970     8.0070     8.0000    22.7680     2.1480   -18.5100 
  111.8750    75.0950     8.9780     7.9850     8.2770    22.9400     2.1490   -18.8180 
  112.0000    79.6190     8.9660     7.9740     8.4680    23.0670     2.1440   -19.1890 
  112.1250    79.6920     8.9660     7.9750     8.4850    23.1110     2.1340   -19.5340 
  112.2500    74.6270     8.9740     7.9830     8.3540    23.0960     2.1240   -19.8610 
  112.3750    68.9110     8.9860     7.9960     8.2780    23.0180     2.1170   -20.2250 
  112.5000    66.5660     8.9990     8.0090     8.3950    22.8530     2.1230   -20.6560 
  112.6250    65.9290     9.0050     8.0170     8.3200    22.7330     2.1390   -21.1030 
  112.7500    65.3450     9.0020     8.0130     8.1180    22.7000     2.1570   -21.5640 
  112.8750    65.1650     8.9950     8.0020     7.9480    22.6900     2.1700   -21.9870 
  113.0000    66.8330     8.9980     8.0000     7.9050    22.6320     2.1710   -22.2890 
  113.1250    67.6050     9.0230     8.0220     7.9480    22.5600     2.1640   -22.4820 
  113.2500    67.4560     9.0680     8.0700     8.0680    22.5040     2.1570   -22.5540 
  113.3750    68.1010     9.1190     8.1270     8.0970    22.4660     2.1530   -22.5100 
  113.5000    69.2120     9.1470     8.1580     7.9960    22.4320     2.1500   -22.3500 
  113.6250    69.3940     9.1430     8.1500     7.8840    22.4290     2.1430   -22.1180 
  113.7500    69.9060     9.1180     8.1160     7.7920    22.4540     2.1340   -21.8160 
  113.8750    72.6560     9.1020     8.0900     7.7160    22.5030     2.1250   -21.4830 
  114.0000    75.7870     9.1340     8.1160     7.8280    22.6000     2.1230   -21.1510 
  114.1250    76.4800     9.2140     8.1980     8.0130    22.7350     2.1270   -20.8010 
  114.2500    75.0310     9.3190     8.3110     8.2390    22.8810     2.1350   -20.4280 
  114.3750    72.0760     9.3980     8.4060     8.4390    22.9890     2.1430   -19.9820 
  114.5000    68.4300     9.3690     8.3920     8.5380    23.0380     2.1490   -19.4520 
  114.6250    65.9810     9.2060     8.2370     8.4890    23.0450     2.1510   -18.8710 
  114.7500    65.4730     8.9200     7.9540     8.4720    23.0440     2.1490   -18.2580 
  114.8750    67.9380     8.5660     7.6000     8.5080    23.0550     2.1460   -17.6350 
  115.0000    72.9280     8.2290     7.2670     8.3550    23.0650     2.1450   -17.1020 
  115.1250    76.0790     7.9800     7.0260     8.0240    23.0800     2.1470   -16.7200 
  115.2500    77.0290     7.8550     6.9110     7.9390    23.1190     2.1500   -16.4790 
  115.3750    77.3450     7.8540     6.9190     7.9560    23.1730     2.1520   -16.3840 
  115.5000    78.8040     7.9670     7.0350     7.8330    23.2040     2.1510   -16.4490 
  115.6250    80.1970     8.1340     7.2030     7.7190    23.1960     2.1460   -16.6240 
  115.7500    81.5370     8.3160     7.3810     7.7720    23.1790     2.1390   -16.9050 
  115.8750    82.3190     8.4750     7.5370     7.7490    23.1440     2.1270   -17.2620 
  116.0000    79.0150     8.5610     7.6280     7.6940    23.0720     2.1090   -17.5500 
  116.1250    74.1820     8.5570     7.6270     7.6200    23.0210     2.0900   -17.7100 
  116.2500    72.3290     8.4600     7.5280     7.6470    23.0290     2.0790   -17.8000 
  116.3750    72.7090     8.2960     7.3570     7.7880    23.1110     2.0830   -17.8720 
  116.5000    73.3690     8.1290     7.1810     7.5910    23.2600     2.1010   -17.9470 
  116.6250    74.0450     8.0310     7.0770     7.3160    23.3370     2.1200   -18.0460 
  116.7500    73.5960     8.0400     7.0840     7.3800    23.3050     2.1300   -18.1550 
  116.8750    71.4670     8.1630     7.2090     7.6800    23.2490     2.1280   -18.2580 
  117.0000    71.7650     8.3720     7.4230     7.7120    23.2380     2.1150   -18.3590 
  117.1250    74.8830     8.5920     7.6450     7.7360    23.1990     2.0980   -18.4390 
  117.2500    76.7850     8.7690     7.8190     8.0380    23.1100     2.0820   -18.4200 
  117.3750    75.7550     8.8700     7.9120     8.3840    23.0280     2.0720   -18.2830 
  117.5000    74.7650     8.8740     7.9100     8.5960    22.9700     2.0740   -18.0570 
  117.6250    76.2710     8.8060     7.8430     8.6390    22.8980     2.0870   -17.7880 
  117.7500    78.3090     8.6870     7.7250     8.7300    22.8500     2.1050   -17.4950 
  117.8750    78.5600     8.5440     7.5810     8.8000    22.8730     2.1170   -17.2310 
  118.0000    75.2600     8.4240     7.4570     8.5340    22.9470     2.1130   -17.0810 
  118.1250    71.1570     8.3650     7.3940     8.0640    23.0080     2.0970   -17.0560 
  118.2500    69.7420     8.3900     7.4180     7.9110    23.0290     2.0740   -17.1250 
  118.3750    69.5650     8.4990     7.5270     8.0030    22.9990     2.0520   -17.2120 
  118.5000    68.3570     8.6770     7.7040     7.9940    22.9700     2.0390   -17.2590 
  118.6250    66.6300     8.8720     7.8960     7.9270    22.9490     2.0350   -17.3270 
  118.7500    65.4280     9.0520     8.0690     7.8540    22.8830     2.0410   -17.4560 
  118.8750    66.1980     9.1970     8.2040     7.9300    22.7980     2.0530   -17.6290 
  119.0000    66.5740     9.2920     8.2900     8.1050    22.8180     2.0650   -17.7960 
  119.1250    66.1330     9.3450     8.3400     8.2000    22.9230     2.0720   -17.9530 
  119.2500    65.7170     9.3510     8.3490     8.1930    23.1010     2.0700   -18.1710 
  119.3750    64.9530     9.3040     8.3080     8.2190    23.2810     2.0590   -18.5070 
